time_s,x_m,y_m,altitude_m,vx_mps,vy_mps,vz_mps,speed_mps,mass_kg,roll_deg,pitch_deg,yaw_deg,p_dps,q_dps,r_dps,alpha_deg,beta_deg,qbar_pa,mach,airspeed_mps,load_factor_g,density_kgpm3,pressure_pa,temperature_k,wind_x_mps,wind_y_mps,wind_z_mps,thrust_n,mass_flow_kgps,propulsion_throttle_actual,propulsion_health,energy_j_per_kg,target_distance_m,guidance_mode,pitch_command_deg,heading_command_deg,roll_command_deg,elevator_command_deg,aileron_command_deg,rudder_command_deg,elevator_deg,aileron_deg,rudder_deg,throttle,elevator_saturated,aileron_saturated,rudder_saturated,elevator_failed,aileron_failed,rudder_failed,elevator_raw_rad,aileron_raw_rad,rudder_raw_rad,elevator_effective_rad,aileron_effective_rad,rudder_effective_rad,imu_ax_mps2,imu_ay_mps2,imu_az_mps2,gyro_p_rps,gyro_q_rps,gyro_r_rps,gps_valid,gps_x_m,gps_y_m,gps_z_m,gps_vx_mps,gps_vy_mps,gps_vz_mps,baro_alt_m,pitot_airspeed_mps,pitot_qbar_pa,mag_heading_deg
0.0,0.0,0.0,20.0,85.0,0.0,8.0,85.37564055396598,18.0,0.0,6.000000000000002,0.0,0.0,0.0,0.0,0.623294571949261,0.0,4455.946741876431,0.2509445034436674,85.37564055396597,1.7460191153368827,1.2226496753673843,101084.96761777384,288.02,0.0,0.0,0.0,326.8,0.17539118863220368,0.86,nominal,3840.633,nan,pitch_program,13.0,0.0,0.0,-20.05352282957881,-0.0,0.0,-2.6999999999999997,0.0,0.0,0.86,0.0,0.0,0.0,0.0,0.0,0.0,-0.047123889803846894,0.0,0.0,-0.047123889803846894,0.0,0.0,17.089474510188992,-0.04331266066330364,0.17662148382067971,0.0016677683591043149,0.0011681274632859406,0.0012765720485123657,1.0,-1.885154541229685,1.8645638091475825,21.162662438547994,85.32748210022089,0.18147237523479218,7.846341299741817,20.771163472887363,85.6269982596741,4465.519226242078,-0.8198733225718878
0.03,2.5653075616539396,0.0,20.23295089060798,85.51025205513132,0.0,7.765029686932638,85.86209229090004,17.994738264341034,0.0,6.265582975204377,0.0,0.0,-8.852781691043555,0.0,1.0768889448804941,0.0,4506.768587835821,0.25237499376300476,85.86209229090004,1.774089403005167,1.222622319986844,101082.17454514331,288.01848581921104,0.0,0.0,0.0,332.605,0.1785066900092231,0.86,nominal,3884.5669141368985,nan,pitch_program,12.985,0.0,0.0,-1.430813724064029,-0.0,0.0,-1.9384882344384171,0.0,0.0,0.86,0.0,0.0,0.0,0.0,0.0,0.0,-0.03383300220212211,0.0,0.0,-0.03383300220212211,0.0,0.0,17.40555546050667,0.01995369509809823,0.5885495924102526,-0.0023625320929420326,-0.1524830294683302,0.0010348809427628788,1.0,-1.885154541229685,1.8645638091475825,21.162662438547994,85.32748210022089,0.18147237523479218,7.846341299741817,20.771163472887363,85.79709021689509,4524.5418138767955,-0.8198733225718878
0.06,5.146108487635077,0.0,20.45934109706695,86.02669753270457,0.0,7.546340215298981,86.35704915655975,17.98938306364076,0.0,6.641308868012124,0.0,0.0,-12.524241308436645,0.0,1.6281034559280652,0.0,4558.778263294931,0.2538304720578223,86.35704915655977,1.8027331753915474,1.2225957354748862,101079.46019475175,288.01701428286907,0.0,0.0,0.0,338.40999999999997,0.18162219138624247,0.86,nominal,3929.4075668837904,nan,pitch_program,12.97,0.0,0.0,-0.2979467920760606,-0.0,0.0,-0.9541633690210033,0.0,0.0,0.86,0.0,0.0,0.0,0.0,0.0,0.0,-0.01665329239133817,0.0,0.0,-0.01665329239133817,0.0,0.0,17.67375735893007,-0.04136797363120603,1.1622006810607288,-0.0027294851928002166,-0.21879041931726007,0.00015730816665046284,1.0,-1.885154541229685,1.8645638091475825,21.162662438547994,85.32748210022089,0.18147237523479218,7.846341299741817,20.340983499328622,86.2499788698768,4619.874767513224,1.4237928368424035
0.09,7.742556498860226,0.0,20.67979074078805,86.54826704083828,0.0,7.348321457369993,86.85965896786091,17.983934397899173,0.0,6.946402982422518,0.0,0.0,-10.169827843745363,0.0,2.093383042827227,0.0,4611.900458915065,0.2553084351430113,86.8596589678609,1.8324705748552441,1.222569848975327,101076.817126636,288.01558136018485,0.0,0.0,0.0,344.215,0.18473769276326188,0.86,nominal,3975.099647874699,nan,pitch_program,12.955,0.0,0.0,-0.7108973995280095,-0.0,0.0,-0.8082037873252069,0.0,0.0,0.86,0.0,0.0,0.0,0.0,0.0,0.0,-0.014105817115912876,0.0,0.0,-0.014105817115912876,0.0,0.0,17.859203114708567,-0.02889875117627034,1.5797129656751159,-0.0013868454467654307,-0.1787793818128726,0.0013325269044479422,1.0,-1.885154541229685,1.8645638091475825,21.162662438547994,85.32748210022089,0.18147237523479218,7.846341299741817,20.340983499328622,87.23234738899527,4609.130780661081,1.4237928368424035
0.12,10.354825627841963,0.0,20.894771499631656,87.07563763272458,0.0,7.166025294786852,87.37000965818355,17.978392267116273,0.0,7.1246251580176185,0.0,0.0,-5.94074397652938,0.0,2.419981663794166,0.0,4666.158483523259,0.25680914272098526,87.37000965818353,1.8626362816144963,1.2225446050683844,101074.23968129342,288.0141839852524,0.0,0.0,0.0,350.02,0.1878531941402813,0.86,nominal,4021.667004762406,nan,pitch_program,12.94,0.0,0.0,-1.6634483628941377,-0.0,0.0,-1.3213505326665653,0.0,0.0,0.86,0.0,0.0,0.0,0.0,0.0,0.0,-0.023061917368012455,0.0,0.0,-0.023061917368012455,0.0,0.0,18.17362128916749,-0.005497575923867998,1.811348770945774,0.001061349685093875,-0.10084347340370092,-0.0005470916391786005,1.0,-1.885154541229685,1.8645638091475825,21.162662438547994,85.32748210022089,0.18147237523479218,7.846341299741817,20.654068139863405,87.45023905957451,4626.70598950349,1.2724301176555244
0.15,12.98312643446072,0.0,21.10456580349498,87.61002688729191,0.0,6.993143462110928,87.88868452010006,17.972756671292064,0.0,7.219372527884283,0.0,0.0,-3.1582463819261175,0.0,2.655626861537001,0.0,4721.629385260782,0.25833430999508267,87.88868452010006,1.8931428390875156,1.2225199705603382,101071.72446865878,288.01282032227726,0.0,0.0,0.0,355.825,0.1909686955173007,0.86,nominal,4069.175523573682,nan,pitch_program,12.925,0.0,0.0,-2.3010365933223498,-0.0,0.0,-1.909162169060036,0.0,0.0,0.86,0.0,0.0,0.0,0.0,0.0,0.0,-0.03332116580461424,0.0,0.0,-0.03332116580461424,0.0,0.0,18.451203540820686,-0.06740291982753181,1.990660606099808,-0.0007065019313021386,-0.05680826671747383,0.0017811967641120853,1.0,-1.885154541229685,1.8645638091475825,21.162662438547994,85.32748210022089,0.18147237523479218,7.846341299741817,20.654068139863405,88.02395309504219,4654.63718644446,1.2724301176555244
0.18,15.62769081196946,0.0,21.309365882970546,88.15214591695799,0.0,6.826669315852168,88.41608588776508,17.967027610426545,0.0,7.289096473856473,0.0,0.0,-2.324131819218925,0.0,2.8608410103677087,0.0,4778.3724076099525,0.25988512003259406,88.41608588776508,1.924102176278503,1.2224959228513945,101069.2691803987,288.0114891217607,0.0,0.0,0.0,361.63,0.19408419689432013,0.86,nominal,4117.675614792559,nan,pitch_program,12.91,0.0,0.0,-2.465492258147511,-0.0,0.0,-2.242960222512521,0.0,0.0,0.86,0.0,0.0,0.0,0.0,0.0,0.0,-0.039147040874108134,0.0,0.0,-0.039147040874108134,0.0,0.0,18.8073672455247,-0.04333559436479433,1.992740866072338,-0.0027680566631708634,-0.04003761297016974,0.0016191841979894658,1.0,-1.885154541229685,1.8645638091475825,21.162662438547994,85.32748210022089,0.18147237523479218,7.846341299741817,22.349491424566878,88.57645993698112,4740.035033442727,0.8843895901120977
0.21,18.28875338347562,0.0,21.509365109477947,88.702085716872,0.0,6.666640883580016,88.95225748228052,17.961205084519715,0.0,7.3583908530681486,0.0,0.0,-2.309812921933199,0.0,3.0602551081538674,0.0,4836.409100534509,0.26146170183112255,88.95225748228052,1.9554552722251854,1.2224724392098258,101066.87149477287,288.01018912678836,0.0,0.0,0.0,367.435,0.19719969827133954,0.86,nominal,4167.186870947827,nan,pitch_program,12.895,0.0,0.0,-2.4251890942813814,-0.0,0.0,-2.3522975455738373,0.0,0.0,0.86,0.0,0.0,0.0,0.0,0.0,0.0,-0.041055337156844826,0.0,0.0,-0.041055337156844826,0.0,0.0,19.036147270785563,-0.0026627980622058707,2.2610238483877527,-0.0017589130177766994,-0.03955852227276018,0.002675670268664082,1.0,19.11089871663529,1.4948848519410596,19.12019783743647,88.47553669145142,-0.10580972908935708,6.487374211974783,22.349491424566878,88.55649839252337,4839.788493214969,0.8843895901120977
0.24,20.966545387897153,0.0,21.704780215068432,89.25973348071774,0.0,6.513836853016193,89.49709543664797,17.955289093571576,0.0,7.421470478718536,0.0,0.0,-2.102654400729176,0.0,3.2476405587292363,0.0,4895.745249426913,0.2630637506502275,89.49709543664798,1.9870191278200713,1.222449494162944,101064.52881025113,288.00891892860204,0.0,0.0,0.0,373.24,0.20031519964835895,0.86,nominal,4217.7162286943385,nan,pitch_program,12.88,0.0,0.0,-2.436529234640816,-0.0,0.0,-2.402836559014024,0.0,0.0,0.86,0.0,0.0,0.0,0.0,0.0,0.0,-0.04193740934208576,0.0,0.0,-0.04193740934208576,0.0,0.0,19.340709633260285,0.028326168566416392,2.4587805102272626,0.0011581694610636958,-0.03626917175341476,0.0013948103913989957,1.0,19.11089871663529,1.4948848519410596,19.12019783743647,88.47553669145142,-0.10580972908935708,6.487374211974783,21.323448555710392,88.92102690957603,4845.704863329231,-0.5548165827542576
0.27,23.66129852424268,0.0,21.895828144440966,89.82510454485103,0.0,6.368264312417766,90.05056466700378,17.949279637582126,0.0,7.466420915886547,0.0,0.0,-1.4983479824521349,0.0,3.41114944135543,0.0,4956.394210273478,0.26469116393353154,90.05056466700378,2.0186326536213155,1.22242706221511,101062.23852302358,288.0076771170611,0.0,0.0,0.0,379.045,0.20343070102537836,0.86,nominal,4269.276821495798,nan,pitch_program,12.865,0.0,0.0,-2.55727270796364,-0.0,0.0,-2.4954982483837935,0.0,0.0,0.86,0.0,0.0,0.0,0.0,0.0,0.0,-0.04355466091204846,0.0,0.0,-0.04355466091204846,0.0,0.0,19.679336826285724,-0.04910371383034148,2.618652475888274,0.0017100053021520162,-0.025115451886371137,-0.0017110185661580544,1.0,19.11089871663529,1.4948848519410596,19.12019783743647,88.47553669145142,-0.10580972908935708,6.487374211974783,21.323448555710392,90.00695107165807,4921.256858374245,-0.5548165827542576
0.3,26.373249921963826,0.0,22.082702534109604,90.39837992403814,0.0,6.229146322287903,90.61274389839,17.943176716551363,0.0,7.490204425537437,0.0,0.0,-0.7927836664132903,0.0,3.5483140274750715,0.0,5018.382132688214,0.266344173588249,90.61274389839,2.050251729764188,1.2224051206093114,101059.99830895136,288.00646243352827,0.0,0.0,0.0,384.84999999999997,0.20654620240239774,0.86,nominal,4321.892013203733,nan,pitch_program,12.850000000000001,0.0,0.0,-2.715160882546538,-0.0,0.0,-2.62729582888144,0.0,0.0,0.86,0.0,0.0,0.0,0.0,0.0,0.0,-0.04585496263789466,0.0,0.0,-0.04585496263789466,0.0,0.0,19.915197387647105,-0.02256176973167099,2.799652658913995,0.0009205647956601937,-0.012984821923303913,0.002209279414192181,1.0,19.11089871663529,1.4948848519410596,19.12019783743647,88.47553669145142,-0.10580972908935708,6.487374211974783,21.919657848595406,90.01960015300992,4993.838630555263,0.20073688927379876
0.32999999999999996,29.102643287603925,0.0,22.265570185727235,90.97977885466993,0.0,6.095588387254314,91.18375051636929,17.93698033047929,0.0,7.497966408189535,0.0,0.0,-0.2587327554656837,0.0,3.6649135173633343,0.0,5081.73997822997,0.26802312508724024,91.18375051636929,2.0819141565276866,1.2223836497409626,101057.80616580685,288.00527379379275,0.0,0.0,0.0,390.655,0.20966170377941715,0.86,nominal,4375.5888329776,nan,pitch_program,12.835,0.0,0.0,-2.8391291174061655,-0.0,0.0,-2.7543958019962753,0.0,0.0,0.86,0.0,0.0,0.0,0.0,0.0,0.0,-0.04807327564794481,0.0,0.0,-0.04807327564794481,0.0,0.0,20.249638643319415,-0.010557463011513437,2.865569376113848,-0.0022287477635655863,-0.005345270018890637,0.0031107984203674163,1.0,19.11089871663529,1.4948848519410596,19.12019783743647,88.47553669145142,-0.10580972908935708,6.487374211974783,21.919657848595406,91.49276902441706,4995.653156662941,0.20073688927379876
0.36,31.84972699744148,0.0,22.444580843305577,91.5694569945851,0.0,5.967021919278047,91.76366821824591,17.930690479365907,0.0,7.495948810638605,0.0,0.0,0.06725325170463956,0.0,3.7676043027493864,0.0,5146.4955460314,0.26972826483725704,91.7636682182459,2.1136511027526335,1.222362632009692,101055.6602960348,288.0041102245185,0.0,0.0,0.0,396.46,0.21277720515643656,0.86,nominal,4430.391551161159,nan,pitch_program,12.82,0.0,0.0,-2.9165499044402563,-0.0,0.0,-2.851688263462664,0.0,0.0,0.86,0.0,0.0,0.0,0.0,0.0,0.0,-0.049771349437903,0.0,0.0,-0.049771349437903,0.0,0.0,20.48306639374582,-0.08962593694051053,3.001274667433482,-0.0013719346309488695,0.0030810486925451908,0.002112009350367853,1.0,19.11089871663529,1.4948848519410596,19.12019783743647,88.47553669145142,-0.10580972908935708,6.487374211974783,21.817413188520593,91.833232039532,5151.134354844523,-1.4357954980949905
0.39,34.614751993909245,0.0,22.6198764718499,92.16749988225892,0.0,5.843187618144069,92.35253584004627,17.924307163211214,0.0,7.487253094271877,0.0,0.0,0.2898572127806597,0.0,3.85969962337037,0.0,5212.672099065854,0.27145970736324604,92.35253584004627,2.145450708994319,1.2223420507297686,101053.5589955038,288.00297080293296,0.0,0.0,0.0,402.265,0.21589270653345596,0.86,nominal,4486.320649646183,nan,pitch_program,12.805,0.0,0.0,-2.97186114388092,-0.0,0.0,-2.9237919917136175,0.0,0.0,0.86,0.0,0.0,0.0,0.0,0.0,0.0,-0.05102979689884539,0.0,0.0,-0.05102979689884539,0.0,0.0,20.779851010299655,-0.03557625337090218,3.134043254513619,-0.00225711338647072,0.006178648179813662,2.1207729848019683e-05,1.0,19.11089871663529,1.4948848519410596,19.12019783743647,88.47553669145142,-0.10580972908935708,6.487374211974783,21.817413188520593,92.12875318526343,5227.365193838914,-1.4357954980949905
0.42,37.397970988709325,0.0,22.791594011723976,92.77396649333592,0.0,5.723917995802586,92.95037437326053,17.91783038201521,0.0,7.472334095737439,0.0,0.0,0.49729995395766585,0.0,3.941805291552594,0.0,5280.291278019596,0.27321751472790357,92.95037437326052,2.155389216258753,1.2223218898066133,101051.50062047581,288.00185463892376,0.0,0.0,0.0,404.1773684210526,0.21691906078826353,0.86,nominal,4543.395233479718,nan,pitch_program,12.79,0.0,0.0,-3.0268670673335376,-0.0,0.0,-2.9856370370855694,0.0,0.0,0.86,0.0,0.0,0.0,0.0,0.0,0.0,-0.05210919656663123,0.0,0.0,-0.05210919656663123,0.0,0.0,20.901369980583045,-0.024779824913670964,3.3158003646671035,0.003396432870289509,0.008066830838854941,0.001106868848592352,1.0,37.00013916188906,-1.0787485004940414,22.28479561754748,92.56783327543761,-0.2023777783293052,5.755215772297648,22.54154017299356,93.04895107588285,5306.078853581183,-0.7643160931772969
0.44999999999999996,40.19944474860826,0.0,22.959838624392784,93.38245866329784,0.0,5.608153755626969,93.55070803873845,17.911322810191564,0.0,7.4512234926832415,0.0,0.0,0.7036867764340459,0.0,4.014410259035693,0.0,5348.632180389922,0.2749826523133298,93.55070803873845,2.1544139837453704,1.2223021368778086,101049.48390829029,288.0007610489414,0.0,0.0,0.0,404.14342105263154,0.21690084148196515,0.86,nominal,4601.026588720543,nan,pitch_program,12.775,0.0,0.0,-3.0850799752796156,-0.0,0.0,-3.0453028000019975,0.0,0.0,0.86,0.0,0.0,0.0,0.0,0.0,0.0,-0.05315056058023723,0.0,0.0,-0.05315056058023723,0.0,0.0,20.871060383398177,0.04003688977984587,3.406319315376972,-0.0022241183653683885,0.010570003777347235,-0.0005125028647193059,1.0,37.00013916188906,-1.0787485004940414,22.28479561754748,92.56783327543761,-0.2023777783293052,5.755215772297648,22.54154017299356,93.6001628845528,5398.822967006631,-0.7643160931772969
0.48,43.01913915280134,0.0,23.124695303540094,93.98981347310264,0.0,5.495222638243633,94.15031868534749,17.904815784947104,0.0,7.424671501005863,0.0,0.0,0.8850664050854897,0.0,4.078616924212972,0.0,5417.3299422705595,0.276745660778391,94.15031868534749,2.1534715976598164,1.2222827819496451,101047.50783815203,287.99968948052697,0.0,0.0,0.0,404.1094736842105,0.2168826221756668,0.86,nominal,4658.917047474708,nan,pitch_program,12.76,0.0,0.0,-3.140095192911563,-0.0,0.0,-3.1021782357477368,0.0,0.0,0.86,0.0,0.0,0.0,0.0,0.0,0.0,-0.05414322419750686,0.0,0.0,-0.05414322419750686,0.0,0.0,20.82344173394678,-0.032310011494497214,3.500216216950428,0.0008938001298257798,0.014731730551475399,-0.001222493645455501,1.0,37.00013916188906,-1.0787485004940414,22.28479561754748,92.56783327543761,-0.2023777783293052,5.755215772297648,23.301666707600084,94.54243630937235,5375.7549608631,-0.3236618111270167
0.51,45.857021957403596,0.0,23.286242350293822,94.59609348674186,0.0,5.384901558457562,94.74923782145524,17.898309306281835,0.0,7.393892885878138,0.0,0.0,1.0259538622625504,0.0,4.135835353135741,0.0,5486.386631824921,0.2785066327709817,94.74923782145524,2.1525638673666903,1.2222638158149173,101045.57146958947,287.9986394247231,0.0,0.0,0.0,404.0755263157895,0.21686440286936848,0.86,nominal,4717.0690624178515,nan,pitch_program,12.745,0.0,0.0,-3.1873637437376976,-0.0,0.0,-3.153289540541713,0.0,0.0,0.86,0.0,0.0,0.0,0.0,0.0,0.0,-0.05503528475115211,0.0,0.0,-0.05503528475115211,0.0,0.0,20.80886032322499,0.04280627691524327,3.480377409068498,-0.0012636159939613495,0.01970332122576014,-0.0002856054730688416,1.0,37.00013916188906,-1.0787485004940414,22.28479561754748,92.56783327543761,-0.2023777783293052,5.755215772297648,23.301666707600084,93.99122069362822,5550.510878612071,-0.3236618111270167
0.54,48.713062390197706,0.0,23.44455305666712,95.2013477598038,0.0,5.27702354577665,95.34748865484492,17.891803374195753,0.0,7.359939956099115,0.0,0.0,1.1317643590869828,0.0,4.187273851117574,0.0,5555.803445105646,0.28026563653167696,95.34748865484492,2.1516903349572716,1.2222452298552224,101043.67392226783,287.99761040513164,0.0,0.0,0.0,404.0415789473684,0.2168461835630701,0.86,nominal,4775.484322626055,nan,pitch_program,12.73,0.0,0.0,-3.227652042534577,-0.0,0.0,-3.197907041737431,0.0,0.0,0.86,0.0,0.0,0.0,0.0,0.0,0.0,-0.0558140070510299,0.0,0.0,-0.0558140070510299,0.0,0.0,20.80578120825798,0.020100242268353937,3.6499332796932484,0.0026450656574137496,0.021179964065388114,0.0005475832371070051,1.0,37.00013916188906,-1.0787485004940414,22.28479561754748,92.56783327543761,-0.2023777783293052,5.755215772297648,23.52562214213544,95.30935856973241,5551.49321419791,0.664898993392504
0.57,51.587230819273586,0.0,23.59969697092817,95.80561430252935,0.0,5.171463808701682,95.94508726250515,17.885297988688862,0.0,7.323467284727976,0.0,0.0,1.2157557534251997,0.0,4.233713361566031,0.0,5625.580812185803,0.2820227193354992,95.94508726250515,2.1508458044023264,1.222227015892348,101041.81436081491,287.9966019696889,0.0,0.0,0.0,404.0076315789474,0.21682796425677175,0.86,nominal,4834.163853204816,nan,pitch_program,12.715,0.0,0.0,-3.2639095047322693,-0.0,0.0,-3.237508519534334,0.0,0.0,0.86,0.0,0.0,0.0,0.0,0.0,0.0,-0.05650518322724128,0.0,0.0,-0.05650518322724128,0.0,0.0,20.712617706017724,-0.010564594840735056,3.8130188298339127,-0.0019142071023291179,0.023523100010834387,-0.0021195257045421995,1.0,37.00013916188906,-1.0787485004940414,22.28479561754748,92.56783327543761,-0.2023777783293052,5.755215772297648,23.52562214213544,96.10730141864008,5565.713987810353,0.664898993392504
0.6,54.47949857871657,0.0,23.751740449520476,96.4089253147662,0.0,5.068115953076802,96.54204617503193,17.878793149761158,0.0,7.28489297446375,0.0,0.0,1.2858103907085225,0.0,4.27568395641462,0.0,5695.718793757165,0.2837779180291677,96.54204617503191,2.1500243507890264,1.2222091661234344,101039.99198820005,287.9956136870781,0.0,0.0,0.0,403.9736842105263,0.21680974495047337,0.86,nominal,4893.108345310288,nan,pitch_program,12.7,0.0,0.0,-3.2978738401382297,-0.0,0.0,-3.2737277118966714,0.0,0.0,0.86,0.0,0.0,0.0,0.0,0.0,0.0,-0.05713732738637725,0.0,0.0,-0.05713732738637725,0.0,0.0,20.740748545284003,0.06546766596153786,3.875210671775032,0.0006495057299919682,0.020344053414451772,0.0013708932283227244,1.0,37.00013916188906,-1.0787485004940414,22.28479561754748,92.56783327543761,-0.2023777783293052,5.755215772297648,24.1430355487943,96.57978314950036,5736.322852387403,0.7699365242725621
0.63,57.38983787002692,0.0,23.900746916517196,97.01130971034509,0.0,4.9668822332240365,97.13837620032163,17.872288857412645,0.0,7.244604238392249,0.0,0.0,1.3429579243855354,0.0,4.3136767084159064,0.0,5766.217284559927,0.285531264392114,97.13837620032163,2.149222699639118,1.2221916730904714,101038.20604261864,287.9946451450426,0.0,0.0,0.0,403.9397368421053,0.21679152564417503,0.86,nominal,4952.318325166469,nan,pitch_program,12.685,0.0,0.0,-3.329586651522537,-0.0,0.0,-3.307243075672191,0.0,0.0,0.86,0.0,0.0,0.0,0.0,0.0,0.0,-0.05772228083426371,0.0,0.0,-0.05772228083426371,0.0,0.0,20.713773607315748,0.05726871430898526,4.0125231897406195,-0.0007396114957943134,0.021330343308298694,-0.0006831210544440717,1.0,56.88936598857364,0.47613861878321817,22.803645078235384,97.10265471688136,0.11873314192101216,5.1943476369365476,24.1430355487943,97.86608613299681,5823.7542675065515,0.7699365242725621
0.6599999999999999,60.318221653998606,0.0,24.046777210422086,97.6127927990561,0.0,4.867676463496278,97.73408613265248,17.86578511164332,0.0,7.203007411569141,0.0,0.0,1.3865609550056537,0.0,4.348192256123704,0.0,5837.075972159091,0.28728278428211224,97.73408613265248,2.1484399892487307,1.2221745296395556,101036.45579333146,287.99369594813226,0.0,0.0,0.0,403.9057894736842,0.21677330633787664,0.86,nominal,5011.794123822952,nan,pitch_program,12.67,0.0,0.0,-3.358661826359762,-0.0,0.0,-3.3380943260847338,0.0,0.0,0.86,0.0,0.0,0.0,0.0,0.0,0.0,-0.05826073673231984,0.0,0.0,-0.05826073673231984,0.0,0.0,20.672314519634394,0.06853486531179354,4.053956591426798,0.0007061520466158617,0.025143490504164687,-0.0019268357040249766,1.0,56.88936598857364,0.47613861878321817,22.803645078235384,97.10265471688136,0.11873314192101216,5.1943476369365476,22.561189387429888,97.70172118936146,5855.987910601983,0.23537058308694034
0.69,63.264623521418166,0.0,24.189890043755277,98.21339558065203,0.0,4.770427777773081,98.32918210106595,17.859281912453184,0.0,7.1604732610162465,0.0,0.0,1.4178050835425733,0.0,4.379684214610624,0.0,5908.2942510516705,0.2890324957210591,98.32918210106597,2.147675842452721,1.2221577288668986,101034.74053515139,287.9927657147156,0.0,0.0,0.0,403.8718421052631,0.21675508703157828,0.86,nominal,5071.535811529888,nan,pitch_program,12.655,0.0,0.0,-3.385188697794414,-0.0,0.0,-3.3663509491105423,0.0,0.0,0.86,0.0,0.0,0.0,0.0,0.0,0.0,-0.05875390783961504,0.0,0.0,-0.05875390783961504,0.0,0.0,20.691480858983432,0.05169502193167459,4.1153639653061616,-0.000786372376342729,0.02533568688315254,-0.0017282259410970225,1.0,56.88936598857364,0.47613861878321817,22.803645078235384,97.10265471688136,0.11873314192101216,5.1943476369365476,22.561189387429888,98.21248413160966,5943.807711021327,0.23537058308694034
0.72,66.22901757278866,0.0,24.330142425809356,98.81313504568304,0.0,4.675079401802671,98.92366766840762,17.852779259842237,0.0,7.117295844620852,0.0,0.0,1.439247281291574,0.0,4.40851911711038,0.0,5979.871224720379,0.2907804091871927,98.92366766840762,2.146929346532493,1.222141264069176,101033.05958337357,287.9918540742322,0.0,0.0,0.0,403.8378947368421,0.21673686772527995,0.86,nominal,5131.54320370484,nan,pitch_program,12.64,0.0,0.0,-3.4096422221564584,-0.0,0.0,-3.392325712938092,0.0,0.0,0.86,0.0,0.0,0.0,0.0,0.0,0.0,-0.05920725299083371,0.0,0.0,-0.05920725299083371,0.0,0.0,20.59341384690791,0.000733321393488652,4.151366928482879,-0.003967713783557196,0.022759365493453365,-0.0008066035096195127,1.0,56.88936598857364,0.47613861878321817,22.803645078235384,97.10265471688136,0.11873314192101216,5.1943476369365476,25.218294921712832,98.70120126984204,5978.834800392336,0.6397451788404984
0.75,69.21137832586886,0.0,24.46758996761267,99.41202510267323,0.0,4.581584726777135,99.51754445133365,17.84627715381048,0.0,7.073703726771208,0.0,0.0,1.453070665081409,0.0,4.434990240500085,0.0,6051.805771561012,0.2925265294383322,99.51754445133366,2.1461993794117737,1.2221251287076995,101031.4122701166,287.9909606652105,0.0,0.0,0.0,403.80394736842106,0.21671864841898159,0.86,nominal,5191.815917967473,nan,pitch_program,12.625,0.0,0.0,-3.432440431368455,-0.0,0.0,-3.4163945439963097,0.0,0.0,0.86,0.0,0.0,0.0,0.0,0.0,0.0,-0.05962733333990588,0.0,0.0,-0.05962733333990588,0.0,0.0,20.63682326172446,0.03947670919336542,4.248395822182152,0.0016675396580064135,0.02921493394126823,0.0034260342991242463,1.0,56.88936598857364,0.47613861878321817,22.803645078235384,97.10265471688136,0.11873314192101216,5.1943476369365476,25.218294921712832,100.23363239736318,6115.95503879894,0.6397451788404984
0.78,72.21168064507359,0.0,24.60228710268361,100.0100773068242,0.0,4.489904502364646,100.11081262959215,17.83977559435791,0.0,7.029889912869427,0.0,0.0,1.4604605345607218,0.0,4.459349407034723,0.0,6124.096600020459,0.2942708570094214,100.11081262959215,2.1454852045843875,1.2221093163824785,101029.79794167404,287.9900851338325,0.0,0.0,0.0,403.77,0.21670042911268322,0.86,nominal,5252.353421494186,nan,pitch_program,12.61,0.0,0.0,-3.453771700306649,-0.0,0.0,-3.438820837782513,0.0,0.0,0.86,0.0,0.0,0.0,0.0,0.0,0.0,-0.06001874600549467,0.0,0.0,-0.06001874600549467,0.0,0.0,20.596631157752135,0.0194265408753013,4.238809391369239,0.0004874591174268781,0.023007670606733283,-0.0019252961947901787,1.0,56.88936598857364,0.47613861878321817,22.803645078235384,97.10265471688136,0.11873314192101216,5.1943476369365476,23.50457924480324,99.43510496122646,6160.597395944842,-0.47166994919225125
0.8099999999999999,75.22989967981984,0.0,24.734287282360803,100.60730115820857,0.0,4.4000059892397365,100.70347113701604,17.83327458148453,0.0,6.986026513368275,0.0,0.0,1.4621133881150998,0.0,4.48182232157876,0.0,6196.742266799903,0.2960133887744374,100.70347113701602,2.1447865546105387,1.2220938208092724,101028.21595617077,287.9892271326646,0.0,0.0,0.0,403.73605263157896,0.21668220980638486,0.86,nominal,5313.155047899475,nan,pitch_program,12.595,0.0,0.0,-3.4737138014475484,-0.0,0.0,-3.4597566159815343,0.0,0.0,0.86,0.0,0.0,0.0,0.0,0.0,0.0,-0.060384144266534844,0.0,0.0,-0.060384144266534844,0.0,0.0,20.480114730987463,-0.015259615090994088,4.43601842192119,0.00241250892376558,0.027806399644889325,0.000997562163779802,1.0,56.88936598857364,0.47613861878321817,22.803645078235384,97.10265471688136,0.11873314192101216,5.1943476369365476,23.50457924480324,100.30647680385054,6252.882682627458,-0.47166994919225125
0.84,78.26601080695858,0.0,24.86364316369239,101.20370423795792,0.0,4.311862711052951,101.295517726714,17.82677411519034,0.0,6.942263137419798,0.0,0.0,1.4587792692051804,0.0,4.502607270302401,0.0,6269.741180324952,0.2977541181385132,101.29551772671401,2.144103342989798,1.2220786357975169,101026.66568130888,287.98838631943596,0.0,0.0,0.0,403.7021052631579,0.2166639905000865,0.86,nominal,5374.2200019927395,nan,pitch_program,12.58,0.0,0.0,-3.4923704044905546,-0.0,0.0,-3.4793248890869464,0.0,0.0,0.86,0.0,0.0,0.0,0.0,0.0,0.0,-0.060725675061153735,0.0,0.0,-0.060725675061153735,0.0,0.0,20.535587562336755,0.02179232302168598,4.4761378049554565,0.0003590857715663791,0.027145222392761875,0.0006874695597958982,1.0,78.7269499751629,-0.9752360996239673,23.677704060552625,101.27618846475991,-0.08816303243875988,4.395425218337512,23.767008807531955,101.77202635020465,6263.575658663134,1.656347565192996
0.87,81.31998957956871,0.0,24.990406776310675,101.79929242033784,0.0,4.225453753942757,101.88694909902918,17.82027419547534,0.0,6.898723982802532,0.0,0.0,1.4513052237469037,0.0,4.521872759799798,0.0,6343.091612332483,0.299493035414519,101.88694909902917,2.1434354562268867,1.222063755230716,101025.14649236551,287.98756235595397,0.0,0.0,0.0,403.66815789473685,0.21664577119378817,0.86,nominal,5435.547370966988,nan,pitch_program,12.565,0.0,0.0,-3.5098835855931454,-0.0,0.0,-3.497660106990666,0.0,0.0,0.86,0.0,0.0,0.0,0.0,0.0,0.0,-0.061045684982644254,0.0,0.0,-0.061045684982644254,0.0,0.0,20.527718325976622,0.021539775556613013,4.511646969634806,-0.00032312415646942947,0.02792408105074349,0.0003694960499224982,1.0,78.7269499751629,-0.9752360996239673,23.677704060552625,101.27618846475991,-0.08816303243875988,4.395425218337512,23.767008807531955,101.64238092907884,6349.481448189502,1.656347565192996
0.8999999999999999,84.39181168417181,0.0,25.114629658129633,102.39407015343653,0.0,4.140762727298672,102.47776109259348,17.813774822339525,0.0,6.855510946316375,0.0,0.0,1.4404346178190772,0.0,4.539761347118622,0.0,6416.791717938142,0.30123012838503016,102.4777610925935,2.142782769704812,1.222049173050499,101023.65777056437,287.9867549072221,0.0,0.0,0.0,403.6342105263158,0.2166275518874898,0.86,nominal,5497.136142212231,nan,pitch_program,12.55,0.0,0.0,-3.5263819283650206,-0.0,0.0,-3.5148931998152784,0.0,0.0,0.86,0.0,0.0,0.0,0.0,0.0,0.0,-0.061346459192735556,0.0,0.0,-0.061346459192735556,0.0,0.0,20.492974699734575,0.014130286872515264,4.6685360552728365,-0.003765063134217087,0.02544493483148293,0.0009388210488278629,1.0,78.7269499751629,-0.9752360996239673,23.677704060552625,101.27618846475991,-0.08816303243875988,4.395425218337512,25.071526507383503,102.14355730300736,6454.930554971596,1.2489836306385733
0.9299999999999999,87.48145290524516,0.0,25.23636296501681,102.98804070244522,0.0,4.057776896239186,103.06794885447253,17.8072759957829,0.0,6.812709335327105,0.0,0.0,1.4267204326577732,0.0,4.55639594858111,0.0,6490.839553918038,0.3029653828027642,103.06794885447253,2.1421452305641075,1.2220348832437338,101022.19890176012,287.9859636407274,0.0,0.0,0.0,403.6002631578947,0.21660933258119142,0.86,nominal,5558.9852194049645,nan,pitch_program,12.535000000000002,0.0,0.0,-3.5419556591103807,-0.0,0.0,-3.53113067539234,0.0,0.0,0.86,0.0,0.0,0.0,0.0,0.0,0.0,-0.06162985660376744,0.0,0.0,-0.06162985660376744,0.0,0.0,20.43158565812507,-0.0495460409637958,4.689327369512845,-0.000585055714334001,0.025475958189063397,-0.002204903214818301,1.0,78.7269499751629,-0.9752360996239673,23.677704060552625,101.27618846475991,-0.08816303243875988,4.395425218337512,25.071526507383503,103.02749046202747,6526.808975576703,1.2489836306385733
0.96,90.58888909476808,0.0,25.355657564188796,103.58120631743041,0.0,3.9764866390661937,103.65750695518756,17.800777715805463,0.0,6.770391524922334,0.0,0.0,1.410593744283244,0.0,4.57188389154446,0.0,6565.233090757788,0.3046987827289489,103.65750695518759,2.141522866687939,1.2220208798315453,101020.76927531646,287.98518822583276,0.0,0.0,0.0,403.56631578947366,0.21659111327489305,0.86,nominal,5621.093433334231,nan,pitch_program,12.520000000000001,0.0,0.0,-3.556671726484651,-0.0,0.0,-3.5464553060477266,0.0,0.0,0.86,0.0,0.0,0.0,0.0,0.0,0.0,-0.06189732186535599,0.0,0.0,-0.06189732186535599,0.0,0.0,20.492698114415276,0.03653604978096601,4.679642166870045,0.0023628940509919177,0.026133429433399736,0.001306562119265028,1.0,78.7269499751629,-0.9752360996239673,23.677704060552625,101.27618846475991,-0.08816303243875988,4.395425218337512,24.711031144863476,103.77375900418352,6527.796887591861,0.5951640454677093
0.99,93.7140961456073,0.0,25.472564115651245,104.17356836130743,0.0,3.8968850487482602,104.24642947464028,17.794279982407215,0.0,6.728618249937269,0.0,0.0,1.392442561182588,0.0,4.586318506857858,0.0,6639.970221502619,0.3064303107861314,104.24642947464028,2.1409157365465736,1.222007156859751,101019.3682831295,287.9844283332482,0.0,0.0,0.0,403.53236842105264,0.21657289396859472,0.86,nominal,5683.459549990327,nan,pitch_program,12.505,0.0,0.0,-3.570592794362136,-0.0,0.0,-3.560937799036372,0.0,0.0,0.86,0.0,0.0,0.0,0.0,0.0,0.0,-0.062150089051904854,0.0,0.0,-0.062150089051904854,0.0,0.0,20.470548361454636,0.06030587873637536,4.848612179617335,0.0005922299805256632,0.023594119232907655,-0.003341630081716953,1.0,78.7269499751629,-0.9752360996239673,23.677704060552625,101.27618846475991,-0.08816303243875988,4.395425218337512,24.711031144863476,104.29850650991679,6665.988791215671,0.5951640454677093
1.02,96.85704996859496,0.0,25.58713314136678,104.76512743292233,0.0,3.818967523851223,104.8347100868061,17.787782795588157,0.0,6.687439548538584,0.0,0.0,1.3726234390402534,0.0,4.599780367738625,0.0,6715.048770831236,0.30815994840733824,104.83471008680611,2.140323893508031,1.2219937083907273,101017.99531879691,287.9836836345811,0.0,0.0,0.0,403.49842105263156,0.21655467466229633,0.86,nominal,5746.0822787131265,nan,pitch_program,12.49,0.0,0.0,-3.5837796235295634,-0.0,0.0,-3.574642893732287,0.0,0.0,0.86,0.0,0.0,0.0,0.0,0.0,0.0,-0.06238928807864618,0.0,0.0,-0.06238928807864618,0.0,0.0,20.429606290527808,0.01958799464690677,4.894375880818455,0.0005123923243018631,0.02241521321984385,0.005917187550271525,1.0,78.7269499751629,-0.9752360996239673,23.677704060552625,101.27618846475991,-0.08816303243875988,4.395425218337512,25.73838494158941,104.41857306080136,6615.301884616148,1.5358514009320592
1.05,100.01772647316851,0.0,25.699415082156882,105.35588348578493,0.0,3.742731359670086,105.42234214387834,17.781286155348287,0.0,6.646896317055387,0.0,0.0,1.3514411058305826,0.0,4.612339129209695,0.0,6790.4665044343865,0.3098876760835869,105.42234214387834,2.1397473863183474,1.2219805284967127,101016.64977693402,287.98295380196595,0.0,0.0,0.0,403.46447368421053,0.216536455355998,0.86,nominal,5808.960280465907,nan,pitch_program,12.475,0.0,0.0,-3.5962851127409983,-0.0,0.0,-3.5876282251375136,0.0,0.0,0.86,0.0,0.0,0.0,0.0,0.0,0.0,-0.06261592486613,0.0,0.0,-0.06261592486613,0.0,0.0,20.361257048262843,0.07875506931094893,5.018467027020919,-0.0005514977501262355,0.026355192230338026,-0.004098142306320266,1.0,99.59094618819759,1.334569046153985,27.043337880791167,105.41600589806566,-0.2591355462294325,3.6703094278533013,25.73838494158941,104.9997966759129,6878.172680662387,1.5358514009320592
1.08,103.19610155105909,0.0,25.809460344274992,105.94583592968577,0.0,3.6681754039369525,106.00931874903237,17.774790061687607,0.0,6.607021974356934,0.0,0.0,1.3291448102605417,0.0,4.624055431877816,0.0,6866.2211372906295,0.3116134735779206,106.00931874903237,2.1391862682135403,1.2219676112543414,101015.33105261535,287.9822385077622,0.0,0.0,0.0,403.43052631578945,0.21651823604969964,0.86,nominal,5872.092175102157,nan,pitch_program,12.46,0.0,0.0,-3.608152458261448,-0.0,0.0,-3.5999427650118743,0.0,0.0,0.86,0.0,0.0,0.0,0.0,0.0,0.0,-0.06283085413280573,0.0,0.0,-0.06283085413280573,0.0,0.0,20.360349183037027,0.003496705884786972,5.0712245409309595,0.00022724025301151481,0.0225017037214689,0.0038210513916708115,1.0,99.59094618819759,1.334569046153985,27.043337880791167,105.41600589806566,-0.2591355462294325,3.6703094278533013,25.44740300452986,106.12568204521426,6848.885522445098,-2.214331403328623
1.1099999999999999,106.39215106244094,0.0,25.91731933789565,106.53498371272838,0.0,3.5952997873551933,106.59563281500915,17.768294514606115,0.0,6.567843669807633,0.0,0.0,1.3059435358615876,0.0,4.6349823003808455,0.0,6942.310340414929,0.3133373200977357,106.59563281500915,2.138640593684682,1.221954950740108,101014.03854091128,287.98153742430367,0.0,0.0,0.0,403.3965789473684,0.21650001674340127,0.86,nominal,5935.476547301103,nan,pitch_program,12.445,0.0,0.0,-3.6194182846973315,-0.0,0.0,-3.611628076823149,0.0,0.0,0.86,0.0,0.0,0.0,0.0,0.0,0.0,-0.06303480129803465,0.0,0.0,-0.06303480129803465,0.0,0.0,20.396874425345676,0.050200352301379904,5.091270830570641,-0.0033710855277364706,0.02391941018551114,0.0034361703815396416,1.0,99.59094618819759,1.334569046153985,27.043337880791167,105.41600589806566,-0.2591355462294325,3.6703094278533013,25.44740300452986,106.62937235531362,7017.46464383214,-2.214331403328623
1.14,109.60585082416256,0.0,26.023042508789082,107.12332539072041,0.0,3.524105696447854,107.18127711371002,17.761799514103814,0.0,6.529383098954822,0.0,0.0,1.2820190765663142,0.0,4.6451661201269525,0.0,7018.73174668779,0.31505919444066977,107.18127711371001,2.138110408299345,1.2219425410266436,101012.77163650755,287.98085022369287,0.0,0.0,0.0,403.3626315789474,0.21648179743710294,0.86,nominal,5999.111951681766,nan,pitch_program,12.43,0.0,0.0,-3.6301154603782746,-0.0,0.0,-3.6227205069562247,0.0,0.0,0.86,0.0,0.0,0.0,0.0,0.0,0.0,-0.06322840072590426,0.0,0.0,-0.06322840072590426,0.0,0.0,20.28521241116189,-0.038660176830253516,5.244858426091442,0.0005367324330560196,0.020432222361728255,0.0009145541563920566,1.0,99.59094618819759,1.334569046153985,27.043337880791167,105.41600589806566,-0.2591355462294325,3.6703094278533013,25.700474867371874,107.4463291487744,7019.715823712751,-0.264342242607981
1.17,112.83717659983755,0.0,26.126680363800897,107.71085918916627,0.0,3.454595167060494,107.76624432092214,17.7553050601807,0.0,6.491657227420478,0.0,0.0,1.2575290965776884,0.0,4.654647505588841,0.0,7095.482956261356,0.3167790751261581,107.76624432092214,2.1375957431482333,1.2219303761797118,101011.52973339845,287.9801765776353,0.0,0.0,0.0,403.3286842105263,0.21646357813080455,0.86,nominal,6062.99691750801,nan,pitch_program,12.415,0.0,0.0,-3.640273459780585,-0.0,0.0,-3.6332522786508408,0.0,0.0,0.86,0.0,0.0,0.0,0.0,0.0,0.0,-0.06341221481804366,0.0,0.0,-0.06341221481804366,0.0,0.0,20.36877667352787,-0.08070857554364144,5.353087262224701,-0.0016858235452028674,0.024763669538482875,-0.00033200344438613215,1.0,99.59094618819759,1.334569046153985,27.043337880791167,105.41600589806566,-0.2591355462294325,3.6703094278533013,25.700474867371874,107.99066593815941,7098.860202431116,-0.264342242607981
1.2,116.08610409157905,0.0,26.22828349082241,108.29758305805004,0.0,3.3867709007170803,108.35052705616707,17.748811152836776,0.0,6.454679012470951,0.0,0.0,1.232607207769071,0.0,4.663462149149502,0.0,7172.561541516244,0.3184969405126385,108.35052705616705,2.137096614885526,1.2219184502558598,101010.31222464654,287.9795161573096,0.0,0.0,0.0,403.2947368421053,0.21644535882450622,0.86,nominal,6127.129952969869,nan,pitch_program,12.4,0.0,0.0,-3.649917981204584,-0.0,0.0,-3.643251700183087,0.0,0.0,0.86,0.0,0.0,0.0,0.0,0.0,0.0,-0.06358673764707616,0.0,0.0,-0.06358673764707616,0.0,0.0,20.241423465587815,-0.003431626339499558,5.4074529791648045,-0.0016478693563834008,0.01981596025835611,-0.002226087453477423,1.0,99.59094618819759,1.334569046153985,27.043337880791167,105.41600589806566,-0.2591355462294325,3.6703094278533013,25.990630555461905,108.57910990899272,7119.666808594916,-0.2848802346472957
1.23,119.35260893313587,0.0,26.327902574103977,108.88349471856063,0.0,3.320636109385568,108.93411791673799,17.74231779207204,0.0,6.418458037239842,0.0,0.0,1.2073658812468413,0.0,4.671641563229965,0.0,7249.965051419416,0.3202127688976599,108.93411791673797,2.136613026004923,1.2219067573006137,101009.11850219824,287.9788686332683,0.0,0.0,0.0,403.26078947368416,0.2164271395182078,0.86,nominal,6191.509548927225,nan,pitch_program,12.385,0.0,0.0,-3.6590713215248045,-0.0,0.0,-3.6527434729881176,0.0,0.0,0.86,0.0,0.0,0.0,0.0,0.0,0.0,-0.06375240033437521,0.0,0.0,-0.06375240033437521,0.0,0.0,20.23458146265395,-0.03611710551570207,5.470563603568816,0.0012760442060591839,0.026883241412932815,-0.00039958802289996777,1.0,99.59094618819759,1.334569046153985,27.043337880791167,105.41600589806566,-0.2591355462294325,3.6703094278533013,25.990630555461905,108.58720450707504,7215.838751251199,-0.2848802346472957
1.26,122.63666668421642,0.0,26.42558840565629,109.46859170268525,0.0,3.2561943850770847,109.51700950648085,17.735824977886494,0.0,6.383001012759295,0.0,0.0,1.1819008537371742,0.0,4.679213673505993,0.0,7327.691015327361,0.3219265386025289,109.51700950648085,2.1361449631764327,1.2218952913471237,101007.94795674527,287.9782336753632,0.0,0.0,0.0,403.22684210526313,0.21640892021190947,0.86,nominal,6256.134182159637,nan,pitch_program,12.37,0.0,0.0,-3.6677531983716394,-0.0,0.0,-3.6617493082182304,0.0,0.0,0.86,0.0,0.0,0.0,0.0,0.0,0.0,-0.06390958181103278,0.0,0.0,-0.06390958181103278,0.0,0.0,20.26532692127933,0.023863660630115097,5.535977718332892,-0.0023047783664320145,0.018997825517767023,-0.001241768790835403,1.0,120.04085020498188,1.4709588081283473,26.203604011095425,109.59984024426859,0.12030670044368144,3.484986455744709,26.78913300244718,109.68133141562507,7276.175197254718,0.162963403478858
1.29,125.93825282583845,0.0,26.521391893270682,110.05287138740096,0.0,3.1934495871463926,110.0991944606202,17.729332710280136,0.0,6.348312189403059,0.0,0.0,1.1562941471945356,0.0,4.686203309210752,0.0,7405.7369463829145,0.32363822804531794,110.0991944606202,2.1356923954459517,1.2218840464152254,101006.79997762854,287.97761095269374,0.0,0.0,0.0,403.1928947368421,0.21639070090561113,0.86,nominal,6321.002318248874,nan,pitch_program,12.355,0.0,0.0,-3.6759812761015067,-0.0,0.0,-3.6702884889481964,0.0,0.0,0.86,0.0,0.0,0.0,0.0,0.0,0.0,-0.06405861863019353,0.0,0.0,-0.06405861863019353,0.0,0.0,20.17295250543617,0.00846826940636842,5.700263529610391,-0.0016056178642132799,0.020000280505313026,0.0016244515780187423,1.0,120.04085020498188,1.4709588081283473,26.203604011095425,109.59984024426859,0.12030670044368144,3.484986455744709,26.78913300244718,109.84544871456843,7439.647416532964,0.162963403478858
1.3199999999999998,129.25734275657246,0.0,26.615364065585247,110.63633102446654,0.0,3.1324057438188406,110.68066546736719,17.72284098925297,0.0,6.314393721835946,0.0,0.0,1.1306156185891896,0.0,4.692632636914682,0.0,7484.100344584905,0.32534781580440636,110.68066546736718,2.1352552736973847,1.2218730165108265,101005.67395277527,287.97700013357365,0.0,0.0,0.0,403.158947368421,0.21637248159931274,0.86,nominal,6386.112414163395,nan,pitch_program,12.34,0.0,0.0,-3.68377135012992,-0.0,0.0,-3.6783782056572303,0.0,0.0,0.86,0.0,0.0,0.0,0.0,0.0,0.0,-0.06419981082231978,0.0,0.0,-0.06419981082231978,0.0,0.0,20.13792998858047,0.012682382361754918,5.6901019177335215,0.0004711226862555079,0.020533161095998297,0.005477678686427448,1.0,120.04085020498188,1.4709588081283473,26.203604011095425,109.59984024426859,0.12030670044368144,3.484986455744709,26.212475430811736,110.2861406956981,7511.486483380724,-0.12245718104423377
1.3499999999999999,132.59391178955667,0.0,26.707556074608668,111.21896776614055,0.0,3.0730669674474216,111.26141528648746,17.71634981480499,0.0,6.281245991633015,0.0,0.0,1.1049243709163634,0.0,4.6985215425977955,0.0,7562.778699538492,0.3270552806730745,111.26141528648748,2.1348335307994573,1.2218621956256126,101004.56926866878,287.97640088551503,0.0,0.0,0.0,403.125,0.2163542622930144,0.86,nominal,6451.462920555175,nan,pitch_program,12.325,0.0,0.0,-3.6911375200805385,-0.0,0.0,-3.686033794311215,0.0,0.0,0.86,0.0,0.0,0.0,0.0,0.0,0.0,-0.06433342605051014,0.0,0.0,-0.06433342605051014,0.0,0.0,20.140111918523043,-0.01923896100570566,5.746813669673331,-0.000216186253064102,0.01718074197339887,0.0015452797674206404,1.0,120.04085020498188,1.4709588081283473,26.203604011095425,109.59984024426859,0.12030670044368144,3.484986455744709,26.212475430811736,111.08997484866747,7528.860708287166,-0.12245718104423377
1.38,135.94793515017267,0.0,26.798019196082524,111.80077868719971,0.0,3.0154373824619127,111.84143676505482,17.7098591869362,0.0,6.248867879533006,0.0,0.0,1.0792704320551905,0.0,4.703887954878129,0.0,7641.76949290119,0.3287606017058192,111.84143676505482,2.1344270815831186,1.2218515777369896,101003.4853103423,287.9758128752254,0.0,0.0,0.0,403.0910526315789,0.21633604298671602,0.86,nominal,6517.052283785141,nan,pitch_program,12.31,0.0,0.0,-3.698092457937755,-0.0,0.0,-3.6932689924871394,0.0,0.0,0.86,0.0,0.0,0.0,0.0,0.0,0.0,-0.0644597040807143,0.0,0.0,-0.0644597040807143,0.0,0.0,20.18104279780781,-0.03162201765006215,5.8372519164042,0.002291853428513029,0.022005298038948833,-0.001976132596941643,1.0,120.04085020498188,1.4709588081283473,26.203604011095425,109.59984024426859,0.12030670044368144,3.484986455744709,26.45521032363074,112.53103848206338,7644.066215780331,0.07493271159242612
1.41,139.319387974288,0.0,26.886804827997974,112.3817608038441,0.0,2.9595210638482574,112.42072285081515,17.703369105646598,0.0,6.217256992837341,0.0,0.0,1.0536962499165332,0.0,4.708748116341758,0.0,7721.070200568761,0.3304637582576367,112.42072285081515,2.134035822680574,1.221841156808258,101002.42146139656,287.975235768618,0.0,0.0,0.0,403.0571052631579,0.2163178236804177,0.86,nominal,6582.878947716382,nan,pitch_program,12.295,0.0,0.0,-3.704647655255484,-0.0,0.0,-3.7000961901481464,0.0,0.0,0.86,0.0,0.0,0.0,0.0,0.0,0.0,-0.06457886115858333,0.0,0.0,-0.06457886115858333,0.0,0.0,20.065595006227472,0.05476016082665285,5.89629625967957,-0.0004428673565537823,0.017483965123794607,0.0020353050926656597,1.0,120.04085020498188,1.4709588081283473,26.203604011095425,109.59984024426859,0.12030670044368144,3.484986455744709,26.45521032363074,111.4970128329218,7736.966069092689,0.07493271159242612
1.44,142.70824530698832,0.0,26.973964487526846,112.96191109001052,0.0,2.9053219842957274,112.99926660354869,17.696879570936186,0.0,6.186409860320028,0.0,0.0,1.028237775413947,0.0,4.713116816558723,0.0,7800.678294642053,0.3321647300174154,112.99926660354869,2.133659632585898,1.2218309267889569,101001.37710403473,287.97466923083107,0.0,0.0,0.0,403.02315789473687,0.21629960437411935,0.86,nominal,6648.941355311542,nan,pitch_program,12.28,0.0,0.0,-3.710813585395791,-0.0,0.0,-3.706526627296733,0.0,0.0,0.86,0.0,0.0,0.0,0.0,0.0,0.0,-0.06469109345916872,0.0,0.0,-0.06469109345916872,0.0,0.0,20.08541424122344,-0.051319635676952136,5.974248895829898,-0.0009535318708432641,0.018620273914776827,0.002824344071052272,1.0,120.04085020498188,1.4709588081283473,26.203604011095425,109.59984024426859,0.12030670044368144,3.484986455744709,27.75379904584318,113.24412510040736,7909.837216733111,-0.31919290416260554
1.47,146.11448210173123,0.0,27.0595498065959,113.54122649143001,0.0,2.852843968968498,113.57706120467058,17.690390582804962,0.0,6.156322101168595,0.0,0.0,1.0029253280951906,0.0,4.717007594055906,0.0,7880.591245198115,0.33386349703614543,113.5770612046706,2.133298371953702,1.2218208816153835,101000.35161911516,287.9741129262571,0.0,0.0,0.0,402.9892105263158,0.21628138506782096,0.86,nominal,6715.237950055597,nan,pitch_program,12.265,0.0,0.0,-3.71659982587784,-0.0,0.0,-3.712570546445397,0.0,0.0,0.86,0.0,0.0,0.0,0.0,0.0,0.0,-0.06479657974803724,0.0,0.0,-0.06479657974803724,0.0,0.0,20.033947243555623,0.024260827975459597,5.9321466013667115,0.0019481353936812015,0.019901018750407274,-0.0011185087358909708,1.0,145.2026313392751,0.8034953455404776,28.933072906011496,113.409970441886,-0.2136582967972069,2.885474301204264,27.75379904584318,113.72943934874155,7945.238212231272,-0.31919290416260554
1.5,149.53807321986204,0.0,27.14361252630884,114.11970393769379,0.0,2.802090657097943,114.1540999652552,17.68390214125293,0.0,6.126988569447486,0.0,0.0,0.9777844120608505,0.0,4.720432909335353,0.0,7960.80652188226,0.3355600397504874,114.1540999652552,2.132951883942528,1.221811015211241,100999.34438621742,287.973566518579,0.0,0.0,0.0,402.9552631578947,0.2162631657615226,0.86,nominal,6781.767177219865,nan,pitch_program,12.25,0.0,0.0,-3.7220151819139575,-0.0,0.0,-3.7182373277265333,0.0,0.0,0.86,0.0,0.0,0.0,0.0,0.0,0.0,-0.06489548373938345,0.0,0.0,-0.06489548373938345,0.0,0.0,20.05153319592395,-0.018030671556612133,5.996958823704134,-0.0013652016491746335,0.01440967638049668,-0.0008634720567739232,1.0,145.2026313392751,0.8034953455404776,28.933072906011496,113.409970441886,-0.2136582967972069,2.885474301204264,27.812820873792145,113.93599993219867,7974.246082496418,-1.1250587431946468
1.53,152.9789934304401,0.0,27.22620449039274,114.69734035260196,0.0,2.7530654694632988,114.73037633268603,17.677414246280083,0.0,6.098403476506435,0.0,0.0,0.9528364511321774,0.0,4.723404291995974,0.0,8041.321595341384,0.33725433900229973,114.73037633268605,2.1326199945414017,1.221801321488396,100998.35478371929,287.9730296708124,0.0,0.0,0.0,402.9213157894737,0.21624494645522424,0.86,nominal,6848.527484985592,nan,pitch_program,12.235,0.0,0.0,-3.727067802040915,-0.0,0.0,-3.723535612315162,0.0,0.0,0.86,0.0,0.0,0.0,0.0,0.0,0.0,-0.0649879562501627,0.0,0.0,-0.0649879562501627,0.0,0.0,19.91529943808723,0.05991784686592215,6.212594525710122,-0.00012476373930662816,0.01617747365258416,-0.0010175630330780644,1.0,145.2026313392751,0.8034953455404776,28.933072906011496,113.409970441886,-0.2136582967972069,2.885474301204264,27.812820873792145,115.18901159581551,7921.003110415512,-1.1250587431946468
1.56,156.43721741033164,0.0,27.307377637818973,115.27413266305118,0.0,2.7057715808744294,115.3058838961247,17.670926897886428,0.0,6.0705604953713355,0.0,0.0,0.9280993894342323,0.0,4.725932466581396,0.0,8122.133938518816,0.338946376054687,115.30588389612471,2.132302512940711,1.2217917943477439,100997.38218888496,287.97250204535413,0.0,0.0,0.0,402.8873684210526,0.21622672714892588,0.86,nominal,6915.517325445212,nan,pitch_program,12.220000000000002,0.0,0.0,-3.7317652701300252,-0.0,0.0,-3.72847340700408,0.0,0.0,0.86,0.0,0.0,0.0,0.0,0.0,0.0,-0.0650741370252718,0.0,0.0,-0.0650741370252718,0.0,0.0,20.006169504142694,-0.00022076434345733265,6.2178511990169865,-0.000672595733245409,0.013921393383432349,-0.0004813522633382448,1.0,145.2026313392751,0.8034953455404776,28.933072906011496,113.409970441886,-0.2136582967972069,2.885474301204264,27.7710230050475,115.76403906739229,8121.7810079075925,0.37482070945977164
1.5899999999999999,159.91271974453156,0.0,27.387183994728517,115.85007780666432,0.0,2.660211896984764,115.88061639095227,17.66444009607196,0.0,6.043452850313361,0.0,0.0,0.9035881854540536,0.0,4.728027460803605,0.0,8203.241027826385,0.34063613260502656,115.88061639095228,2.131999231967369,1.2217824276801479,100996.42597796078,287.97198330403427,0.0,0.0,0.0,402.8534210526316,0.21620850784262752,0.86,nominal,6982.735155495422,nan,pitch_program,12.205000000000002,0.0,0.0,-3.7361146790095305,-0.0,0.0,-3.73305817020735,0.0,0.0,0.86,0.0,0.0,0.0,0.0,0.0,0.0,-0.06515415623859315,0.0,0.0,-0.06515415623859315,0.0,0.0,19.993475586388875,0.03357436752914172,6.304555656262989,-0.002290345646758597,0.014304047794309738,0.0002379179360621317,1.0,145.2026313392751,0.8034953455404776,28.933072906011496,113.409970441886,-0.2136582967972069,2.885474301204264,27.7710230050475,115.95021308512365,8269.001004514155,0.37482070945977164
1.6199999999999999,163.40547492668136,0.0,27.465675665775507,116.42517273832722,0.0,2.6163890348996124,116.45456770230729,17.657953840836683,0.0,6.017073393436189,0.0,0.0,0.8793152447718896,0.0,4.729698698349035,0.0,8284.640344206087,0.3423235907953343,116.45456770230729,2.1317099285454066,1.2217732153674468,100995.48552627783,287.97147310817246,0.0,0.0,0.0,402.8194736842105,0.21619028853632916,0.86,nominal,7050.179437633414,nan,pitch_program,12.19,0.0,0.0,-3.7401226959846565,-0.0,0.0,-3.7372968856737336,0.0,0.0,0.86,0.0,0.0,0.0,0.0,0.0,0.0,-0.06522813577953675,0.0,0.0,-0.06522813577953675,0.0,0.0,19.913549082642735,0.021830719306667832,6.274012762550764,-0.0016477986699776211,0.01854109134784415,0.0006086699117194181,1.0,145.2026313392751,0.8034953455404776,28.933072906011496,113.409970441886,-0.2136582967972069,2.885474301204264,27.05107973438691,116.35913732532805,8184.419599295344,1.4986707387961022
1.65,166.9154573597548,0.0,27.542904824987897,116.99941443578193,0.0,2.574305307079682,117.02773186783513,17.651468132180593,0.0,5.991414669883074,0.0,0.0,0.8552907993979555,0.0,4.730955078203252,0.0,8366.329374093319,0.34400873322031045,117.02773186783513,2.1314343641590288,1.221764151283528,100994.56020836129,287.9709711186376,0.0,0.0,0.0,402.78552631578947,0.21617206923003082,0.86,nominal,7117.848640666925,nan,pitch_program,12.175,0.0,0.0,-3.7437956213386983,-0.0,0.0,-3.7411961270727123,0.0,0.0,0.86,0.0,0.0,0.0,0.0,0.0,0.0,-0.06529619038027899,0.0,0.0,-0.06529619038027899,0.0,0.0,19.951483346598614,0.0027700726858832874,6.420907697341288,-0.0009253328143911263,0.014186968030450484,-0.0029386503754558926,1.0,145.2026313392751,0.8034953455404776,28.933072906011496,113.409970441886,-0.2136582967972069,2.885474301204264,27.05107973438691,117.59455538976745,8491.085050981554,1.4986707387961022
1.68,170.44264135688712,0.0,27.618923706230387,117.57279990441066,0.0,2.533962708083052,117.60010307975304,17.64498297010369,0.0,5.966468973426668,0.0,0.0,0.8315232283488087,0.0,4.731805042556123,0.0,8448.305610292446,0.34569154293336946,117.60010307975304,2.131172285325735,1.2217552292954357,100993.6493980435,287.9704769959095,0.0,0.0,0.0,402.75157894736844,0.21615384992373246,0.86,nominal,7185.741240347976,nan,pitch_program,12.16,0.0,0.0,-3.747139437497579,-0.0,0.0,-3.7447621133276323,0.0,0.0,0.86,0.0,0.0,0.0,0.0,0.0,0.0,-0.06535842858150821,0.0,0.0,-0.06535842858150821,0.0,0.0,19.79864956633116,-0.02291821670051192,6.482653769421718,-0.0004210795657062867,0.012605650229169613,0.0027455000921658345,1.0,169.9348967213331,-1.342865982767711,27.154833560441602,117.72668971757808,-0.26918352903143483,2.6677382913353065,27.598217206595933,117.48038259974086,8541.555361837572,0.11366244485972535
1.71,173.98700114232685,0.0,27.693784593343334,118.14532618132374,0.0,2.495362903764945,118.1716756863203,17.63849835460598,0.0,5.942228393963252,0.0,0.0,0.8080193274998048,0.0,4.73225663505881,0.0,8530.566552774353,0.34737200345092,118.1716756863203,2.1309234240838615,1.2217464432645233,100992.75246858137,287.9699904001432,0.0,0.0,0.0,402.71763157894736,0.2161356306174341,0.86,nominal,7253.855719938743,nan,pitch_program,12.145,0.0,0.0,-3.7501598500192355,-0.0,0.0,-3.748000755342594,0.0,0.0,0.86,0.0,0.0,0.0,0.0,0.0,0.0,-0.06541495354796271,0.0,0.0,-0.06541495354796271,0.0,0.0,19.907824713563727,0.13554310514812437,6.611870492168156,-0.0014672377371984118,0.009977488199947624,0.0006742458488385384,1.0,169.9348967213331,-1.342865982767711,27.154833560441602,117.72668971757808,-0.26918352903143483,2.6677382913353065,27.598217206595933,118.21175218326871,8489.540454338588,0.11366244485972535
1.74,177.54851085249226,0.0,27.767539810021848,118.71699033884676,0.0,2.4585072226171647,118.74244419278851,17.632014285687454,0.0,5.9186848580418925,0.0,0.0,0.784784541754429,0.0,4.732317550772059,0.0,8613.109709403789,0.3490500987551129,118.74244419278851,2.130687498485972,1.2217377870476411,100991.86879277744,287.9695109912348,0.0,0.0,0.0,402.68368421052634,0.21611741131113574,0.86,nominal,7322.190570716698,nan,pitch_program,12.13,0.0,0.0,-3.7528623230365756,-0.0,0.0,-3.7509176959589836,0.0,0.0,0.86,0.0,0.0,0.0,0.0,0.0,0.0,-0.06546586376580386,0.0,0.0,-0.06546586376580386,0.0,0.0,19.829561391659105,-0.05384572329307302,6.6610846045390595,0.00011597472438910492,0.009861613873630357,-0.00048417336930324105,1.0,169.9348967213331,-1.342865982767711,27.154833560441602,117.72668971757808,-0.26918352903143483,2.6677382913353065,27.112449718020585,118.99809892917823,8658.900135069583,1.1324254900792559
1.77,181.12714453711698,0.0,27.84024170949082,119.28778948749023,0.0,2.423396648965737,119.31240326189898,17.62553076334812,0.0,5.895830163383241,0.0,0.0,0.7618231653897599,0.0,4.731995178943329,0.0,8695.932596603525,0.35072581329525715,119.31240326189898,2.130464213091694,1.2217292544983365,100990.99774310229,287.96903842888827,0.0,0.0,0.0,402.64973684210526,0.21609919200483738,0.86,nominal,7390.744292425379,nan,pitch_program,12.115,0.0,0.0,-3.7552521100914245,-0.0,0.0,-3.753518344438448,0.0,0.0,0.86,0.0,0.0,0.0,0.0,0.0,0.0,-0.0655112536444575,0.0,0.0,-0.0655112536444575,0.0,0.0,19.79304508621767,0.04358247519300718,6.686430467639816,-0.00020660322282621272,0.016222489461954148,1.7013139923263515e-05,1.0,169.9348967213331,-1.342865982767711,27.154833560441602,117.72668971757808,-0.26918352903143483,2.6677382913353065,27.112449718020585,119.13242358586609,8624.925858965154,1.1324254900792559
1.7999999999999998,184.72287616047123,0.0,27.911942664024153,119.85772077847477,0.0,2.3900318177778077,119.88154771398646,17.619047787587974,0.0,5.873656008279428,0.0,0.0,0.7391385126860185,0.0,4.731296639663838,0.0,8779.032739961944,0.35239913198807504,119.88154771398648,2.1302532594605887,1.2217208394680843,100990.1386918199,287.9685723726838,0.0,0.0,0.0,402.6157894736842,0.216080972698539,0.86,nominal,7459.515393676559,nan,pitch_program,12.1,0.0,0.0,-3.7573342803876373,-0.0,0.0,-3.755807906007961,0.0,0.0,0.86,0.0,0.0,0.0,0.0,0.0,0.0,-0.06555121403227264,0.0,0.0,-0.06555121403227264,0.0,0.0,19.830956988443244,0.001067690468456601,6.795384103854057,0.0009133239776130593,0.010443243975009092,0.002194368482841503,1.0,169.9348967213331,-1.342865982767711,27.154833560441602,117.72668971757808,-0.26918352903143483,2.6677382913353065,27.706899738382937,120.27586832777934,8611.664177888148,-1.7625863234401868
1.8299999999999998,188.33567960264745,0.0,27.982695054350096,120.42678140587415,0.0,2.3584130108647905,120.44987252674039,17.612565358407018,0.0,5.852154016642826,0.0,0.0,0.7167330629651767,0.0,4.73022881530947,0.0,8862.407674789374,0.3540700402169497,120.4498725267404,2.130054316645398,1.2217125358075214,100989.29101111373,287.9681124821467,0.0,0.0,0.0,402.58184210526315,0.21606275339224065,0.86,nominal,7528.502392308748,nan,pitch_program,12.085,0.0,0.0,-3.759113741067365,-0.0,0.0,-3.7577914070436034,0.0,0.0,0.86,0.0,0.0,0.0,0.0,0.0,0.0,-0.06558583265606131,0.0,0.0,-0.06558583265606131,0.0,0.0,19.714439073578,0.031449363413240256,6.864097960693458,0.0007011828098648345,0.013897108755151133,0.003501534476087579,1.0,169.9348967213331,-1.342865982767711,27.154833560441602,117.72668971757808,-0.26918352903143483,2.6677382913353065,27.706899738382937,120.72748800033257,8733.618829943041,-1.7625863234401868
1.8599999999999999,191.96552866090033,0.0,28.05255125897908,120.99496860842973,0.0,2.3285401542994992,121.01737283466817,17.60608347580525,0.0,5.831315759327682,0.0,0.0,0.6946085848281014,0.0,4.728798377505476,0.0,8946.054946628266,0.3557385238302942,121.01737283466817,2.1298670516834393,1.2217043373676992,100988.45407321422,287.9676584168166,0.0,0.0,0.0,402.54789473684207,0.2160445340859423,0.86,nominal,7597.703815706408,nan,pitch_program,12.07,0.0,0.0,-3.76059525636281,-0.0,0.0,-3.7594737166351275,0.0,0.0,0.86,0.0,0.0,0.0,0.0,0.0,0.0,-0.06561519449747129,0.0,0.0,-0.06561519449747129,0.0,0.0,19.77083211999568,-0.0039993418418947145,6.941753490092321,0.0010458347417733236,0.01046966160186048,-0.001532915469693964,1.0,169.9348967213331,-1.342865982767711,27.154833560441602,117.72668971757808,-0.26918352903143483,2.6677382913353065,28.434437830638483,121.48494146493302,8868.924870583525,-1.0940332609608998
1.89,195.61239705103281,0.0,28.12156364348572,121.56227967108231,0.0,2.300412816888106,121.58404392829898,17.59960213978267,0.0,5.811132772257421,0.0,0.0,0.6727662426320865,0.0,4.7270118102482765,0.0,9029.97211172123,0.3574045691391576,121.58404392829898,2.1296911200846345,1.2216962380013319,100987.62725052632,287.9672098363173,0.0,0.0,0.0,402.51394736842104,0.21602631477964393,0.86,nominal,7667.1182010836565,nan,pitch_program,12.055,0.0,0.0,-3.761783464084567,-0.0,0.0,-3.760859565104791,0.0,0.0,0.86,0.0,0.0,0.0,0.0,0.0,0.0,-0.06563938211620064,0.0,0.0,-0.06563938211620064,0.0,0.0,19.64434265667345,-0.014612581059159788,6.966852778587622,0.0003055854345507461,0.01201568433311504,-0.0003411062948706504,1.0,195.26682591287178,-1.2389951447554337,27.91392352513109,121.83706313887382,-0.12167131273932834,2.6632258853142785,28.434437830638483,121.3841205499697,9093.631488784156,-1.0940332609608998
1.92,199.27625840882067,0.0,28.189784549772465,122.12871192626163,0.0,2.274030209558067,122.14988125316283,17.59312135033928,0.0,5.791596571827088,0.0,0.0,0.6512066873202982,0.0,4.724875429740714,0.0,9114.156737440995,0.35906816291416654,122.14988125316283,2.129526166316089,1.2216882315640611,100986.80991575816,287.9667664004265,0.0,0.0,0.0,402.48,0.2160080954733456,0.86,nominal,7736.744095735917,nan,pitch_program,12.040000000000001,0.0,0.0,-3.7626828897165643,-0.0,0.0,-3.7619535598718548,0.0,0.0,0.86,0.0,0.0,0.0,0.0,0.0,0.0,-0.06565847592688549,0.0,0.0,-0.06565847592688549,0.0,0.0,19.676025578408694,-0.05849183849588691,6.987426650339901,0.0005658666969142462,0.011947608970616997,0.001447673505714987,1.0,195.26682591287178,-1.2389951447554337,27.91392352513109,121.83706313887382,-0.12167131273932834,2.6632258853142785,28.09179992511038,122.39700325185454,9222.647061917534,-1.2019821554122339
