time_s,x_m,y_m,altitude_m,vx_mps,vy_mps,vz_mps,speed_mps,mass_kg,roll_deg,pitch_deg,yaw_deg,p_dps,q_dps,r_dps,alpha_deg,beta_deg,qbar_pa,mach,airspeed_mps,load_factor_g,density_kgpm3,pressure_pa,temperature_k,wind_x_mps,wind_y_mps,wind_z_mps,thrust_n,mass_flow_kgps,propulsion_throttle_actual,propulsion_health,energy_j_per_kg,target_distance_m,guidance_mode,pitch_command_deg,heading_command_deg,roll_command_deg,elevator_command_deg,aileron_command_deg,rudder_command_deg,elevator_deg,aileron_deg,rudder_deg,throttle,elevator_saturated,aileron_saturated,rudder_saturated,elevator_failed,aileron_failed,rudder_failed,elevator_raw_rad,aileron_raw_rad,rudder_raw_rad,elevator_effective_rad,aileron_effective_rad,rudder_effective_rad,sensor_time_s,imu_valid,imu_ax_mps2,imu_ay_mps2,imu_az_mps2,gyro_p_rps,gyro_q_rps,gyro_r_rps,imu_accel_norm_mps2,imu_gyro_norm_rps,gps_valid,gps_latency_s,gps_x_m,gps_y_m,gps_z_m,gps_vx_mps,gps_vy_mps,gps_vz_mps,baro_valid,baro_alt_m,baro_bias_m,pitot_valid,pitot_airspeed_mps,pitot_qbar_pa,pitot_compressibility_factor,mag_valid,mag_heading_deg,mag_x_ut,mag_y_ut,mag_z_ut,radar_valid,radar_agl_m,optical_flow_valid,optical_flow_x_radps,optical_flow_y_radps,optical_flow_quality,horizon_valid,horizon_roll_deg,horizon_pitch_deg
0.0,0.0,0.0,20.0,85.0,0.0,8.0,85.37564055396598,17.633519126604632,0.0,6.000000000000002,0.0,0.0,0.0,0.0,0.5396440755261187,0.09042345829106828,4467.806158736801,0.25127822353723156,85.48917787541667,1.7829025638628841,1.2226496753673843,101084.96761777384,288.02,-0.10114574227902196,-0.1349178589895554,-0.13488317908401584,326.8,0.17539118863220368,0.86,nominal,3840.633,nan,pitch_program,13.0,0.0,0.0,-20.05352282957881,-0.0,0.0,-2.6999999999999997,0.0,0.0,0.86,0.0,0.0,0.0,0.0,0.0,0.0,-0.047123889803846894,0.0,0.0,-0.047123889803846894,0.0,0.0,0.0,1.0,17.454093490872985,-0.020209024051329728,0.11435436130614011,-0.00041663729163987705,-0.0007873491565204804,0.002827713925469424,17.454479794962026,0.002964704263725511,1.0,0.0,-0.245673998367889,-1.6935992341378452,18.988461048442854,84.93652578647725,-0.05802398367878919,7.9916836480015006,1.0,20.222815898508227,0.0,1.0,85.17452146921394,4530.735658660058,1.0,1.0,-0.5417128263890634,19.546582590338236,-0.0032372630234107527,-43.912301700596245,1.0,20.027074900609485,1.0,0.021251598833740712,4.288711711651136,0.95,1.0,0.09558769260067916,6.0754624275550455
0.03,2.565637560838371,-1.6835320455865454e-05,20.232930217655287,85.5212520279457,-0.0005611773485288485,7.764340588509544,85.87298488766245,17.628257390945667,-0.0009103573159776845,6.273938742150698,0.0018573950991968037,-0.023726358322743626,-9.131309288507111,0.061485989661748744,1.0029493095927384,0.08769334326421013,4519.796796186537,0.25273951418730967,85.9861081092231,1.8112973643409827,1.2226223224144446,101082.1747930085,288.01848595358524,-0.10114574227902196,-0.1349178589895554,-0.13488317908401584,332.605,0.1785066900092231,0.86,nominal,3885.5020318773213,nan,pitch_program,12.985,0.0,0.0,-1.3564980898945993,-0.0018358872538642083,-0.005733159539542339,-1.8938988539367596,0.0,0.0,0.86,0.0,0.0,0.0,0.0,0.0,0.0,-0.03305477070094363,0.0,0.0,-0.03305477070094363,0.0,0.0,0.03,1.0,17.63975553464815,0.004356637491956059,0.617297936776567,-0.0020013244144646836,-0.1605807177427007,0.00027872111342256345,17.650553845281706,0.16059343042488353,1.0,0.0,-0.245673998367889,-1.6935992341378452,18.988461048442854,84.93652578647725,-0.05802398367878919,7.9916836480015006,1.0,20.222815898508227,0.0,1.0,86.21504427459998,4536.096964181587,1.0,1.0,-0.5417128263890634,19.546582590338236,-0.0032372630234107527,-43.912301700596245,1.0,20.027074900609485,1.0,0.021251598833740712,4.288711711651136,0.95,1.0,0.09558769260067916,6.0754624275550455
0.06,5.147099798838216,-4.97444298893726e-05,20.459303203224234,86.04874126666151,-0.001096970314450238,7.545766185631571,86.37895844537847,17.62290219024539,-0.002733234271256655,6.6590337337576555,0.0055422016251810875,-0.046929474155822465,-12.836551918683503,0.12163798139538291,1.5643243915590148,0.08320299619901779,4573.00524464619,0.2542262385200859,86.49169505997193,1.8403028586784607,1.2225957399246399,101079.46064908245,288.017014529179,-0.10114574227902196,-0.1349178589895554,-0.13488317908401584,338.40999999999997,0.18162219138624247,0.86,nominal,3931.2994568121094,nan,pitch_program,12.97,0.0,0.0,-0.20992939555209342,-0.003994760253751843,-0.012153875418537609,-0.8835171789059599,0.0,0.0,0.86,0.0,0.0,0.0,0.0,0.0,0.0,-0.015420283769840792,0.0,0.0,-0.015420283769840792,0.0,0.0,0.06,1.0,18.036416411964286,-0.00449099937916274,1.1631486946271152,0.000515601479608942,-0.22637418269432616,0.0022902447479944653,18.07388314780924,0.22638635483706973,1.0,0.0,-0.245673998367889,-1.6935992341378452,18.988461048442854,84.93652578647725,-0.05802398367878919,7.9916836480015006,1.0,20.032636321169257,0.0,1.0,86.74120550163283,4590.82680305547,1.0,1.0,0.7471943888132967,18.95706175487152,0.035608555391001384,-44.056022944549326,1.0,20.239249562456788,1.0,0.0046248014268986375,4.204091454051606,0.9488517419919394,1.0,-0.14439318679355065,6.563101202536866
0.09,7.744540758419369,-9.70788645696196e-05,20.67976549324772,86.58136531937176,-0.0015778144893415667,7.348743000782938,86.8926742985136,17.617453524503805,-0.0054531336163883325,6.969747391344134,0.010977132879325276,-0.0691674705689015,-10.357160128080997,0.1791453337211531,2.0354170457041034,0.07706620228604857,4627.3536358486,0.25573581031409315,87.00505826858958,1.8705137011872017,1.222569851940018,101076.81742933669,288.01558152429385,-0.10114574227902196,-0.1349178589895554,-0.13488317908401584,344.215,0.18473769276326188,0.86,nominal,3977.9676456481407,nan,pitch_program,12.955,0.0,0.0,-0.6509653490396493,-0.006441762340952038,-0.01910354582033322,-0.7439860809861736,0.0,0.0,0.86,0.0,0.0,0.0,0.0,0.0,0.0,-0.01298500670221791,0.0,0.0,-0.01298500670221791,0.0,0.0,0.09,1.0,18.305023157419708,-0.04431610899612866,1.5804509260774,-0.0029724258002860543,-0.1834856577771782,0.0009616550449765278,18.37317778286944,0.183512252194472,1.0,0.0,-0.245673998367889,-1.6935992341378452,18.988461048442854,84.93652578647725,-0.05802398367878919,7.9916836480015006,1.0,20.032636321169257,0.0,1.0,86.78543612608915,4672.735516289982,1.0,1.0,0.7471943888132967,18.95706175487152,0.035608555391001384,-44.056022944549326,1.0,20.239249562456788,1.0,0.0046248014268986375,4.204091454051606,0.9488517419919394,1.0,-0.14439318679355065,6.563101202536866
0.12,10.35813634165022,-0.00015627058565021904,20.894804682623707,87.11985277436165,-0.0019730573693533147,7.16797297919949,87.41423561382858,17.611911393720906,-0.0090184594647579,7.15017655426185,0.01804000823833114,-0.08990802730376594,-6.014339860914368,0.23288492058373236,2.3640592805887923,0.06942222059885081,4682.8666048671075,0.2572685108396691,87.5262929903277,1.9012135232017224,1.222544601171935,101074.23928346032,288.0141837695629,-0.10114574227902196,-0.1349178589895554,-0.13488317908401584,350.02,0.1878531941402813,0.86,nominal,4025.5323303158207,nan,pitch_program,12.94,0.0,0.0,-1.6307030341128765,-0.00909867055992964,-0.026411137750800787,-1.2760162528621952,0.0,0.0,0.86,0.0,0.0,0.0,0.0,0.0,0.0,-0.022270684921405826,0.0,0.0,-0.022270684921405826,0.0,0.0,0.12,1.0,18.567783054358294,-0.06638679449234383,1.7519405965589185,0.0002966332018223747,-0.10461261004923429,0.0022554529027201224,18.65036918170976,0.10463734151996584,1.0,0.0,-0.245673998367889,-1.6935992341378452,18.988461048442854,84.93652578647725,-0.05802398367878919,7.9916836480015006,1.0,20.080897551632717,0.0,1.0,87.50258413947635,4643.732142543147,1.0,1.0,-0.42614081877317156,18.63443324943275,0.002295383612644037,-44.200816658953684,1.0,21.00753929053803,1.0,-0.0032179305017880277,4.178598343234756,0.9477629882934407,1.0,-0.14055841041859815,7.121086158494815
0.15,12.988100810953801,-0.0002238536682482241,21.104709916244648,87.6654823101194,-0.0022527694199335024,6.996841120698048,87.94425836522313,17.606275797896696,-0.013347710506160787,7.246287920298719,0.026579966180494047,-0.10863905097040785,-3.203768016149859,0.28179648334515606,2.600753497849194,0.06043481881424037,4739.624339607667,0.2588261226492632,88.05600542383318,1.932289572627581,1.2225199536384328,101071.72274091616,288.0128193855444,-0.10114574227902196,-0.1349178589895554,-0.13488317908401584,355.825,0.1909686955173007,0.86,nominal,4074.0627932047,nan,pitch_program,12.925,0.0,0.0,-2.2745362037204035,-0.011887117079489829,-0.0339368069748815,-1.8751282233771203,0.0,0.0,0.86,0.0,0.0,0.0,0.0,0.0,0.0,-0.03272716139500245,0.0,0.0,-0.03272716139500245,0.0,0.0,0.15,1.0,18.841634304487563,0.028950891361470752,1.9884904925297495,-0.0031653246094162707,-0.05355211918910241,0.0033129352538846814,18.946295570824244,0.053747784042909516,1.0,0.0,-0.245673998367889,-1.6935992341378452,18.988461048442854,84.93652578647725,-0.05802398367878919,7.9916836480015006,1.0,20.080897551632717,0.0,1.0,88.0605399916025,4724.496169742636,1.0,1.0,-0.42614081877317156,18.63443324943275,0.002295383612644037,-44.200816658953684,1.0,21.00753929053803,1.0,-0.0032179305017880277,4.178598343234756,0.9477629882934407,1.0,-0.14055841041859815,7.121086158494815
0.18,15.634670374422894,-0.00029551426490488425,21.3096779230797,88.21898544896979,-0.002388686555222004,6.832266894501771,88.48315811649735,17.600546737031177,-0.018343801439235505,7.3181335545549375,0.036423341648060895,-0.1249459168761842,-2.394944709629341,0.32480363946481366,2.807673210418681,0.050297119895963645,4797.687744665485,0.2604098543736588,88.59460659525956,1.9638410446288328,1.222495886211793,101069.26543947788,288.01148709349997,-0.10114574227902196,-0.1349178589895554,-0.13488317908401584,361.63,0.19408419689432013,0.86,nominal,4123.611188138905,nan,pitch_program,12.91,0.0,0.0,-2.431472199909517,-0.014747148725540827,-0.041546804739048475,-2.2089346092965583,0.0,0.0,0.86,0.0,0.0,0.0,0.0,0.0,0.0,-0.038553181893479484,0.0,0.0,-0.038553181893479484,0.0,0.0,0.18,1.0,19.171552268523403,-0.019267265414152877,2.0713326399430714,-0.0013711946699004236,-0.03999542371266659,0.006216855112070629,19.28313269459957,0.040498930606412,1.0,0.0,-0.245673998367889,-1.6935992341378452,18.988461048442854,84.93652578647725,-0.05802398367878919,7.9916836480015006,1.0,21.345886029283093,0.0,1.0,88.69311130057643,4776.104633957752,1.0,1.0,-2.570076967883209,18.51446630351984,-0.029675396876023146,-44.304256708207944,1.0,21.169412443873732,1.0,0.013351657777745272,4.127792690155398,0.9467258051923008,1.0,0.7082931907347939,7.034256513954915
0.21,18.298083643872,-0.0003661502364521903,21.509908600322518,88.78044231497023,-0.002354532384910201,6.674355908093952,89.03097197028397,17.594724211124348,-0.02389932958441428,7.390166660442133,0.04736623687634111,-0.13849385044045814,-2.401237044585227,0.3608775032318836,3.0092687908952556,0.03923143527708458,4857.078346420488,0.2620198159325561,89.14213372788686,1.9957995973454417,1.2224723753943287,101066.86497920954,288.0101855940979,-0.10114574227902196,-0.1349178589895554,-0.13488317908401584,367.435,0.19719969827133954,0.86,nominal,4174.197130162097,nan,pitch_program,12.895,0.0,0.0,-2.384474297025007,-0.017623978929847933,-0.04907487343018221,-2.3142584219336273,0.0,0.0,0.86,0.0,0.0,0.0,0.0,0.0,0.0,-0.04039142920474995,0.0,0.0,-0.04039142920474995,0.0,0.0,0.21,1.0,19.48772451766789,-0.05915155572356949,2.3577813492148554,-0.0045192443947006545,-0.04156853018149432,0.004876813658570478,19.629927118401742,0.04209690704564003,1.0,0.0,17.555665058575215,0.1774574948138145,22.89694008938516,88.54499410150088,0.0034224900812961675,6.646770429614659,1.0,21.345886029283093,0.0,1.0,88.35547082321625,4840.790826306017,1.0,1.0,-2.570076967883209,18.51446630351984,-0.029675396876023146,-44.304256708207944,1.0,21.169412443873732,1.0,0.013351657777745272,4.127792690155398,0.9467258051923008,1.0,0.7082931907347939,7.034256513954915
0.24,20.97857549769812,-0.0004299468352251221,21.705626879403635,89.34972846087067,-0.0021265532924310613,6.523942636037231,89.58758735490008,17.588808220176208,-0.029893855573557008,7.455779411196362,0.05917015765492693,-0.14898464721648738,-2.187274848824802,0.3891399047521734,3.198458489893911,0.027482807624332386,4917.801749528851,0.2636556804294834,89.69847540774984,2.027975607611791,1.2224493947509114,101064.51866032573,288.0089134252839,-0.10114574227902196,-0.1349178589895554,-0.13488317908401584,373.24,0.20031519964835895,0.86,nominal,4225.82738987283,nan,pitch_program,12.88,0.0,0.0,-2.396088648397306,-0.020453726099336683,-0.056328588291266295,-2.363356557811834,0.0,0.0,0.86,0.0,0.0,0.0,0.0,0.0,0.0,-0.04124835333241622,0.0,0.0,-0.04124835333241622,0.0,0.0,0.24,1.0,19.682584886231886,-0.018883670200818447,2.498847922552529,-0.0006688055398345175,-0.036660453364496116,0.006400025221353803,19.840583291243462,0.03722091434361161,1.0,0.0,17.555665058575215,0.1774574948138145,22.89694008938516,88.54499410150088,0.0034224900812961675,6.646770429614659,1.0,21.835019908043822,0.0,1.0,90.67101134743776,4872.467132595218,1.0,1.0,-1.347094151488092,18.52004576031252,-0.005055616333940284,-44.35773155633271,1.0,21.84808589657999,1.0,-0.013975491125577673,4.135576790318629,0.9457359328014909,1.0,-0.2600074968417941,7.707138810084042
0.27,23.676381350488008,-0.0004804788055327602,21.89705743288092,89.92686175966297,-0.001684399010254604,6.381018449242912,90.15296925353215,17.58279876418676,-0.03619242066582198,7.502639776524114,0.07156991177429584,-0.15615110884348923,-1.562248347434258,0.4089077702940503,3.3629920850754575,0.01531130511409061,4979.871961740234,0.26531734529611056,90.26359653788792,2.060204343168572,1.2224269178788727,101062.22378641993,288.00766912668627,-0.10114574227902196,-0.1349178589895554,-0.13488317908401584,379.045,0.20343070102537836,0.86,nominal,4278.515710888318,nan,pitch_program,12.865,0.0,0.0,-2.5209341385019104,-0.023164955720112925,-0.06312537393014894,-2.4579031062258796,0.0,-0.03787522435808937,0.86,0.0,0.0,0.0,0.0,0.0,0.0,-0.04289850189863754,0.0,-0.0006610473699802153,-0.04289850189863754,0.0,-0.0006610473699802153,0.27,1.0,20.022736776298203,-0.044198946492225936,2.6971838870343414,-0.0036421036904399334,-0.028401222678133827,0.00792535838658255,20.20363191310595,0.02971036308193883,1.0,0.0,17.555665058575215,0.1774574948138145,22.89694008938516,88.54499410150088,0.0034224900812961675,6.646770429614659,1.0,21.835019908043822,0.0,1.0,90.42059942486416,5024.811369102337,1.0,1.0,-1.347094151488092,18.52004576031252,-0.005055616333940284,-44.35773155633271,1.0,21.84808589657999,1.0,-0.013975491125577673,4.135576790318629,0.9457359328014909,1.0,-0.2600074968417941,7.707138810084042
0.3,26.39174240208675,-0.0005139030113918421,22.084400024555578,90.51203505329131,-0.0011141401953027328,6.244753055821851,90.72720337064148,17.576695843155996,-0.04273122749466548,7.527883363417921,0.08491378498838661,-0.15978526516839073,-0.8417564276961748,0.4403953714382216,3.500613478124084,0.002301715067014995,5043.3164428615755,0.267005058814822,90.83758140668213,2.0924424064852807,1.222404921302129,101059.97795994824,288.0064513998404,-0.10114574227902196,-0.1349178589895554,-0.13488317908401584,384.84999999999997,0.20654620240239774,0.86,nominal,4332.286697229678,nan,pitch_program,12.850000000000001,0.0,0.0,-2.681730820106172,-0.025853941004574353,-0.07124745159938449,-2.592199734554055,0.0,-0.05789856070286644,0.86,0.0,0.0,0.0,0.0,0.0,0.0,-0.04524242023729128,0.0,-0.0010105205164308217,-0.04524242023729128,0.0,-0.0010105205164308217,0.3,1.0,20.30824348412414,0.02565539986282184,2.905486312096612,-0.0022842751557671723,-0.015033420565909656,0.007038728591034859,20.515049654334096,0.016756054042554952,1.0,0.0,17.555665058575215,0.1774574948138145,22.89694008938516,88.54499410150088,0.0034224900812961675,6.646770429614659,1.0,22.380440574994907,0.0,1.0,90.90131335480937,5013.898259465054,1.0,1.0,0.05395754236270761,18.35110102112552,0.03147683392918712,-44.34859266001945,1.0,22.044301994312004,1.0,0.0028871301454307667,4.090755303775841,0.9447889999386111,1.0,-0.8542431180739074,7.697541810497642
0.32999999999999996,29.124906731026908,-0.0005243003267479095,22.267826359972798,91.10547763133864,-0.0003465771785355824,6.114211180574049,91.31041360608941,17.570499457083923,-0.04939682720236112,7.536998663846736,0.09924556388115457,-0.1595627400608008,-0.30422401281928024,0.4733591400186615,3.617473814221953,-0.011557187549179001,5108.167465068281,0.2687191817518883,91.4205525960259,2.124729883125757,1.2223833848406893,101057.77911994663,288.00525912866016,-0.10114574227902196,-0.1349178589895554,-0.13488317908401584,390.655,0.20966170377941715,0.86,nominal,4387.168595830586,nan,pitch_program,12.835,0.0,0.0,-2.805807439875926,-0.02839822236694701,-0.07990121387749774,-2.7203643577471777,0.0,-0.07110015260764523,0.86,0.0,0.0,0.0,0.0,0.0,0.0,-0.047479314896589166,0.0,-0.0012409317616738412,-0.047479314896589166,0.0,-0.0012409317616738412,0.32999999999999996,1.0,20.700816310803816,0.032860241238210824,2.960789935721945,-0.003104590010466928,-0.005557173428439602,0.01079104852336207,20.9115076637857,0.01252866249367429,1.0,0.0,17.555665058575215,0.1774574948138145,22.89694008938516,88.54499410150088,0.0034224900812961675,6.646770429614659,1.0,22.380440574994907,0.0,1.0,91.33769654504833,5121.540210954913,1.0,1.0,0.05395754236270761,18.35110102112552,0.03147683392918712,-44.34859266001945,1.0,22.044301994312004,1.0,0.0028871301454307667,4.090755303775841,0.9447889999386111,1.0,-0.8542431180739074,7.697541810497642
0.36,31.876127206614722,-0.0005045019265407971,22.44749070768999,91.70734918626053,0.0006599466735704152,5.98881159057304,91.90268635613234,17.56420960597054,-0.056049172028893895,7.536378009052955,0.11447661130231127,-0.15515417029559933,0.020225338506972848,0.5033344139035985,3.7203903688352837,-0.02616228463094667,5174.453784039072,0.27045996598958527,92.0125956595997,2.157097606870606,1.2223622903633353,101055.6254146732,288.0040913104,-0.10114574227902196,-0.1349178589895554,-0.13488317908401584,396.46,0.21277720515643656,0.86,nominal,4443.186564485384,nan,pitch_program,12.82,0.0,0.0,-2.8820581399433256,-0.030704451587689977,-0.08869630320337295,-2.8173806270648667,0.0,-0.08165784296508186,0.86,0.0,0.0,0.0,0.0,0.0,0.0,-0.049172568224184386,0.0,-0.0014251982198171674,-0.049172568224184386,0.0,-0.0014251982198171674,0.36,1.0,20.984053915437748,-0.019338710449292612,3.0734603361792123,-0.0035585074096080092,-0.0006238422640758288,0.009090820800200504,21.207947829759178,0.009782391168627459,1.0,0.0,17.555665058575215,0.1774574948138145,22.89694008938516,88.54499410150088,0.0034224900812961675,6.646770429614659,1.0,23.03557843731521,0.0,1.0,92.23515772430744,5181.411292877839,1.0,1.0,0.2693255662970854,18.371450373271937,-0.009707304681894766,-44.396090307029546,1.0,22.932079439130824,1.0,0.022066612715173177,4.071100702369051,0.943881273230775,1.0,-0.05564183681619816,7.769090607996714
0.39,34.64565928481289,-0.00044645212995303896,22.623539569613584,92.31773593993904,0.0019349932195919374,5.868295397453084,92.50406079568766,17.557826289815846,-0.0625309127193239,7.529065193244394,0.13045115047270406,-0.1462533413319755,0.24321413366439812,0.5281413468448686,3.8126208952549434,-0.04135445952056654,5242.1994087064995,0.2722275258978537,92.6137493740361,2.1895311356775626,1.2223416206520454,101053.51508566308,288.0029469927975,-0.10114574227902196,-0.1349178589895554,-0.13488317908401584,402.265,0.21589270653345596,0.86,nominal,4500.361766166491,nan,pitch_program,12.805,0.0,0.0,-2.9366868861367603,-0.03268872060247578,-0.09738825431956168,-2.8889643825080027,0.0,-0.09109608977776974,0.86,0.0,0.0,0.0,0.0,0.0,0.0,-0.050421940447609524,0.0,-0.0015899267023144316,-0.050421940447609524,0.0,-0.0015899267023144316,0.39,1.0,21.26126558227785,0.04491982853114018,3.212107698153781,0.002304331667099394,0.005428643318034068,0.009711087218507004,21.502582817319567,0.011361572411945589,1.0,0.0,17.555665058575215,0.1774574948138145,22.89694008938516,88.54499410150088,0.0034224900812961675,6.646770429614659,1.0,23.03557843731521,0.0,1.0,92.0821155223066,5302.44888987778,1.0,1.0,0.2693255662970854,18.371450373271937,-0.009707304681894766,-44.396090307029546,1.0,22.932079439130824,1.0,0.022066612715173177,4.071100702369051,0.943881273230775,1.0,-0.05564183681619816,7.769090607996714
0.42,37.433760226238036,-0.0003414031360181425,22.796114313252854,92.93669804750478,0.0035016331311632162,5.7524914546423,93.11455855112156,17.551349508619843,-0.06867156330514046,7.515423329441542,0.1469735928753273,-0.13258931681694647,0.454103341369158,0.5465286987229432,3.8946839682528807,-0.056942816856587086,5311.4267792023875,0.2740219245932981,93.22403508262154,2.199644309530269,1.222321359092851,101051.44643616222,288.00182525696385,-0.10114574227902196,-0.1349178589895554,-0.13488317908401584,404.1773684210526,0.21691906078826353,0.86,nominal,4558.714021515184,nan,pitch_program,12.79,0.0,0.0,-2.9918331424876716,-0.034269464799838605,-0.1057887554146332,-2.9506856384958042,0.0,-0.09991168915988781,0.86,0.0,0.0,0.0,0.0,0.0,0.0,-0.05149917958306292,0.0,-0.0017437879370691696,-0.05149917958306292,0.0,-0.0017437879370691696,0.42,1.0,21.35821848129457,0.0094896487326834,3.3520279217040723,-0.001997812103496557,0.007963875158455163,0.009486353694578897,21.619659524054253,0.01254613355416669,1.0,0.0,36.652952180719794,0.8712763385422471,23.21253846086192,92.77083206367837,0.04497999969185426,5.580597122551674,1.0,23.41770274663762,0.0,1.0,92.82819850852606,5343.835347949013,1.0,1.0,-1.174007987727791,18.38480355760528,-0.051623386818779385,-44.48063060604156,1.0,22.879895434025997,1.0,0.012821322081204192,4.064075082633309,0.9430097142168679,1.0,-0.16947582604195874,8.09162909844709
0.44999999999999996,40.2404914003434,-0.00018056339022154639,22.965323518740906,93.55770580351215,0.005361324859886537,5.640306849601769,93.72757014517127,17.544841936796196,-0.07429052263628122,7.495473120999117,0.16382247721126297,-0.11393833776009465,0.6643117632506287,0.557646914679531,3.9670676067368724,-0.0727193229345409,5381.398041076766,0.2758237314900403,93.83684229018687,2.1986145701974897,1.2223014929223552,101049.41816258356,288.0007253971282,-0.10114574227902196,-0.1349178589895554,-0.13488317908401584,404.14342105263154,0.21690084148196515,0.86,nominal,4617.6415925440615,nan,pitch_program,12.775,0.0,0.0,-3.0503425140058926,-0.03536661514127185,-0.11373579865787392,-3.0104797638018574,0.0,-0.10820615485867947,0.86,0.0,0.0,0.0,0.0,0.0,0.0,-0.052542783943003615,0.0,-0.0018885536732068163,-0.052542783943003615,0.0,-0.0018885536732068163,0.44999999999999996,1.0,21.315380363845346,-0.014723676915820017,3.4546300598009236,-0.003140018072518725,0.011204471227110092,0.012951378396037445,21.593520456195783,0.01741086130357219,1.0,0.0,36.652952180719794,0.8712763385422471,23.21253846086192,92.77083206367837,0.04497999969185426,5.580597122551674,1.0,23.41770274663762,0.0,1.0,93.52353025774545,5254.419997621264,1.0,1.0,-1.174007987727791,18.38480355760528,-0.051623386818779385,-44.48063060604156,1.0,22.879895434025997,1.0,0.012821322081204192,4.064075082633309,0.9430097142168679,1.0,-0.16947582604195874,8.09162909844709
0.48,43.06581736578048,4.488124743382119e-05,23.131254886234114,94.17753218123605,0.007514821255178919,5.5310455831069305,94.33981179471738,17.538334911551736,-0.07920014693415704,7.470015863793497,0.18075795259557265,-0.0901385986041048,0.8478247867272496,0.5608446476165486,4.030934690556406,-0.08846076802334046,5451.739657958148,0.277623292019907,94.44888642441745,2.1976192425639898,1.222282011829485,101047.42921174255,287.9996468432395,-0.10114574227902196,-0.1349178589895554,-0.13488317908401584,404.1094736842105,0.2168826221756668,0.86,nominal,4676.840165461435,nan,pitch_program,12.76,0.0,0.0,-3.1052646415495646,-0.03590275859007006,-0.12107960778165824,-3.067350690450482,0.0,-0.11593022661246673,0.86,0.0,0.0,0.0,0.0,0.0,0.0,-0.053535368861682295,0.0,-0.0020233641569706966,-0.053535368861682295,0.0,-0.0020233641569706966,0.48,1.0,21.177011777484818,0.042469206639439254,3.570404291601949,-0.0032938160400564236,0.01650211823450628,0.008884780426459385,21.475926482057368,0.019029147473225212,1.0,0.0,36.652952180719794,0.8712763385422471,23.21253846086192,92.77083206367837,0.04497999969185426,5.580597122551674,1.0,22.84148539967215,0.0,1.0,94.81164039231736,5468.340649806429,1.0,1.0,-0.9111475177092163,18.377381576579733,-0.04868206521396032,-44.289251353655345,1.0,23.243799320941783,1.0,0.02867415215787625,4.080609445130418,0.9421718627844147,1.0,-0.22959576516144056,7.276264678020113
0.51,45.90970462421607,0.0003438571193157066,23.293989169751384,94.79624194785295,0.009965862396062848,5.424476117242397,94.95131662015447,17.531828432886467,-0.08320880277923476,7.440311130540797,0.1975257603428006,-0.061100920973653425,0.9893713403408534,0.5556049498427116,4.087745678390312,-0.10393030668035756,5522.453721534656,0.27942070231626237,95.06020017593896,2.19666037027384,1.2222629063194437,101045.47861381767,287.9985890703966,-0.10114574227902196,-0.1349178589895554,-0.13488317908401584,404.0755263157895,0.21686440286936848,0.86,nominal,4736.312262841953,nan,pitch_program,12.745,0.0,0.0,-3.152077739218412,-0.03580417404786252,-0.127674973336551,-3.11818691971124,0.0,-0.12297707464691729,0.86,0.0,0.0,0.0,0.0,0.0,0.0,-0.05442262844158121,0.0,-0.0021463548570595497,-0.05442262844158121,0.0,-0.0021463548570595497,0.51,1.0,21.18205708634947,-0.003042669334787104,3.6402813449089115,0.001597386987649196,0.014160881409156223,0.008267051950587405,21.492584766316412,0.016475022167700058,1.0,0.0,36.652952180719794,0.8712763385422471,23.21253846086192,92.77083206367837,0.04497999969185426,5.580597122551674,1.0,22.84148539967215,0.0,1.0,95.40015230999016,5554.110845136072,1.0,1.0,-0.9111475177092163,18.377381576579733,-0.04868206521396032,-44.289251353655345,1.0,23.243799320941783,1.0,0.02867415215787625,4.080609445130418,0.9421718627844147,1.0,-0.22959576516144056,7.276264678020113
0.54,48.77212118814786,0.0007252618499078247,23.453601971940472,95.41388546439288,0.01271349101973727,5.3204267396362015,95.56210881796703,17.525322500800385,-0.08612378664682459,7.407419961530419,0.21386006501791038,-0.02681501116831005,1.0955733014862585,0.5415322580757975,4.138720518063982,-0.11888236788155519,5593.541390689295,0.28121603252025984,95.67080739565387,2.1957370939253145,1.2222441675029398,101043.56546082949,287.9975515871824,-0.10114574227902196,-0.1349178589895554,-0.13488317908401584,404.0415789473684,0.2168461835630701,0.86,nominal,4796.0595866466165,nan,pitch_program,12.73,0.0,0.0,-3.191843973201018,-0.035001631772372685,-0.13337937310781187,-3.162381151805107,0.0,-0.12921845372345403,0.86,0.0,0.0,0.0,0.0,0.0,0.0,-0.055193963302009735,0.0,-0.002255287471810199,-0.055193963302009735,0.0,-0.002255287471810199,0.54,1.0,21.20886157250429,-0.028306683017110264,3.703673485338425,-0.0028320910763221883,0.022194991213575686,0.009591678964854586,21.52983529328433,0.02434417138043765,1.0,0.0,36.652952180719794,0.8712763385422471,23.21253846086192,92.77083206367837,0.04497999969185426,5.580597122551674,1.0,22.005335234180446,0.0,1.0,95.1073758871436,5523.546776289281,1.0,1.0,-0.9516557730051359,18.43284615606269,-0.012490075865231633,-44.25015580964681,1.0,23.347698943063964,1.0,0.003055494884691175,4.065077025281488,0.9413659950701488,1.0,-0.5087015029108389,7.371093522232628
0.57,51.65303624098654,0.001197816284974055,23.610165035816394,96.03050176128947,0.015751814502207674,5.218768795864062,96.1722052590527,17.518817115293494,-0.08775428931195607,7.37198721722637,0.22948674679168724,0.01264534629366589,1.1803063363159512,0.5183546253307141,4.184632516976044,-0.13306618280454288,5665.003042907557,0.28300933140823914,96.28072466786756,2.1948435808903897,1.2222257869444655,101041.6888911489,287.9965339272672,-0.10114574227902196,-0.1349178589895554,-0.13488317908401584,404.0076315789474,0.21682796425677175,0.86,nominal,4856.083157143171,nan,pitch_program,12.715,0.0,0.0,-3.2276719117952517,-0.03343150570105496,-0.1380555850492654,-3.2015556077991936,0.0,-0.13452073251894084,0.86,0.0,0.0,0.0,0.0,0.0,0.0,-0.055877686541784176,0.0,-0.002347829694650123,-0.055877686541784176,0.0,-0.002347829694650123,0.57,1.0,21.20519435354844,0.03385687964755168,3.7698760361211536,-0.00393310732732934,0.022512104442587538,0.0072426115791565686,21.53771991617921,0.023973310204658725,1.0,0.0,36.652952180719794,0.8712763385422471,23.21253846086192,92.77083206367837,0.04497999969185426,5.580597122551674,1.0,22.005335234180446,0.0,1.0,95.84622289250888,5679.436539557253,1.0,1.0,-0.9516557730051359,18.43284615606269,-0.012490075865231633,-44.25015580964681,1.0,23.347698943063964,1.0,0.003055494884691175,4.065077025281488,0.9413659950701488,1.0,-0.5087015029108389,7.371093522232628
0.6,54.552419965601786,0.0017699097065589032,23.76374677871952,96.64612415384164,0.019069780719494944,5.11939143010419,96.78161936148275,17.51231227636579,-0.08791458190336057,7.33442789036866,0.24412753479928148,0.057117287760556745,1.251234144258735,0.48593148799871305,4.226010841757866,-0.1462294998371328,5736.838701252377,0.28480063767096825,96.88996514714388,2.193973535366593,1.2222077565995797,101039.84808309238,287.9955356459383,-0.10114574227902196,-0.1349178589895554,-0.13488317908401584,403.9736842105263,0.21680974495047337,0.86,nominal,4916.383670462997,nan,pitch_program,12.7,0.0,0.0,-3.2612459993816505,-0.031037257985191656,-0.14157566596926024,-3.2373698427486675,0.0,-0.13875369258913248,0.86,0.0,0.0,0.0,0.0,0.0,0.0,-0.05650276286073532,0.0,-0.0024217087849804173,-0.05650276286073532,0.0,-0.0024217087849804173,0.6,1.0,21.186534901462455,0.053426715791744205,3.919131712332574,0.001105702579845439,0.020015179477802316,0.008669235345926207,21.546036965610586,0.021840000668653197,1.0,0.0,36.652952180719794,0.8712763385422471,23.21253846086192,92.77083206367837,0.04497999969185426,5.580597122551674,1.0,23.549183909987196,0.0,1.0,96.5955455453101,5758.235615299142,1.0,1.0,0.4523537440214202,18.517536331544406,-0.1200675345051763,-44.34045889548663,1.0,23.915159397184784,1.0,0.02890752104895275,4.052616810136226,0.9405906330532012,1.0,-0.5935255505874607,6.9901927731
0.63,57.47024344672993,0.0024494402281738555,23.914412548648265,97.26078270427158,0.02265101738716507,5.022192330958166,97.39036287603234,17.505807984017277,-0.08642742218351328,7.295137707168181,0.2575045440254219,0.10634425400722688,1.3089984284864957,0.4442634832193435,4.263357210222643,-0.15812253285931593,5809.048232634214,0.28658998512356215,97.49854033060348,2.193123627993001,1.2221900687847695,101038.04225184402,287.99455631843375,-0.10114574227902196,-0.1349178589895554,-0.13488317908401584,403.9397368421053,0.21679152564417503,0.86,nominal,4976.96166438283,nan,pitch_program,12.685,0.0,0.0,-3.292506222206006,-0.027770998231144574,-0.14382393309373342,-3.270451670423071,0.0,-0.14179583689189307,0.86,0.0,0.0,0.0,0.0,0.0,0.0,-0.05708014967623103,0.0,-0.0024748042193843767,-0.05708014967623103,0.0,-0.0024748042193843767,0.63,1.0,21.13766617907143,0.04672690858909057,3.9672759795670633,0.00293254197652905,0.02493611143429677,0.008682196522512432,21.506798776198572,0.02656670834641164,1.0,0.0,55.83662776239941,1.9103827773152051,23.56075633618668,97.05560670885279,0.1655990527205073,5.124629908306221,1.0,23.549183909987196,0.0,1.0,97.36805244563496,5776.205256505328,1.0,1.0,0.4523537440214202,18.517536331544406,-0.1200675345051763,-44.34045889548663,1.0,23.915159397184784,1.0,0.02890752104895275,4.052616810136226,0.9405906330532012,1.0,-0.5935255505874607,6.9901927731
0.6599999999999999,60.40647855820835,0.003243652743922754,24.062224994768794,97.87450371594718,0.02647375052496329,4.927081537350932,97.99844545184445,17.49930423824795,-0.08312757082984056,7.254533456675806,0.26934487206959706,0.15997266052284648,1.3528943103497997,0.39350276910536974,4.297184388874281,-0.16850217180130683,5881.631289919569,0.28837740144352003,98.10645962832048,2.192292997660251,1.2221727161339158,101036.27064500951,287.99359553753396,-0.10114574227902196,-0.1349178589895554,-0.13488317908401584,403.9057894736842,0.21677330633787664,0.86,nominal,5037.817474234015,nan,pitch_program,12.67,0.0,0.0,-3.321044443173482,-0.02359489753433112,-0.14469905438707092,-3.3008073340733173,0.0,-0.1435377673889998,0.86,0.0,0.0,0.0,0.0,0.0,0.0,-0.0576099559535558,0.0,-0.0025052066418997905,-0.0576099559535558,0.0,-0.0025052066418997905,0.6599999999999999,1.0,21.136318164138803,0.005138692452819355,4.050699846935276,0.005372948879732338,0.026500919348758437,0.006890067482062337,21.52096980137804,0.027904127578209446,1.0,0.0,55.83662776239941,1.9103827773152051,23.56075633618668,97.05560670885279,0.1655990527205073,5.124629908306221,1.0,24.15070534333633,0.0,1.0,98.26969382378444,5778.616901098976,1.0,1.0,-0.6331586419982246,18.563845290888057,-0.07027405817101975,-44.29133694093504,1.0,24.006455581694937,1.0,0.0169461643968807,4.039000820679715,0.939844437513078,1.0,0.015799696723719184,6.524689447728905
0.69,63.36109782789664,0.004158976835900079,24.207244554739106,98.48730898960976,0.03051080306591082,4.833985332343769,98.60587394834694,17.492801039057817,-0.07786532850441301,7.212990890243062,0.279385299259559,0.21755037287465437,1.3842844506350627,0.3339622444890703,4.327952286842136,-0.17713642585154898,5954.58722146906,0.2901629061635629,98.71372968005905,2.1914811477179104,1.2221556915410503,101034.53253677122,287.99265291039416,-0.10114574227902196,-0.1349178589895554,-0.13488317908401584,403.8718421052631,0.21675508703157828,0.86,nominal,5098.951163371375,nan,pitch_program,12.655,0.0,0.0,-3.346992785344958,-0.01848246110081548,-0.14411629819553953,-3.328518604836302,0.0,-0.14388488587292364,0.86,0.0,0.0,0.0,0.0,0.0,0.0,-0.05809360886828152,0.0,-0.0025112650023387927,-0.05809360886828152,0.0,-0.0025112650023387927,0.69,1.0,21.170882656981746,0.0553136789769937,4.189294057623141,0.002480096403411209,0.02654520379296135,0.0062603153995803625,21.581462341092852,0.02738595025706221,1.0,0.0,55.83662776239941,1.9103827773152051,23.56075633618668,97.05560670885279,0.1655990527205073,5.124629908306221,1.0,24.15070534333633,0.0,1.0,99.05478163588438,5963.012840164348,1.0,1.0,-0.6331586419982246,18.563845290888057,-0.07027405817101975,-44.29133694093504,1.0,24.006455581694937,1.0,0.0169461643968807,4.039000820679715,0.939844437513078,1.0,0.015799696723719184,6.524689447728905
0.72,66.33407431449388,0.00520086718888807,24.349529891973475,99.09921621990762,0.03472967843293302,4.742844574479039,99.21265260141082,17.48629838644687,-0.07051005258876002,7.170804727182564,0.2873772354909887,0.2785269990879259,1.4058621005107492,0.2661225456154891,4.3560294697017925,-0.18380902543606534,6027.915080473018,0.2919465111536412,99.32035451886826,2.190686972126285,1.2221389881089981,101032.82722264377,287.99172805570214,-0.10114574227902196,-0.1349178589895554,-0.13488317908401584,403.8378947368421,0.21673686772527995,0.86,nominal,5160.362535419237,nan,pitch_program,12.64,0.0,0.0,-3.370861859053623,-0.012419725213341936,-0.14201026885669063,-3.3539245573666947,0.0,-0.14276011566318383,0.86,0.0,0.0,0.0,0.0,0.0,0.0,-0.05853702638954226,0.0,-0.002491634058850486,-0.05853702638954226,0.0,-0.002491634058850486,0.72,1.0,21.11601039667141,0.024095199164572572,4.23176052585652,0.008470852854407369,0.02494717870948049,0.003994474748350973,21.535883376336233,0.026647193138471293,1.0,0.0,55.83662776239941,1.9103827773152051,23.56075633618668,97.05560670885279,0.1655990527205073,5.124629908306221,1.0,24.725189628611002,0.0,1.0,99.30227802079163,5931.256576608753,1.0,1.0,0.5795708546031288,18.588098754085667,-0.06387122502716588,-44.17210952351589,1.0,24.36477322657343,1.0,0.015904760959200598,4.058496690612172,0.9391261752700664,1.0,0.09072050607672791,6.862041937390668
0.75,69.32538151463262,0.0063736493689005025,24.489138204979124,99.71024000462492,0.039092739333747746,4.6536104335215756,99.81878370371557,17.479796280415112,-0.06095361381540119,7.1282041752249405,0.29309189383123324,0.34225594963659545,1.4198006988268168,0.1906365061555457,4.381711633886763,-0.188324105830325,6101.613697507183,0.2937282226046311,99.92633624567424,2.189909198769261,1.2221225991130393,101031.1540157634,287.9908206016676,-0.10114574227902196,-0.1349178589895554,-0.13488317908401584,403.80394736842106,0.21671864841898159,0.86,nominal,5222.051197222435,nan,pitch_program,12.625,0.0,0.0,-3.3930694864542743,-0.005406366879773653,-0.138337684316416,-3.3774115148192423,0.0,-0.14010665685512314,0.86,0.0,0.0,0.0,0.0,0.0,0.0,-0.05894695112836504,0.0,-0.0024453224660837825,-0.05894695112836504,0.0,-0.0024453224660837825,0.75,1.0,21.022803274018706,0.03637214608831665,4.376575546502054,0.008058959559487627,0.02505461883617761,0.003020298020262603,21.47356500316942,0.026491563833394304,1.0,0.0,55.83662776239941,1.9103827773152051,23.56075633618668,97.05560670885279,0.1655990527205073,5.124629908306221,1.0,24.725189628611002,0.0,1.0,100.35731510924876,6047.401825992337,1.0,1.0,0.5795708546031288,18.588098754085667,-0.06387122502716588,-44.17210952351589,1.0,24.36477322657343,1.0,0.015904760959200598,4.058496690612172,0.9391261752700664,1.0,0.09072050607672791,6.862041937390668
0.78,72.33499329194122,0.0076803740752424115,24.626125452760203,100.32039257695286,0.04355749021139695,4.566241592702632,100.42426811449421,17.473294720962542,-0.049113725956474966,7.085384418038559,0.29632554015565055,0.4079983968761169,1.427221918514623,0.10833103477762207,4.405255084172703,-0.19051090329822395,6175.681735455754,0.2955080425168305,100.53167553548053,2.1891470173840566,1.2221065179744184,101029.512244183,287.989930184557,-0.10114574227902196,-0.1349178589895554,-0.13488317908401584,403.77,0.21670042911268322,0.86,nominal,5284.01660633722,nan,pitch_program,12.61,0.0,0.0,-3.413790030067427,0.002543342346789801,-0.1330797837304895,-3.399238623968153,0.0,-0.13589053298034295,0.86,0.0,0.0,0.0,0.0,0.0,0.0,-0.05932790604920571,0.0,-0.0023717372227969272,-0.05932790604920571,0.0,-0.0023717372227969272,0.78,1.0,20.98465620670079,0.02126053942156591,4.40767695044182,0.010307658462448162,0.02207466599554421,0.002098915234946442,21.4425713062454,0.024452896494215268,1.0,0.0,55.83662776239941,1.9103827773152051,23.56075633618668,97.05560670885279,0.1655990527205073,5.124629908306221,1.0,25.14751981529038,0.0,1.0,100.84172879289632,6235.701530621176,1.0,1.0,-0.025591856142492306,18.711582331065607,-0.06028796138929135,-44.19636124500494,1.0,24.82127880756223,1.0,5.062191093302068e-05,4.055625714223618,0.9384346863680995,1.0,-0.29106899173255496,7.218553940230406
0.8099999999999999,75.36288381407535,0.009122683080937728,24.760546558748594,100.92968407113766,0.04807696685651057,4.480703532946326,101.02910542138122,17.466793708089163,-0.03493706669740588,7.042519923844009,0.2969046795258388,0.4749293410422549,1.4288021143666012,0.020206120669708696,4.426890745332246,-0.19022838682811516,6250.117704066835,0.29728596917448624,101.13637179862702,2.188400117064906,1.2220907382363972,101027.90124842635,287.9890564473681,-0.10114574227902196,-0.1349178589895554,-0.13488317908401584,403.73605263157896,0.21668220980638486,0.86,nominal,5346.258085032631,nan,pitch_program,12.595,0.0,0.0,-3.4330984432633254,0.01139979208767817,-0.12624433705472246,-3.4195545155452565,0.0,-0.13010281542497065,0.86,0.0,0.0,0.0,0.0,0.0,0.0,-0.059682485247704344,0.0,-0.0022707224952802033,-0.059682485247704344,0.0,-0.0022707224952802033,0.8099999999999999,1.0,20.999671058838224,0.10650552232903998,4.524809593193563,0.010093252708971191,0.02538251434924743,0.0016191266119426702,21.48188608712817,0.027363613721919238,1.0,0.0,55.83662776239941,1.9103827773152051,23.56075633618668,97.05560670885279,0.1655990527205073,5.124629908306221,1.0,25.14751981529038,0.0,1.0,100.54641547996764,6248.568533838574,1.0,1.0,-0.025591856142492306,18.711582331065607,-0.06028796138929135,-44.19636124500494,1.0,24.82127880756223,1.0,5.062191093302068e-05,4.055625714223618,0.9384346863680995,1.0,-0.29106899173255496,7.218553940230406
0.84,78.40902749335274,0.010700690105121043,24.89245560801324,101.53812264257961,0.0526002341394438,4.396968308821567,101.63329398810683,17.46029324179497,-0.018402110339588374,6.999761490420595,0.294691092310643,0.5421459125276356,1.425315128097994,-0.07256949540932651,4.446821569584171,-0.18736973125904852,6324.919961138785,0.2990619972871171,101.74042322869018,2.1876683606424927,1.2220752535410748,101026.3203791212,287.9881990385479,-0.10114574227902196,-0.1349178589895554,-0.13488317908401584,403.7021052631579,0.2166639905000865,0.86,nominal,5408.7748232248,nan,pitch_program,12.58,0.0,0.0,-3.4511074693268093,0.02111752197750244,-0.1178673595299432,-3.438486287814188,0.0,-0.12276154188795418,0.86,0.0,0.0,0.0,0.0,0.0,0.0,-0.06001290700703496,0.0,-0.0021425931007697362,-0.06001290700703496,0.0,-0.0021425931007697362,0.84,1.0,20.918999923906004,0.022789598084658826,4.6079771647328265,0.008051978859108553,0.023420900202177228,0.0012210538858452853,21.420516584173672,0.024796449391395015,1.0,0.0,77.33817470085413,-0.004153466699937653,21.98855062579489,101.42908490556124,0.2604097341686606,4.357171828844222,1.0,24.88535203581211,0.0,1.0,101.80467699821283,6343.468176907144,1.0,1.0,-0.5494027371804333,18.778736360454594,-0.09213277344510867,-44.1867282518548,1.0,24.80847425068615,1.0,0.03654500717132275,4.065374862027483,0.9377688609799669,1.0,-0.040032002343497075,6.957999882031845
0.87,81.47339893386292,0.01241287987286468,25.021906021105597,102.14571468367306,0.05707299225812122,4.315013769745225,102.23683108057428,17.45379332207997,0.00047840328621965336,6.957233426535687,0.2895866362792651,0.6086779483036059,1.4176286116496515,-0.16866632228584053,4.465220334307338,-0.1818665276528708,6400.086723670082,0.3008361183594789,102.34382692818501,2.1869515861913222,1.2220600576089697,101024.76899491418,287.9873576108628,-0.10114574227902196,-0.1349178589895554,-0.13488317908401584,403.66815789473685,0.21664577119378817,0.86,nominal,5471.565889380814,nan,pitch_program,12.565,0.0,0.0,-3.467968098892365,0.03163496385986821,-0.10801450448697833,-3.4561753744610946,0.0,-0.11391331944736867,0.86,0.0,0.0,0.0,0.0,0.0,0.0,-0.060321639810694036,0.0,-0.001988162486232671,-0.060321639810694036,0.0,-0.001988162486232671,0.87,1.0,20.884623969876728,0.08265912816777943,4.6272936957475,0.014485787200677653,0.026691155829359405,-0.0018511964426128472,21.391264521793087,0.03042503506324365,1.0,0.0,77.33817470085413,-0.004153466699937653,21.98855062579489,101.42908490556124,0.2604097341686606,4.357171828844222,1.0,24.88535203581211,0.0,1.0,101.86139683872045,6571.916763499382,1.0,1.0,-0.5494027371804333,18.778736360454594,-0.09213277344510867,-44.1867282518548,1.0,24.80847425068615,1.0,0.03654500717132275,4.065374862027483,0.9377688609799669,1.0,-0.040032002343497075,6.957999882031845
0.8999999999999999,84.55597288699047,0.014256028586666518,25.148950694794845,102.75246510425187,0.0614382904600613,4.234822456308232,102.83971305337488,17.447293948944157,0.021655441286304266,6.91503738007746,0.2815377019000554,0.6735008417408462,1.4064834974989104,-0.26660593776845887,4.4822341910034735,-0.17369262606317587,6475.616087161054,0.30260832123830833,102.94657909443626,2.1862496489784338,1.2220451442224844,101023.24646078232,287.98653182048383,-0.10114574227902196,-0.1349178589895554,-0.13488317908401584,403.6342105263158,0.2166275518874898,0.86,nominal,5534.630247781352,nan,pitch_program,12.55,0.0,0.0,-3.4838120505916956,0.04287446778364831,-0.09678200978676028,-3.472757380139455,0.0,-0.10363453365100364,0.86,0.0,0.0,0.0,0.0,0.0,0.0,-0.06061105040636583,0.0,-0.0018087638309788735,-0.06061105040636583,0.0,-0.0018087638309788735,0.8999999999999999,1.0,20.968453059220153,0.043473399670653196,4.679358347700284,0.01233495281485178,0.02139291534581306,-0.002227374830285611,21.484280490148844,0.024794537434127174,1.0,0.0,77.33817470085413,-0.004153466699937653,21.98855062579489,101.42908490556124,0.2604097341686606,4.357171828844222,1.0,25.316929037546476,0.0,1.0,102.28061653643023,6401.399868102717,1.0,1.0,0.43930550902988735,18.91470976173551,-0.1475141175212962,-44.14693128964131,1.0,25.276624546766982,1.0,0.012149448865087757,4.078042889975948,0.9371276232630129,1.0,0.04034119183330852,6.45704168270342
0.9299999999999999,87.65672421378298,0.016225148917503308,25.273642116639373,103.35837755975002,0.06563734436122629,4.156380728150866,103.44193550394422,17.44079512238753,0.045042171122186794,6.873258327631881,0.27053919342917077,0.7355506409003306,1.3924230878287518,-0.36477671328501804,4.49799115779744,-0.16286750582538026,6551.506041719717,0.3043785925651871,103.54867517353479,2.185562512274466,1.222030507212438,101021.75214665751,287.98572132624184,-0.10114574227902196,-0.1349178589895554,-0.13488317908401584,403.6002631578947,0.21660933258119142,0.86,nominal,5597.96677286422,nan,pitch_program,12.535000000000002,0.0,0.0,-3.498730414859541,0.05474264295261364,-0.08429710531791618,-3.4883412009715067,0.0,-0.09203207665115117,0.86,0.0,0.0,0.0,0.0,0.0,0.0,-0.06088303938992601,0.0,-0.0016062627550103845,-0.06088303938992601,0.0,-0.0016062627550103845,0.9299999999999999,1.0,20.921262201918402,0.003362217876641073,4.653472833259368,0.010452722204160346,0.025294108514780273,-0.006659440150970648,21.432546111832156,0.02816734758828361,1.0,0.0,77.33817470085413,-0.004153466699937653,21.98855062579489,101.42908490556124,0.2604097341686606,4.357171828844222,1.0,25.316929037546476,0.0,1.0,104.56277884115494,6523.63991212376,1.0,1.0,0.43930550902988735,18.91470976173551,-0.1475141175212962,-44.14693128964131,1.0,25.276624546766982,1.0,0.012149448865087757,4.078042889975948,0.9371276232630129,1.0,0.04034119183330852,6.45704168270342
0.96,90.77562785171202,0.018313462420654094,25.396032463731085,103.9634545976345,0.06961045010502626,4.079678236390418,104.04349336696481,17.434296842410095,0.07051305196532302,6.831968031129096,0.25663791320581814,0.7937413215412243,1.375878671372587,-0.46145354271685374,4.5126038028539135,-0.14945906561313554,6627.754481328106,0.30614691705537816,104.15010995510256,2.1848902469381004,1.2220161404464664,101020.28542624202,287.9849257889857,-0.10114574227902196,-0.1349178589895554,-0.13488317908401584,403.56631578947366,0.21659111327489305,0.86,nominal,5661.574257761273,nan,pitch_program,12.520000000000001,0.0,0.0,-3.512792833892135,0.06713103625972308,-0.07071784295081582,-3.503012180723884,0.04027862175583384,-0.07924353643094995,0.86,0.0,0.0,0.0,0.0,0.0,0.0,-0.06113909629109841,0.0007029945678047201,-0.0013830606216441528,-0.06113909629109841,0.0007029945678047201,-0.0013830606216441528,0.96,1.0,20.887234987889723,0.05030760303271919,4.876511377880831,0.0159428181213628,0.025797258333528257,-0.007979061013511441,21.448997167999458,0.03135821107517113,1.0,0.0,77.33817470085413,-0.004153466699937653,21.98855062579489,101.42908490556124,0.2604097341686606,4.357171828844222,1.0,25.302187594868272,0.0,1.0,104.61955986142841,6602.624761673167,1.0,1.0,0.35720195419419387,18.87525836634576,-0.1398156593040133,-44.15702325003919,1.0,25.42645386486652,1.0,0.012924511466304479,4.083428302576794,0.9365099188406723,1.0,-0.2955938061829967,7.091217959464559
0.99,93.91265878476058,0.020512402008131918,25.516173689298302,104.5676977682853,0.0732979862492608,4.004707518907171,104.64438098372142,17.427799109011847,0.098971134771714,6.791226013250422,0.2399356136524573,0.882570258797455,1.3572482436791078,-0.5548216265522173,4.526167820773388,-0.13367034967160488,6704.359210364182,0.3079132777037471,104.7508776422618,2.1842336839550454,1.2220020378188434,101018.84567596887,287.98414487101957,-0.10114574227902196,-0.1349178589895554,-0.13488317908401584,403.53236842105264,0.21657289396859472,0.86,nominal,5725.451420443276,nan,pitch_program,12.505,0.0,0.0,-3.5260676397620703,0.08207003518078819,-0.056233492258425284,-3.516845456146796,0.06535346981080645,-0.031697414572379984,0.86,0.0,0.0,0.0,0.0,0.0,0.0,-0.061380532493563435,0.001140633225801288,-0.0005532242486576611,-0.061380532493563435,0.001140633225801288,-0.0005532242486576611,0.99,1.0,20.83973543053808,0.0544772019853554,4.966226605650881,0.012844563541390588,0.025574669994852823,-0.007340454323270235,21.423373853784913,0.029545368970220396,1.0,0.0,77.33817470085413,-0.004153466699937653,21.98855062579489,101.42908490556124,0.2604097341686606,4.357171828844222,1.0,25.302187594868272,0.0,1.0,104.84323884699488,6677.529846056866,1.0,1.0,0.35720195419419387,18.87525836634576,-0.1398156593040133,-44.15702325003919,1.0,25.42645386486652,1.0,0.012924511466304479,4.083428302576794,0.9365099188406723,1.0,-0.2955938061829967,7.091217959464559
1.02,97.06779200153713,0.022815299575789434,25.6341176001189,105.17110722588492,0.07676325225525057,3.9314636940198615,105.24459175887795,17.42130192219279,0.13098164734469805,6.7510795557074745,0.2198325306066492,0.9880092945506658,1.336877329975644,-0.668112945913274,4.538768350380844,-0.11490989392122308,6781.31791741854,0.3096776552366426,105.35097166508886,2.1835914207984524,1.2219881932413805,101017.43227407239,287.9833782355992,-0.10114574227902196,-0.1349178589895554,-0.13488317908401584,403.49842105263156,0.21655467466229633,0.86,nominal,5789.596866609645,nan,pitch_program,12.49,0.0,0.0,-3.538630005455132,0.09919443085895396,-0.038721441399305896,-3.529916185731797,0.08565804643969496,-0.012678965828951992,0.86,0.0,0.0,0.0,0.0,0.0,0.0,-0.061608659760459546,0.0014950149411988834,-0.00022128969946306446,-0.061608659760459546,0.0014950149411988834,-0.00022128969946306446,1.02,1.0,20.780042075426326,0.030433933138013618,5.054253331577721,0.012930701466136965,0.02232527946394215,-0.01347830925151631,21.38589609112836,0.029108176923829904,1.0,0.0,77.33817470085413,-0.004153466699937653,21.98855062579489,101.42908490556124,0.2604097341686606,4.357171828844222,1.0,26.27082137538988,0.0,1.0,105.49991313185458,6740.2666486238,1.0,1.0,0.7188874740912489,18.975561314373657,-0.22021743576240058,-44.05529490326618,1.0,25.633956109612598,1.0,0.012719833865031942,4.099169255953264,0.9359147059997027,1.0,0.2869534352049843,7.190992953603052
1.05,100.2410025060568,0.025210037485695884,25.749915905487764,105.77368348398929,0.0798245969968816,3.8599435122954975,105.84411959884943,17.41480528195292,0.1668659896510988,6.7115687122243814,0.19645642183809267,1.1048114313740016,1.3150124226502802,-0.7772530591074409,4.550482642834674,-0.09342745871845037,6858.628297315716,0.3114400309466085,105.95038564492363,2.1829641425007384,1.22197460063767,101016.04460000033,287.9826255466143,-0.10114574227902196,-0.1349178589895554,-0.13488317908401584,403.46447368421053,0.216536455355998,0.86,nominal,5854.009239642323,nan,pitch_program,12.475,0.0,0.0,-3.5505173527461427,0.11821033355520282,-0.020175407122466994,-3.542276885940405,0.10518941870899967,-0.005071586331580798,0.86,0.0,0.0,0.0,0.0,0.0,0.0,-0.061824394676951694,0.0018359016947309672,-8.85158797852258e-05,-0.061824394676951694,0.0018359016947309672,-8.85158797852258e-05,1.05,1.0,20.840385822188388,0.036924813123953945,5.050239968668149,0.01903237202746046,0.023342831188306778,-0.011939656578025981,21.443599707153375,0.032398678245858216,1.0,0.0,100.30006376060444,-1.3748083430981808,25.40624677559333,105.65902789852055,0.2961432416535497,3.6660796014790225,1.0,26.27082137538988,0.0,1.0,106.05906034289559,6833.823032288177,1.0,1.0,0.7188874740912489,18.975561314373657,-0.22021743576240058,-44.05529490326618,1.0,25.633956109612598,1.0,0.012719833865031942,4.099169255953264,0.9359147059997027,1.0,0.2869534352049843,7.190992953603052
1.08,103.4322652860418,0.027680914045233738,25.863620271357068,106.3754259995001,0.08236255198459512,3.790145528976788,106.4429576970497,17.40830918829224,0.20685577964329058,6.672726041788112,0.17028634404382473,1.231335700964052,1.2919233184371026,-0.8706105097262583,4.561378801188512,-0.06978123093762953,6936.287945436479,0.31320038429090485,106.54911257733838,2.182352347776796,1.2219612539367208,101014.68203376357,287.98188646823615,-0.10114574227902196,-0.1349178589895554,-0.13488317908401584,403.43052631578945,0.21651823604969964,0.86,nominal,5918.68709338206,nan,pitch_program,12.46,0.0,0.0,-3.5617735038418368,0.13904917286211793,-0.0017333903804111562,-3.553974856681264,0.12550527120087063,-0.002028634532632319,0.86,0.0,0.0,0.0,0.0,0.0,0.0,-0.06202856278218165,0.00219048021106361,-3.5406351914090316e-05,-0.06202856278218165,0.00219048021106361,-3.5406351914090316e-05,1.08,1.0,20.789122345086835,-0.05684751795507122,5.15522842684346,0.02057294448230915,0.019279362804638645,-0.01138350381751662,21.418851968586488,0.030405986811621065,1.0,0.0,100.30006376060444,-1.3748083430981808,25.40624677559333,105.65902789852055,0.2961432416535497,3.6660796014790225,1.0,26.141929135434207,0.0,1.0,106.74449353482395,6788.493574614055,1.0,1.0,-1.5819384463747252,19.02820518050901,-0.2657624274532666,-44.04326145963429,1.0,25.459573105008673,1.0,0.016928385510952968,4.099141726714751,0.9353409493216074,1.0,0.17671166275999894,6.46459159690567
1.1099999999999999,106.64155528820628,0.030209641597930346,25.975282365674307,106.97633340548246,0.08429091842322024,3.7220698105746237,107.04109873088309,17.401813641210747,0.25116160277386645,6.634576728267568,0.1419872236518567,1.3675627438405877,1.267888813825659,-0.9420259183276636,4.571515313504953,-0.0446943802092095,7014.294376097557,0.3149586933554586,107.14714498992413,2.1817563794077532,1.221948147067625,101013.34395539158,287.9811606646231,-0.10114574227902196,-0.1349178589895554,-0.13488317908401584,403.3965789473684,0.21650001674340127,0.86,nominal,5983.62891156867,nan,pitch_program,12.445,0.0,0.0,-3.5724453990786125,0.16174959952181148,0.015829687111483474,-3.565057182119673,0.14725186819343514,-0.0008114538130529277,0.86,0.0,0.0,0.0,0.0,0.0,0.0,-0.06222198584985941,0.0025700299296881573,-1.4162540765636128e-05,-0.06222198584985941,0.0025700299296881573,-1.4162540765636128e-05,1.1099999999999999,1.0,20.692313770198556,0.041042922164117465,5.316118135066179,0.026549519729228564,0.024676150541592945,-0.015028956485333037,21.364331155264093,0.039238487947958554,1.0,0.0,100.30006376060444,-1.3748083430981808,25.40624677559333,105.65902789852055,0.2961432416535497,3.6660796014790225,1.0,26.141929135434207,0.0,1.0,107.02915090444358,6997.751408910946,1.0,1.0,-1.5819384463747252,19.02820518050901,-0.2657624274532666,-44.04326145963429,1.0,25.459573105008673,1.0,0.016928385510952968,4.099141726714751,0.9353409493216074,1.0,0.17671166275999894,6.46459159690567
1.14,109.86884739865751,0.03277602395262505,26.084953893248155,107.57640368170777,0.08554607848982333,3.6557175857949904,107.63853500623458,17.395318640708446,0.30000996985892747,6.597140083862027,0.11232777153129736,1.5143747215339447,1.2431502576444573,-0.9880558704018528,4.580942115510029,-0.018982177796430775,7092.6450378898835,0.3167149352351721,107.7444750716321,2.1811764808794276,1.2219352739554565,101012.0297445132,287.9804477996939,-0.10114574227902196,-0.1349178589895554,-0.13488317908401584,403.3626315789474,0.21648179743710294,0.86,nominal,6048.8331222414145,nan,pitch_program,12.43,0.0,0.0,-3.5825707266036524,0.18641743459239524,0.03191420827832828,-3.5755653088100607,0.17075120803281119,-0.0003245815252211711,0.86,0.0,0.0,0.0,0.0,0.0,0.0,-0.06240538725882337,0.002980170781930345,-5.665016306254452e-06,-0.06240538725882337,0.002980170781930345,-5.665016306254452e-06,1.14,1.0,20.74226175114646,-0.04744273096128321,5.3233361616117945,0.025285552305203688,0.019496441099850135,-0.01499376005342979,21.414518001937804,0.03527439881102078,1.0,0.0,100.30006376060444,-1.3748083430981808,25.40624677559333,105.65902789852055,0.2961432416535497,3.6660796014790225,1.0,26.264344534459106,0.0,1.0,107.67516480603439,7008.163163548118,1.0,1.0,-0.4465658080516488,19.06919121086594,-0.31788204275771564,-44.04725913285973,1.0,26.384992742165196,1.0,-0.005929185559122995,4.120038452267152,0.9347876152668796,1.0,-0.41676214502877384,6.5625117974825855
1.17,113.1141164273805,0.03535852480279198,26.19268662234407,108.17563429076601,0.08608336167223107,3.5910909698638114,108.23525857551478,17.38882418678533,0.35366929067806047,6.5604311195785945,0.08213058195823833,1.6733217278531136,1.217908309019013,-1.0069089433363079,4.589701757997354,0.00649351429232317,7171.337327332901,0.3184690863640374,108.34109478504719,2.180612820676947,1.22192262851814,101010.73878003693,287.97974753695473,-0.10114574227902196,-0.1349178589895554,-0.13488317908401584,403.3286842105263,0.21646357813080455,0.86,nominal,6114.298109719283,nan,pitch_program,12.415,0.0,0.0,-3.592176486913328,0.21321645310253054,0.04603099443902163,-3.585532015672021,0.19623035507464281,-0.00012983261008846846,0.86,0.0,0.0,0.0,0.0,0.0,0.0,-0.06257933910914569,0.0034248657884100803,-2.2660065225017808e-06,-0.06257933910914569,0.0034248657884100803,-2.2660065225017808e-06,1.17,1.0,20.676424487290888,0.01016025914668856,5.354829046108087,0.02987714106512939,0.02161974871997493,-0.017888297158553272,21.358577361859826,0.040988391871031045,1.0,0.0,100.30006376060444,-1.3748083430981808,25.40624677559333,105.65902789852055,0.2961432416535497,3.6660796014790225,1.0,26.264344534459106,0.0,1.0,107.74298271085021,7189.128039649175,1.0,1.0,-0.4465658080516488,19.06919121086594,-0.31788204275771564,-44.04725913285973,1.0,26.384992742165196,1.0,-0.005929185559122995,4.120038452267152,0.9347876152668796,1.0,-0.41676214502877384,6.5625117974825855
1.2,116.3773370963208,0.037934801848496874,26.298532405097987,108.7740222980101,0.08587590152349651,3.5281927584638484,108.83126134387737,17.38233027944141,0.4124729179356689,6.524461379171866,0.052234202302416134,1.8465753444687525,1.192345406912327,-0.9980504798063538,4.597829890411327,0.0308594032222016,7250.368601899768,0.3202211228203448,108.93699597019423,2.180065286106037,1.2219102046640509,101009.47043990545,287.97905953936686,-0.10114574227902196,-0.1349178589895554,-0.13488317908401584,403.2947368421053,0.21644535882450622,0.86,nominal,6180.022225660122,nan,pitch_program,12.4,0.0,0.0,-3.6012846657406947,0.2423715667068442,0.05778531411521214,-3.594983605713225,0.22391508205396365,0.03461925542509191,0.86,0.0,0.0,0.0,0.0,0.0,0.0,-0.0627443004749134,0.003908055426714933,0.0006042199917567629,-0.0627443004749134,0.003908055426714933,0.0006042199917567629,1.2,1.0,20.672200274060046,-0.009106676216664625,5.351396718099373,0.030696705502037153,0.01975150101194314,-0.015582602019485362,21.35362718455309,0.03968912957726912,1.0,0.0,100.30006376060444,-1.3748083430981808,25.40624677559333,105.65902789852055,0.2961432416535497,3.6660796014790225,1.0,26.41429969183687,0.0,1.0,108.61978239829432,7101.0746904107955,1.0,1.0,-0.9978981120390311,19.114379011176215,-0.3279743018478449,-43.98173938300294,1.0,25.908923260800687,1.0,0.010595208083678162,4.144467251799103,0.934253668987255,1.0,0.15821362871594105,7.4485590497008305
