time_s,x_m,y_m,altitude_m,vx_mps,vy_mps,vz_mps,speed_mps,mass_kg,roll_deg,pitch_deg,yaw_deg,p_dps,q_dps,r_dps,alpha_deg,beta_deg,qbar_pa,mach,airspeed_mps,load_factor_g,density_kgpm3,pressure_pa,temperature_k,wind_x_mps,wind_y_mps,wind_z_mps,thrust_n,mass_flow_kgps,propulsion_throttle_actual,propulsion_health,energy_j_per_kg,target_distance_m,guidance_mode,pitch_command_deg,heading_command_deg,roll_command_deg,elevator_command_deg,aileron_command_deg,rudder_command_deg,elevator_deg,aileron_deg,rudder_deg,throttle,elevator_saturated,aileron_saturated,rudder_saturated,elevator_failed,aileron_failed,rudder_failed,elevator_raw_rad,aileron_raw_rad,rudder_raw_rad,elevator_effective_rad,aileron_effective_rad,rudder_effective_rad,sensor_time_s,imu_valid,imu_ax_mps2,imu_ay_mps2,imu_az_mps2,gyro_p_rps,gyro_q_rps,gyro_r_rps,imu_accel_norm_mps2,imu_gyro_norm_rps,gps_valid,gps_latency_s,gps_x_m,gps_y_m,gps_z_m,gps_vx_mps,gps_vy_mps,gps_vz_mps,baro_valid,baro_alt_m,baro_bias_m,pitot_valid,pitot_airspeed_mps,pitot_qbar_pa,pitot_compressibility_factor,mag_valid,mag_heading_deg,mag_x_ut,mag_y_ut,mag_z_ut,radar_valid,radar_agl_m,optical_flow_valid,horizon_valid,horizon_roll_deg,horizon_pitch_deg,optical_flow_x_radps,optical_flow_y_radps,optical_flow_quality
0.0,0.0,250.0,1200.0,48.0,-3.0,-1.0,48.104053883222775,11.0,0.0,-2.0,-5.000000000000001,0.0,0.0,0.0,-0.8084664277189543,1.423357908392787,1261.0944322985495,0.14331327893915746,48.104053883222775,0.4481219442643677,1.0899692586850038,87715.57267821583,280.34999999999997,0.0,0.0,0.0,2.7032275714625205,0.00014258355784676151,0.04,nominal,12924.98,1494.4564229177108,target_intercept,-14.999999999999998,-11.309932474020213,0.0,20.05352282957881,-0.0,-15.978879631790827,4.8,0.0,-4.8,0.18,0.0,0.0,0.0,0.0,0.0,0.0,0.08377580409572781,0.0,-0.08377580409572781,0.08377580409572781,0.0,-0.08377580409572781,0.0,1.0,-3.5480593231251762,-2.5021430320107965,0.4715860666353989,0.004569755852035123,2.0133944395973026e-05,0.0001551406198653554,4.367131567894458,0.004572432890142664,1.0,0.0,0.2136181609379939,248.1775623292204,1199.432023011328,47.965355097651184,-2.8354432490463894,-0.9400489124326931,1.0,1200.4838225180154,0.0,1.0,48.58592398693941,1256.4165989432342,1.0,1.0,-5.076838378091929,25.380259330629187,2.105279526919706,-40.71696829171774,1.0,1199.8363803645034,0.0,1.0,-0.03722258901453194,-1.45053139681452,,,
0.04,1.9139458067389634,249.87653329927215,1199.9451917482008,47.848645168474086,-3.086667518196172,-1.3702062949782654,47.9676748041556,10.999994296657686,-0.225539592613863,-2.719580304003273,-3.2400989840603867,-7.450259097598373,17.903235043782935,44.0,-1.0808592780571946,-0.45495332821800333,1253.9607304967385,0.14290688282014768,47.9676748041556,0.4101526168058047,1.0899751534059234,87716.15852230036,280.3503562536367,0.0,0.0,0.0,4.811265803493781,0.00025305398405520184,0.07111111111111111,nominal,12917.891427716104,1492.8066126248584,target_intercept,-14.999999999999998,-11.321378837633594,0.0,0.6043589611162518,6.943540268351322,13.408041224604606,1.4434871688930015,4.8,0.0,0.18,0.0,0.0,0.0,0.0,0.0,0.0,0.025193603807474346,0.08377580409572781,0.0,0.025193603807474346,0.08377580409572781,0.0,0.04,1.0,-3.430519058591183,0.45088410575536964,-1.9850123832020343,-0.13168907272373917,0.3129052627455953,0.7653012895888104,3.9889888003910934,0.8372202692093786,1.0,0.0,0.2136181609379939,248.1775623292204,1199.432023011328,47.965355097651184,-2.8354432490463894,-0.9400489124326931,1.0,1199.325770729789,0.0,1.0,48.61246247032485,1274.725643180314,1.0,1.0,-5.076838378091929,25.380259330629187,2.105279526919706,-40.71696829171774,1.0,1199.8363803645034,0.0,1.0,-0.03722258901453194,-1.45053139681452,,,
0.08,3.8222429238908333,249.75392288336954,1199.871736435326,47.70742792879674,-3.065260397565289,-1.8363828218686535,47.84105770940554,10.999984174498325,1.2792249437588332,-3.442641930898051,-2.4428342805485244,36.54974090240162,18.2605141751955,19.73806994292851,-1.2694930131115771,-1.2044881718000342,1247.3585144234694,0.14252953961522744,47.84105770940555,0.47904301498086654,1.0899830536882975,87716.94368934052,280.35083371317035,0.0,0.0,0.0,6.455311230315209,0.00033862819857640743,0.09530864197530864,nominal,12911.105565490825,1491.1525574258071,target_intercept,-14.999999999999998,-11.332847250453923,0.0,0.1512041552972455,-24.000000000000004,1.8052160025436526,0.4096607580163968,0.0,1.4441728020349218,0.18,0.0,1.0,0.0,0.0,0.0,0.0,0.007149929043601878,0.0,0.02520557036326165,0.007149929043601878,0.0,0.02520557036326165,0.08,1.0,-3.334496521799024,1.3400096259242622,-3.0183661323121473,0.6357334535443414,0.31718339200100787,0.34194721516908955,4.693082884431988,0.788473351533567,1.0,0.0,0.2136181609379939,248.1775623292204,1199.432023011328,47.965355097651184,-2.8354432490463894,-0.9400489124326931,1.0,1200.1340247370072,0.0,1.0,48.19767554340948,1227.1933185614662,1.0,1.0,-2.7049651554084906,26.446044509674802,0.10296728496700229,-40.0572465845844,1.0,1199.9246386616044,0.0,1.0,1.2681597441222048,-3.171189263239859,,,
0.12,5.725008712353386,249.63377600157364,1199.778142973226,47.5691447115638,-3.0036720448976233,-2.339836552499488,47.721278371764214,10.999970629370381,1.075243763592584,-4.012091561709252,-3.1855180937571874,-3.892472884860353,13.852697346806501,-18.816901449514127,-1.2093997284659872,-0.40439260498756513,1241.1317890882492,0.14217253509976194,47.721278371764214,0.4198550865630901,1.0899931199369073,87717.94412218053,280.351442070674,0.0,0.0,0.0,7.7378135726988395,0.00040488854768813237,0.11412894375857338,nominal,12904.464530506093,1489.4936147306742,target_intercept,-14.999999999999998,-11.344409844065416,0.0,1.2419593471547776,4.492810814370528,-13.639767655374913,1.0754996293271015,3.594248651496422,-3.355827197965078,0.18,0.0,0.0,0.0,0.0,0.0,0.0,0.018771009635736486,0.06273147310397878,-0.058570233732466156,0.018771009635736486,0.06273147310397878,-0.058570233732466156,0.12,1.0,-3.186333687379176,-0.6254243456896409,-2.5166786515840114,-0.06677624084042165,0.24230955470746907,-0.3229369059047112,4.108229474463106,0.40922027300540503,1.0,0.0,0.2136181609379939,248.1775623292204,1199.432023011328,47.965355097651184,-2.8354432490463894,-0.9400489124326931,1.0,1200.075134977257,0.0,1.0,48.045713006736186,1249.476679426969,1.0,1.0,-2.7049651554084906,26.446044509674802,0.10296728496700229,-40.0572465845844,1.0,1199.9246386616044,0.0,1.0,1.2681597441222048,-3.171189263239859,,,
0.16,7.622347737189778,249.51293370820866,1199.665195230746,47.433475620909796,-3.0210573341240305,-2.8236935620018278,47.61338721649195,10.999954433828474,2.7277077700649235,-4.499923211803304,-2.535136880602075,40.107527115139646,12.728424630502765,15.80296270118509,-1.1508293315893974,-1.0536096221962363,1235.5398512577758,0.14185091709164543,47.61338721649195,0.3869759626704399,1.0900052678892709,87719.15144777458,280.35217623100016,0.0,0.0,0.0,8.738173203488916,0.0004561995880509777,0.12876695625666817,nominal,12898.214007923392,1487.829543860427,target_intercept,-14.999999999999998,-11.355927772593567,0.0,1.5997133356453423,-24.000000000000004,0.2532656197805563,1.494870594381694,-1.2057513485035776,-0.46855294376857104,0.18,0.0,1.0,0.0,0.0,0.0,0.0,0.026090413763205207,-0.02104433099174903,-0.008177791588673412,0.026090413763205207,-0.02104433099174903,-0.008177791588673412,0.16,1.0,-3.012297415079107,0.6626638303477304,-2.156700114679702,0.7031326968484548,0.22007566871620557,0.280187971834217,3.7635640626410005,0.7882475429069462,1.0,0.0,0.2136181609379939,248.1775623292204,1199.432023011328,47.965355097651184,-2.8354432490463894,-0.9400489124326931,1.0,1200.494269024494,0.0,1.0,47.39629948582456,1226.5472235163877,1.0,1.0,-1.0979550247962029,27.09601882585554,-0.789943923124152,-39.628517462277536,1.0,1199.5957998091158,0.0,1.0,3.315960064394205,-4.214704980014365,,,
0.2,9.51458680923209,249.39351578358566,1199.5335912994274,47.30597680105782,-2.985448115574931,-3.2900982829628695,47.514135667868,10.999936185844952,2.5727112877872527,-5.057232739205338,-2.5267060928915277,-3.892472884860353,13.927670678433193,-0.4344179570891488,-1.1333828450795749,-1.0319683132219815,1230.4101571722335,0.14155500859609277,47.51413566786799,0.3967332482554876,1.0900194225152082,87720.5582108326,280.3530316565537,0.0,0.0,0.0,9.518700584606442,0.0004959131918407948,0.14015207708851968,nominal,12892.202637248813,1486.1607604893054,target_intercept,-14.999999999999998,-11.36749771604732,0.0,0.7414128761408981,6.285582855273422,-6.745803858718698,0.8921044197890573,3.594248651496422,-5.268552943768571,0.18,0.0,0.0,0.0,0.0,0.0,0.0,0.015570159396912708,0.06273147310397878,-0.09195359568440123,0.015570159396912708,0.06273147310397878,-0.09195359568440123,0.2,1.0,-2.9388862636862165,-0.7343012342442596,-2.38787496225339,-0.06568238477935391,0.24443950891807523,-0.007377535741676061,3.857226673252792,0.2532178453901553,1.0,0.0,7.665449015723324,250.7096486184378,1199.3506343828033,47.43752217239585,-3.077238132239563,-3.280594364626968,1.0,1199.986463521968,0.0,1.0,47.37852666525787,1221.4695462039203,1.0,1.0,-1.0979550247962029,27.09601882585554,-0.789943923124152,-39.628517462277536,1.0,1199.5957998091158,0.0,1.0,3.315960064394205,-4.214704980014365,,,
0.24,11.401700530796527,249.27329771573199,1199.3828615493987,47.17784303911088,-3.0054516963418645,-3.768243750713929,47.42342537909743,10.999916349317278,4.3130522440284444,-5.459687623223871,-1.0412912425292737,40.107527115139646,12.265307724347327,36.31394750352624,-1.090254973109286,-2.520708997668538,1225.73486523804,0.1412845159222708,47.42342537909743,0.3973178718802799,1.0900356343862645,87722.16943927824,280.3540113999289,0.0,0.0,0.0,10.12781589040427,0.0005266400451006842,0.14900717106884864,nominal,12886.418576556822,1484.486634927714,target_intercept,-14.999999999999998,-11.37902063616097,0.0,1.657748207547329,-24.000000000000004,6.826485649505439,1.5046194499956749,-1.2057513485035776,-0.46855294376857143,0.18,0.0,1.0,0.0,0.0,0.0,0.0,0.026260563391970707,-0.02104433099174903,-0.00817779158867342,0.026260563391970707,-0.02104433099174903,-0.00817779158867342,0.24,1.0,-2.8681288458096357,1.6389567008459889,-2.0511774630126034,0.697515310890586,0.2142993074901952,0.6346808296981676,3.8884021304623446,0.9670943892422924,1.0,0.0,7.665449015723324,250.7096486184378,1199.3506343828033,47.43752217239585,-3.077238132239563,-3.280594364626968,1.0,1199.4949693019807,0.0,1.0,47.083407171947414,1204.839144732384,1.0,1.0,-1.5866834206207145,27.823304801237118,-2.4966216841639817,-39.04828609108476,1.0,1199.644583813536,0.0,1.0,4.817094188706836,-5.626396862113751,,,
0.28,13.28398605814201,249.1561520279569,1199.213974444851,47.057138183637115,-2.928642194377506,-4.222177613694193,47.336856496161495,10.999895283715475,4.131237243745683,-6.043061076303975,-1.3018969236070723,-3.892472884860353,14.06763315387673,-7.538616155721503,-1.0816219395775681,-2.1780966365652916,1221.284276964344,0.1410263326209997,47.336856496161495,0.3882648943817511,1.0900537994067159,87723.97478956803,280.35510916610843,0.0,0.0,0.0,10.603628535929953,0.0005503754850262273,0.15589446638688229,nominal,12880.66071395869,1482.8080473222947,target_intercept,-14.999999999999998,-11.390671266630239,0.0,0.02725102537386523,7.801351778006958,-11.606683711006342,0.30092388999913505,3.594248651496422,-5.268552943768571,0.18,0.0,0.0,0.0,0.0,0.0,0.0,0.005252112678394143,0.06273147310397878,-0.09195359568440123,0.005252112678394143,0.06273147310397878,-0.09195359568440123,0.28,1.0,-2.890034953263836,0.09805236462058615,-2.5384053419481702,-0.0700658537012522,0.2423321311471697,-0.12958919646169417,3.847780915972919,0.28359732981959107,1.0,0.0,7.665449015723324,250.7096486184378,1199.3506343828033,47.43752217239585,-3.077238132239563,-3.280594364626968,1.0,1198.8772645339247,0.0,1.0,47.309699023547104,1216.6015753271888,1.0,1.0,-1.5866834206207145,27.823304801237118,-2.4966216841639817,-39.04828609108476,1.0,1199.644583813536,0.0,1.0,4.817094188706836,-5.626396862113751,,,
0.32,15.16135012655396,249.039566577095,1199.0258558794494,46.93410171029874,-2.9146362715475984,-4.702964135037525,47.2591036690661,10.999873268696074,5.812064843279733,-6.387521449912516,-0.5940943923666088,40.107527115139646,10.104640766532157,16.78051328164731,-0.9637197521750119,-2.861875403169523,1217.2981430846082,0.14079438375370443,47.25910366906611,0.3537334437665505,1.0900740331814769,87725.98575357463,280.35633193678353,0.0,0.0,0.0,10.975132823135871,0.0005687225217876627,0.16125125163424178,nominal,12875.13834936197,1481.1240599864993,target_intercept,-14.999999999999998,-11.402337181774138,0.0,1.7307491844247347,-24.000000000000004,-2.1709100842678657,1.4447841255396148,-1.2057513485035776,-2.790438656168007,0.18,0.0,1.0,0.0,0.0,0.0,0.0,0.02521623997121337,-0.02104433099174903,-0.048702342125057696,0.02521623997121337,-0.02104433099174903,-0.048702342125057696,0.32,1.0,-2.74574638996844,1.319273188336636,-1.6720952561594504,0.7003082818927414,0.17538644787517707,0.2929847178168807,3.474983097679695,0.7791226736914237,1.0,0.0,7.665449015723324,250.7096486184378,1199.3506343828033,47.43752217239585,-3.077238132239563,-3.280594364626968,1.0,1199.7763813598667,0.0,1.0,47.001231996029,1222.274480863251,1.0,1.0,-0.8267042102772528,28.47544764356769,-3.7863426396308375,-38.40548311805603,1.0,1199.0023693153696,0.0,1.0,6.185735169382226,-5.965715800503836,,,
0.36,17.034091686435033,248.92536661523826,1198.8201166853419,46.8185389970268,-2.854999046418629,-5.143479852688272,47.18667182972519,10.999850519795203,5.655440921029644,-6.87106282311917,-0.6021076844108291,-3.892472884860353,12.008255774214355,-1.405723626863023,-0.8854455312614022,-2.796621229966478,1213.5942459951839,0.1405782594427407,47.18667182972519,0.3352275082531936,1.0900961625358454,87728.18512264105,280.35766924154524,0.0,0.0,0.0,11.265536311583503,0.0005828762773251574,0.16541764015996582,nominal,12869.700296475397,1479.4355489043091,target_intercept,-14.999999999999998,-11.414102503514373,0.0,0.406851416913992,9.515125490302093,-9.973088865369483,0.6144379586391167,3.594248651496422,-7.590438656168008,0.18,0.0,0.0,0.0,0.0,0.0,0.0,0.010723965427485322,0.06273147310397878,-0.13247814622078552,0.010723965427485322,0.06273147310397878,-0.13247814622078552,0.36,1.0,-2.6319910417109442,-0.11833296914710559,-1.882544396048404,-0.0696761267335521,0.2067354511737843,-0.022289164635508625,3.238109469787438,0.21929686789547856,1.0,0.0,7.665449015723324,250.7096486184378,1199.3506343828033,47.43752217239585,-3.077238132239563,-3.280594364626968,1.0,1198.7531565792299,0.0,1.0,46.94177063539463,1211.7460927992583,1.0,1.0,-0.8267042102772528,28.47544764356769,-3.7863426396308375,-38.40548311805603,1.0,1199.0023693153696,0.0,1.0,6.185735169382226,-5.965715800503836,,,
0.4,18.90219692067923,248.81133339211684,1198.5962141410992,46.702630856104975,-2.8508305780353296,-5.597563606066483,47.12319685876829,10.99982720474411,7.431302879574851,-7.123790918225739,0.8069386012885494,40.107527115139646,10.262567516564076,34.02115810140707,-0.8335003386387637,-4.197075845878526,1210.3581555954927,0.1403887907907548,47.12319685876828,0.3763221594216502,1.090120245934808,87730.57871016389,280.3591246080828,0.0,0.0,0.0,11.492329856276209,0.0005938106602886009,0.16865816456886232,nominal,12864.511404501924,1477.7418397832369,target_intercept,-14.999999999999998,-11.425868197502552,0.0,1.888776464810475,-24.000000000000004,3.175018264476114,1.6339087635762033,-1.2057513485035776,-2.790438656168008,0.18,0.0,1.0,0.0,0.0,0.0,0.0,0.028517087601594347,-0.02104433099174903,-0.04870234212505771,0.028517087601594347,-0.02104433099174903,-0.04870234212505771,0.4,1.0,-2.6627172965207055,2.2925897047005823,-1.1853295167415516,0.6974378896299827,0.17857882104062717,0.5943002516873473,3.708239072463964,0.9335431400698249,1.0,0.0,19.93299855324987,247.20730740093057,1199.5566362707118,46.66636349496188,-2.9677461844483526,-5.528624037056219,1.0,1199.165053344264,0.0,1.0,47.464239124361,1201.9356668097148,1.0,1.0,0.050283703142674635,28.97254479769204,-5.388844972331823,-37.90263644190023,1.0,1199.0288906815135,0.0,1.0,7.372525066397707,-7.081041173117143,,,
0.44,20.765867825923156,248.70107833242875,1198.3556634881027,46.59177263109815,-2.756376492201841,-6.01376632491106,47.05907217195579,10.999803452317698,7.280589916519764,-7.708460728467622,0.5385760011342952,-2.901841714119186,13.64477069792059,-8.46973351765899,-0.8405122072885716,-3.8163308288968465,1207.0949651832486,0.14019736044712428,47.0590721719558,0.357404806380198,1.0901461204907352,87733.15033004922,280.3606881873273,0.0,0.0,0.0,11.670326648961524,0.0006021872193462494,0.17117857244244847,nominal,12859.132704188272,1476.0441446479415,target_intercept,-14.999999999999998,-11.437797678030677,0.0,-0.8456614352391799,10.158436964129054,-14.678050698270287,-0.34974739547610323,3.594248651496422,-7.590438656168008,0.18,0.0,0.0,0.0,0.0,0.0,0.0,-0.006104243601332722,0.06273147310397878,-0.13247814622078552,-0.006104243601332722,0.06273147310397878,-0.13247814622078552,0.44,1.0,-2.635802739467835,0.6685882086997605,-2.2847594471037134,-0.05148790212781852,0.24017892414079742,-0.15160947569527844,3.5517026910100684,0.28865611510507094,1.0,0.0,19.93299855324987,247.20730740093057,1199.5566362707118,46.66636349496188,-2.9677461844483526,-5.528624037056219,1.0,1197.4282878027575,0.0,1.0,46.8105191055761,1210.9910186124068,1.0,1.0,0.050283703142674635,28.97254479769204,-5.388844972331823,-37.90263644190023,1.0,1199.0288906815135,0.0,1.0,7.372525066397707,-7.081041173117143,,,
0.48,22.62491132704706,248.59222786169636,1198.096588581681,46.47608752809753,-2.72126176830993,-6.476872660540085,47.00406213288272,10.999779364828925,9.019658308573039,-7.928130646587509,1.2388048682709687,41.098158285880814,7.895802256361147,16.39120729410909,-0.697117584321915,-4.492253221541194,1204.3053151499116,0.14003305518592052,47.00406213288272,0.3293201949294871,1.0901739881123023,87735.92005274701,280.36237217421905,0.0,0.0,0.0,11.809402776388628,0.0006086512081728166,0.1731388896774599,nominal,12854.004838910492,1474.3412105786879,target_intercept,-14.999999999999998,-11.449783334318493,0.0,1.8931270760148609,-24.000000000000004,-4.933705364454886,1.444552181716668,-1.2057513485035776,-5.46505202279751,0.18,0.0,1.0,0.0,0.0,0.0,0.0,0.025212191787823288,-0.02104433099174903,-0.09538315159059275,0.025212191787823288,-0.02104433099174903,-0.09538315159059275,0.48,1.0,-2.5128746288903403,1.7773042568518118,-0.8946397250528444,0.716570652695148,0.1382128137860761,0.28685825561875494,3.20526591090146,0.7841326042291888,1.0,0.0,19.93299855324987,247.20730740093057,1199.5566362707118,46.66636349496188,-2.9677461844483526,-5.528624037056219,1.0,1197.233175934948,0.0,1.0,46.930218931643815,1211.716468617211,1.0,1.0,-0.43097277731250094,29.550905079517197,-6.4837187988566845,-37.32390084754917,1.0,1198.1640943685536,0.0,1.0,8.11721898490431,-8.595104376245716,,,
0.52,24.479684322157862,248.48623115742814,1197.8212639593878,46.3693248777701,-2.6499176067054777,-6.8831155573346425,46.95224843091264,10.999755018780597,8.978100385040944,-8.34485554619948,1.4028750181981313,-1.6194809720773415,10.925059627763861,2.380955938785855,-0.6116882075896481,-4.583880836569255,1201.6843539996846,0.13987824696482792,46.95224843091265,0.29281449275282984,1.0902036042462773,87738.86357580472,280.36416178426396,0.0,0.0,0.0,11.918556912705062,0.0006135998301571265,0.1746635808602466,nominal,12848.8707145664,1472.6341602316986,target_intercept,-14.999999999999998,-11.461893601805615,0.0,0.13056587632933273,11.021423817683678,-11.220118427596883,0.39336313740679985,3.594248651496422,-10.069105146637007,0.18,0.0,0.0,0.0,0.0,0.0,0.0,0.006865481903723526,0.06273147310397878,-0.1757390375383222,0.006865481903723526,0.06273147310397878,-0.1757390375383222,0.52,1.0,-2.4834304549540236,0.44913533041012166,-1.329886361124181,-0.027645324889702283,0.19061663695628678,0.039952141926066866,2.8526736762412686,0.19671080274672922,1.0,0.0,19.93299855324987,247.20730740093057,1199.5566362707118,46.66636349496188,-2.9677461844483526,-5.528624037056219,1.0,1197.000889304765,0.0,1.0,47.23975551158592,1190.6864112955227,1.0,1.0,-0.43097277731250094,29.550905079517197,-6.4837187988566845,-37.32390084754917,1.0,1198.1640943685536,0.0,1.0,8.11721898490431,-8.595104376245716,,,
0.56,26.330170285638626,248.3812078430473,1197.5289193883723,46.26214908701914,-2.6255828595211397,-7.308614275385432,46.90944431698338,10.999730474787391,10.891586739571117,-8.464841113849628,2.896901734253964,42.38051902792266,9.330860433390344,35.883867980471166,-0.6116702145266039,-6.06394890412892,1199.528916871196,0.13975025307734115,46.90944431698338,0.39370847199959785,1.0902350518567878,87741.98914836792,280.36606202397553,0.0,0.0,0.0,12.003767881238893,0.0006174233344506245,0.17584945178019182,nominal,12843.994960384063,1470.9222607085649,target_intercept,-14.999999999999998,-11.474044180159977,0.0,2.0826428297528103,-24.000000000000004,1.0095430114382165,1.7447868912836082,-1.2057513485035776,-5.269105146637007,0.18,0.0,1.0,0.0,0.0,0.0,0.0,0.030452275998535314,-0.02104433099174903,-0.0919632334425944,0.030452275998535314,-0.02104433099174903,-0.0919632334425944,0.56,1.0,-2.461963503417733,2.903588576952958,-0.6185628216155513,0.7385500562644611,0.16498730905988154,0.6281251782946528,3.8567746733063903,0.9834725402199844,1.0,0.0,19.93299855324987,247.20730740093057,1199.5566362707118,46.66636349496188,-2.9677461844483526,-5.528624037056219,1.0,1198.2730455966152,0.0,1.0,47.07649097328767,1191.6241885498234,1.0,1.0,3.1752908863378013,29.84094251427065,-8.28971204846401,-36.6454944218312,1.0,1197.5249860830988,0.0,1.0,11.06942195487288,-8.463075540081084,,,
0.6,28.17646228934065,248.28069593847394,1197.2213589770545,46.15730009255056,-2.512797614333584,-7.68901028294282,46.86076592220371,10.999705777854013,11.097925726931981,-9.078781248356709,2.6837152635755848,5.971267315200419,14.062355167042044,-8.098018968441764,-0.6997441863683526,-5.693069221761502,1197.077008849882,0.13960473513315064,46.86076592220371,0.3672051403611028,1.0902681369897995,87745.2774968764,280.3680611666491,0.0,0.0,0.0,12.071633408543098,0.0006202697230881494,0.17677179582903807,nominal,12838.696531420115,1469.2069636812994,target_intercept,-14.999999999999998,-11.486395301061687,0.0,-1.8167921867906878,6.0129534096820505,-17.617682877531706,-1.1044763711758283,3.594248651496422,-10.069105146637007,0.18,0.0,0.0,0.0,0.0,0.0,0.0,-0.019276749187497198,0.06273147310397878,-0.1757390375383222,-0.019276749187497198,0.06273147310397878,-0.1757390375383222,0.6,1.0,-2.575943093363486,1.1876446771854128,-2.249504147516662,0.10887700746665975,0.24812367027151785,-0.14204718539889924,3.6202557380920695,0.305936204761145,1.0,0.0,26.496041311485545,249.80409131886978,1196.9792440550953,46.37484513180791,-2.551958171318608,-7.685032821951713,1.0,1197.595612578554,0.0,1.0,47.61697729220736,1178.4235066278322,1.0,1.0,3.1752908863378013,29.84094251427065,-8.28971204846401,-36.6454944218312,1.0,1197.5249860830988,0.0,1.0,11.06942195487288,-8.463075540081084,,,
0.64,30.018179849462495,248.18266345030338,1196.895639170973,46.04293900304614,-2.4508122042638223,-8.142995152033778,46.82165185621757,10.999680967065089,13.199554505576042,-9.172350369247031,3.333025161430451,49.971267315200414,5.660684200313012,15.178537789357419,-0.5599599756084424,-6.322162642963545,1195.117881826679,0.13948768222940697,46.821651856217564,0.33454504238280175,1.0903031764171311,87748.76010927516,280.37017834538864,0.0,0.0,0.0,12.124579867890573,0.0006224702384619262,0.17748917453369628,nominal,12833.670161148442,1467.4866643680207,target_intercept,-14.999999999999998,-11.49885256860769,0.0,2.2279571569929435,-24.000000000000004,-8.355026928499099,1.5614704513591886,-1.2057513485035776,-8.697842572126682,0.18,0.0,1.0,0.0,0.0,0.0,0.0,0.027252800548819806,-0.02104433099174903,-0.15180599070374295,0.027252800548819806,-0.02104433099174903,-0.15180599070374295,0.64,1.0,-2.4426370340817565,2.10311816439503,-0.6183829140335495,0.8701279863145298,0.09996131162384848,0.26665230710799537,3.2820693353499806,0.9155426965878519,1.0,0.0,26.496041311485545,249.80409131886978,1196.9792440550953,46.37484513180791,-2.551958171318608,-7.685032821951713,1.0,1197.4399053426916,0.0,1.0,46.92279317891028,1192.1269591936905,1.0,1.0,3.5991250999611752,30.267842066566384,-9.804220453286652,-35.86641750124837,1.0,1196.6576478622499,0.0,1.0,13.40898635058425,-9.199610541449346,,,
0.68,31.85580405964767,248.08788319737923,1196.5547056138037,45.94060525462943,-2.369506323103762,-8.523338929232077,46.78462437467546,10.99965606825555,13.505514467927794,-9.481406128581936,3.7471081654733855,5.971267315200419,9.87670978993706,8.154818914222375,-0.4892619718981525,-6.657719834518344,1193.268523179795,0.13937682181008693,46.78462437467546,0.3094741082193048,1.090339853392105,87752.40550774765,280.3723944135103,0.0,0.0,0.0,12.166452926923908,0.0006241260199104232,0.17804713574843045,nominal,12828.593742747345,1465.7626310912233,target_intercept,-14.999999999999998,-11.511455626389473,0.0,0.29090675762155055,8.98921597518651,-12.066864830866033,0.5450194963690782,3.594248651496422,-11.393060379118163,0.18,0.0,0.0,0.0,0.0,0.0,0.0,0.009512384699201695,0.06273147310397878,-0.19884641549412535,0.009512384699201695,0.06273147310397878,-0.19884641549412535,0.68,1.0,-2.3971393268994827,1.5204906679575496,-0.943022097837602,0.10471714719755043,0.17476749284056153,0.14365173014157603,2.991230432601964,0.24928934402344066,1.0,0.0,26.496041311485545,249.80409131886978,1196.9792440550953,46.37484513180791,-2.551958171318608,-7.685032821951713,1.0,1195.9460601473825,0.0,1.0,46.723162457519585,1188.997191927943,1.0,1.0,3.5991250999611752,30.267842066566384,-9.804220453286652,-35.86641750124837,1.0,1196.6576478622499,0.0,1.0,13.40898635058425,-9.199610541449346,,,
0.72,33.68929449331584,247.9956435063518,1196.1978957878732,45.83726084170431,-2.305992275685696,-8.920245648263062,46.75406789009184,10.999631103214753,15.680673237907126,-9.598919077903632,4.8120706505513,49.971267315200414,9.459901515723539,24.673092543173976,-0.6111229226705472,-7.67202614795058,1191.7522657950965,0.1392852144104827,46.754067890091854,0.43546900346865,1.0903782393163015,87756.22079298623,280.3747136773788,0.0,0.0,0.0,12.199215925634393,0.0006253979929747808,0.17848110558211258,nominal,12823.665526863804,1464.034407025265,target_intercept,-14.999999999999998,-11.524172413401581,0.0,1.4682437607428427,-24.000000000000004,-6.475892273572728,1.2835989078680896,-1.2057513485035776,-7.459325894681816,0.18,0.0,1.0,0.0,0.0,0.0,0.0,0.022403027217301513,-0.02104433099174903,-0.13018979684146947,0.022403027217301513,-0.02104433099174903,-0.13018979684146947,0.72,1.0,-2.3851371734481823,3.453308310432797,-0.8670684795302888,0.8739128376489055,0.16394484858945288,0.43041241045917383,4.285560100064351,0.9878544448773094,1.0,0.0,26.496041311485545,249.80409131886978,1196.9792440550953,46.37484513180791,-2.551958171318608,-7.685032821951713,1.0,1196.8524852229223,0.0,1.0,47.074978057066424,1204.0208871073987,1.0,1.0,4.083901716473814,30.567094623693343,-11.934800864336038,-35.10311760409183,1.0,1196.1774042867694,0.0,1.0,15.300001819763892,-10.233939006128702,,,
0.76,35.518507600700254,247.9086707487524,1195.8262079939432,45.730327684610224,-2.174318939985285,-9.292194848249757,46.71547300512376,10.999606087295033,16.086234764128186,-10.23035765150404,4.361669105227375,12.077911048632439,12.14781896779317,-14.989107003710577,-0.6563766089843899,-7.036609512035816,1189.8291585761951,0.13916963664115573,46.71547300512376,0.3859131602913518,1.0904182269251814,87760.19530774417,280.37712964803933,0.0,0.0,0.0,12.226220151685292,0.00062626497527495,0.17881863767497644,nominal,12818.216791670025,1462.303083981944,target_intercept,-14.999999999999998,-11.53712543805874,0.0,-2.36237302354329,5.429871216833744,-22.929021937541158,-1.6331786372610142,3.594248651496422,-12.259325894681817,0.18,0.0,0.0,1.0,0.0,0.0,0.0,-0.028504344493438843,0.06273147310397878,-0.2139656009371973,-0.028504344493438843,0.06273147310397878,-0.2139656009371973,0.76,1.0,-2.4127061095526128,1.6047553958233507,-2.3310055485235637,0.20953970830278876,0.2149544251590123,-0.25924416781868664,3.7188677737645235,0.39663564237100857,1.0,0.0,26.496041311485545,249.80409131886978,1196.9792440550953,46.37484513180791,-2.551958171318608,-7.685032821951713,1.0,1196.1831081822315,0.0,1.0,47.26658817699747,1168.563379768848,1.0,1.0,4.083901716473814,30.567094623693343,-11.934800864336038,-35.10311760409183,1.0,1196.1774042867694,0.0,1.0,15.300001819763892,-10.233939006128702,,,
0.8,37.34308358176777,247.8248947077733,1195.4366119946965,45.61439952668788,-2.0944010244775946,-9.739899981166522,46.68967349933777,10.999581036696023,18.428452496373005,-10.13872959342594,4.92375119244792,56.07791104863244,1.9158738237377007,13.890344272086974,-0.446783898843266,-7.638282523224453,1188.5609963248392,0.1390921494297323,46.68967349933777,0.3389727493531126,1.0904601423722469,87764.36147415708,280.37966202203444,0.0,0.0,0.0,12.246803072813057,0.0006269728474565002,0.17908116263609278,nominal,12813.19125675517,1460.5669839468876,target_intercept,-14.999999999999998,-11.55021834326288,0.0,3.2351886677017605,-24.000000000000004,-10.956976579864774,2.2615152067092055,-1.2057513485035776,-11.217446442828184,0.18,0.0,1.0,0.0,0.0,0.0,0.0,0.03947088644099579,-0.02104433099174903,-0.19578137409347765,0.03947088644099579,-0.02104433099174903,-0.19578137409347765,0.8,1.0,-2.4117557753581123,2.324434032269535,0.059751039168194825,0.9810889914680766,0.03150146683295005,0.24098608816758543,3.3500939803276713,1.0107434126833528,1.0,0.0,37.573960837294166,250.79063624655254,1194.4377282166865,45.49936073073768,-2.1565314941976244,-9.828820651931935,1.0,1195.0389985258528,0.0,1.0,46.529729060370634,1168.5299827788417,1.0,1.0,4.743845210659737,30.874106891217554,-13.569807091440385,-34.12421879174518,1.0,1194.9535907289894,0.0,1.0,18.480885857774158,-10.117954085251721,,,
0.84,39.163836405877866,247.74430915961608,1195.0332001558857,45.518820602752285,-2.0146387039301747,-10.085295970268346,46.666208255876434,10.999555957782125,19.028910579415413,-10.329969464773825,5.584188786926868,12.077911048632439,9.745092166597443,13.853078793655763,-0.4524104580975854,-8.230576185953373,1187.4138655268757,0.13902159457420193,46.666208255876434,0.35900711614081054,1.0905035455223806,87768.6755497814,280.3822841989867,0.0,0.0,0.0,12.263164698453012,0.0006274949536119741,0.17928534871696106,nominal,12808.13982879913,1458.827583757649,target_intercept,-14.999999999999998,-11.563458856939636,0.0,0.5809839709767413,6.767820676083128,-12.200848761652779,0.9170902181232341,3.594248651496422,-12.004168297887858,0.18,0.0,0.0,0.0,0.0,0.0,0.0,0.016006243844083407,0.06273147310397878,-0.2095122607616666,0.016006243844083407,0.06273147310397878,-0.2095122607616666,0.84,1.0,-2.3723625989683916,2.551281136950356,-0.6813423710247266,0.2079537679335023,0.167512067027686,0.24158590278157985,3.5498404425123615,0.3600955576238339,1.0,0.0,37.573960837294166,250.79063624655254,1194.4377282166865,45.49936073073768,-2.1565314941976244,-9.828820651931935,1.0,1196.1969445617774,0.0,1.0,46.578879130616976,1214.9542508722566,1.0,1.0,4.743845210659737,30.874106891217554,-13.569807091440385,-34.12421879174518,1.0,1194.9535907289894,0.0,1.0,18.480885857774158,-10.117954085251721,,,
0.88,40.980529951022476,247.66749485581448,1194.6151190740661,45.4173386286153,-1.920357595039741,-10.452027045485702,46.64404882467541,10.99953085798398,21.393182526160118,-10.557655640430175,6.254126216427544,56.07791104863244,11.034233794407998,13.493050893229222,-0.7462449963467555,-8.791218854220247,1186.3353810401331,0.13895490683382006,46.644048824675394,0.40404904609232684,1.0905485283335141,87773.14667909584,280.3850017260186,0.0,0.0,0.0,12.276293976348354,0.0006278684820382248,0.17944416011319192,nominal,12803.00600284704,1457.0847091585977,target_intercept,-14.999999999999998,-11.576871696058914,0.0,0.10033002338804838,-24.000000000000004,-13.334937525537466,0.26368206233508557,-1.2057513485035776,-13.068783680007545,0.18,0.0,1.0,0.0,0.0,0.0,0.0,0.004602120166196171,-0.02104433099174903,-0.22809330444703269,0.004602120166196171,-0.02104433099174903,-0.22809330444703269,0.88,1.0,-2.394013962872898,2.5997917828674737,-1.6961378814744155,0.9805690861793097,0.19386148204471318,0.2374323756388109,3.9200897797969056,1.0273617376526092,1.0,0.0,37.573960837294166,250.79063624655254,1194.4377282166865,45.49936073073768,-2.1565314941976244,-9.828820651931935,1.0,1194.2640027706143,0.0,1.0,46.80007666331708,1178.289965679715,1.0,1.0,6.18910489303504,31.049348189064183,-15.795915361891876,-32.99576369611556,1.0,1194.4676653086944,0.0,1.0,21.28954191263271,-10.812337707163229,,,
0.92,42.79269764923959,247.5951143304155,1194.181126902853,45.30419245542784,-1.809513134974576,-10.849804280326232,46.62040802851768,10.999505743244699,22.17026199743675,-10.649711121530832,6.978349016125741,16.095424062655486,8.741035889127092,15.672286444055656,-0.6710890785306916,-9.461463382130377,1185.1838815175504,0.13888378109173868,46.62040802851769,0.4130186474933649,1.0905952245761867,87777.7881631719,280.3878226751314,0.0,0.0,0.0,12.287164055133584,0.0006281059229864733,0.17956768008803817,nominal,12797.647570514602,1455.3381836335714,target_intercept,-14.999999999999998,-11.590483274847054,0.0,1.1292708165753673,2.3485563606577764,-13.334353809352054,0.956153065727311,1.6376948188255056,-13.281239783483151,0.18,0.0,0.0,0.0,0.0,0.0,0.0,0.016688019149979326,0.028583166731357086,-0.2318013629686398,0.016688019149979326,0.028583166731357086,-0.2318013629686398,0.92,1.0,-2.332364420354916,3.021651376813313,-1.1062659202494027,0.27977450945785176,0.15205909178287072,0.2745485512675511,3.9741823207599034,0.4204433975451681,1.0,0.0,37.573960837294166,250.79063624655254,1194.4377282166865,45.49936073073768,-2.1565314941976244,-9.828820651931935,1.0,1193.4297330308862,0.0,1.0,46.516662457507245,1172.0286120135938,1.0,1.0,6.18910489303504,31.049348189064183,-15.795915361891876,-32.99576369611556,1.0,1194.4676653086944,0.0,1.0,21.28954191263271,-10.812337707163229,,,
0.96,44.600494706593274,247.5274441398255,1193.7322910996868,45.194926433841985,-1.6917547647499076,-11.220895079159126,46.59776707012838,10.999480619007779,24.67634405727003,-10.832463745134907,7.528952876535107,60.095424062655475,9.570511624355818,10.595693423375279,-0.9633194663751493,-9.895636963928357,1184.085436983307,0.13881561072097187,46.59776707012838,0.42920827139410644,1.090643519557711,87782.58860682009,280.390740107852,0.0,0.0,0.0,12.296056473865862,0.0006282552362394141,0.17966375117958525,nominal,12792.190720473713,1453.5884772707695,target_intercept,-14.999999999999998,-11.604308349459796,0.0,0.38045866219198304,-24.000000000000004,-16.330901413925798,0.49559754289904867,-3.162305181174494,-15.720969087837268,0.18,0.0,1.0,0.0,0.0,0.0,0.0,0.008649808888382243,-0.055192637364370724,-0.27438267218700996,0.008649808888382243,-0.055192637364370724,-0.27438267218700996,0.96,1.0,-2.4792090794031756,2.707679825981222,-2.1064241443914464,1.0478777700504125,0.16701331600067226,0.18157718955524654,4.232615075281011,1.0765275400351575,1.0,0.0,37.573960837294166,250.79063624655254,1194.4377282166865,45.49936073073768,-2.1565314941976244,-9.828820651931935,1.0,1193.9739788988977,0.0,1.0,46.34169656818258,1169.1093325142474,1.0,1.0,10.59474079737551,31.256256170074092,-17.992265827146518,-31.685358912326492,1.0,1193.5473795402997,0.0,1.0,24.362362784712545,-11.216705780229137,,,
1.0,46.40350467756693,247.46448799405,1193.2673060240122,45.07524927434138,-1.5739036443877001,-11.62462689186496,46.576681077561766,10.99945548879833,25.511307861856572,-10.69662966960956,8.55237758811884,16.09542406265548,7.585030152285798,24.204129144621565,-0.8468483507281482,-10.927591360755034,1183.0683285314797,0.13875204733900978,46.576681077561766,0.5113298890180653,1.0906935539354006,87787.56199633348,280.3937625108439,0.0,0.0,0.0,12.3033306700164,0.0006283424438696692,0.17973847313967742,nominal,12786.648436720829,1451.8352258215236,target_intercept,-14.999999999999998,-11.618343930744812,0.0,2.6496834575161734,2.348556360657786,-11.796117062590268,2.2188662745927483,1.2463840522913296,-12.581087467639668,0.18,0.0,0.0,0.0,0.0,0.0,0.0,0.03872652215310406,0.021753505456832876,-0.21958139979170774,0.03872652215310406,0.021753505456832876,-0.21958139979170774,1.0,1.0,-2.3862803365813257,4.26759841932878,-0.9302114802993098,0.279899789843544,0.13468646003564763,0.42084644553342015,4.977150139536964,0.5230641123127339,1.0,0.0,46.50717714849278,250.05659345185603,1195.8313300795282,44.98735486293514,-1.4852222150188183,-11.682617624627026,1.0,1193.49251042631,0.0,1.0,46.16044354587811,1186.9112987496078,1.0,1.0,10.59474079737551,31.256256170074092,-17.992265827146518,-31.685358912326492,1.0,1193.5473795402997,0.0,1.0,24.362362784712545,-11.216705780229137,,,
1.04,48.20200251936476,247.4077684293206,1192.7888980046507,44.96244604494574,-1.4179891182347348,-11.960200484039827,46.5475954599431,10.999430355100575,27.89558967280227,-11.333729590595192,8.451982748551096,60.095424062655475,13.124667509603675,-9.360421435759553,-1.3424899420921856,-10.517818473809148,1181.6469856735007,0.1386646322983331,46.5475954599431,0.5736288189188208,1.0907450345118774,87792.67919316256,280.39687216296977,0.0,0.0,0.0,12.310289671299321,0.0006283052451911806,0.17979659021974911,nominal,12780.602568168564,1450.0798983183251,target_intercept,-14.999999999999998,-11.632662963742087,0.0,-3.088960695833532,-24.000000000000004,-24.000000000000004,-2.0273953017482755,-3.55361594770867,-17.381087467639666,0.18,0.0,1.0,1.0,0.0,0.0,0.0,-0.035384723254971356,-0.062022298638894933,-0.30335720388743553,-0.035384723254971356,-0.062022298638894933,-0.30335720388743553,1.04,1.0,-2.5730863149778282,2.683485733976241,-4.198072757866244,1.0512361169483393,0.22944893757552373,-0.16501061266203376,5.6076451161890475,1.088564509260824,1.0,0.0,46.50717714849278,250.05659345185603,1195.8313300795282,44.98735486293514,-1.4852222150188183,-11.682617624627026,1.0,1192.8042301053642,0.0,1.0,46.76720650507916,1195.1804127038758,1.0,1.0,10.260898037556204,31.471219316061905,-19.959940556914056,-30.319219401239497,1.0,1192.8026312233928,0.0,1.0,27.746456612796187,-11.78154716730821,,,
1.08,49.99472725264358,247.3572280759856,1192.2917231184524,44.81811833197045,-1.2635088333750477,-12.429372154957615,46.526868340314486,10.999405222890767,28.669311097901947,-10.922497454258691,9.125074188483595,16.09542406265548,-1.2302540185736464,19.411681558974834,-0.7837405802198573,-11.381362282724933,1180.6527810310854,0.13860208779268218,46.52686834031449,0.4770025375235142,1.090798536524899,87797.99738200125,280.40010379973006,0.0,0.0,0.0,12.31550930119395,0.0006282917541672911,0.1798417923931382,nominal,12774.76236529805,1448.3206683950075,target_intercept,-14.999999999999998,-11.64725194596923,0.0,5.132158813632515,2.348556360657786,-14.147339814064258,2.7726046982517243,1.168121898984495,-14.79408934477934,0.18,0.0,0.0,0.0,0.0,0.0,0.0,0.048391080840756454,0.020387573201928043,-0.2582055689006101,0.048391080840756454,0.020387573201928043,-0.2582055689006101,1.08,1.0,-2.3494485233316897,4.042157109992065,-0.5294545254751624,0.2791699425447805,-0.020008734019813585,0.33876182513586794,4.705237991875755,0.43942664965488387,1.0,0.0,46.50717714849278,250.05659345185603,1195.8313300795282,44.98735486293514,-1.4852222150188183,-11.682617624627026,1.0,1191.961111668469,0.0,1.0,46.13323549428645,1158.8485224907674,1.0,1.0,10.260898037556204,31.471219316061905,-19.959940556914056,-30.319219401239497,1.0,1192.8026312233928,0.0,1.0,27.746456612796187,-11.78154716730821,,,
1.12,51.783206163465856,247.3120763612631,1191.781855621775,44.71197277055697,-1.1287928680625687,-12.746687416935275,46.50712550221818,10.9993800912206,31.1183475709547,-11.139309006730487,9.363248354798227,60.095424062655475,7.613598040078439,2.365846910718995,-1.1244234157474775,-11.482473689033958,1179.7103556403938,0.13854245575811194,46.50712550221818,0.4475552889856079,1.0908534065010644,87803.45161230802,280.40341793845846,0.0,0.0,0.0,12.319941088776586,0.0006282511473636702,0.17987694963910747,nominal,12768.843895672815,1446.559359588473,target_intercept,-14.999999999999998,-11.662089996795332,0.0,0.2041746361259501,-24.000000000000004,-22.46388664770954,0.7178606485511051,-3.6318781010155052,-19.59408934477934,0.18,0.0,1.0,1.0,0.0,0.0,0.0,0.012529031887718645,-0.06338823089379977,-0.3419813729963379,0.012529031887718645,-0.06338823089379977,-0.3419813729963379,1.12,1.0,-2.5431026322471046,2.6582957948600763,-2.357597692755902,1.0473942625933879,0.13193832166496727,0.0377181144093032,4.369459281421543,1.0563451700045343,1.0,0.0,46.50717714849278,250.05659345185603,1195.8313300795282,44.98735486293514,-1.4852222150188183,-11.682617624627026,1.0,1193.0863984919717,0.0,1.0,46.13390273757731,1190.0823430418732,1.0,1.0,8.317636486499941,31.203320428983044,-22.079738425592282,-29.02388127004156,1.0,1191.7324550989445,0.0,1.0,31.867522360872158,-11.460952116850036,,,
1.16,53.56672086079573,247.2718887553398,1191.2561339084446,44.587867433246956,-1.0046901480825627,-13.143042833265742,46.495450309202475,10.999354961174705,32.01242087487549,-10.620828852863797,10.689048025064128,16.09542406265548,5.995315978792359,34.52058868285413,-0.9763734234907688,-12.969242449011668,1179.1792750753254,0.13850683196052288,46.49545030920248,0.5768992842947974,1.0909099848580073,87809.07572798543,280.4068351295951,0.0,0.0,0.0,12.32301117882568,0.000628249949478987,0.17990429416375026,nominal,12763.145415321007,1444.7947959803228,target_intercept,-14.999999999999998,-11.677151683561913,0.0,5.255428229953149,2.348556360657786,-9.226266160014843,4.34791471367274,1.1524694683231274,-14.79408934477934,0.18,0.0,0.0,0.0,0.0,0.0,0.0,0.07588542734949583,0.020114386750947066,-0.2582055689006101,0.07588542734949583,0.020114386750947066,-0.2582055689006101,1.16,1.0,-2.523553806832264,5.0669230136994425,-0.20942424366249315,0.2807602974032512,0.10333672798601196,0.6016568900427203,5.664440939454507,0.6719343995396388,1.0,0.0,46.50717714849278,250.05659345185603,1195.8313300795282,44.98735486293514,-1.4852222150188183,-11.682617624627026,1.0,1190.804360563301,0.0,1.0,47.46623735856928,1181.0803547046798,1.0,1.0,8.317636486499941,31.203320428983044,-22.079738425592282,-29.02388127004156,1.0,1191.7324550989445,0.0,1.0,31.867522360872158,-11.460952116850036,,,
1.2,55.345892761712534,247.23812696196984,1190.7193950128708,44.47929752292007,-0.8440448342492963,-13.41847238934494,46.46693147904517,10.999329831176725,34.44399052741251,-11.479985036029168,10.83567513567446,60.095424062655475,19.943224612892315,-8.762498821195804,-1.8928960182848444,-12.57575903402428,1177.7955404395473,0.13842101516606395,46.46693147904516,0.6650872216158595,1.0909677512040235,87814.81800525439,280.4103239324163,0.0,0.0,0.0,12.327392805079878,0.0006280878473562731,0.1799255621273613,nominal,12756.556215642107,1443.029283560794,target_intercept,-14.999999999999998,-11.692510890815681,0.0,-5.2279011905088435,-24.000000000000004,-24.000000000000004,-0.45208528632725964,-3.647530531676872,-19.59408934477934,0.18,0.0,1.0,1.0,0.0,0.0,0.0,-0.007890376746231983,-0.06366141734478074,-0.3419813729963379,-0.007890376746231983,-0.06366141734478074,-0.3419813729963379,1.2,1.0,-2.66072936204563,3.539968950963934,-4.802391033198719,1.051526465395903,0.3479090755481831,-0.1537162753620638,6.53252022940518,1.1182027211503192,1.0,0.0,55.08508352884512,245.41690791683126,1191.4180236190614,44.62539291818252,-1.0699713622939717,-13.175503811819988,1.0,1190.8950466074684,0.0,1.0,46.24833866006151,1180.85182535823,1.0,1.0,12.627240768181286,31.41373643743013,-24.197634393412773,-27.210530793856076,1.0,1190.5094907513885,0.0,1.0,34.26483574284601,-11.230985919059702,,,
1.24,57.11866044470409,247.2123146756711,1190.1648047899266,44.31919207478893,-0.6453071574683439,-13.864755573604793,46.441777039701215,10.99930470766283,35.22254804944878,-11.480510249971537,11.512687447543302,16.09542406265548,9.485186826980573,13.60751188601467,-1.7829264411869181,-13.204645201597838,1176.5850792630554,0.1383451929916218,46.441777039701215,0.6144072664054032,1.0910274412513803,87820.75158356091,280.41392876886545,0.0,0.0,0.0,12.331106159366879,0.0006279369330111875,0.17994210387683657,nominal,12749.949010195793,1441.2611301647062,target_intercept,-14.999999999999998,-11.708219184933567,0.0,1.1868676177185227,2.348556360657786,-20.44714988047071,0.8590770369093661,1.149338982190854,-20.27653777333244,0.18,0.0,0.0,0.0,0.0,0.0,0.0,0.01499372282234529,0.02005974946075087,-0.3538923450496507,0.01499372282234529,0.02005974946075087,-0.3538923450496507,1.24,1.0,-2.5828344175003215,3.801897303724897,-3.8641363157708333,0.2809704703330946,0.16928503699173783,0.2387160738842309,6.004748637799409,0.40569347157576496,1.0,0.0,55.08508352884512,245.41690791683126,1191.4180236190614,44.62539291818252,-1.0699713622939717,-13.175503811819988,1.0,1191.5488326503555,0.0,1.0,46.49117962215077,1182.662885673581,1.0,1.0,12.627240768181286,31.41373643743013,-24.197634393412773,-27.210530793856076,1.0,1190.5094907513885,0.0,1.0,34.26483574284601,-11.230985919059702,,,
1.28,58.88538969560661,247.1939872452663,1189.5938571821484,44.16823127256307,-0.45818576011993256,-14.273690194456899,46.41961675525477,10.999279590185509,37.81953792777728,-11.062413833819265,12.502771261337115,60.095424062655475,6.048080859076432,25.734747812920293,-2.028393596248353,-14.260570949934719,1175.5287111654397,0.13827826479957844,46.41961675525477,0.713616857010027,1.0910888944394102,87826.8605091897,280.417639928316,0.0,0.0,0.0,12.334260906058999,0.0006277978774326537,0.179954969681984,nominal,12743.32100938768,1439.4907388459633,target_intercept,-14.999999999999998,-11.724259829847743,0.0,4.384247464578667,-24.000000000000004,-15.156107864263046,3.6792133790448074,-3.6506610178091456,-16.180193846076925,0.18,0.0,1.0,0.0,0.0,0.0,0.0,0.06421438734775803,-0.06371605463497694,-0.28239765622496693,0.06421438734775803,-0.06371605463497694,-0.28239765622496693,1.28,1.0,-2.677989188390087,5.711506298548342,-3.072236537543251,1.0477098397339764,0.10320822291317958,0.4521537104001672,7.016521049217149,1.1457708424379323,1.0,0.0,55.08508352884512,245.41690791683126,1191.4180236190614,44.62539291818252,-1.0699713622939717,-13.175503811819988,1.0,1189.7595534217587,0.0,1.0,45.84464738918809,1189.321764718878,1.0,1.0,12.576012713726152,31.035559964609618,-26.38577676895888,-25.506378544565344,1.0,1189.30035764181,0.0,1.0,38.38149138403129,-11.084395299207484,,,
1.32,60.646132915938146,247.1847934525159,1189.009698520397,44.01858050828843,-0.2298448187604013,-14.603966543784432,46.37848744210354,10.999254478270412,38.4202518707134,-11.942704574625818,12.286660953333467,16.09542406265548,14.0458479346073,-17.751055116793676,-2.2011100612960237,-13.553874681073092,1173.514143549368,0.1381548103428576,46.37848744210355,0.7670636261780989,1.0911517723223705,87833.11114427332,280.4214369596174,0.0,0.0,0.0,12.33916582247278,0.0006274910604644596,0.17996497641932088,nominal,12735.684008703729,1437.7200213116625,target_intercept,-14.999999999999998,-11.740710593923307,0.0,-5.020965952478449,2.348556360657786,-24.000000000000004,-1.1207866209551924,1.148712884964399,-20.836038769215385,0.18,0.0,0.0,1.0,0.0,0.0,0.0,-0.01956141674796978,0.02004882200271163,-0.36365747959599537,-0.01956141674796978,0.02004882200271163,-0.36365747959599537,1.32,1.0,-2.758580588737227,3.9575216661455763,-5.823193642446365,0.2796486951529981,0.24360658792820308,-0.31054526057367227,7.561833692960805,0.4837209125596761,1.0,0.0,55.08508352884512,245.41690791683126,1191.4180236190614,44.62539291818252,-1.0699713622939717,-13.175503811819988,1.0,1189.254837044795,0.0,1.0,46.49078640351958,1172.0576875786066,1.0,1.0,12.576012713726152,31.035559964609618,-26.38577676895888,-25.506378544565344,1.0,1189.30035764181,0.0,1.0,38.38149138403129,-11.084395299207484,,,
1.36,62.39975538611459,247.18499389409695,1188.407425721488,43.84056175441122,0.00501103952654533,-15.05681997272851,46.35410130445867,10.999229378627994,40.875322225925956,-11.767635146991934,12.5378590269522,60.095424062655475,0.5516812720545398,7.526623800443347,-2.138026804015964,-13.889263527346618,1172.3500346758278,0.13808120373811128,46.35410130445868,0.635385302477622,1.0912166028838026,87839.55598202608,280.4253517328103,0.0,0.0,0.0,12.342201098430284,0.000627315394777016,0.17997275943724958,nominal,12728.647035323638,1435.9473298548626,target_intercept,-14.999999999999998,-11.757574040017259,0.0,3.025076537886891,-24.000000000000004,-23.776538299329598,2.1959039061184735,-3.6512871150356006,-21.767207753843078,0.18,0.0,1.0,1.0,0.0,0.0,0.0,0.03832575321917182,-0.06372698209301618,-0.37990944427020107,0.03832575321917182,-0.06372698209301618,-0.37990944427020107,1.36,1.0,-2.7171741657731943,3.915213766774539,-4.121008059468876,1.0520127158768304,0.009481998509590136,0.13068136966306235,6.300368379142093,1.0601406902101695,1.0,0.0,55.08508352884512,245.41690791683126,1191.4180236190614,44.62539291818252,-1.0699713622939717,-13.175503811819988,1.0,1188.2499073056658,0.0,1.0,46.66568562775409,1181.6476588825988,1.0,1.0,13.72668448137413,31.414518020130654,-27.43313256602011,-23.82799080901958,1.0,1188.340977738969,0.0,1.0,41.234146729237516,-12.025032636311972,,,
1.4000000000000001,64.14715238785999,247.19298103099447,1187.7895304674337,43.6849250436348,0.19967842243839884,-15.447381351356778,46.33609972963438,10.999204286012203,41.69564701047099,-11.124424422692998,13.427317515037805,16.09542406265548,2.297281281164885,26.98789827158876,-1.830225698299576,-15.076554808180939,1171.5110545390255,0.13802659160159886,46.33609972963438,0.6922804911320682,1.0912831181584657,87846.16839144999,280.42936805196166,0.0,0.0,0.0,12.34446297766016,0.000627186696975483,0.17997881289563855,nominal,12721.753268035769,1434.1729704454108,target_intercept,-14.999999999999998,-11.774785754680613,0.0,6.139698107201778,2.348556360657786,-15.160461391504674,5.350939266985116,1.1485876655191078,-16.96720775384308,0.18,0.0,0.0,0.0,0.0,0.0,0.0,0.09339150828314219,0.020046636511103777,-0.2961336401744733,0.09339150828314219,0.020046636511103777,-0.2961336401744733,1.4000000000000001,1.0,-2.534876001277036,6.049693071417938,-1.8339590155625316,0.27746153535347523,0.038108294461552,0.47073118553107357,6.810858115610364,0.5477453740005169,1.0,0.0,65.61252026200604,248.40243504455546,1187.3527667268665,43.7111287448727,0.198704475796299,-15.670082266456868,1.0,1187.4492584781412,0.0,1.0,46.49399698217908,1191.4577428515656,1.0,1.0,13.72668448137413,31.414518020130654,-27.43313256602011,-23.82799080901958,1.0,1188.340977738969,0.0,1.0,41.234146729237516,-12.025032636311972,,,
1.44,65.88928575908739,247.20905506708232,1187.1609390562355,43.55333428068495,0.4018509021959939,-15.714785279953777,46.30344358152787,10.999179198544324,44.09532580775669,-12.104093177619932,13.408514158197441,60.095424062655475,17.633434712004938,-17.01210172841124,-2.7021109346201237,-14.341541446871881,1169.9328944702565,0.13792831023106775,46.30344358152786,0.829405997166441,1.0913507880372875,87852.89567944162,280.43345389613444,0.0,0.0,0.0,12.34813612284708,0.0006269311669970131,0.1799835211410522,nominal,12714.076266749698,1432.3988295516472,target_intercept,-14.999999999999998,-11.792370112908603,0.0,-6.083211758345219,-24.000000000000004,-24.000000000000004,0.5509392669851166,-3.6514123344808915,-20.993441550768615,0.18,0.0,1.0,1.0,0.0,0.0,0.0,0.009615704187414378,-0.06372916758462403,-0.36640467638589663,0.009615704187414378,-0.06372916758462403,-0.36640467638589663,1.44,1.0,-2.8928604550002226,4.39179638962945,-6.21689682922942,1.0448072089116103,0.3092562622806891,-0.2982067018539217,8.142869477361723,1.1296852555398276,1.0,0.0,65.61252026200604,248.40243504455546,1187.3527667268665,43.7111287448727,0.198704475796299,-15.670082266456868,1.0,1187.9999562373955,0.0,1.0,46.25443623969034,1173.7075898577973,1.0,1.0,12.615695509606082,31.496446735678433,-28.899623068596863,-21.810041460209415,1.0,1186.9935207922304,0.0,1.0,44.45802501947955,-11.571984687729035,,,
1.48,67.62389899208085,247.23568540631254,1186.5154907453327,43.365330824836576,0.6657584807553698,-16.136207772567623,46.274964648086886,10.999154121297645,44.78531567236683,-12.376294357710245,13.626331253793216,16.09542406265548,8.584845060057495,-0.9651145661226679,-2.5441907332369382,-14.399785368817248,1168.5686023168375,0.13784244633299017,46.27496464808689,0.831127379400671,1.0914202759557963,87859.80380681103,280.43764931015534,0.0,0.0,0.0,12.351309090181235,0.0006267065696334769,0.17998718310970727,nominal,12706.428313908562,1430.623893944728,target_intercept,-14.999999999999998,-11.810421133120972,0.0,-0.9070141467583133,2.348556360657786,-24.000000000000004,-0.6154234640096271,1.14856262163005,-21.79868831015372,0.18,0.0,0.0,1.0,0.0,0.0,0.0,-0.010741165740996816,0.020046199412782212,-0.3804588836281813,-0.010741165740996816,0.020046199412782212,-0.3804588836281813,1.48,1.0,-2.807226084894383,4.385794476446083,-6.39295966150661,0.2801091029639681,0.1487465228835881,-0.019957366133489828,8.24534078828687,0.31778126769245363,1.0,0.0,65.61252026200604,248.40243504455546,1187.3527667268665,43.7111287448727,0.198704475796299,-15.670082266456868,1.0,1186.6989364384278,0.0,1.0,46.298314016645975,1173.144534496075,1.0,1.0,12.615695509606082,31.496446735678433,-28.899623068596863,-21.810041460209415,1.0,1186.9935207922304,0.0,1.0,44.45802501947955,-11.571984687729035,,,
1.52,69.35095880244938,247.27284938714482,1185.852924538634,43.176495259213084,0.929099520807211,-16.56415516747213,46.254126358634295,10.99912905303486,47.26132903380754,-11.833624668628232,13.972286290535374,60.095424062655475,-3.3354571712914804,15.638475964674967,-2.3797338000981902,-15.069748185663109,1167.5927003190457,0.1377793159408179,46.254126358634295,0.6749754121443712,1.091491610279801,87866.8956017105,280.44195599049885,0.0,0.0,0.0,12.353642432922697,0.0006265426952651238,0.1799900313075501,nominal,12698.966685027048,1428.8480403979675,target_intercept,-14.999999999999998,-11.82893897103079,0.0,5.684387134854704,-24.000000000000004,-21.396858031167106,4.184576535990373,-3.6514373783699496,-21.47722408696443,0.18,0.0,1.0,0.0,0.0,0.0,0.0,0.073034638354731,-0.0637296046829456,-0.37484827450616226,0.073034638354731,-0.0637296046829456,-0.37484827450616226,1.52,1.0,-2.704090144628515,4.770241297246436,-3.658463119255483,1.048483818589279,-0.06035925594059355,0.2766204284070763,6.59178715821324,1.086038866262793,1.0,0.0,65.61252026200604,248.40243504455546,1187.3527667268665,43.7111287448727,0.198704475796299,-15.670082266456868,1.0,1184.8952424959625,0.0,1.0,45.20738607937128,1177.9659943866875,1.0,1.0,13.345475349452357,31.362805314381596,-30.355718056712842,-20.179234729085852,1.0,1185.8675183486278,0.0,1.0,47.91200205435768,-11.945471830785232,,,
1.56,71.07192527713998,247.31829918041913,1185.1771997148205,43.02416186726486,1.1362448318581846,-16.89312059533435,46.23577705789145,10.999103991327049,48.136568626563964,-11.572328137963693,14.555147208480271,18.92557205009566,6.157091905805746,14.435068256812915,-2.320780316440892,-15.740586772599261,1166.7442670173286,0.13772357953407063,46.235777057891454,0.7148707304888441,1.0915643649828546,87874.12871762585,280.44634820185365,0.0,0.0,0.0,12.355677035125346,0.0006263972903457947,0.17999224657253896,nominal,12691.491525656864,1427.0717898699627,target_intercept,-14.999999999999998,-11.847834758315386,0.0,3.125618181697594,-0.7646064255264179,-22.628945069386962,3.33740985255615,-1.3419726160951244,-21.895444817392885,0.18,0.0,0.0,1.0,0.0,0.0,0.0,0.05824879041560331,-0.02342184062246177,-0.38214760325223446,0.05824879041560331,-0.02342184062246177,-0.38214760325223446,1.56,1.0,-2.6710033663425743,5.173294047599805,-3.925138527298024,0.3297548085408912,0.10853335901582752,0.2512980903324911,7.021676633427678,0.42856557722226735,1.0,0.0,65.61252026200604,248.40243504455546,1187.3527667268665,43.7111287448727,0.198704475796299,-15.670082266456868,1.0,1186.0287185409975,0.0,1.0,46.182096123135125,1162.4011672090364,1.0,1.0,13.345475349452357,31.362805314381596,-30.355718056712842,-20.179234729085852,1.0,1185.8675183486278,0.0,1.0,47.91200205435768,-11.945471830785232,,,
1.6,72.78663736453746,247.3726373014631,1184.4885643399982,42.86780218493699,1.3584530260995133,-17.215884370560076,46.215587559301916,10.999078935435435,50.5389903684899,-11.594565668568157,15.140693730323436,57.12872095017477,11.242777965845072,8.92439650038991,-2.897976398939838,-16.11392966066228,1165.8047253507868,0.1376623420154928,46.21558755930192,0.8930992396307611,1.0916385135706914,87881.50052712053,280.45082433179,0.0,0.0,0.0,12.357866683556646,0.0006262347256141362,0.1799939695564192,nominal,12683.805046210593,1425.2955089593195,target_intercept,-14.999999999999998,-11.867136215805283,0.0,0.8352330230889153,-24.000000000000004,-24.000000000000004,1.3356683889823626,-6.141972616095123,-21.979088963478578,0.18,0.0,1.0,1.0,0.0,0.0,0.0,0.02331181110255058,-0.10719764471818957,-0.3836074690014489,0.02331181110255058,-0.10719764471818957,-0.3836074690014489,1.6,1.0,-2.823028603735389,5.473302662907119,-6.211069406926411,1.0014939549506658,0.19656640058504066,0.15744543131737107,8.746651685928253,1.0326749515139786,1.0,0.0,74.90426271121245,250.09898779567456,1183.4982756947113,42.85230574471671,1.266288521175248,-17.362998487053083,1.0,1184.1492473413027,0.0,1.0,45.83844858784451,1144.3580233658395,1.0,1.0,14.911013726374085,31.042938287342796,-31.798539194279932,-18.030861871213457,1.0,1184.697438765832,0.0,1.0,49.92262765825294,-11.864791913834106,,,
1.6400000000000001,74.49368091736035,247.4386386582999,1183.7854831413006,42.67608882057249,1.6500339209202255,-17.577029967440836,46.18358097243968,10.99905388604641,51.10956207140461,-11.699573347667707,15.36570801095479,13.12872095017477,5.929460143733826,1.4453142427129737,-2.6525716574412486,-16.26311715595332,1164.2712689844323,0.1375658831815635,46.18358097243968,0.8679131563439736,1.091714221583228,87889.02749510539,280.45539435958153,0.0,0.0,0.0,12.361242481101202,0.0006259719770240115,0.1799953096549927,nominal,12675.43148396658,1423.5200210610597,target_intercept,-14.999999999999998,-11.886960265941298,0.0,0.7930874182319984,5.6119297843865645,-24.000000000000004,0.9016036123820712,-1.341972616095124,-21.995817792695714,0.18,0.0,0.0,1.0,0.0,0.0,0.0,0.015735951583941858,-0.023421840622461762,-0.38389944215129174,0.015735951583941858,-0.023421840622461762,-0.38389944215129174,1.6400000000000001,1.0,-2.7778169560086097,5.529889644956913,-5.868981666266602,0.23151075191049136,0.10142447715300663,0.0243577789212555,8.528827136568317,0.2539241111235768,1.0,0.0,74.90426271121245,250.09898779567456,1183.4982756947113,42.85230574471671,1.266288521175248,-17.362998487053083,1.0,1184.2901512673113,0.0,1.0,46.27938737502077,1160.5513075003141,1.0,1.0,14.911013726374085,31.042938287342796,-31.798539194279932,-18.030861871213457,1.0,1184.697438765832,0.0,1.0,49.92262765825294,-11.864791913834106,,,
