time_s,sensor_time_s,imu_valid,imu_ax_mps2,imu_ay_mps2,imu_az_mps2,gyro_p_rps,gyro_q_rps,gyro_r_rps,imu_accel_norm_mps2,imu_gyro_norm_rps,gps_valid,gps_latency_s,gps_x_m,gps_y_m,gps_z_m,gps_vx_mps,gps_vy_mps,gps_vz_mps,baro_valid,baro_alt_m,baro_bias_m,pitot_valid,pitot_airspeed_mps,pitot_qbar_pa,pitot_compressibility_factor,mag_valid,mag_heading_deg,mag_x_ut,mag_y_ut,mag_z_ut,radar_valid,radar_agl_m,optical_flow_valid,horizon_valid,horizon_roll_deg,horizon_pitch_deg,optical_flow_x_radps,optical_flow_y_radps,optical_flow_quality
0.0,0.0,1.0,-3.5480593231251762,-2.5021430320107965,0.4715860666353989,0.004569755852035123,2.0133944395973026e-05,0.0001551406198653554,4.367131567894458,0.004572432890142664,1.0,0.0,0.2136181609379939,248.1775623292204,1199.432023011328,47.965355097651184,-2.8354432490463894,-0.9400489124326931,1.0,1200.4838225180154,0.0,1.0,48.58592398693941,1256.4165989432342,1.0,1.0,-5.076838378091929,25.380259330629187,2.105279526919706,-40.71696829171774,1.0,1199.8363803645034,0.0,1.0,-0.03722258901453194,-1.45053139681452,,,
0.04,0.04,1.0,-3.430519058591183,0.45088410575536964,-1.9850123832020343,-0.13168907272373917,0.3129052627455953,0.7653012895888104,3.9889888003910934,0.8372202692093786,1.0,0.0,0.2136181609379939,248.1775623292204,1199.432023011328,47.965355097651184,-2.8354432490463894,-0.9400489124326931,1.0,1199.325770729789,0.0,1.0,48.61246247032485,1274.725643180314,1.0,1.0,-5.076838378091929,25.380259330629187,2.105279526919706,-40.71696829171774,1.0,1199.8363803645034,0.0,1.0,-0.03722258901453194,-1.45053139681452,,,
0.08,0.08,1.0,-3.334496521799024,1.3400096259242622,-3.0183661323121473,0.6357334535443414,0.31718339200100787,0.34194721516908955,4.693082884431988,0.788473351533567,1.0,0.0,0.2136181609379939,248.1775623292204,1199.432023011328,47.965355097651184,-2.8354432490463894,-0.9400489124326931,1.0,1200.1340247370072,0.0,1.0,48.19767554340948,1227.1933185614662,1.0,1.0,-2.7049651554084906,26.446044509674802,0.10296728496700229,-40.0572465845844,1.0,1199.9246386616044,0.0,1.0,1.2681597441222048,-3.171189263239859,,,
0.12,0.12,1.0,-3.186333687379176,-0.6254243456896409,-2.5166786515840114,-0.06677624084042165,0.24230955470746907,-0.3229369059047112,4.108229474463106,0.40922027300540503,1.0,0.0,0.2136181609379939,248.1775623292204,1199.432023011328,47.965355097651184,-2.8354432490463894,-0.9400489124326931,1.0,1200.075134977257,0.0,1.0,48.045713006736186,1249.476679426969,1.0,1.0,-2.7049651554084906,26.446044509674802,0.10296728496700229,-40.0572465845844,1.0,1199.9246386616044,0.0,1.0,1.2681597441222048,-3.171189263239859,,,
0.16,0.16,1.0,-3.012297415079107,0.6626638303477304,-2.156700114679702,0.7031326968484548,0.22007566871620557,0.280187971834217,3.7635640626410005,0.7882475429069462,1.0,0.0,0.2136181609379939,248.1775623292204,1199.432023011328,47.965355097651184,-2.8354432490463894,-0.9400489124326931,1.0,1200.494269024494,0.0,1.0,47.39629948582456,1226.5472235163877,1.0,1.0,-1.0979550247962029,27.09601882585554,-0.789943923124152,-39.628517462277536,1.0,1199.5957998091158,0.0,1.0,3.315960064394205,-4.214704980014365,,,
0.2,0.2,1.0,-2.9388862636862165,-0.7343012342442596,-2.38787496225339,-0.06568238477935391,0.24443950891807523,-0.007377535741676061,3.857226673252792,0.2532178453901553,1.0,0.0,7.665449015723324,250.7096486184378,1199.3506343828033,47.43752217239585,-3.077238132239563,-3.280594364626968,1.0,1199.986463521968,0.0,1.0,47.37852666525787,1221.4695462039203,1.0,1.0,-1.0979550247962029,27.09601882585554,-0.789943923124152,-39.628517462277536,1.0,1199.5957998091158,0.0,1.0,3.315960064394205,-4.214704980014365,,,
0.24,0.24,1.0,-2.8681288458096357,1.6389567008459889,-2.0511774630126034,0.697515310890586,0.2142993074901952,0.6346808296981676,3.8884021304623446,0.9670943892422924,1.0,0.0,7.665449015723324,250.7096486184378,1199.3506343828033,47.43752217239585,-3.077238132239563,-3.280594364626968,1.0,1199.4949693019807,0.0,1.0,47.083407171947414,1204.839144732384,1.0,1.0,-1.5866834206207145,27.823304801237118,-2.4966216841639817,-39.04828609108476,1.0,1199.644583813536,0.0,1.0,4.817094188706836,-5.626396862113751,,,
0.28,0.28,1.0,-2.890034953263836,0.09805236462058615,-2.5384053419481702,-0.0700658537012522,0.2423321311471697,-0.12958919646169417,3.847780915972919,0.28359732981959107,1.0,0.0,7.665449015723324,250.7096486184378,1199.3506343828033,47.43752217239585,-3.077238132239563,-3.280594364626968,1.0,1198.8772645339247,0.0,1.0,47.309699023547104,1216.6015753271888,1.0,1.0,-1.5866834206207145,27.823304801237118,-2.4966216841639817,-39.04828609108476,1.0,1199.644583813536,0.0,1.0,4.817094188706836,-5.626396862113751,,,
0.32,0.32,1.0,-2.74574638996844,1.319273188336636,-1.6720952561594504,0.7003082818927414,0.17538644787517707,0.2929847178168807,3.474983097679695,0.7791226736914237,1.0,0.0,7.665449015723324,250.7096486184378,1199.3506343828033,47.43752217239585,-3.077238132239563,-3.280594364626968,1.0,1199.7763813598667,0.0,1.0,47.001231996029,1222.274480863251,1.0,1.0,-0.8267042102772528,28.47544764356769,-3.7863426396308375,-38.40548311805603,1.0,1199.0023693153696,0.0,1.0,6.185735169382226,-5.965715800503836,,,
0.36,0.36,1.0,-2.6319910417109442,-0.11833296914710559,-1.882544396048404,-0.0696761267335521,0.2067354511737843,-0.022289164635508625,3.238109469787438,0.21929686789547856,1.0,0.0,7.665449015723324,250.7096486184378,1199.3506343828033,47.43752217239585,-3.077238132239563,-3.280594364626968,1.0,1198.7531565792299,0.0,1.0,46.94177063539463,1211.7460927992583,1.0,1.0,-0.8267042102772528,28.47544764356769,-3.7863426396308375,-38.40548311805603,1.0,1199.0023693153696,0.0,1.0,6.185735169382226,-5.965715800503836,,,
0.4,0.4,1.0,-2.6627172965207055,2.2925897047005823,-1.1853295167415516,0.6974378896299827,0.17857882104062717,0.5943002516873473,3.708239072463964,0.9335431400698249,1.0,0.0,19.93299855324987,247.20730740093057,1199.5566362707118,46.66636349496188,-2.9677461844483526,-5.528624037056219,1.0,1199.165053344264,0.0,1.0,47.464239124361,1201.9356668097148,1.0,1.0,0.050283703142674635,28.97254479769204,-5.388844972331823,-37.90263644190023,1.0,1199.0288906815135,0.0,1.0,7.372525066397707,-7.081041173117143,,,
0.44,0.44,1.0,-2.635802739467835,0.6685882086997605,-2.2847594471037134,-0.05148790212781852,0.24017892414079742,-0.15160947569527844,3.5517026910100684,0.28865611510507094,1.0,0.0,19.93299855324987,247.20730740093057,1199.5566362707118,46.66636349496188,-2.9677461844483526,-5.528624037056219,1.0,1197.4282878027575,0.0,1.0,46.8105191055761,1210.9910186124068,1.0,1.0,0.050283703142674635,28.97254479769204,-5.388844972331823,-37.90263644190023,1.0,1199.0288906815135,0.0,1.0,7.372525066397707,-7.081041173117143,,,
0.48,0.48,1.0,-2.5128746288903403,1.7773042568518118,-0.8946397250528444,0.716570652695148,0.1382128137860761,0.28685825561875494,3.20526591090146,0.7841326042291888,1.0,0.0,19.93299855324987,247.20730740093057,1199.5566362707118,46.66636349496188,-2.9677461844483526,-5.528624037056219,1.0,1197.233175934948,0.0,1.0,46.930218931643815,1211.716468617211,1.0,1.0,-0.43097277731250094,29.550905079517197,-6.4837187988566845,-37.32390084754917,1.0,1198.1640943685536,0.0,1.0,8.11721898490431,-8.595104376245716,,,
0.52,0.52,1.0,-2.4834304549540236,0.44913533041012166,-1.329886361124181,-0.027645324889702283,0.19061663695628678,0.039952141926066866,2.8526736762412686,0.19671080274672922,1.0,0.0,19.93299855324987,247.20730740093057,1199.5566362707118,46.66636349496188,-2.9677461844483526,-5.528624037056219,1.0,1197.000889304765,0.0,1.0,47.23975551158592,1190.6864112955227,1.0,1.0,-0.43097277731250094,29.550905079517197,-6.4837187988566845,-37.32390084754917,1.0,1198.1640943685536,0.0,1.0,8.11721898490431,-8.595104376245716,,,
0.56,0.56,1.0,-2.461963503417733,2.903588576952958,-0.6185628216155513,0.7385500562644611,0.16498730905988154,0.6281251782946528,3.8567746733063903,0.9834725402199844,1.0,0.0,19.93299855324987,247.20730740093057,1199.5566362707118,46.66636349496188,-2.9677461844483526,-5.528624037056219,1.0,1198.2730455966152,0.0,1.0,47.07649097328767,1191.6241885498234,1.0,1.0,3.1752908863378013,29.84094251427065,-8.28971204846401,-36.6454944218312,1.0,1197.5249860830988,0.0,1.0,11.06942195487288,-8.463075540081084,,,
0.6,0.6,1.0,-2.575943093363486,1.1876446771854128,-2.249504147516662,0.10887700746665975,0.24812367027151785,-0.14204718539889924,3.6202557380920695,0.305936204761145,1.0,0.0,26.496041311485545,249.80409131886978,1196.9792440550953,46.37484513180791,-2.551958171318608,-7.685032821951713,1.0,1197.595612578554,0.0,1.0,47.61697729220736,1178.4235066278322,1.0,1.0,3.1752908863378013,29.84094251427065,-8.28971204846401,-36.6454944218312,1.0,1197.5249860830988,0.0,1.0,11.06942195487288,-8.463075540081084,,,
0.64,0.64,1.0,-2.4426370340817565,2.10311816439503,-0.6183829140335495,0.8701279863145298,0.09996131162384848,0.26665230710799537,3.2820693353499806,0.9155426965878519,1.0,0.0,26.496041311485545,249.80409131886978,1196.9792440550953,46.37484513180791,-2.551958171318608,-7.685032821951713,1.0,1197.4399053426916,0.0,1.0,46.92279317891028,1192.1269591936905,1.0,1.0,3.5991250999611752,30.267842066566384,-9.804220453286652,-35.86641750124837,1.0,1196.6576478622499,0.0,1.0,13.40898635058425,-9.199610541449346,,,
0.68,0.68,1.0,-2.3971393268994827,1.5204906679575496,-0.943022097837602,0.10471714719755043,0.17476749284056153,0.14365173014157603,2.991230432601964,0.24928934402344066,1.0,0.0,26.496041311485545,249.80409131886978,1196.9792440550953,46.37484513180791,-2.551958171318608,-7.685032821951713,1.0,1195.9460601473825,0.0,1.0,46.723162457519585,1188.997191927943,1.0,1.0,3.5991250999611752,30.267842066566384,-9.804220453286652,-35.86641750124837,1.0,1196.6576478622499,0.0,1.0,13.40898635058425,-9.199610541449346,,,
0.72,0.72,1.0,-2.3851371734481823,3.453308310432797,-0.8670684795302888,0.8739128376489055,0.16394484858945288,0.43041241045917383,4.285560100064351,0.9878544448773094,1.0,0.0,26.496041311485545,249.80409131886978,1196.9792440550953,46.37484513180791,-2.551958171318608,-7.685032821951713,1.0,1196.8524852229223,0.0,1.0,47.074978057066424,1204.0208871073987,1.0,1.0,4.083901716473814,30.567094623693343,-11.934800864336038,-35.10311760409183,1.0,1196.1774042867694,0.0,1.0,15.300001819763892,-10.233939006128702,,,
0.76,0.76,1.0,-2.4127061095526128,1.6047553958233507,-2.3310055485235637,0.20953970830278876,0.2149544251590123,-0.25924416781868664,3.7188677737645235,0.39663564237100857,1.0,0.0,26.496041311485545,249.80409131886978,1196.9792440550953,46.37484513180791,-2.551958171318608,-7.685032821951713,1.0,1196.1831081822315,0.0,1.0,47.26658817699747,1168.563379768848,1.0,1.0,4.083901716473814,30.567094623693343,-11.934800864336038,-35.10311760409183,1.0,1196.1774042867694,0.0,1.0,15.300001819763892,-10.233939006128702,,,
0.8,0.8,1.0,-2.4117557753581123,2.324434032269535,0.059751039168194825,0.9810889914680766,0.03150146683295005,0.24098608816758543,3.3500939803276713,1.0107434126833528,1.0,0.0,37.573960837294166,250.79063624655254,1194.4377282166865,45.49936073073768,-2.1565314941976244,-9.828820651931935,1.0,1195.0389985258528,0.0,1.0,46.529729060370634,1168.5299827788417,1.0,1.0,4.743845210659737,30.874106891217554,-13.569807091440385,-34.12421879174518,1.0,1194.9535907289894,0.0,1.0,18.480885857774158,-10.117954085251721,,,
0.84,0.84,1.0,-2.3723625989683916,2.551281136950356,-0.6813423710247266,0.2079537679335023,0.167512067027686,0.24158590278157985,3.5498404425123615,0.3600955576238339,1.0,0.0,37.573960837294166,250.79063624655254,1194.4377282166865,45.49936073073768,-2.1565314941976244,-9.828820651931935,1.0,1196.1969445617774,0.0,1.0,46.578879130616976,1214.9542508722566,1.0,1.0,4.743845210659737,30.874106891217554,-13.569807091440385,-34.12421879174518,1.0,1194.9535907289894,0.0,1.0,18.480885857774158,-10.117954085251721,,,
0.88,0.88,1.0,-2.394013962872898,2.5997917828674737,-1.6961378814744155,0.9805690861793097,0.19386148204471318,0.2374323756388109,3.9200897797969056,1.0273617376526092,1.0,0.0,37.573960837294166,250.79063624655254,1194.4377282166865,45.49936073073768,-2.1565314941976244,-9.828820651931935,1.0,1194.2640027706143,0.0,1.0,46.80007666331708,1178.289965679715,1.0,1.0,6.18910489303504,31.049348189064183,-15.795915361891876,-32.99576369611556,1.0,1194.4676653086944,0.0,1.0,21.28954191263271,-10.812337707163229,,,
0.92,0.92,1.0,-2.332364420354916,3.021651376813313,-1.1062659202494027,0.27977450945785176,0.15205909178287072,0.2745485512675511,3.9741823207599034,0.4204433975451681,1.0,0.0,37.573960837294166,250.79063624655254,1194.4377282166865,45.49936073073768,-2.1565314941976244,-9.828820651931935,1.0,1193.4297330308862,0.0,1.0,46.516662457507245,1172.0286120135938,1.0,1.0,6.18910489303504,31.049348189064183,-15.795915361891876,-32.99576369611556,1.0,1194.4676653086944,0.0,1.0,21.28954191263271,-10.812337707163229,,,
0.96,0.96,1.0,-2.4792090794031756,2.707679825981222,-2.1064241443914464,1.0478777700504125,0.16701331600067226,0.18157718955524654,4.232615075281011,1.0765275400351575,1.0,0.0,37.573960837294166,250.79063624655254,1194.4377282166865,45.49936073073768,-2.1565314941976244,-9.828820651931935,1.0,1193.9739788988977,0.0,1.0,46.34169656818258,1169.1093325142474,1.0,1.0,10.59474079737551,31.256256170074092,-17.992265827146518,-31.685358912326492,1.0,1193.5473795402997,0.0,1.0,24.362362784712545,-11.216705780229137,,,
1.0,1.0,1.0,-2.3862803365813257,4.26759841932878,-0.9302114802993098,0.279899789843544,0.13468646003564763,0.42084644553342015,4.977150139536964,0.5230641123127339,1.0,0.0,46.50717714849278,250.05659345185603,1195.8313300795282,44.98735486293514,-1.4852222150188183,-11.682617624627026,1.0,1193.49251042631,0.0,1.0,46.16044354587811,1186.9112987496078,1.0,1.0,10.59474079737551,31.256256170074092,-17.992265827146518,-31.685358912326492,1.0,1193.5473795402997,0.0,1.0,24.362362784712545,-11.216705780229137,,,
1.04,1.04,1.0,-2.5730863149778282,2.683485733976241,-4.198072757866244,1.0512361169483393,0.22944893757552373,-0.16501061266203376,5.6076451161890475,1.088564509260824,1.0,0.0,46.50717714849278,250.05659345185603,1195.8313300795282,44.98735486293514,-1.4852222150188183,-11.682617624627026,1.0,1192.8042301053642,0.0,1.0,46.76720650507916,1195.1804127038758,1.0,1.0,10.260898037556204,31.471219316061905,-19.959940556914056,-30.319219401239497,1.0,1192.8026312233928,0.0,1.0,27.746456612796187,-11.78154716730821,,,
1.08,1.08,1.0,-2.3494485233316897,4.042157109992065,-0.5294545254751624,0.2791699425447805,-0.020008734019813585,0.33876182513586794,4.705237991875755,0.43942664965488387,1.0,0.0,46.50717714849278,250.05659345185603,1195.8313300795282,44.98735486293514,-1.4852222150188183,-11.682617624627026,1.0,1191.961111668469,0.0,1.0,46.13323549428645,1158.8485224907674,1.0,1.0,10.260898037556204,31.471219316061905,-19.959940556914056,-30.319219401239497,1.0,1192.8026312233928,0.0,1.0,27.746456612796187,-11.78154716730821,,,
1.12,1.12,1.0,-2.5431026322471046,2.6582957948600763,-2.357597692755902,1.0473942625933879,0.13193832166496727,0.0377181144093032,4.369459281421543,1.0563451700045343,1.0,0.0,46.50717714849278,250.05659345185603,1195.8313300795282,44.98735486293514,-1.4852222150188183,-11.682617624627026,1.0,1193.0863984919717,0.0,1.0,46.13390273757731,1190.0823430418732,1.0,1.0,8.317636486499941,31.203320428983044,-22.079738425592282,-29.02388127004156,1.0,1191.7324550989445,0.0,1.0,31.867522360872158,-11.460952116850036,,,
1.16,1.16,1.0,-2.523553806832264,5.0669230136994425,-0.20942424366249315,0.2807602974032512,0.10333672798601196,0.6016568900427203,5.664440939454507,0.6719343995396388,1.0,0.0,46.50717714849278,250.05659345185603,1195.8313300795282,44.98735486293514,-1.4852222150188183,-11.682617624627026,1.0,1190.804360563301,0.0,1.0,47.46623735856928,1181.0803547046798,1.0,1.0,8.317636486499941,31.203320428983044,-22.079738425592282,-29.02388127004156,1.0,1191.7324550989445,0.0,1.0,31.867522360872158,-11.460952116850036,,,
1.2,1.2,1.0,-2.66072936204563,3.539968950963934,-4.802391033198719,1.051526465395903,0.3479090755481831,-0.1537162753620638,6.53252022940518,1.1182027211503192,1.0,0.0,55.08508352884512,245.41690791683126,1191.4180236190614,44.62539291818252,-1.0699713622939717,-13.175503811819988,1.0,1190.8950466074684,0.0,1.0,46.24833866006151,1180.85182535823,1.0,1.0,12.627240768181286,31.41373643743013,-24.197634393412773,-27.210530793856076,1.0,1190.5094907513885,0.0,1.0,34.26483574284601,-11.230985919059702,,,
1.24,1.24,1.0,-2.5828344175003215,3.801897303724897,-3.8641363157708333,0.2809704703330946,0.16928503699173783,0.2387160738842309,6.004748637799409,0.40569347157576496,1.0,0.0,55.08508352884512,245.41690791683126,1191.4180236190614,44.62539291818252,-1.0699713622939717,-13.175503811819988,1.0,1191.5488326503555,0.0,1.0,46.49117962215077,1182.662885673581,1.0,1.0,12.627240768181286,31.41373643743013,-24.197634393412773,-27.210530793856076,1.0,1190.5094907513885,0.0,1.0,34.26483574284601,-11.230985919059702,,,
1.28,1.28,1.0,-2.677989188390087,5.711506298548342,-3.072236537543251,1.0477098397339764,0.10320822291317958,0.4521537104001672,7.016521049217149,1.1457708424379323,1.0,0.0,55.08508352884512,245.41690791683126,1191.4180236190614,44.62539291818252,-1.0699713622939717,-13.175503811819988,1.0,1189.7595534217587,0.0,1.0,45.84464738918809,1189.321764718878,1.0,1.0,12.576012713726152,31.035559964609618,-26.38577676895888,-25.506378544565344,1.0,1189.30035764181,0.0,1.0,38.38149138403129,-11.084395299207484,,,
1.32,1.32,1.0,-2.758580588737227,3.9575216661455763,-5.823193642446365,0.2796486951529981,0.24360658792820308,-0.31054526057367227,7.561833692960805,0.4837209125596761,1.0,0.0,55.08508352884512,245.41690791683126,1191.4180236190614,44.62539291818252,-1.0699713622939717,-13.175503811819988,1.0,1189.254837044795,0.0,1.0,46.49078640351958,1172.0576875786066,1.0,1.0,12.576012713726152,31.035559964609618,-26.38577676895888,-25.506378544565344,1.0,1189.30035764181,0.0,1.0,38.38149138403129,-11.084395299207484,,,
1.36,1.36,1.0,-2.7171741657731943,3.915213766774539,-4.121008059468876,1.0520127158768304,0.009481998509590136,0.13068136966306235,6.300368379142093,1.0601406902101695,1.0,0.0,55.08508352884512,245.41690791683126,1191.4180236190614,44.62539291818252,-1.0699713622939717,-13.175503811819988,1.0,1188.2499073056658,0.0,1.0,46.66568562775409,1181.6476588825988,1.0,1.0,13.72668448137413,31.414518020130654,-27.43313256602011,-23.82799080901958,1.0,1188.340977738969,0.0,1.0,41.234146729237516,-12.025032636311972,,,
1.4000000000000001,1.4000000000000001,1.0,-2.534876001277036,6.049693071417938,-1.8339590155625316,0.27746153535347523,0.038108294461552,0.47073118553107357,6.810858115610364,0.5477453740005169,1.0,0.0,65.61252026200604,248.40243504455546,1187.3527667268665,43.7111287448727,0.198704475796299,-15.670082266456868,1.0,1187.4492584781412,0.0,1.0,46.49399698217908,1191.4577428515656,1.0,1.0,13.72668448137413,31.414518020130654,-27.43313256602011,-23.82799080901958,1.0,1188.340977738969,0.0,1.0,41.234146729237516,-12.025032636311972,,,
1.44,1.44,1.0,-2.8928604550002226,4.39179638962945,-6.21689682922942,1.0448072089116103,0.3092562622806891,-0.2982067018539217,8.142869477361723,1.1296852555398276,1.0,0.0,65.61252026200604,248.40243504455546,1187.3527667268665,43.7111287448727,0.198704475796299,-15.670082266456868,1.0,1187.9999562373955,0.0,1.0,46.25443623969034,1173.7075898577973,1.0,1.0,12.615695509606082,31.496446735678433,-28.899623068596863,-21.810041460209415,1.0,1186.9935207922304,0.0,1.0,44.45802501947955,-11.571984687729035,,,
1.48,1.48,1.0,-2.807226084894383,4.385794476446083,-6.39295966150661,0.2801091029639681,0.1487465228835881,-0.019957366133489828,8.24534078828687,0.31778126769245363,1.0,0.0,65.61252026200604,248.40243504455546,1187.3527667268665,43.7111287448727,0.198704475796299,-15.670082266456868,1.0,1186.6989364384278,0.0,1.0,46.298314016645975,1173.144534496075,1.0,1.0,12.615695509606082,31.496446735678433,-28.899623068596863,-21.810041460209415,1.0,1186.9935207922304,0.0,1.0,44.45802501947955,-11.571984687729035,,,
1.52,1.52,1.0,-2.704090144628515,4.770241297246436,-3.658463119255483,1.048483818589279,-0.06035925594059355,0.2766204284070763,6.59178715821324,1.086038866262793,1.0,0.0,65.61252026200604,248.40243504455546,1187.3527667268665,43.7111287448727,0.198704475796299,-15.670082266456868,1.0,1184.8952424959625,0.0,1.0,45.20738607937128,1177.9659943866875,1.0,1.0,13.345475349452357,31.362805314381596,-30.355718056712842,-20.179234729085852,1.0,1185.8675183486278,0.0,1.0,47.91200205435768,-11.945471830785232,,,
1.56,1.56,1.0,-2.6710033663425743,5.173294047599805,-3.925138527298024,0.3297548085408912,0.10853335901582752,0.2512980903324911,7.021676633427678,0.42856557722226735,1.0,0.0,65.61252026200604,248.40243504455546,1187.3527667268665,43.7111287448727,0.198704475796299,-15.670082266456868,1.0,1186.0287185409975,0.0,1.0,46.182096123135125,1162.4011672090364,1.0,1.0,13.345475349452357,31.362805314381596,-30.355718056712842,-20.179234729085852,1.0,1185.8675183486278,0.0,1.0,47.91200205435768,-11.945471830785232,,,
1.6,1.6,1.0,-2.823028603735389,5.473302662907119,-6.211069406926411,1.0014939549506658,0.19656640058504066,0.15744543131737107,8.746651685928253,1.0326749515139786,1.0,0.0,74.90426271121245,250.09898779567456,1183.4982756947113,42.85230574471671,1.266288521175248,-17.362998487053083,1.0,1184.1492473413027,0.0,1.0,45.83844858784451,1144.3580233658395,1.0,1.0,14.911013726374085,31.042938287342796,-31.798539194279932,-18.030861871213457,1.0,1184.697438765832,0.0,1.0,49.92262765825294,-11.864791913834106,,,
1.6400000000000001,1.6400000000000001,1.0,-2.7778169560086097,5.529889644956913,-5.868981666266602,0.23151075191049136,0.10142447715300663,0.0243577789212555,8.528827136568317,0.2539241111235768,1.0,0.0,74.90426271121245,250.09898779567456,1183.4982756947113,42.85230574471671,1.266288521175248,-17.362998487053083,1.0,1184.2901512673113,0.0,1.0,46.27938737502077,1160.5513075003141,1.0,1.0,14.911013726374085,31.042938287342796,-31.798539194279932,-18.030861871213457,1.0,1184.697438765832,0.0,1.0,49.92262765825294,-11.864791913834106,,,
1.68,1.68,1.0,-2.7611276584035562,5.368700475322042,-5.886499161614073,0.9953944292908197,0.0012657562084152057,-0.08066789330919971,8.431941835627628,0.9986585908171621,1.0,0.0,74.90426271121245,250.09898779567456,1183.4982756947113,42.85230574471671,1.266288521175248,-17.362998487053083,1.0,1182.3234050267781,0.0,1.0,46.07677588601994,1178.4164687289503,1.0,1.0,16.57699738242829,31.15584116615642,-32.58150020596947,-16.35370361317829,1.0,1183.0483671142308,0.0,1.0,53.02756617987702,-10.919038978287551,,,
1.72,1.72,1.0,-2.598109249633597,5.215836563723521,-4.052393596140794,0.22965562798536598,-0.086905243661259,-0.1040714525070199,7.097676844612592,0.26669288717192385,1.0,0.0,74.90426271121245,250.09898779567456,1183.4982756947113,42.85230574471671,1.266288521175248,-17.362998487053083,1.0,1182.1601415635298,0.0,1.0,45.572112791946395,1160.2373781165643,1.0,1.0,16.57699738242829,31.15584116615642,-32.58150020596947,-16.35370361317829,1.0,1183.0483671142308,0.0,1.0,53.02756617987702,-10.919038978287551,,,
1.76,1.76,1.0,-2.5670720084053302,5.125221346599007,-3.8345416514295363,0.9971911742989641,-0.07551928263297936,-0.0920285848424321,6.896481872992944,1.0042722044233066,1.0,0.0,74.90426271121245,250.09898779567456,1183.4982756947113,42.85230574471671,1.266288521175248,-17.362998487053083,1.0,1182.0362832029398,0.0,1.0,46.05661942728491,1170.8189416589007,1.0,1.0,15.338083466342077,31.365361466346954,-33.072328152542504,-15.04355670374848,1.0,1181.6337775633253,0.0,1.0,55.53535903064866,-12.204860140543044,,,
1.8,1.8,1.0,-2.451424194557187,5.241840713006591,-2.7178745447417354,0.22812962976109472,-0.06109477765877241,-0.048549291083381164,6.393216458336828,0.2411073070166225,1.0,0.0,80.32144181426312,247.8431402256361,1181.55110439845,42.00001656105078,2.5965544818734543,-18.963776676790467,1.0,1179.6149936680563,0.0,1.0,45.92462439432461,1154.4398188235396,1.0,1.0,15.338083466342077,31.365361466346954,-33.072328152542504,-15.04355670374848,1.0,1181.6337775633253,0.0,1.0,55.53535903064866,-12.204860140543044,,,
1.84,1.84,1.0,-2.4551653178983175,5.17634568907016,-3.485242863002475,0.9996811074569821,-0.003635656846154548,-0.02916474527694583,6.705915988519068,1.000113052096707,1.0,0.0,80.32144181426312,247.8431402256361,1181.55110439845,42.00001656105078,2.5965544818734543,-18.963776676790467,1.0,1179.3684883516923,0.0,1.0,46.137401403352186,1172.8867948861277,1.0,1.0,15.745923286182212,31.399831923767504,-33.680083418716514,-13.389987304217232,1.0,1180.0547507141807,0.0,1.0,59.01407336963511,-11.846851728804005,,,
1.8800000000000001,1.8800000000000001,1.0,-2.463138402403857,5.225677014058894,-2.8896538113008288,0.22864630990924487,0.008193837647809208,-0.02195397095315265,6.459477548054912,0.22984397066515574,1.0,0.0,80.32144181426312,247.8431402256361,1181.55110439845,42.00001656105078,2.5965544818734543,-18.963776676790467,1.0,1178.6840647314107,0.0,1.0,46.78752868353537,1165.9233907423154,1.0,1.0,15.745923286182212,31.399831923767504,-33.680083418716514,-13.389987304217232,1.0,1180.0547507141807,0.0,1.0,59.01407336963511,-11.846851728804005,,,
1.92,1.92,1.0,-2.5571700510423105,5.252467689308178,-3.770746666701599,0.996311126119726,0.017697825556584938,-0.0362223650894382,6.953133532560362,0.99712643771593,1.0,0.0,80.32144181426312,247.8431402256361,1181.55110439845,42.00001656105078,2.5965544818734543,-18.963776676790467,1.0,1179.3391616862957,0.0,1.0,46.3157532562999,1148.7959790428272,1.0,1.0,13.98410057073555,31.45570842701791,-34.20737255269447,-11.694154259678408,1.0,1178.5629750534572,0.0,1.0,61.8051461611165,-12.094565282055981,,,
1.96,1.96,1.0,-2.4776508061210882,5.219889555760638,-3.0520303967726536,0.22735426919279847,-0.012315399483493064,-0.04971964165374918,6.534591803183708,0.23305294581018865,1.0,0.0,80.32144181426312,247.8431402256361,1181.55110439845,42.00001656105078,2.5965544818734543,-18.963776676790467,1.0,1176.872510482912,0.0,1.0,45.640119519282734,1165.7624728069923,1.0,1.0,13.98410057073555,31.45570842701791,-34.20737255269447,-11.694154259678408,1.0,1178.5629750534572,0.0,1.0,61.8051461611165,-12.094565282055981,,,
2.0,2.0,1.0,-2.6000410389928468,5.243146528314281,-3.7373664015817396,0.9978774044224388,-0.015922529982058814,-0.06363866387415114,6.943969076939581,1.000031359887069,1.0,0.0,90.46370493408506,249.9805213360925,1175.430871160991,41.40330775840403,3.479254708316759,-20.056911572310284,1.0,1175.5671022942026,0.0,1.0,46.20537469728091,1169.2596916841487,1.0,1.0,14.781428230214395,31.72640306499437,-34.69820455863355,-9.991088331460032,1.0,1176.8188627555983,0.0,1.0,64.72893886533782,-12.248411655368901,,,
2.04,2.04,1.0,-2.461470531091859,5.236116145151932,-2.7948116373702008,0.22609109458159551,-0.04748341085675763,-0.06420592615910156,6.42547442212124,0.2397796036147437,1.0,0.0,90.46370493408506,249.9805213360925,1175.430871160991,41.40330775840403,3.479254708316759,-20.056911572310284,1.0,1176.0206886541205,0.0,1.0,46.897701578503344,1138.7995209452447,1.0,1.0,14.781428230214395,31.72640306499437,-34.69820455863355,-9.991088331460032,1.0,1176.8188627555983,0.0,1.0,64.72893886533782,-12.248411655368901,,,
2.08,2.08,1.0,-2.508789824292451,5.238512785561587,-3.357625680212217,0.9966665038632772,-0.03410017941198147,-0.06678258805616921,6.7089263519125115,0.9994832946210043,1.0,0.0,90.46370493408506,249.9805213360925,1175.430871160991,41.40330775840403,3.479254708316759,-20.056911572310284,1.0,1175.7421489357675,0.0,1.0,46.81239656973135,1176.7760085964592,1.0,1.0,15.087494374812916,31.792345324682863,-34.882216597512745,-8.39874167632254,1.0,1175.195517932422,0.0,1.0,67.37543582845981,-12.356892052022861,,,
2.12,2.12,1.0,-2.4435443641813164,5.233729221574419,-2.529000704442057,0.22937415628231933,-0.047794659461296275,-0.05457638192398442,6.30544805605063,0.24057309597533913,1.0,0.0,90.46370493408506,249.9805213360925,1175.430871160991,41.40330775840403,3.479254708316759,-20.056911572310284,1.0,1174.9996641697753,0.0,1.0,46.915030133446685,1171.9474880681498,1.0,1.0,15.087494374812916,31.792345324682863,-34.882216597512745,-8.39874167632254,1.0,1175.195517932422,0.0,1.0,67.37543582845981,-12.356892052022861,,,
2.16,2.16,1.0,-2.4778296967020816,5.1651572334465365,-3.202113484472916,0.9971255780612175,-0.0346667687756797,-0.06465236306273998,6.562927701836055,0.9998205495642005,1.0,0.0,90.46370493408506,249.9805213360925,1175.430871160991,41.40330775840403,3.479254708316759,-20.056911572310284,1.0,1173.0766041169709,0.0,1.0,47.22766353653025,1160.337155338266,1.0,1.0,14.299012485103557,31.898992826493473,-35.14596576606984,-6.822931880313488,1.0,1173.073667728678,0.0,1.0,69.78970218107376,-12.51055488856136,,,
2.2,2.2,1.0,-2.440314483922894,5.214891561473922,-2.4231390639177075,0.23070677866848155,-0.052641283413000325,-0.057647647819093185,6.246745688873509,0.2435569209487379,1.0,0.0,99.19419124481098,249.85081217091025,1173.8443814363227,40.46438877885486,4.415790228958449,-21.41437920175763,1.0,1173.78942290123,0.0,1.0,46.5651015382677,1170.6158987867284,1.0,1.0,14.299012485103557,31.898992826493473,-35.14596576606984,-6.822931880313488,1.0,1173.073667728678,0.0,1.0,69.78970218107376,-12.51055488856136,,,
2.24,2.24,1.0,-2.4773222757518556,5.220805018886019,-3.0958811297761746,0.9973338253380746,-0.04262935174235703,-0.065547393403967,6.555792146862651,1.0003941631054756,1.0,0.0,99.19419124481098,249.85081217091025,1173.8443814363227,40.46438877885486,4.415790228958449,-21.41437920175763,1.0,1170.9578719995682,0.0,1.0,46.793771225546195,1170.6290474706423,1.0,1.0,12.877093797178265,32.110670084025145,-35.24482971160389,-5.175691214345187,1.0,1171.6568706815845,0.0,1.0,71.87796673436182,-12.788080383443422,,,
2.2800000000000002,2.2800000000000002,1.0,-2.331587091453782,5.254708522105465,-2.5120315065930394,0.23059680628644733,-0.06574587776906379,-0.06376595738410559,6.273640275584647,0.24811994042044577,1.0,0.0,99.19419124481098,249.85081217091025,1173.8443814363227,40.46438877885486,4.415790228958449,-21.41437920175763,1.0,1172.2587412077435,0.0,1.0,46.29827350326368,1157.9343524043961,1.0,1.0,12.877093797178265,32.110670084025145,-35.24482971160389,-5.175691214345187,1.0,1171.6568706815845,0.0,1.0,71.87796673436182,-12.788080383443422,,,
2.32,2.32,1.0,-2.501274071874867,5.294312977187726,-3.139261377975744,0.9976597647261584,-0.05910816385227434,-0.07374277900173065,6.643875667282012,1.0021261291086763,1.0,0.0,99.19419124481098,249.85081217091025,1173.8443814363227,40.46438877885486,4.415790228958449,-21.41437920175763,1.0,1170.1671839484582,0.0,1.0,47.14309374647613,1182.436217896782,1.0,1.0,12.65012122841321,32.19341103812005,-35.375895092225065,-3.607750596698788,1.0,1170.582770972937,0.0,1.0,75.15341229019975,-13.186027366758854,,,
2.36,2.36,1.0,-2.431264958155334,5.291260752809707,-2.2881466598933597,0.22698724619711264,-0.08080493371260443,-0.07342922498461336,6.256524977026748,0.25188191346400396,1.0,0.0,99.19419124481098,249.85081217091025,1173.8443814363227,40.46438877885486,4.415790228958449,-21.41437920175763,1.0,1169.558779110195,0.0,1.0,45.96322740772376,1173.002606746744,1.0,1.0,12.65012122841321,32.19341103812005,-35.375895092225065,-3.607750596698788,1.0,1170.582770972937,0.0,1.0,75.15341229019975,-13.186027366758854,,,
2.4,2.4,1.0,-2.4981416645982986,5.337403156231685,-3.0463437214897686,0.9968374970265974,-0.07865872957567213,-0.07507599733656893,6.633912442745536,1.0027505156282848,1.0,0.0,103.70438772408454,251.40040121144057,1168.3335093028293,40.46750847646111,5.331331257638693,-22.39767639299129,1.0,1167.9975417796886,0.0,1.0,45.84687080043813,1194.4085625460089,1.0,1.0,12.106352764121482,32.457661809578276,-35.25055510697269,-2.12091600377947,1.0,1168.2709285578585,0.0,1.0,78.23774344956546,-13.899359376402845,,,
2.44,2.44,1.0,-2.3923230209928232,5.275555537806538,-2.1764616719986014,0.22979394103529208,-0.09766220951670257,-0.06768848486018247,6.188027236440738,0.25869846054215856,1.0,0.0,103.70438772408454,251.40040121144057,1168.3335093028293,40.46750847646111,5.331331257638693,-22.39767639299129,1.0,1166.8838046584722,0.0,1.0,46.72579695487382,1187.930334820442,1.0,1.0,12.106352764121482,32.457661809578276,-35.25055510697269,-2.12091600377947,1.0,1168.2709285578585,0.0,1.0,78.23774344956546,-13.899359376402845,,,
2.48,2.48,1.0,-2.4767503119290906,5.259289935479437,-2.883078031058003,1.0016958480517333,-0.08917103575605902,-0.07181581416625786,6.488956901247337,1.0082180105444714,1.0,0.0,103.70438772408454,251.40040121144057,1168.3335093028293,40.46750847646111,5.331331257638693,-22.39767639299129,1.0,1167.4266197284676,0.0,1.0,46.971498470517766,1197.6752012998145,1.0,1.0,12.633586891439235,32.65955250496943,-35.155136606164376,-0.6931499648925095,1.0,1166.285012573768,0.0,0.0,78.23774344956546,-13.899359376402845,,,
2.52,2.52,1.0,-2.3369527177165423,5.203014625021051,-1.9945953196480077,0.2281314280382051,-0.11082469462509673,-0.07023667127889974,6.042443188163825,0.26317152465613924,1.0,0.0,103.70438772408454,251.40040121144057,1168.3335093028293,40.46750847646111,5.331331257638693,-22.39767639299129,1.0,1165.6735044078764,0.0,1.0,46.62015629964508,1203.3558055710353,1.0,1.0,12.633586891439235,32.65955250496943,-35.155136606164376,-0.6931499648925095,1.0,1166.285012573768,0.0,0.0,78.23774344956546,-13.899359376402845,,,
2.56,2.56,1.0,-2.5220036801907146,5.258157249187056,-2.714054916836972,0.9895879264637157,-0.10897915089711457,-0.07499276264287166,6.432325731155166,0.9983910225867532,1.0,0.0,103.70438772408454,251.40040121144057,1168.3335093028293,40.46750847646111,5.331331257638693,-22.39767639299129,1.0,1164.3453617295077,0.0,1.0,46.07114620283682,1173.890497188801,1.0,1.0,10.94765117602793,32.87412885747866,-35.01096011845625,0.7787288561721121,1.0,1164.8976263040395,0.0,0.0,78.23774344956546,-13.899359376402845,,,
2.6,2.6,1.0,-2.337544235816029,5.270235949123991,-1.8748838134296975,0.22710129164274342,-0.12426318953881382,-0.07165274154978643,6.062564583383527,0.2686083623265703,1.0,0.0,111.80940994697856,250.58824959641913,1163.8659017603209,39.93249994772102,5.656020010000493,-23.570879078275205,1.0,1165.1226964303767,0.0,1.0,46.30735066308139,1200.8792698511677,1.0,1.0,10.94765117602793,32.87412885747866,-35.01096011845625,0.7787288561721121,1.0,1164.8976263040395,0.0,0.0,78.23774344956546,-13.899359376402845,,,
2.64,2.64,1.0,-2.4315178545959513,5.306283164020943,-2.4288658483676073,0.9994712857956131,-0.12774266785048058,-0.08008537538569818,6.322049462267557,1.010779257637474,1.0,0.0,111.80940994697856,250.58824959641913,1163.8659017603209,39.93249994772102,5.656020010000493,-23.570879078275205,1.0,1161.647934027494,0.0,1.0,46.44785477750804,1180.4482128645034,1.0,1.0,10.061998794902008,33.0174601843295,-34.70549837347597,2.201187046754841,1.0,1162.7784130773696,0.0,0.0,78.23774344956546,-13.899359376402845,,,
2.68,2.68,1.0,-2.360855724996755,5.330723419321702,-1.5857678341315808,0.228903607305617,-0.14748248147506435,-0.07537029145757711,6.04192945600337,0.2825395983113994,1.0,0.0,111.80940994697856,250.58824959641913,1163.8659017603209,39.93249994772102,5.656020010000493,-23.570879078275205,1.0,1161.921876740449,0.0,1.0,46.7622815892172,1196.3200862247982,1.0,1.0,10.061998794902008,33.0174601843295,-34.70549837347597,2.201187046754841,1.0,1162.7784130773696,0.0,0.0,78.23774344956546,-13.899359376402845,,,
2.72,2.72,1.0,-2.4305661785655768,5.358897135462187,-2.17509821715508,0.9939714195521608,-0.14547009376589182,-0.07703817399127828,6.273474532595387,1.0075096085490725,1.0,0.0,111.80940994697856,250.58824959641913,1163.8659017603209,39.93249994772102,5.656020010000493,-23.570879078275205,1.0,1161.0918116456737,0.0,1.0,46.42975583759334,1197.3631735939693,1.0,1.0,8.798339422063052,33.31471359483271,-34.308916004294254,3.494896038095799,1.0,1161.3705696264121,0.0,0.0,78.23774344956546,-13.899359376402845,,,
2.7600000000000002,2.7600000000000002,1.0,-2.363130730510135,5.348685542382542,-1.355280690375479,0.22922093731406212,-0.16945806671277325,-0.07374534686849701,6.002466962048023,0.29444294975754276,1.0,0.0,111.80940994697856,250.58824959641913,1163.8659017603209,39.93249994772102,5.656020010000493,-23.570879078275205,1.0,1160.568293259546,0.0,1.0,46.63917119641215,1204.7814682538826,1.0,1.0,8.798339422063052,33.31471359483271,-34.308916004294254,3.494896038095799,1.0,1161.3705696264121,0.0,0.0,78.23774344956546,-13.899359376402845,,,
2.8000000000000003,2.8000000000000003,1.0,-2.3597895600555505,5.418473910078601,-2.0353274769910716,0.9937015380367978,-0.16616169726219562,-0.07921400910683346,6.250681900444501,1.0106073993260334,1.0,0.0,122.30175396561023,254.36769103804502,1160.5103263592148,39.63052342265867,6.073939485219331,-23.846565943256422,1.0,1157.104892287529,0.0,1.0,46.85183563038501,1202.4350557757548,1.0,1.0,9.286733262937947,33.57549307931967,-34.00936513054392,4.626480477642005,1.0,1159.1642672157557,0.0,0.0,78.23774344956546,-13.899359376402845,,,
2.84,2.84,1.0,-2.318122136336781,5.3146158684587395,-1.0062336690392897,0.22688670486694015,-0.1899276115680708,-0.07259876732007028,5.884839697473188,0.3046648248448181,1.0,0.0,122.30175396561023,254.36769103804502,1160.5103263592148,39.63052342265867,6.073939485219331,-23.846565943256422,1.0,1157.1490905342894,0.0,1.0,46.466688890708845,1206.5912583936458,1.0,1.0,9.286733262937947,33.57549307931967,-34.00936513054392,4.626480477642005,1.0,1159.1642672157557,0.0,0.0,78.23774344956546,-13.899359376402845,,,
2.88,2.88,1.0,-2.334478982817073,5.34018073341484,-1.5420038447675029,0.9979583592809352,-0.18836492341048883,-0.082849876623199,6.028689595926088,1.0189535481495782,1.0,0.0,122.30175396561023,254.36769103804502,1160.5103263592148,39.63052342265867,6.073939485219331,-23.846565943256422,1.0,1156.92432944636,0.0,1.0,47.560431969767066,1213.2128685556127,1.0,1.0,8.412730208390927,33.93676949427535,-33.51002154261788,5.884581963638842,1.0,1157.285735838272,0.0,0.0,78.23774344956546,-13.899359376402845,,,
2.92,2.92,1.0,-2.242934864239481,5.339405117739422,-0.6086779059486429,0.2323900759562461,-0.21743649801073875,-0.07114515663574282,5.823271641418845,0.32610644179906695,1.0,0.0,122.30175396561023,254.36769103804502,1160.5103263592148,39.63052342265867,6.073939485219331,-23.846565943256422,1.0,1155.6759652384048,0.0,1.0,47.25403859084784,1241.247887101048,1.0,1.0,8.412730208390927,33.93676949427535,-33.51002154261788,5.884581963638842,1.0,1157.285735838272,0.0,0.0,78.23774344956546,-13.899359376402845,,,
2.96,2.96,1.0,-2.3232445193886986,5.375707064838233,-1.1986044908285185,0.9970028261358426,-0.21398487296134555,-0.07957437679658877,5.977653742837202,1.0228080184578658,1.0,0.0,122.30175396561023,254.36769103804502,1160.5103263592148,39.63052342265867,6.073939485219331,-23.846565943256422,1.0,1155.5163531996263,0.0,1.0,47.14273307426744,1222.3784930505435,1.0,1.0,8.236636595457318,34.21562302594314,-32.96312831570101,6.85553355000583,1.0,1155.2958194976184,0.0,0.0,78.23774344956546,-13.899359376402845,,,
3.0,3.0,1.0,-2.2377303761860716,5.437808204053269,-0.1942347006606998,0.22719670456815397,-0.24172222928887768,-0.07617262093558087,5.8834447749184875,0.3403678111678739,1.0,0.0,130.44924873565472,254.81735083489184,1152.095867378031,39.75951340396034,6.390184175768924,-24.9327883662342,1.0,1154.0401546405137,0.0,1.0,46.972143117437284,1210.0554254464819,1.0,1.0,8.236636595457318,34.21562302594314,-32.96312831570101,6.85553355000583,1.0,1155.2958194976184,0.0,0.0,78.23774344956546,-13.899359376402845,,,
3.04,3.04,1.0,-2.303926858225517,5.380075547285035,-0.65818971972881,0.9979441883232613,-0.24801774020575082,-0.08116365744349249,5.889525071659341,1.0315003353147998,1.0,0.0,130.44924873565472,254.81735083489184,1152.095867378031,39.75951340396034,6.390184175768924,-24.9327883662342,1.0,1152.7930758294292,0.0,1.0,47.00302865743653,1225.763443401514,1.0,1.0,7.4699485084999235,34.5331377970874,-32.44284047765526,7.752193465967557,1.0,1153.094987860344,0.0,0.0,78.23774344956546,-13.899359376402845,,,
3.08,3.08,1.0,-2.3351386862811285,5.382879193408286,0.4871843963224285,0.2320509510710996,-0.27378468656245925,-0.07344493614804272,5.887750821070355,0.36633298668683384,1.0,0.0,130.44924873565472,254.81735083489184,1152.095867378031,39.75951340396034,6.390184175768924,-24.9327883662342,1.0,1152.753259694655,0.0,1.0,47.76526673688984,1201.47174050974,1.0,1.0,7.4699485084999235,34.5331377970874,-32.44284047765526,7.752193465967557,1.0,1153.094987860344,0.0,0.0,78.23774344956546,-13.899359376402845,,,
3.12,3.12,1.0,-2.3405737789719403,5.3430934512691755,0.07521896991346082,0.995544757238499,-0.276778438118516,-0.07843097916552318,5.833745892412643,1.036275583985867,1.0,0.0,130.44924873565472,254.81735083489184,1152.095867378031,39.75951340396034,6.390184175768924,-24.9327883662342,1.0,1150.6338357136178,0.0,1.0,46.789934167726614,1230.4907668203857,1.0,1.0,3.3828534360936153,34.94745435217023,-31.709121881348214,8.595748638192664,1.0,1151.3918789866532,0.0,0.0,78.23774344956546,-13.899359376402845,,,
3.16,3.16,1.0,-2.5575323479952883,5.509468026542164,1.2548952414993937,0.22906856860588254,-0.3067186174944565,-0.07666411604936273,6.202416602717888,0.3904178609265831,1.0,0.0,130.44924873565472,254.81735083489184,1152.095867378031,39.75951340396034,6.390184175768924,-24.9327883662342,1.0,1151.3874062502248,0.0,1.0,47.18999401350257,1247.2450718755651,1.0,1.0,3.3828534360936153,34.94745435217023,-31.709121881348214,8.595748638192664,1.0,1151.3918789866532,0.0,0.0,78.23774344956546,-13.899359376402845,,,
3.2,3.2,1.0,-2.4106130693762786,5.421488943004924,0.7711543297929307,0.9986856298242592,-0.3130891101513703,-0.07863004701745681,5.983166112496857,1.0495620336153655,1.0,0.0,137.90038858570404,254.1216372642693,1148.8137941306481,39.415059629591774,6.24060069229863,-25.7794413259348,1.0,1148.8442561548413,0.0,1.0,47.67250989475845,1252.8468514350814,1.0,1.0,2.289005996474544,35.30157459567692,-31.179029948539636,9.243897835491675,1.0,1149.4299623709614,0.0,0.0,78.23774344956546,-13.899359376402845,,,
3.24,3.24,1.0,-2.732680436588368,5.535944840146764,2.1175299351267447,0.22934689912025502,-0.3456682626334413,-0.07626045968675396,6.526726642645474,0.4217845488394913,1.0,0.0,137.90038858570404,254.1216372642693,1148.8137941306481,39.415059629591774,6.24060069229863,-25.7794413259348,1.0,1147.0401164030045,0.0,1.0,47.98892644936471,1240.7262491325796,1.0,1.0,2.289005996474544,35.30157459567692,-31.179029948539636,9.243897835491675,1.0,1149.4299623709614,0.0,0.0,78.23774344956546,-13.899359376402845,,,
3.2800000000000002,3.2800000000000002,1.0,-2.6611627794653367,5.521677043516066,1.6994281534568414,0.995054583133544,-0.3549595668812587,-0.07845823850456672,6.360720144800093,1.0593798245789097,1.0,0.0,137.90038858570404,254.1216372642693,1148.8137941306481,39.415059629591774,6.24060069229863,-25.7794413259348,1.0,1147.0821374515426,0.0,1.0,47.608200431428855,1240.6781093020527,1.0,1.0,3.0938309028676607,35.66715015980743,-30.443319130580907,9.780280429000388,1.0,1146.8138381979059,0.0,0.0,78.23774344956546,-13.899359376402845,,,
3.3200000000000003,3.3200000000000003,1.0,-2.9146690980479137,5.598639348092255,3.040976862591761,0.23382961045833828,-0.3878451669917348,-0.08210744184228372,7.006254261725072,0.4602627426718666,1.0,0.0,137.90038858570404,254.1216372642693,1148.8137941306481,39.415059629591774,6.24060069229863,-25.7794413259348,1.0,1146.5084117587626,0.0,1.0,48.516227754935684,1235.403831678418,1.0,1.0,3.0938309028676607,35.66715015980743,-30.443319130580907,9.780280429000388,1.0,1146.8138381979059,0.0,0.0,78.23774344956546,-13.899359376402845,,,
3.36,3.36,1.0,-2.8157938088711956,5.582913420525522,2.815777224213291,0.9979245982756594,-0.39960610157696225,-0.07931899067610536,6.8575665079939,1.0778822025356247,1.0,0.0,137.90038858570404,254.1216372642693,1148.8137941306481,39.415059629591774,6.24060069229863,-25.7794413259348,1.0,1145.1342133953408,0.0,1.0,47.317891495678104,1239.3957627291006,1.0,1.0,0.0974208529227036,36.22401347039918,-29.762711544083142,10.1300839553267,1.0,1145.3164216653581,0.0,0.0,78.23774344956546,-13.899359376402845,,,
3.4,3.4,1.0,-3.1644295065421164,5.85567785175091,4.3007472660793145,0.23151317605833707,-0.44081258472217616,-0.07549383225244403,7.924582276186501,0.5036004410703236,1.0,0.0,147.25884933850296,255.04270088427097,1143.3890872101317,39.20793435476743,5.484908930975367,-26.56337773292885,1.0,1142.7950741249197,0.0,1.0,47.036072912291544,1224.193024256949,1.0,1.0,0.0974208529227036,36.22401347039918,-29.762711544083142,10.1300839553267,1.0,1145.3164216653581,0.0,0.0,78.23774344956546,-13.899359376402845,,,
3.44,3.44,1.0,-3.18724026702735,5.575845668102861,3.472876548147604,0.9969606983227733,-0.4594654120641342,-0.182815236772391,7.301330491967587,1.112861406321399,1.0,0.0,147.25884933850296,255.04270088427097,1143.3890872101317,39.20793435476743,5.484908930975367,-26.56337773292885,1.0,1144.4353846652925,0.0,1.0,47.344103562210606,1276.1929858493309,1.0,1.0,0.1717060259351765,36.90556043329465,-28.881901507180824,10.256822502445527,1.0,1142.853618328974,0.0,0.0,78.23774344956546,-13.899359376402845,,,
3.48,3.48,1.0,-3.4634046618388483,6.198783527240613,6.142409772198119,0.2277769025191235,-0.5954447586750425,-0.10429295176906594,9.388785165229397,0.6459982954648492,1.0,0.0,147.25884933850296,255.04270088427097,1143.3890872101317,39.20793435476743,5.484908930975367,-26.56337773292885,1.0,1141.9681436792428,0.0,1.0,47.24477660771122,1254.7125221998328,1.0,1.0,0.1717060259351765,36.90556043329465,-28.881901507180824,10.256822502445527,1.0,1142.853618328974,0.0,0.0,78.23774344956546,-13.899359376402845,,,
3.52,3.52,1.0,-3.640610884864761,5.25878093557712,5.373039042015695,0.9957306099479504,-0.6355654143804701,-0.3687824183406198,8.35334502402541,1.2375068951812316,1.0,0.0,147.25884933850296,255.04270088427097,1143.3890872101317,39.20793435476743,5.484908930975367,-26.56337773292885,1.0,1140.4699579935543,0.0,1.0,48.15657315547541,1249.2060539002039,1.0,1.0,-3.83325763330675,37.948097545006284,-27.782892707283207,9.83730077917409,1.0,1140.5083844922333,0.0,0.0,78.23774344956546,-13.899359376402845,,,
3.56,3.56,1.0,-4.145359806002368,6.786021828824116,10.592970757798527,0.2289737403793623,-0.9127826141105535,-0.09618920029946451,13.245570189994543,0.945966932117641,1.0,0.0,147.25884933850296,255.04270088427097,1143.3890872101317,39.20793435476743,5.484908930975367,-26.56337773292885,1.0,1139.9260044962787,0.0,1.0,47.73361027369044,1264.158639243856,1.0,1.0,-3.83325763330675,37.948097545006284,-27.782892707283207,9.83730077917409,1.0,1140.5083844922333,0.0,0.0,78.23774344956546,-13.899359376402845,,,
3.6,3.6,1.0,-4.533290360329708,4.5779627179512135,10.40402782368963,0.9977118711372966,-0.9103376500394897,-0.7451109513911492,12.237330554255593,1.5425089772091214,1.0,0.0,155.8052228037692,258.5165168684977,1135.753071482106,38.958051883710084,4.039587967737449,-27.721861465076916,1.0,1138.4136051514445,0.0,1.0,47.4854445681613,1246.8339762842947,1.0,1.0,-7.314839130485006,39.42971006528995,-25.948595659872804,8.288564408976818,1.0,1138.4741759251626,0.0,0.0,78.23774344956546,-13.899359376402845,,,
3.64,3.64,1.0,-5.282417289473214,6.230559314229747,17.445630845773593,0.2334528792314427,-1.2252895565766306,-0.07001623317994932,19.26327691217846,1.2492946078431282,1.0,0.0,155.8052228037692,258.5165168684977,1135.753071482106,38.958051883710084,4.039587967737449,-27.721861465076916,1.0,1136.7163767155814,0.0,1.0,47.12790434523496,1222.9941946695233,1.0,1.0,-7.314839130485006,39.42971006528995,-25.948595659872804,8.288564408976818,1.0,1138.4741759251626,0.0,0.0,78.23774344956546,-13.899359376402845,,,
3.68,3.68,1.0,-5.595028677353971,4.446231258102993,18.4886890541948,0.902470140043045,-1.1593502254279533,-0.5179648742374413,19.821829916625965,1.5578295509499644,1.0,0.0,155.8052228037692,258.5165168684977,1135.753071482106,38.958051883710084,4.039587967737449,-27.721861465076916,1.0,1135.8543549535123,0.0,1.0,48.11312878238471,1235.0341811209962,1.0,1.0,-12.40129619628137,40.791174884384034,-24.757738139534514,5.641718672458684,1.0,1136.2026928885975,0.0,0.0,78.23774344956546,-13.899359376402845,,,
3.72,3.72,1.0,-6.699035800919949,6.455768126530398,25.69875988595003,0.13252663145692084,-1.3422515227994372,0.14248102000101456,27.330940021178332,1.356282898057502,1.0,0.0,155.8052228037692,258.5165168684977,1135.753071482106,38.958051883710084,4.039587967737449,-27.721861465076916,1.0,1135.5453621372137,0.0,1.0,48.08916781640592,1239.3354675305713,1.0,1.0,-12.40129619628137,40.791174884384034,-24.757738139534514,5.641718672458684,1.0,1136.2026928885975,0.0,0.0,78.23774344956546,-13.899359376402845,,,
3.7600000000000002,3.7600000000000002,1.0,-7.013203930947882,6.172316119079361,23.702622179016522,0.8964831775972665,-1.0165316570515177,-0.42417980020612983,25.477378472129264,1.420192663129094,1.0,0.0,155.8052228037692,258.5165168684977,1135.753071482106,38.958051883710084,4.039587967737449,-27.721861465076916,1.0,1133.6756186900866,0.0,1.0,47.73344847894675,1229.1523329103557,1.0,1.0,-18.119261438748328,41.39189921056384,-24.09709523822505,2.693243717708278,1.0,1133.7395749041514,0.0,0.0,78.23774344956546,-13.899359376402845,,,
3.8000000000000003,3.8000000000000003,1.0,-7.8786939777981795,4.341838391357786,24.44596795983328,0.12784598991436058,-1.0732981119473757,-0.6267675114889959,26.04862239938337,1.2494602625554334,1.0,0.0,162.603223582264,258.10636422713475,1130.9747747659148,36.5725426333492,-0.022009135809646918,-29.418546789692787,1.0,1132.23198343243,0.0,1.0,46.54077285238225,1209.0027373247988,1.0,1.0,-18.119261438748328,41.39189921056384,-24.09709523822505,2.693243717708278,1.0,1133.7395749041514,0.0,0.0,78.23774344956546,-13.899359376402845,,,
3.84,3.84,1.0,-8.702070804140066,6.44263311106764,27.20729395502284,0.74021690330013,-1.162133171267625,0.07068074208731952,29.282595548194056,1.3796631251844762,1.0,0.0,162.603223582264,258.10636422713475,1130.9747747659148,36.5725426333492,-0.022009135809646918,-29.418546789692787,1.0,1129.4633869785728,0.0,1.0,47.582825341022215,1221.646437040167,1.0,1.0,-23.373162776657413,41.98406350839363,-23.18057171975865,-0.2329874623493221,1.0,1131.4687441914293,0.0,0.0,78.23774344956546,-13.899359376402845,,,
3.88,3.88,1.0,-9.315190892751247,6.645893603028418,26.670086651327797,-0.02363861215876298,-1.000826717922043,-0.4426536745302978,29.02127159757999,1.0946027493417763,1.0,0.0,162.603223582264,258.10636422713475,1130.9747747659148,36.5725426333492,-0.022009135809646918,-29.418546789692787,1.0,1130.0309573083016,0.0,1.0,46.35355191602604,1192.9355577185768,1.0,1.0,-23.373162776657413,41.98406350839363,-23.18057171975865,-0.2329874623493221,1.0,1131.4687441914293,0.0,0.0,78.23774344956546,-13.899359376402845,,,
3.92,3.92,1.0,-9.636376605967296,3.819555013136359,26.9152831338547,0.746877880161737,-1.0164872782564267,-1.0865531308746454,28.84235116570721,1.6648335234928273,1.0,0.0,162.603223582264,258.10636422713475,1130.9747747659148,36.5725426333492,-0.022009135809646918,-29.418546789692787,1.0,1129.4180366390087,0.0,1.0,45.81167102267531,1181.7433273830557,1.0,1.0,-26.020578572798566,43.152649622418835,-20.57708266167326,-2.9465608387943116,1.0,1128.9124335474687,0.0,0.0,78.23774344956546,-13.899359376402845,,,
3.96,3.96,1.0,-10.302243536841962,4.828011206758028,27.680086536455025,-0.02517684483001716,-1.0727081510488572,-0.31819294102061435,29.927129912014983,1.119188723387437,1.0,0.0,162.603223582264,258.10636422713475,1130.9747747659148,36.5725426333492,-0.022009135809646918,-29.418546789692787,1.0,1127.2426319464385,0.0,1.0,45.97183866507491,1127.266603706981,1.0,1.0,-26.020578572798566,43.152649622418835,-20.57708266167326,-2.9465608387943116,1.0,1128.9124335474687,0.0,0.0,78.23774344956546,-13.899359376402845,,,
4.0,4.0,1.0,-10.705387034609027,5.512713198435317,27.799518006621252,0.5296653224343874,-1.0487321534373302,-0.47704449228107476,30.295354755629404,1.268052022220907,1.0,0.0,167.17132304009345,255.223832680887,1127.2523488300683,32.45416609066311,-3.990395053532976,-31.05395591863196,1.0,1127.0201230683797,0.0,1.0,45.87647242308654,1129.9662034799298,1.0,1.0,-29.202072980497928,43.477260775072224,-19.428112853844706,-6.277543956379166,1.0,1126.0494775832203,0.0,0.0,78.23774344956546,-13.899359376402845,,,
4.04,4.04,1.0,-11.206593910227314,2.2465270780307347,27.88654911174345,-0.2389678728700312,-1.0116385710066411,-1.1387553349634765,30.137920504619235,1.5418436871227141,1.0,0.0,167.17132304009345,255.223832680887,1127.2523488300683,32.45416609066311,-3.990395053532976,-31.05395591863196,1.0,1125.732294197628,0.0,1.0,44.65449265686049,1084.663023132102,1.0,1.0,-29.202072980497928,43.477260775072224,-19.428112853844706,-6.277543956379166,1.0,1126.0494775832203,0.0,0.0,78.23774344956546,-13.899359376402845,,,
4.08,4.08,1.0,-11.576986573190418,3.298417831492306,27.83303325895776,0.31636009171326246,-0.950074810601543,-0.3651724761688567,30.324642103431103,1.0658690307536267,1.0,0.0,167.17132304009345,255.223832680887,1127.2523488300683,32.45416609066311,-3.990395053532976,-31.05395591863196,1.0,1123.419658836719,0.0,1.0,44.2446551968407,1073.5508034230163,1.0,1.0,-35.269897684692125,43.87908614271023,-16.772393042277212,-9.673589638905742,1.0,1124.1233352252602,0.0,0.0,78.23774344956546,-13.899359376402845,,,
4.12,4.12,1.0,-11.737389699903238,3.613985333976972,27.49207356342323,0.393675712212,-0.8973053805209479,-0.4723696638204077,30.110485146843278,1.0877824284273365,1.0,0.0,167.17132304009345,255.223832680887,1127.2523488300683,32.45416609066311,-3.990395053532976,-31.05395591863196,1.0,1123.2266042589156,0.0,1.0,43.72983917960027,1049.3974986950511,1.0,1.0,-35.269897684692125,43.87908614271023,-16.772393042277212,-9.673589638905742,1.0,1124.1233352252602,0.0,0.0,78.23774344956546,-13.899359376402845,,,
4.16,4.16,1.0,-11.959247873163552,0.9002600923576025,27.227001318652633,-0.3090615529267142,-0.8548099254934091,-0.8994080983325067,29.75136431714638,1.2787313946117127,1.0,0.0,167.17132304009345,255.223832680887,1127.2523488300683,32.45416609066311,-3.990395053532976,-31.05395591863196,1.0,1121.6600263431012,0.0,1.0,43.04199569662361,1019.6073367537464,1.0,1.0,-40.64023754424686,44.034380664343814,-14.347603070255113,-12.67200903677099,1.0,1121.5267836338164,0.0,0.0,78.23774344956546,-13.899359376402845,,,
4.2,4.2,1.0,-11.934323118421728,2.2209548436879767,26.812957699831127,0.4575539665420902,-0.8008328648115737,-0.13230182047844655,29.432896719920887,0.9317685771491886,1.0,0.0,173.7523113218209,254.9783379788163,1119.2623181158258,27.066299823401653,-6.682442960658361,-31.838005643441903,1.0,1119.6273521378132,0.0,1.0,43.18632214552861,996.0000966879846,1.0,1.0,-40.64023754424686,44.034380664343814,-14.347603070255113,-12.67200903677099,1.0,1121.5267836338164,0.0,0.0,78.23774344956546,-13.899359376402845,,,
4.24,4.24,1.0,-11.972771511287533,2.7196061037404955,26.4356694453381,-0.3072751381258177,-0.7724450496900902,-0.35270563222616874,29.147695175505444,0.9030451972659108,1.0,0.0,173.7523113218209,254.9783379788163,1119.2623181158258,27.066299823401653,-6.682442960658361,-31.838005643441903,1.0,1118.665963551888,0.0,1.0,41.60725635010806,989.6821396064086,1.0,1.0,-48.011774239785765,43.400250940643865,-13.601201911130966,-15.342634863475704,1.0,1118.344003385431,0.0,0.0,78.23774344956546,-13.899359376402845,,,
4.28,4.28,1.0,-11.848682374182744,0.3919119086119708,25.988250011797984,0.40837085413237106,-0.7323183210719366,-1.0003147818170002,28.564558593195496,1.305253439223209,1.0,0.0,173.7523113218209,254.9783379788163,1119.2623181158258,27.066299823401653,-6.682442960658361,-31.838005643441903,1.0,1117.326632281858,0.0,1.0,41.28848642950555,943.9997786760207,1.0,1.0,-48.011774239785765,43.400250940643865,-13.601201911130966,-15.342634863475704,1.0,1118.344003385431,0.0,0.0,78.23774344956546,-13.899359376402845,,,
4.32,4.32,1.0,-11.821487703391586,0.5385307595665952,25.593745494711424,-0.35263774762285643,-0.7118881715631585,-0.4618554635749559,28.197116791411478,0.9189388549267551,1.0,0.0,173.7523113218209,254.9783379788163,1119.2623181158258,27.066299823401653,-6.682442960658361,-31.838005643441903,1.0,1115.2529847097105,0.0,1.0,40.80575940422385,931.2100258384678,1.0,1.0,-51.95171266841044,43.143315218768485,-11.095797945280404,-17.698197724827377,1.0,1116.2440176465175,0.0,0.0,78.23774344956546,-13.899359376402845,,,
4.36,4.36,1.0,-11.63380928105901,-0.03282634100853191,24.95945168964033,0.21345784932241632,-0.6800902123475792,-0.5250480841177858,27.53762561667596,0.8853035869147284,1.0,0.0,173.7523113218209,254.9783379788163,1119.2623181158258,27.066299823401653,-6.682442960658361,-31.838005643441903,1.0,1113.7314647753826,0.0,1.0,40.55668780004387,915.9143863459334,1.0,1.0,-51.95171266841044,43.143315218768485,-11.095797945280404,-17.698197724827377,1.0,1116.2440176465175,0.0,0.0,78.23774344956546,-13.899359376402845,,,
4.4,4.4,1.0,-11.330166005931892,0.5829855152422335,24.272082963233878,0.7461136428033749,-0.6668231361439859,-0.40481272849481786,26.79265841993036,1.079449863599807,1.0,0.0,179.4650133331191,253.10946531863812,1116.7096442174527,22.46272819682409,-8.974712677779573,-32.436652135415756,1.0,1114.0772939181088,0.0,1.0,40.57814818327488,894.0041912143064,1.0,1.0,-56.389685762255304,42.523517395837004,-10.264878029978458,-19.693614396776457,1.0,1114.0146552039528,0.0,0.0,78.23774344956546,-13.899359376402845,,,
4.44,4.44,1.0,-11.032533503135507,-1.1917613987694649,23.620271564089116,-0.01501439902908239,-0.6591788952042988,-0.6752115106946145,26.09701744435025,0.9437440501722212,1.0,0.0,179.4650133331191,253.10946531863812,1116.7096442174527,22.46272819682409,-8.974712677779573,-32.436652135415756,1.0,1113.59052911153,0.0,1.0,39.44017404605518,877.0951039093828,1.0,1.0,-56.389685762255304,42.523517395837004,-10.264878029978458,-19.693614396776457,1.0,1114.0146552039528,0.0,0.0,78.23774344956546,-13.899359376402845,,,
4.48,4.48,1.0,-10.788353151734315,0.1802991208718297,23.035476202217087,0.6568388928654249,-0.65058700058746,-0.08520233682046227,25.43726076766979,0.9284181249381833,1.0,0.0,179.4650133331191,253.10946531863812,1116.7096442174527,22.46272819682409,-8.974712677779573,-32.436652135415756,1.0,1111.5136290285097,0.0,1.0,39.02448264267376,853.8326729185046,1.0,1.0,-64.1176534253646,41.82521471338665,-9.478707633908952,-21.59305836922008,1.0,1110.9083097197497,0.0,0.0,78.23774344956546,-13.899359376402845,,,
4.5200000000000005,4.5200000000000005,1.0,-10.635597465155216,0.24280866270308765,22.494945939341495,-0.02997938705743759,-0.6429533757769562,-0.3587053089262409,24.8836790346885,0.736856367091439,1.0,0.0,179.4650133331191,253.10946531863812,1116.7096442174527,22.46272819682409,-8.974712677779573,-32.436652135415756,1.0,1110.2186261560619,0.0,1.0,39.13678131946768,849.8127695563073,1.0,1.0,-64.1176534253646,41.82521471338665,-9.478707633908952,-21.59305836922008,1.0,1110.9083097197497,0.0,0.0,78.23774344956546,-13.899359376402845,,,
4.5600000000000005,4.5600000000000005,1.0,-10.32117749883874,-1.147055248636571,21.962163527717912,0.6336629178163595,-0.6397254371363672,-0.7438998172155172,24.293601369994175,1.1679744288245948,1.0,0.0,179.4650133331191,253.10946531863812,1116.7096442174527,22.46272819682409,-8.974712677779573,-32.436652135415756,1.0,1109.887537088257,0.0,1.0,38.562564098549075,829.4728108176116,1.0,1.0,-69.39141715253456,40.97845504043789,-8.231537250424747,-23.483526218426892,1.0,1108.5922285377865,0.0,0.0,78.23774344956546,-13.899359376402845,,,
