time_s,x_m,y_m,altitude_m,vx_mps,vy_mps,vz_mps,speed_mps,mass_kg,roll_deg,pitch_deg,yaw_deg,p_dps,q_dps,r_dps,alpha_deg,beta_deg,qbar_pa,mach,airspeed_mps,load_factor_g,density_kgpm3,pressure_pa,temperature_k,wind_x_mps,wind_y_mps,wind_z_mps,thrust_n,mass_flow_kgps,propulsion_throttle_actual,propulsion_health,energy_j_per_kg,target_distance_m,guidance_mode,pitch_command_deg,heading_command_deg,roll_command_deg
0.0,0.0,250.0,1200.0,48.0,-3.0,-1.0,48.104053883222775,11.0,0.0,-2.0,-5.000000000000001,0.0,0.0,0.0,-0.8084664277189543,1.423357908392787,1261.0944322985495,0.14331327893915746,48.104053883222775,0.4481219442643677,1.0899692586850038,87715.57267821583,280.34999999999997,0.0,0.0,0.0,2.7032275714625205,0.00014258355784676151,0.04,nominal,12924.98,1494.4564229177108,target_intercept,-14.999999999999998,-11.309932474020213,0.0
0.04,1.9139458067389634,249.87653329927215,1199.9451917482008,47.848645168474086,-3.086667518196172,-1.3702062949782654,47.9676748041556,10.999994296657686,-0.225539592613863,-2.719580304003273,-3.2400989840603867,-7.450259097598373,17.903235043782935,44.0,-1.0808592780571946,-0.45495332821800333,1253.9607304967385,0.14290688282014768,47.9676748041556,0.4101526168058047,1.0899751534059234,87716.15852230036,280.3503562536367,0.0,0.0,0.0,4.811265803493781,0.00025305398405520184,0.07111111111111111,nominal,12917.891427716104,1492.8066126248584,target_intercept,-14.999999999999998,-11.321378837633594,0.0
0.08,3.8222429238908333,249.75392288336954,1199.871736435326,47.70742792879674,-3.065260397565289,-1.8363828218686535,47.84105770940554,10.999984174498325,1.2792249437588332,-3.442641930898051,-2.4428342805485244,36.54974090240162,18.2605141751955,19.73806994292851,-1.2694930131115771,-1.2044881718000342,1247.3585144234694,0.14252953961522744,47.84105770940555,0.47904301498086654,1.0899830536882975,87716.94368934052,280.35083371317035,0.0,0.0,0.0,6.455311230315209,0.00033862819857640743,0.09530864197530864,nominal,12911.105565490825,1491.1525574258071,target_intercept,-14.999999999999998,-11.332847250453923,0.0
0.12,5.725008712353386,249.63377600157364,1199.778142973226,47.5691447115638,-3.0036720448976233,-2.339836552499488,47.721278371764214,10.999970629370381,1.075243763592584,-4.012091561709252,-3.1855180937571874,-3.892472884860353,13.852697346806501,-18.816901449514127,-1.2093997284659872,-0.40439260498756513,1241.1317890882492,0.14217253509976194,47.721278371764214,0.4198550865630901,1.0899931199369073,87717.94412218053,280.351442070674,0.0,0.0,0.0,7.7378135726988395,0.00040488854768813237,0.11412894375857338,nominal,12904.464530506093,1489.4936147306742,target_intercept,-14.999999999999998,-11.344409844065416,0.0
0.16,7.622347737189778,249.51293370820866,1199.665195230746,47.433475620909796,-3.0210573341240305,-2.8236935620018278,47.61338721649195,10.999954433828474,2.7277077700649235,-4.499923211803304,-2.535136880602075,40.107527115139646,12.728424630502765,15.80296270118509,-1.1508293315893974,-1.0536096221962363,1235.5398512577758,0.14185091709164543,47.61338721649195,0.3869759626704399,1.0900052678892709,87719.15144777458,280.35217623100016,0.0,0.0,0.0,8.738173203488916,0.0004561995880509777,0.12876695625666817,nominal,12898.214007923392,1487.829543860427,target_intercept,-14.999999999999998,-11.355927772593567,0.0
0.2,9.51458680923209,249.39351578358566,1199.5335912994274,47.30597680105782,-2.985448115574931,-3.2900982829628695,47.514135667868,10.999936185844952,2.5727112877872527,-5.057232739205338,-2.5267060928915277,-3.892472884860353,13.927670678433193,-0.4344179570891488,-1.1333828450795749,-1.0319683132219815,1230.4101571722335,0.14155500859609277,47.51413566786799,0.3967332482554876,1.0900194225152082,87720.5582108326,280.3530316565537,0.0,0.0,0.0,9.518700584606442,0.0004959131918407948,0.14015207708851968,nominal,12892.202637248813,1486.1607604893054,target_intercept,-14.999999999999998,-11.36749771604732,0.0
0.24,11.401700530796527,249.27329771573199,1199.3828615493987,47.17784303911088,-3.0054516963418645,-3.768243750713929,47.42342537909743,10.999916349317278,4.3130522440284444,-5.459687623223871,-1.0412912425292737,40.107527115139646,12.265307724347327,36.31394750352624,-1.090254973109286,-2.520708997668538,1225.73486523804,0.1412845159222708,47.42342537909743,0.3973178718802799,1.0900356343862645,87722.16943927824,280.3540113999289,0.0,0.0,0.0,10.12781589040427,0.0005266400451006842,0.14900717106884864,nominal,12886.418576556822,1484.486634927714,target_intercept,-14.999999999999998,-11.37902063616097,0.0
0.28,13.28398605814201,249.1561520279569,1199.213974444851,47.057138183637115,-2.928642194377506,-4.222177613694193,47.336856496161495,10.999895283715475,4.131237243745683,-6.043061076303975,-1.3018969236070723,-3.892472884860353,14.06763315387673,-7.538616155721503,-1.0816219395775681,-2.1780966365652916,1221.284276964344,0.1410263326209997,47.336856496161495,0.3882648943817511,1.0900537994067159,87723.97478956803,280.35510916610843,0.0,0.0,0.0,10.603628535929953,0.0005503754850262273,0.15589446638688229,nominal,12880.66071395869,1482.8080473222947,target_intercept,-14.999999999999998,-11.390671266630239,0.0
0.32,15.16135012655396,249.039566577095,1199.0258558794494,46.93410171029874,-2.9146362715475984,-4.702964135037525,47.2591036690661,10.999873268696074,5.812064843279733,-6.387521449912516,-0.5940943923666088,40.107527115139646,10.104640766532157,16.78051328164731,-0.9637197521750119,-2.861875403169523,1217.2981430846082,0.14079438375370443,47.25910366906611,0.3537334437665505,1.0900740331814769,87725.98575357463,280.35633193678353,0.0,0.0,0.0,10.975132823135871,0.0005687225217876627,0.16125125163424178,nominal,12875.13834936197,1481.1240599864993,target_intercept,-14.999999999999998,-11.402337181774138,0.0
0.36,17.034091686435033,248.92536661523826,1198.8201166853419,46.8185389970268,-2.854999046418629,-5.143479852688272,47.18667182972519,10.999850519795203,5.655440921029644,-6.87106282311917,-0.6021076844108291,-3.892472884860353,12.008255774214355,-1.405723626863023,-0.8854455312614022,-2.796621229966478,1213.5942459951839,0.1405782594427407,47.18667182972519,0.3352275082531936,1.0900961625358454,87728.18512264105,280.35766924154524,0.0,0.0,0.0,11.265536311583503,0.0005828762773251574,0.16541764015996582,nominal,12869.700296475397,1479.4355489043091,target_intercept,-14.999999999999998,-11.414102503514373,0.0
0.4,18.90219692067923,248.81133339211684,1198.5962141410992,46.702630856104975,-2.8508305780353296,-5.597563606066483,47.12319685876829,10.99982720474411,7.431302879574851,-7.123790918225739,0.8069386012885494,40.107527115139646,10.262567516564076,34.02115810140707,-0.8335003386387637,-4.197075845878526,1210.3581555954927,0.1403887907907548,47.12319685876828,0.3763221594216502,1.090120245934808,87730.57871016389,280.3591246080828,0.0,0.0,0.0,11.492329856276209,0.0005938106602886009,0.16865816456886232,nominal,12864.511404501924,1477.7418397832369,target_intercept,-14.999999999999998,-11.425868197502552,0.0
0.44,20.765867825923156,248.70107833242875,1198.3556634881027,46.59177263109815,-2.756376492201841,-6.01376632491106,47.05907217195579,10.999803452317698,7.280589916519764,-7.708460728467622,0.5385760011342952,-2.901841714119186,13.64477069792059,-8.46973351765899,-0.8405122072885716,-3.8163308288968465,1207.0949651832486,0.14019736044712428,47.0590721719558,0.357404806380198,1.0901461204907352,87733.15033004922,280.3606881873273,0.0,0.0,0.0,11.670326648961524,0.0006021872193462494,0.17117857244244847,nominal,12859.132704188272,1476.0441446479415,target_intercept,-14.999999999999998,-11.437797678030677,0.0
0.48,22.62491132704706,248.59222786169636,1198.096588581681,46.47608752809753,-2.72126176830993,-6.476872660540085,47.00406213288272,10.999779364828925,9.019658308573039,-7.928130646587509,1.2388048682709687,41.098158285880814,7.895802256361147,16.39120729410909,-0.697117584321915,-4.492253221541194,1204.3053151499116,0.14003305518592052,47.00406213288272,0.3293201949294871,1.0901739881123023,87735.92005274701,280.36237217421905,0.0,0.0,0.0,11.809402776388628,0.0006086512081728166,0.1731388896774599,nominal,12854.004838910492,1474.3412105786879,target_intercept,-14.999999999999998,-11.449783334318493,0.0
0.52,24.479684322157862,248.48623115742814,1197.8212639593878,46.3693248777701,-2.6499176067054777,-6.8831155573346425,46.95224843091264,10.999755018780597,8.978100385040944,-8.34485554619948,1.4028750181981313,-1.6194809720773415,10.925059627763861,2.380955938785855,-0.6116882075896481,-4.583880836569255,1201.6843539996846,0.13987824696482792,46.95224843091265,0.29281449275282984,1.0902036042462773,87738.86357580472,280.36416178426396,0.0,0.0,0.0,11.918556912705062,0.0006135998301571265,0.1746635808602466,nominal,12848.8707145664,1472.6341602316986,target_intercept,-14.999999999999998,-11.461893601805615,0.0
0.56,26.330170285638626,248.3812078430473,1197.5289193883723,46.26214908701914,-2.6255828595211397,-7.308614275385432,46.90944431698338,10.999730474787391,10.891586739571117,-8.464841113849628,2.896901734253964,42.38051902792266,9.330860433390344,35.883867980471166,-0.6116702145266039,-6.06394890412892,1199.528916871196,0.13975025307734115,46.90944431698338,0.39370847199959785,1.0902350518567878,87741.98914836792,280.36606202397553,0.0,0.0,0.0,12.003767881238893,0.0006174233344506245,0.17584945178019182,nominal,12843.994960384063,1470.9222607085649,target_intercept,-14.999999999999998,-11.474044180159977,0.0
0.6,28.17646228934065,248.28069593847394,1197.2213589770545,46.15730009255056,-2.512797614333584,-7.68901028294282,46.86076592220371,10.999705777854013,11.097925726931981,-9.078781248356709,2.6837152635755848,5.971267315200419,14.062355167042044,-8.098018968441764,-0.6997441863683526,-5.693069221761502,1197.077008849882,0.13960473513315064,46.86076592220371,0.3672051403611028,1.0902681369897995,87745.2774968764,280.3680611666491,0.0,0.0,0.0,12.071633408543098,0.0006202697230881494,0.17677179582903807,nominal,12838.696531420115,1469.2069636812994,target_intercept,-14.999999999999998,-11.486395301061687,0.0
0.64,30.018179849462495,248.18266345030338,1196.895639170973,46.04293900304614,-2.4508122042638223,-8.142995152033778,46.82165185621757,10.999680967065089,13.199554505576042,-9.172350369247031,3.333025161430451,49.971267315200414,5.660684200313012,15.178537789357419,-0.5599599756084424,-6.322162642963545,1195.117881826679,0.13948768222940697,46.821651856217564,0.33454504238280175,1.0903031764171311,87748.76010927516,280.37017834538864,0.0,0.0,0.0,12.124579867890573,0.0006224702384619262,0.17748917453369628,nominal,12833.670161148442,1467.4866643680207,target_intercept,-14.999999999999998,-11.49885256860769,0.0
0.68,31.85580405964767,248.08788319737923,1196.5547056138037,45.94060525462943,-2.369506323103762,-8.523338929232077,46.78462437467546,10.99965606825555,13.505514467927794,-9.481406128581936,3.7471081654733855,5.971267315200419,9.87670978993706,8.154818914222375,-0.4892619718981525,-6.657719834518344,1193.268523179795,0.13937682181008693,46.78462437467546,0.3094741082193048,1.090339853392105,87752.40550774765,280.3723944135103,0.0,0.0,0.0,12.166452926923908,0.0006241260199104232,0.17804713574843045,nominal,12828.593742747345,1465.7626310912233,target_intercept,-14.999999999999998,-11.511455626389473,0.0
0.72,33.68929449331584,247.9956435063518,1196.1978957878732,45.83726084170431,-2.305992275685696,-8.920245648263062,46.75406789009184,10.999631103214753,15.680673237907126,-9.598919077903632,4.8120706505513,49.971267315200414,9.459901515723539,24.673092543173976,-0.6111229226705472,-7.67202614795058,1191.7522657950965,0.1392852144104827,46.754067890091854,0.43546900346865,1.0903782393163015,87756.22079298623,280.3747136773788,0.0,0.0,0.0,12.199215925634393,0.0006253979929747808,0.17848110558211258,nominal,12823.665526863804,1464.034407025265,target_intercept,-14.999999999999998,-11.524172413401581,0.0
0.76,35.518507600700254,247.9086707487524,1195.8262079939432,45.730327684610224,-2.174318939985285,-9.292194848249757,46.71547300512376,10.999606087295033,16.086234764128186,-10.23035765150404,4.361669105227375,12.077911048632439,12.14781896779317,-14.989107003710577,-0.6563766089843899,-7.036609512035816,1189.8291585761951,0.13916963664115573,46.71547300512376,0.3859131602913518,1.0904182269251814,87760.19530774417,280.37712964803933,0.0,0.0,0.0,12.226220151685292,0.00062626497527495,0.17881863767497644,nominal,12818.216791670025,1462.303083981944,target_intercept,-14.999999999999998,-11.53712543805874,0.0
0.8,37.34308358176777,247.8248947077733,1195.4366119946965,45.61439952668788,-2.0944010244775946,-9.739899981166522,46.68967349933777,10.999581036696023,18.428452496373005,-10.13872959342594,4.92375119244792,56.07791104863244,1.9158738237377007,13.890344272086974,-0.446783898843266,-7.638282523224453,1188.5609963248392,0.1390921494297323,46.68967349933777,0.3389727493531126,1.0904601423722469,87764.36147415708,280.37966202203444,0.0,0.0,0.0,12.246803072813057,0.0006269728474565002,0.17908116263609278,nominal,12813.19125675517,1460.5669839468876,target_intercept,-14.999999999999998,-11.55021834326288,0.0
0.84,39.163836405877866,247.74430915961608,1195.0332001558857,45.518820602752285,-2.0146387039301747,-10.085295970268346,46.666208255876434,10.999555957782125,19.028910579415413,-10.329969464773825,5.584188786926868,12.077911048632439,9.745092166597443,13.853078793655763,-0.4524104580975854,-8.230576185953373,1187.4138655268757,0.13902159457420193,46.666208255876434,0.35900711614081054,1.0905035455223806,87768.6755497814,280.3822841989867,0.0,0.0,0.0,12.263164698453012,0.0006274949536119741,0.17928534871696106,nominal,12808.13982879913,1458.827583757649,target_intercept,-14.999999999999998,-11.563458856939636,0.0
0.88,40.980529951022476,247.66749485581448,1194.6151190740661,45.4173386286153,-1.920357595039741,-10.452027045485702,46.64404882467541,10.99953085798398,21.393182526160118,-10.557655640430175,6.254126216427544,56.07791104863244,11.034233794407998,13.493050893229222,-0.7462449963467555,-8.791218854220247,1186.3353810401331,0.13895490683382006,46.644048824675394,0.40404904609232684,1.0905485283335141,87773.14667909584,280.3850017260186,0.0,0.0,0.0,12.276293976348354,0.0006278684820382248,0.17944416011319192,nominal,12803.00600284704,1457.0847091585977,target_intercept,-14.999999999999998,-11.576871696058914,0.0
0.92,42.79269764923959,247.5951143304155,1194.181126902853,45.30419245542784,-1.809513134974576,-10.849804280326232,46.62040802851768,10.999505743244699,22.17026199743675,-10.649711121530832,6.978349016125741,16.095424062655486,8.741035889127092,15.672286444055656,-0.6710890785306916,-9.461463382130377,1185.1838815175504,0.13888378109173868,46.62040802851769,0.4130186474933649,1.0905952245761867,87777.7881631719,280.3878226751314,0.0,0.0,0.0,12.287164055133584,0.0006281059229864733,0.17956768008803817,nominal,12797.647570514602,1455.3381836335714,target_intercept,-14.999999999999998,-11.590483274847054,0.0
0.96,44.600494706593274,247.5274441398255,1193.7322910996868,45.194926433841985,-1.6917547647499076,-11.220895079159126,46.59776707012838,10.999480619007779,24.67634405727003,-10.832463745134907,7.528952876535107,60.095424062655475,9.570511624355818,10.595693423375279,-0.9633194663751493,-9.895636963928357,1184.085436983307,0.13881561072097187,46.59776707012838,0.42920827139410644,1.090643519557711,87782.58860682009,280.390740107852,0.0,0.0,0.0,12.296056473865862,0.0006282552362394141,0.17966375117958525,nominal,12792.190720473713,1453.5884772707695,target_intercept,-14.999999999999998,-11.604308349459796,0.0
1.0,46.40350467756693,247.46448799405,1193.2673060240122,45.07524927434138,-1.5739036443877001,-11.62462689186496,46.576681077561766,10.99945548879833,25.511307861856572,-10.69662966960956,8.55237758811884,16.09542406265548,7.585030152285798,24.204129144621565,-0.8468483507281482,-10.927591360755034,1183.0683285314797,0.13875204733900978,46.576681077561766,0.5113298890180653,1.0906935539354006,87787.56199633348,280.3937625108439,0.0,0.0,0.0,12.3033306700164,0.0006283424438696692,0.17973847313967742,nominal,12786.648436720829,1451.8352258215236,target_intercept,-14.999999999999998,-11.618343930744812,0.0
1.04,48.20200251936476,247.4077684293206,1192.7888980046507,44.96244604494574,-1.4179891182347348,-11.960200484039827,46.5475954599431,10.999430355100575,27.89558967280227,-11.333729590595192,8.451982748551096,60.095424062655475,13.124667509603675,-9.360421435759553,-1.3424899420921856,-10.517818473809148,1181.6469856735007,0.1386646322983331,46.5475954599431,0.5736288189188208,1.0907450345118774,87792.67919316256,280.39687216296977,0.0,0.0,0.0,12.310289671299321,0.0006283052451911806,0.17979659021974911,nominal,12780.602568168564,1450.0798983183251,target_intercept,-14.999999999999998,-11.632662963742087,0.0
1.08,49.99472725264358,247.3572280759856,1192.2917231184524,44.81811833197045,-1.2635088333750477,-12.429372154957615,46.526868340314486,10.999405222890767,28.669311097901947,-10.922497454258691,9.125074188483595,16.09542406265548,-1.2302540185736464,19.411681558974834,-0.7837405802198573,-11.381362282724933,1180.6527810310854,0.13860208779268218,46.52686834031449,0.4770025375235142,1.090798536524899,87797.99738200125,280.40010379973006,0.0,0.0,0.0,12.31550930119395,0.0006282917541672911,0.1798417923931382,nominal,12774.76236529805,1448.3206683950075,target_intercept,-14.999999999999998,-11.64725194596923,0.0
1.12,51.783206163465856,247.3120763612631,1191.781855621775,44.71197277055697,-1.1287928680625687,-12.746687416935275,46.50712550221818,10.9993800912206,31.1183475709547,-11.139309006730487,9.363248354798227,60.095424062655475,7.613598040078439,2.365846910718995,-1.1244234157474775,-11.482473689033958,1179.7103556403938,0.13854245575811194,46.50712550221818,0.4475552889856079,1.0908534065010644,87803.45161230802,280.40341793845846,0.0,0.0,0.0,12.319941088776586,0.0006282511473636702,0.17987694963910747,nominal,12768.843895672815,1446.559359588473,target_intercept,-14.999999999999998,-11.662089996795332,0.0
1.16,53.56672086079573,247.2718887553398,1191.2561339084446,44.587867433246956,-1.0046901480825627,-13.143042833265742,46.495450309202475,10.999354961174705,32.01242087487549,-10.620828852863797,10.689048025064128,16.09542406265548,5.995315978792359,34.52058868285413,-0.9763734234907688,-12.969242449011668,1179.1792750753254,0.13850683196052288,46.49545030920248,0.5768992842947974,1.0909099848580073,87809.07572798543,280.4068351295951,0.0,0.0,0.0,12.32301117882568,0.000628249949478987,0.17990429416375026,nominal,12763.145415321007,1444.7947959803228,target_intercept,-14.999999999999998,-11.677151683561913,0.0
1.2,55.345892761712534,247.23812696196984,1190.7193950128708,44.47929752292007,-0.8440448342492963,-13.41847238934494,46.46693147904517,10.999329831176725,34.44399052741251,-11.479985036029168,10.83567513567446,60.095424062655475,19.943224612892315,-8.762498821195804,-1.8928960182848444,-12.57575903402428,1177.7955404395473,0.13842101516606395,46.46693147904516,0.6650872216158595,1.0909677512040235,87814.81800525439,280.4103239324163,0.0,0.0,0.0,12.327392805079878,0.0006280878473562731,0.1799255621273613,nominal,12756.556215642107,1443.029283560794,target_intercept,-14.999999999999998,-11.692510890815681,0.0
1.24,57.11866044470409,247.2123146756711,1190.1648047899266,44.31919207478893,-0.6453071574683439,-13.864755573604793,46.441777039701215,10.99930470766283,35.22254804944878,-11.480510249971537,11.512687447543302,16.09542406265548,9.485186826980573,13.60751188601467,-1.7829264411869181,-13.204645201597838,1176.5850792630554,0.1383451929916218,46.441777039701215,0.6144072664054032,1.0910274412513803,87820.75158356091,280.41392876886545,0.0,0.0,0.0,12.331106159366879,0.0006279369330111875,0.17994210387683657,nominal,12749.949010195793,1441.2611301647062,target_intercept,-14.999999999999998,-11.708219184933567,0.0
1.28,58.88538969560661,247.1939872452663,1189.5938571821484,44.16823127256307,-0.45818576011993256,-14.273690194456899,46.41961675525477,10.999279590185509,37.81953792777728,-11.062413833819265,12.502771261337115,60.095424062655475,6.048080859076432,25.734747812920293,-2.028393596248353,-14.260570949934719,1175.5287111654397,0.13827826479957844,46.41961675525477,0.713616857010027,1.0910888944394102,87826.8605091897,280.417639928316,0.0,0.0,0.0,12.334260906058999,0.0006277978774326537,0.179954969681984,nominal,12743.32100938768,1439.4907388459633,target_intercept,-14.999999999999998,-11.724259829847743,0.0
1.32,60.646132915938146,247.1847934525159,1189.009698520397,44.01858050828843,-0.2298448187604013,-14.603966543784432,46.37848744210354,10.999254478270412,38.4202518707134,-11.942704574625818,12.286660953333467,16.09542406265548,14.0458479346073,-17.751055116793676,-2.2011100612960237,-13.553874681073092,1173.514143549368,0.1381548103428576,46.37848744210355,0.7670636261780989,1.0911517723223705,87833.11114427332,280.4214369596174,0.0,0.0,0.0,12.33916582247278,0.0006274910604644596,0.17996497641932088,nominal,12735.684008703729,1437.7200213116625,target_intercept,-14.999999999999998,-11.740710593923307,0.0
1.36,62.39975538611459,247.18499389409695,1188.407425721488,43.84056175441122,0.00501103952654533,-15.05681997272851,46.35410130445867,10.999229378627994,40.875322225925956,-11.767635146991934,12.5378590269522,60.095424062655475,0.5516812720545398,7.526623800443347,-2.138026804015964,-13.889263527346618,1172.3500346758278,0.13808120373811128,46.35410130445868,0.635385302477622,1.0912166028838026,87839.55598202608,280.4253517328103,0.0,0.0,0.0,12.342201098430284,0.000627315394777016,0.17997275943724958,nominal,12728.647035323638,1435.9473298548626,target_intercept,-14.999999999999998,-11.757574040017259,0.0
1.4000000000000001,64.14715238785999,247.19298103099447,1187.7895304674337,43.6849250436348,0.19967842243839884,-15.447381351356778,46.33609972963438,10.999204286012203,41.69564701047099,-11.124424422692998,13.427317515037805,16.09542406265548,2.297281281164885,26.98789827158876,-1.830225698299576,-15.076554808180939,1171.5110545390255,0.13802659160159886,46.33609972963438,0.6922804911320682,1.0912831181584657,87846.16839144999,280.42936805196166,0.0,0.0,0.0,12.34446297766016,0.000627186696975483,0.17997881289563855,nominal,12721.753268035769,1434.1729704454108,target_intercept,-14.999999999999998,-11.774785754680613,0.0
1.44,65.88928575908739,247.20905506708232,1187.1609390562355,43.55333428068495,0.4018509021959939,-15.714785279953777,46.30344358152787,10.999179198544324,44.09532580775669,-12.104093177619932,13.408514158197441,60.095424062655475,17.633434712004938,-17.01210172841124,-2.7021109346201237,-14.341541446871881,1169.9328944702565,0.13792831023106775,46.30344358152786,0.829405997166441,1.0913507880372875,87852.89567944162,280.43345389613444,0.0,0.0,0.0,12.34813612284708,0.0006269311669970131,0.1799835211410522,nominal,12714.076266749698,1432.3988295516472,target_intercept,-14.999999999999998,-11.792370112908603,0.0
1.48,67.62389899208085,247.23568540631254,1186.5154907453327,43.365330824836576,0.6657584807553698,-16.136207772567623,46.274964648086886,10.999154121297645,44.78531567236683,-12.376294357710245,13.626331253793216,16.09542406265548,8.584845060057495,-0.9651145661226679,-2.5441907332369382,-14.399785368817248,1168.5686023168375,0.13784244633299017,46.27496464808689,0.831127379400671,1.0914202759557963,87859.80380681103,280.43764931015534,0.0,0.0,0.0,12.351309090181235,0.0006267065696334769,0.17998718310970727,nominal,12706.428313908562,1430.623893944728,target_intercept,-14.999999999999998,-11.810421133120972,0.0
1.52,69.35095880244938,247.27284938714482,1185.852924538634,43.176495259213084,0.929099520807211,-16.56415516747213,46.254126358634295,10.99912905303486,47.26132903380754,-11.833624668628232,13.972286290535374,60.095424062655475,-3.3354571712914804,15.638475964674967,-2.3797338000981902,-15.069748185663109,1167.5927003190457,0.1377793159408179,46.254126358634295,0.6749754121443712,1.091491610279801,87866.8956017105,280.44195599049885,0.0,0.0,0.0,12.353642432922697,0.0006265426952651238,0.1799900313075501,nominal,12698.966685027048,1428.8480403979675,target_intercept,-14.999999999999998,-11.82893897103079,0.0
1.56,71.07192527713998,247.31829918041913,1185.1771997148205,43.02416186726486,1.1362448318581846,-16.89312059533435,46.23577705789145,10.999103991327049,48.136568626563964,-11.572328137963693,14.555147208480271,18.92557205009566,6.157091905805746,14.435068256812915,-2.320780316440892,-15.740586772599261,1166.7442670173286,0.13772357953407063,46.235777057891454,0.7148707304888441,1.0915643649828546,87874.12871762585,280.44634820185365,0.0,0.0,0.0,12.355677035125346,0.0006263972903457947,0.17999224657253896,nominal,12691.491525656864,1427.0717898699627,target_intercept,-14.999999999999998,-11.847834758315386,0.0
1.6,72.78663736453746,247.3726373014631,1184.4885643399982,42.86780218493699,1.3584530260995133,-17.215884370560076,46.215587559301916,10.999078935435435,50.5389903684899,-11.594565668568157,15.140693730323436,57.12872095017477,11.242777965845072,8.92439650038991,-2.897976398939838,-16.11392966066228,1165.8047253507868,0.1376623420154928,46.21558755930192,0.8930992396307611,1.0916385135706914,87881.50052712053,280.45082433179,0.0,0.0,0.0,12.357866683556646,0.0006262347256141362,0.1799939695564192,nominal,12683.805046210593,1425.2955089593195,target_intercept,-14.999999999999998,-11.867136215805283,0.0
1.6400000000000001,74.49368091736035,247.4386386582999,1183.7854831413006,42.67608882057249,1.6500339209202255,-17.577029967440836,46.18358097243968,10.99905388604641,51.10956207140461,-11.699573347667707,15.36570801095479,13.12872095017477,5.929460143733826,1.4453142427129737,-2.6525716574412486,-16.26311715595332,1164.2712689844323,0.1375658831815635,46.18358097243968,0.8679131563439736,1.091714221583228,87889.02749510539,280.45539435958153,0.0,0.0,0.0,12.361242481101202,0.0006259719770240115,0.1799953096549927,nominal,12675.43148396658,1423.5200210610597,target_intercept,-14.999999999999998,-11.886960265941298,0.0
1.68,76.19334750627137,247.51594051008374,1183.068542580775,42.491664722775496,1.9325462945954643,-17.923514013138583,46.15765007745404,10.99902884716733,53.37173046151335,-11.843093017986767,15.254546803516595,57.12872095017477,0.046234592446668145,-4.50346836592185,-2.7035678585395013,-16.09966625682441,1163.0464624048902,0.1374875012122713,46.15765007745405,0.8644097695056259,1.0917914261126809,87896.703374642,280.46005447322494,0.0,0.0,0.0,12.363974517256707,0.0006257587821645767,0.1799963519538832,nominal,12667.203453436105,1421.7453354667539,target_intercept,-14.999999999999998,-11.907294499346397,0.0
1.72,77.88572981872785,247.60448209520285,1182.3380541668005,42.30955781141212,2.2135396279777426,-18.26221034936803,46.13574283271503,10.999003816816042,53.83316166296747,-11.916312887323162,14.945042472123827,13.12872095017477,-5.008633569232411,-5.9665143771634765,-2.05163285338933,-15.969533540180672,1162.0264415767504,0.13742108392863717,46.13574283271504,0.7235243640964646,1.0918700938535555,87904.52486173595,280.4648026479158,0.0,0.0,0.0,12.366277850646668,0.0006255783056089197,0.17999716263079804,nominal,12659.028862258061,1419.9715316678125,target_intercept,-14.999999999999998,-11.928138602111343,0.0
1.76,79.57216485563877,247.7019245492551,1181.595660507755,42.16087592277298,2.4360613513059195,-18.559841476140367,46.129617049161,10.998978793683818,56.06303552091038,-11.987203874255457,14.679589986309265,57.12872095017477,-4.297944598285561,-5.180611426534371,-2.0323586485663063,-15.82230408855381,1161.8029494066873,0.13740165548337424,46.129617049161006,0.7107168618491281,1.0919500481367435,87912.47439811043,280.46962820669955,0.0,0.0,0.0,12.366949667159638,0.0006255292239170211,0.17999779315728737,nominal,12651.465868669497,1418.1979801178552,target_intercept,-14.999999999999998,-11.949397840552193,0.0
1.8,81.25285140131813,247.80799778377636,1180.8416835903836,42.01716364198388,2.651830863031457,-18.849422934281826,46.12781148503371,10.998953772514861,56.55118789361841,-12.004952354581867,14.501607321393244,13.12872095017477,-3.3751866076164174,-2.7836629767139076,-1.5676862722524427,-15.842864467758906,1161.798397118985,0.13739507703406975,46.12781148503371,0.6431324399561177,1.092031254497637,87920.5485635921,280.4745290566625,0.0,0.0,0.0,12.367168610405134,0.0006255158138863972,0.17999828356677905,nominal,12643.98859258104,1416.4246427578853,target_intercept,-14.999999999999998,-11.971062805189884,0.0
1.84,82.92863514716747,247.92122697490754,1180.0771780552143,41.89459364623365,2.8307297782797995,-19.112638379230095,46.135268002645226,10.998928751882305,58.82774096239806,-12.0603390486035,14.461827168907611,57.12872095017477,-0.0819522444287132,-1.69049746551924,-1.8024708154237474,-15.862518732707077,1162.261668924448,0.1374160694959017,46.135268002645226,0.685572025476876,1.0921135995505091,87928.73609071317,280.4794983426411,0.0,0.0,0.0,12.366429784312338,0.0006255795529990613,0.1799986649963837,nominal,12636.835335013118,1414.651130860388,target_intercept,-14.999999999999998,-11.993073901719706,0.0
1.8800000000000001,84.5991550505842,248.04244697625944,1179.3019023085847,41.762997585418404,3.030500033797788,-19.381893665739632,46.140976364231285,10.998903728700185,59.34965649673446,-12.1117511531958,14.446402483244148,13.12872095017477,0.3367649471908859,-1.2964611977495173,-1.5298994255137244,-15.952964781660532,1162.638198179971,0.1374318375267629,46.140976364231285,0.6572768680794618,1.0921971095161822,87937.03959267613,280.4845376349942,0.0,0.0,0.0,12.365864491706835,0.0006256283566174694,0.17999896166385398,nominal,12629.495850196756,1412.8777596664966,target_intercept,-14.999999999999998,-12.015467835420882,0.0
1.92,86.26485265806964,248.1709335856479,1178.5164464485363,41.64244018713594,3.2121652347115788,-19.636396501209273,46.15191109571724,10.99887870356592,61.63397938148129,-12.211231437750111,14.443919365658536,57.12872095017477,1.1723902603027232,-2.194732866285307,-1.8305334694514213,-15.959852602234056,1163.279430932896,0.13746315578016596,46.15191109571724,0.7084705505256658,1.0922817210295388,87945.45277506995,280.4896430980845,0.0,0.0,0.0,12.364758445139513,0.00062572064964923,0.17999919240521978,nominal,12622.297758458031,1411.1043565125265,target_intercept,-14.999999999999998,-12.038216097391647,0.0
1.96,87.9252826083699,248.30769642504,1177.720533496969,41.51074875750647,3.419070984802354,-19.89782378918291,46.16010940577714,10.998853674739934,62.142662164099264,-12.30001655196008,14.366366753271688,13.12872095017477,-0.6252592139836161,-2.850544928971153,-1.5249483786341733,-15.995080809353382,1163.7841005327316,0.1374863064780951,46.16010940577714,0.6662399212539278,1.0923674641252927,87953.97863039262,280.4948165322697,0.0,0.0,0.0,12.363929629560392,0.0006257898513002603,0.17999937187072648,nominal,12614.870919994708,1409.3313193808183,target_intercept,-14.999999999999998,-12.061362874481278,0.0
2.0,89.58099500889857,248.45172311220819,1176.914789069532,41.39281001321672,3.600667179204451,-20.143610685925893,46.1746096506706,10.998828643145881,64.40649163978323,-12.415226725492218,14.268164688814528,57.12872095017477,-0.8468531170068033,-3.6517837646187905,-1.7598897456014546,-15.953316856314917,1164.6079137208224,0.13752821101880974,46.17460965067059,0.7002993789831535,1.0924542716033903,87962.61048264422,280.500053871048,0.0,0.0,0.0,12.362451496340412,0.0006259115922904245,0.17999951145500948,nominal,12607.638704424626,1407.558355370795,target_intercept,-14.999999999999998,-12.084867128838724,0.0
2.04,91.23171877444881,248.60367063412758,1176.099114220859,41.26809413875589,3.798688047984735,-20.39187121682336,46.18781263985804,10.99880360668219,64.89812788222768,-12.502396365320072,14.112842340335359,13.12872095017477,-2.493659303266501,-3.5927077235900593,-1.4078236512800666,-15.968426020836965,1165.3677566126576,0.13756623520166292,46.18781263985803,0.6498383303484565,1.0925421543181622,87971.34941709315,280.5053557575644,0.0,0.0,0.0,12.361104328842899,0.0006260223363622082,0.1799996200205629,nominal,12600.249396701302,1405.785753645536,target_intercept,-14.999999999999998,-12.108758231945771,0.0
2.08,92.8781052505822,248.76226002502696,1175.2741607560545,41.159661903334836,3.9647347724847526,-20.623836620114307,46.20800284308066,10.998778565788735,67.15385092762031,-12.608559988697957,13.978872888870562,57.12872095017477,-1.9090789647203434,-3.754195064177458,-1.6368413596567362,-15.935749196084862,1166.4817158324902,0.13762505447341308,46.208002843080656,0.6816450470421748,1.0926310422338292,87980.188475333,280.5107179550856,0.0,0.0,0.0,12.359038616128489,0.0006261913284120711,0.1799997044604378,nominal,12593.092111951435,1404.01310507666,target_intercept,-14.999999999999998,-12.132983427051217,0.0
2.12,94.51990122945814,248.9281386452342,1174.4398617779254,41.04489947189864,4.146965505180959,-20.857474453227727,46.22678158953393,10.998753518135599,67.64397779535038,-12.691220080814684,13.81896698407555,13.12872095017477,-2.8069042246944007,-3.4068929053609205,-1.3105473084413373,-15.967032352975176,1167.5260703303475,0.13767965390972706,46.22678158953393,0.6401077063940486,1.0927209427460889,87989.12839853867,280.51614089844344,0.0,0.0,0.0,12.35711642857425,0.0006263483796273502,0.17999977013589608,nominal,12585.778338567728,1402.2407004161794,target_intercept,-14.999999999999998,-12.157571787148324,0.0
2.16,96.15768888517984,249.10013536966292,1173.596761127344,40.94469139304245,4.299918110717574,-21.077516264535383,46.25168906009936,10.998728464200415,69.90050048811456,-12.798090925086555,13.690578712021921,57.12872095017477,-1.9512161312105605,-3.624735865784085,-1.571565587552936,-15.949377217374888,1168.8817386843905,0.13775249158125208,46.25168906009936,0.6771143810940846,1.0928117974377933,87998.16338322783,280.52162105267223,0.0,0.0,0.0,12.354564431374593,0.0006265564392027423,0.17999982121680805,nominal,12578.662047965525,1400.4681484209475,target_intercept,-14.999999999999998,-12.182474774950238,0.0
2.2,97.7911594758982,249.279058954705,1172.7447769915213,40.83676476795898,4.473089626052021,-21.299603395570113,46.274431302014854,10.998703401942846,70.38930728880527,-12.889393640869164,13.527108242404868,13.12872095017477,-2.97242735983327,-3.5002273720071324,-1.266734381319791,-15.983225549513502,1170.1298199263551,0.1378188649706054,46.274431302014854,0.6402525486420059,1.0929036153073886,88007.29432982132,280.5271589495551,0.0,0.0,0.0,12.352233806058676,0.0006267462661018505,0.17999986094640627,nominal,12571.359063446347,1398.69580706573,target_intercept,-14.999999999999998,-12.207728549476263,0.0
2.24,99.42084235467937,249.46381106348932,1171.8843608035463,40.74207196952932,4.618802719607898,-21.510404699375542,46.302778288822815,10.998678332092203,72.64112858162342,-13.005214430740562,13.379712743904122,57.12872095017477,-2.4883923690652425,-3.88550957783453,-1.5311886138657775,-15.961996775077004,1171.6632720529774,0.13790191600579915,46.302778288822815,0.6769649089582952,1.0929963478843203,88016.51642361972,280.5327516547769,0.0,0.0,0.0,12.34932752748293,0.0006269826475012047,0.17999989184720488,nominal,12564.233405506036,1396.923291759105,target_intercept,-14.999999999999998,-12.23328734876581,0.0
2.2800000000000002,101.0464393696437,249.65521149615455,1171.0154661910183,40.639925374108465,4.785010816631029,-21.722365313203184,46.3288357044361,10.998653252786303,73.12214899271915,-13.105779629972089,13.18437975331584,13.12872095017477,-3.806373729893803,-3.8030290238558506,-1.2174037489375005,-15.988874350071741,1173.082882803848,0.13797813296619413,46.3288357044361,0.6387028961882969,1.093090000344166,88025.8301847693,280.53839946975836,0.0,0.0,0.0,12.346655686797925,0.000627199761856253,0.17999991588115935,nominal,12556.919330386467,1395.150973755341,target_intercept,-14.999999999999998,-12.259188003344175,0.0
2.32,102.66848791450923,249.8520872496587,1170.1384934802616,40.55121362163802,4.921893837603681,-21.924317768920776,46.36056163129365,10.998628164795829,75.36526307224936,-13.227310539789524,13.001170389766404,57.12872095017477,-3.467916506736643,-4.1359851340111105,-1.4689445813037163,-15.964143520771357,1174.7916702730079,0.13807121747057094,46.360561631293656,0.6723401644320194,1.0931845297140832,88035.23134499296,280.5440997923783,0.0,0.0,0.0,12.343401890091469,0.0006274638641068116,0.17999993457423505,nominal,12549.789494472694,1393.3784207917913,target_intercept,-14.999999999999998,-12.285381151048519,0.0
2.36,104.28672904053641,250.05520012664084,1169.2534446294014,40.45602815067982,5.077821924553678,-22.126221271503375,46.3901299521957,10.998603066241264,75.83762013235683,-13.333280092071666,12.771372580855145,13.12872095017477,-4.756971593497765,-3.9564358531811115,-1.145631086172923,-15.989320125970124,1176.393349059758,0.13815786144643905,46.3901299521957,0.6340638676010473,1.0932799359560852,88044.71990581618,280.5498526099089,0.0,0.0,0.0,12.340369178232958,0.0006277097914871683,0.17999994911329392,nominal,12542.48137126572,1391.6059882926745,target_intercept,-14.999999999999998,-12.311901292113216,0.0
2.4,105.90170086760419,250.26331539490184,1168.3606650111308,40.374295676694416,5.202881706525079,-22.31949045676785,46.42535281170181,10.998577957849605,78.07310203466918,-13.458937955603703,12.55830447074865,57.12872095017477,-4.3398681726262796,-4.230802185310779,-1.392215807785925,-15.96693573509804,1178.2841592483098,0.13826133130332868,46.42535281170181,0.6662081736824536,1.093376182010701,88054.29218675311,280.55565567742764,0.0,0.0,0.0,12.336756088902646,0.0006280024714684385,0.17999996042145083,nominal,12535.360807376901,1389.833202239028,target_intercept,-14.999999999999998,-12.338695974921114,0.0
2.44,107.51316465816322,250.47718553126506,1167.4601908410536,40.286594763975856,5.346753409080315,-22.511854251926504,46.45837999278817,10.998552837750747,78.53812270776896,-13.571684769407273,12.301038639476094,13.12872095017477,-5.5524811383528645,-4.027745751672094,-1.067500565851294,-15.99257083613862,1180.0659977873922,0.13835824772624644,46.45837999278817,0.6298064913545691,1.0934732641419984,88063.94782139956,280.5615087595331,0.0,0.0,0.0,12.333368103506418,0.0006282766468680201,0.17999996921668399,nominal,12528.064016288568,1388.060418819445,target_intercept,-14.999999999999998,-12.365799476184566,0.0
2.48,109.1216385579217,250.69556275391616,1166.552302341285,40.21184749396189,5.459430566277773,-22.697212494216977,46.496897917961114,10.998527706684872,80.76631087601281,-13.704392675229949,12.060747063348638,57.12872095017477,-5.148062589784995,-4.313219183607217,-1.3120158111953224,-15.971961937927226,1182.1293731417802,0.13847150212868026,46.49689791796111,0.6608906639979407,1.0935711523048646,88073.68382661307,280.56741003478163,0.0,0.0,0.0,12.329416633627899,0.0006285960818002282,0.17999997605742088,nominal,12520.950893751811,1386.2871423057843,target_intercept,-14.999999999999998,-12.393158348230903,0.0
2.52,110.7268991780016,250.91920371956132,1165.6370656574074,40.13151550199756,5.591024141129059,-22.880917096937647,46.53315435934568,10.9985025628416,81.22314062425929,-13.82713877083841,11.773651741880132,13.12872095017477,-6.405058953082517,-4.122048184014813,-0.9832891600453018,-15.995945170125411,1184.0804927638023,0.13857800755916594,46.53315435934568,0.6258357620976311,1.093669839531328,88083.49951437836,280.5733590732268,0.0,0.0,0.0,12.325697087568752,0.0006288964530289191,0.17999998137799403,nominal,12513.66195724456,1384.5137336747582,target_intercept,-14.999999999999998,-12.420807239168639,0.0
2.56,112.32944640081068,251.1468362470274,1164.714695850315,40.0636805702271,5.690813186652048,-23.059245177310952,46.57480696369985,10.998477406983477,83.44241559771226,-13.969465037946971,11.50066649834466,57.12872095017477,-6.092103083573173,-4.411105737489062,-1.2203667085652374,-15.975667817151912,1186.3091004590992,0.13870056915361834,46.57480696369985,0.654879040526144,1.0937693027940287,88093.39259930236,280.5793544769729,0.0,0.0,0.0,12.321423814075306,0.000629241157520276,0.17999998551621757,nominal,12506.555693913442,1382.7396718468028,target_intercept,-14.999999999999998,-12.448691173598567,0.0
2.6,113.92908153431993,251.37919327739334,1163.7852889325645,39.990878337731345,5.80892575914862,-23.235172943759537,46.61423849453025,10.998452237337176,83.88928824574354,-14.103972147339517,11.177952386750224,13.12872095017477,-7.408278791547392,-4.205719000211421,-0.8825412492020484,-15.997413187919095,1188.427568807444,0.1388165025059085,46.61423849453025,0.6208362041892437,1.0938695318992937,88103.36207237504,280.5853956219383,0.0,0.0,0.0,12.317378359587323,0.0006295671189486504,0.1799999887348359,nominal,12499.278618923006,1380.9653097122844,target_intercept,-14.999999999999998,-12.476843930175697,0.0
2.64,115.52629008610877,251.61495708885084,1162.8489947777007,39.930213794721084,5.894095286437466,-23.407353871596776,46.65904572757457,10.998427054652417,86.09814388958435,-14.257392181566802,10.867763995437192,57.12872095017477,-7.15646734548876,-4.477856411611663,-1.1090161962087697,-15.978284015632608,1190.8233019407646,0.1389484308820885,46.65904572757458,0.6472499275220951,1.0939705108426927,88113.40634653986,280.59148153394494,0.0,0.0,0.0,12.312781309006054,0.0006299370900554156,0.17999999123820568,nominal,12492.186368740686,1379.1900935544936,target_intercept,-14.999999999999998,-12.505208016711055,0.0
2.68,117.12090113325202,251.85482393709776,1161.90593523047,39.86527617858119,5.996671206172663,-23.57648868076629,46.70172511657138,10.998401857168815,86.53386517436363,-14.405371390500443,10.506500208560446,13.12872095017477,-8.49487004130745,-4.254136335773475,-0.7607979952501016,-15.9982336858761,1193.1137324854492,0.13907400896518674,46.701725116571374,0.6148664089854431,1.094072226639634,88123.52413502817,280.59761142100194,0.0,0.0,0.0,12.308402537048499,0.0006302890700760403,0.17999999318527107,nominal,12484.930404159786,1377.4143609385374,target_intercept,-14.999999999999998,-12.533815739279754,0.0
2.72,118.71338144970767,252.0974314326292,1160.9561922186654,39.8120079113913,6.0651873882861365,-23.74357529511993,46.74975764414975,10.998376645606012,88.73121478860944,-14.572095870345674,10.156781327798695,57.12872095017477,-8.287195496991506,-4.515125543876769,-0.9760604410457422,-15.981090440221616,1195.6811671504522,0.13921551459022125,46.74975764414975,0.638420287626502,1.094174670608727,88133.71457905143,280.60378475057865,0.0,0.0,0.0,12.30347450341769,0.0006306847052804306,0.17999999469965527,nominal,12477.860962314544,1375.6375274879163,target_intercept,-14.999999999999998,-12.562607061736168,0.0
2.7600000000000002,120.30358601155442,252.34343969017564,1159.9999076281854,39.75511404616874,6.150206438660569,-23.907114761998912,46.79577190628884,10.998351418217801,89.15457129569714,-14.736384800545157,9.754433290835124,13.12872095017477,-9.654209765160955,-4.286107093772026,-0.6164813707527252,-15.9989232477528,1198.149014350782,0.13935099646007526,46.795771906288834,0.6084285713314254,1.0942778275990899,88143.97617621547,280.61000060041675,0.0,0.0,0.0,12.298753520739798,0.0006310632286054894,0.17999999587750964,nominal,12470.63522829465,1373.8599137549452,target_intercept,-14.999999999999998,-12.591612808094265,0.0
2.8000000000000003,121.89195744354751,252.59144390949555,1159.0370920281919,39.70928579982732,6.200105482997534,-24.070389999839314,46.84711689610182,10.998326175688657,91.33889273028191,-14.919618676750032,9.361635698335515,57.12872095017477,-9.514495694062786,-4.540829880971547,-0.818573458312131,-15.983977214163644,1200.89368742603,0.1395023387492094,46.84711689610182,0.6286752600326527,1.094381696623527,88154.30883301231,280.6162589018167,0.0,0.0,0.0,12.293485587473265,0.0006314850398869551,0.1799999967936186,nominal,12463.597279276783,1372.080907457837,target_intercept,-14.999999999999998,-12.620770425125604,0.0
2.84,123.47837616541491,252.8420613156078,1158.0679008011673,39.66046804668511,6.265435152805794,-24.229780675613313,46.89659555793437,10.99830091628706,91.74803153757387,-15.103744013516128,8.913765039015148,13.12872095017477,-10.93489592718037,-4.310213162293557,-0.4448284325043948,-15.999081396116065,1203.546713903561,0.13964810983997497,46.89659555793436,0.6018123075714659,1.0944862610713293,88164.71090171285,280.6225586447924,0.0,0.0,0.0,12.28840912550329,0.0006318909570275851,0.1799999975061478,nominal,12456.411916854,1370.3008075347097,target_intercept,-14.999999999999998,-12.65010890688843,0.0
2.88,125.06325673208008,253.09383773487914,1157.0922689787456,39.62201416662901,6.294410481784078,-24.39079556054489,46.95140592154871,10.99827564064878,93.91717299449184,-15.307178866375658,8.472620790947696,57.12872095017477,-10.8830693490076,-4.55462956096558,-0.6304144176928116,-15.98679391870677,1206.4776738367038,0.13980974374589072,46.951405921548705,0.6181695077276446,1.094591528103816,88175.18309939117,280.62890025163813,0.0,0.0,0.0,12.282785620090976,0.0006323399709388737,0.17999999806033717,nominal,12449.416158585434,1368.5189732122235,target_intercept,-14.999999999999998,-12.67956277687609,0.0
2.92,126.64650474434637,253.3473350437902,1156.1103571790636,39.58120030665736,6.337432722776252,-24.5477949920488,47.00456052558202,10.998250347049943,94.30971211732918,-15.515148244688085,7.973625281558834,13.12872095017477,-12.368522423679753,-4.323215811412741,-0.23905765903905435,-15.998764616778267,1209.3280212490815,0.13996643344844473,47.00456052558203,0.5956222328262681,1.0946974805427532,88185.72372178131,280.63528267833607,0.0,0.0,0.0,12.277331987175783,0.0006327747746533644,0.17999999849137335,nominal,12442.283989331616,1366.7356750385836,target_intercept,-14.999999999999998,-12.70915857077306,0.0
2.96,128.22850143594766,253.60104126874919,1155.1220196323648,39.54991729003225,6.342655623975012,-24.708438667472613,47.06306597956607,10.998225036058956,96.46106034335685,-15.743109175928117,7.478109121632905,57.12872095017477,-12.414646887059757,-4.5550974480003665,-0.4046184756789095,-15.989933398332537,1212.4584535657484,0.14013904233053628,47.063065979566076,0.6075909407108727,1.094804134270005,88196.33435357093,280.6417068723896,0.0,0.0,0.0,12.271329350502704,0.0006332526128066825,0.1799999988266237,nominal,12435.343443526224,1364.9502433684534,target_intercept,-14.999999999999998,-12.738827389032533,0.0
3.0,129.8091752170942,253.8554518017458,1154.1274120976284,39.51684452866352,6.360263324915615,-24.86518836840802,47.12018191456018,10.998199705954445,96.83413313617064,-15.979812909512113,6.921709130185661,13.12872095017477,-13.97572714086809,-4.328899456288787,0.007966557518112713,-15.998287570029037,1215.5222909846912,0.14030749958812644,47.12018191456018,0.5914873936541978,1.0949114726308382,88207.01334255093,280.6481718213654,0.0,0.0,0.0,12.265469273378425,0.0006337183590230696,0.179999999087374,nominal,12428.279357677828,1363.162914522852,target_intercept,-14.999999999999998,-12.768592712676327,0.0
3.04,131.3888594336437,254.10898508858813,1153.1263057357114,39.49210541373678,6.338332171057951,-25.02765904792286,47.18246032308448,10.998174357220083,98.96451950555833,-16.237664067074714,6.365025438762893,57.12872095017477,-14.132656628645124,-4.548433327517928,-0.1338567485304306,-15.993756607181155,1218.857775863735,0.1404913142830022,47.18246032308448,0.5983988099504455,1.0950195204771074,88217.76316598266,280.65467901271785,0.0,0.0,0.0,12.259079522508516,0.0006342253653161134,0.17999999929017976,nominal,12421.398367212834,1361.3729982130574,target_intercept,-14.999999999999998,-12.798381443586297,0.0
3.08,132.96750744340977,254.36206468951113,1152.1188352967895,39.466200244151956,6.326990023075303,-25.186760973047246,47.2438852421878,10.99814898820547,99.31451181088946,-16.509208070571837,5.743695680932912,13.12872095017477,-15.792714453474861,-4.335214487936899,0.30440733586732294,-15.997786805043686,1222.1547602938701,0.1406725730326192,47.24388524218781,0.6043360113735089,1.0951282634230601,88228.58239744969,280.6612275705709,0.0,0.0,0.0,12.252777336570736,0.0006347245684068284,0.17999999944791759,nominal,12414.418522551765,1359.5806847615286,target_intercept,-14.999999999999998,-12.828213733165278,0.0
3.12,134.5451403079137,254.61286093595288,1151.1048271460866,39.44082161259835,6.269906161044088,-25.35020376757338,47.30246255537438,10.998123599222733,101.42177203598636,-16.802425443291117,5.124121060191846,57.12872095017477,-15.919799768683381,-4.54092273681673,0.1806702158814731,-15.998265625046477,1225.309775074642,0.14084533802663624,47.30246255537437,0.600834935825307,1.0952377203693764,88239.47292233737,280.66781862355043,0.0,0.0,0.0,12.246767312603422,0.0006351998379701823,0.17999999957060256,nominal,12407.243635033466,1357.7855210750304,target_intercept,-14.999999999999998,-12.85800057070269,0.0
3.16,136.121817958094,254.861822219216,1150.084331750483,39.416941254507535,6.22403208157831,-25.512384890091848,47.36365289960225,10.998098191229214,101.74625143688118,-17.114880420230183,4.436169316992903,13.12872095017477,-17.68480485640797,-4.34885470850655,0.6417493254261408,-15.99710206274856,1228.6055088386836,0.14102586872267692,47.36365289960225,0.627176919943204,1.095347886030112,88250.43421968224,280.67445184362185,0.0,0.0,0.0,12.240489189789548,0.0006356954838887343,0.1799999996660242,nominal,12400.132319957875,1355.987567908139,target_intercept,-14.999999999999998,-12.887764312711964,0.0
3.2,137.69734723856533,255.10697634252165,1149.057152961223,39.38823201178306,6.128853082640774,-25.67946973150073,47.41762147992779,10.998072763409859,103.82624772902045,-17.450258136035718,3.7466461560335347,57.12872095017477,-17.91103681155346,-4.534595518982502,0.5409179893321368,-16.00337448624453,1231.5316471892936,0.14118488160786524,47.41762147992778,0.6194078357085431,1.095458781744706,88261.46841777772,280.68112850575204,0.0,0.0,0.0,12.234952018503085,0.0006361319338140984,0.17999999974024106,nominal,12392.616742494032,1354.1865059889915,target_intercept,-14.999999999999998,-12.917406131361597,0.0
3.24,139.27176616584015,255.34869952813182,1148.0233143291923,39.36047318187054,6.043079640254064,-25.84596580076708,47.47398876030562,10.998047318132507,104.12066872504398,-17.81088221988327,2.9848885697438323,13.12872095017477,-19.789887564985882,-4.366202864031717,1.0273867514366037,-15.996466611314386,1234.5871195602883,0.14135102182017562,47.47398876030562,0.6628178685277178,1.0955704051383863,88272.57528548749,280.68784845686025,0.0,0.0,0.0,12.22916873946644,0.0006365870825496827,0.17999999979796527,nominal,12385.152639873186,1352.3823845325414,target_intercept,-14.999999999999998,-12.946944375486623,0.0
3.2800000000000002,140.84476597034018,255.5849581678777,1146.9825248852533,39.32499511250087,5.906465993646708,-26.01973609847676,47.522292113982644,10.998021854649204,106.16732524735676,-18.196888547566623,2.214266949614677,57.12872095017477,-20.211339627572166,-4.529255229787642,0.9575593272697941,-16.00978719968957,1237.2276087952812,0.14149313710575204,47.522292113982644,0.6527837072077295,1.0956827877993565,88283.75797122714,280.69461358824583,0.0,0.0,0.0,12.224212818433772,0.0006369765487073474,0.17999999984286189,nominal,12377.240301549318,1350.5749129558135,target_intercept,-14.999999999999998,-12.976275357099068,0.0
3.3200000000000003,142.41634414958565,255.81602993594618,1145.9347674614705,39.28945448113665,5.776794201712229,-26.193935594569748,47.57262707278959,10.997996375587256,106.4243634688424,-18.615512607947867,1.3651797895915951,13.12872095017477,-22.26936072293969,-4.3935181737065765,1.4790935190686219,-15.99657485994318,1239.9779369258886,0.14164128639918508,47.57262707278959,0.7158910951110733,1.095795931758769,88295.01668255634,280.7014240115004,0.0,0.0,0.0,12.219048454035155,0.0006373818369387725,0.17999999987778145,nominal,12369.358610629386,1348.7641315250407,target_intercept,-14.999999999999998,-13.005411847466886,0.0
3.36,143.98604759153156,256.0397960858192,1144.8796490464003,39.2425860486476,5.594153746825559,-26.377960376753762,47.613778568458784,10.997970880313778,108.42917233584024,-19.063303772724517,0.49798964072393387,57.12872095017477,-22.93424914395066,-4.536763902707225,1.450728710706154,-16.018535240167193,1242.2532517745728,0.141762077806598,47.613778568458784,0.7068165274090094,1.0959098796405289,88306.35566653537,280.70828228119836,0.0,0.0,0.0,12.214826312425417,0.0006377127579956226,0.17999999990494112,nominal,12360.969965103994,1346.9497933120974,target_intercept,-14.999999999999998,-13.03424372043628,0.0
3.4,145.55380453572312,256.2564083783128,1143.8170937035836,39.19392360478908,5.415307312340223,-26.563883570417257,47.656364854737,10.997945371803459,108.63917629909832,-19.552541592591243,-0.4550928304488759,13.12872095017477,-25.20934569944157,-4.448527759762433,2.018108516208673,-15.998039266188647,1244.6067330450776,0.1418871258646734,47.65636485473701,0.8061470100673885,1.0960246398366158,88317.7757641248,280.7151888909267,0.0,0.0,0.0,12.210456960888557,0.00063805481575786,0.1799999999260653,nominal,12352.578457552154,1345.1319380075586,target_intercept,-14.999999999999998,-13.062776406672878,0.0
3.44,147.11906995272278,256.4635497828764,1142.746859040567,39.131635424991416,5.178535114089067,-26.75586657541554,47.68625077696647,10.99791984961083,110.61858564233388,-20.304566073139355,-1.3511652089024377,57.12872095017477,-26.158149272255834,-10.635381112798893,2.0458117671617213,-15.779848959369058,1246.2996751352257,0.14197434596166833,47.686250776966475,0.7442350160466779,1.0961402387230799,88329.2796061181,280.7221454162363,0.0,0.0,0.0,12.207390666383333,0.0006382946191332845,0.17999999994249524,nominal,12343.507741792044,1343.3104334003315,target_intercept,-14.999999999999998,-13.090888255409592,0.0
3.48,148.68167263203787,256.66234223660257,1141.6686574994485,39.0650669828773,4.969811343154972,-26.95503852796191,47.721615492428086,10.997894317826065,110.69350728319759,-21.00952972812182,-2.6273345513084334,13.12872095017477,-34.152844364300634,-5.959831701381487,2.923077188676453,-15.701665220751718,1248.2815235117873,0.14207786240231757,47.72161549242809,0.9568468437478023,1.0962567075648857,88340.87031015147,280.72915372625357,0.0,0.0,0.0,12.20376224744452,0.0006385781244885498,0.17999999995527408,nominal,12334.621232670543,1341.4854704155393,target_intercept,-14.999999999999998,-13.118630974781617,0.0
3.52,150.2405931478592,256.84859496670623,1140.5821603620088,38.97301289553318,4.6563182525912294,-27.162428435993128,47.73232188324027,10.997868774701086,112.56314930345653,-22.33153742178553,-3.7516233220177875,57.12872095017477,-36.473356847840655,-21.100073586007195,3.2718890203501476,-15.087790548802712,1248.9754042480702,0.1421079502334153,47.732321883240274,0.8521261130962486,1.0963740820853762,88352.55143792194,280.73621595764695,0.0,0.0,0.0,12.202663772421259,0.0006386638980462353,0.17999999996521318,nominal,12324.477319096723,1339.6568976898986,target_intercept,-14.999999999999998,-13.145784249898053,0.0
3.56,151.7951506386042,257.0239335104427,1139.4863509881131,38.86393726862576,4.383463593411929,-27.39523434739441,47.7505941119386,10.997843228145165,112.30697805430661,-23.32465544766196,-5.765241882825063,13.12872095017477,-52.366585210172154,-5.239867920981481,4.780997001014615,-15.061269119548365,1250.0667902836065,0.14216054662023814,47.7505941119386,1.3587414231818635,1.096492472346724,88364.3339500252,280.74333871857726,0.0,0.0,0.0,12.200789042281155,0.0006388102252229774,0.17999999997294358,nominal,12314.603442939131,1337.8250269808293,target_intercept,-14.999999999999998,-13.172418223429231,0.0
3.6,153.34300036673454,257.17994765779906,1138.3808645648476,38.696243203257964,3.900353683909128,-27.63716058164078,47.71189203878495,10.997817675736156,114.022658170659,-25.715575667772615,-7.13633133677149,57.12872095017477,-52.20577020731513,-42.698755120633216,5.551983351888521,-13.638801386887218,1248.1771963997905,0.14204350705301896,47.71189203878495,1.2458610888489206,1.0966119180177871,88376.22180223178,280.75052438032844,0.0,0.0,0.0,12.204759875393798,0.0006385002034364949,0.1799999999789561,nominal,12301.915026445198,1335.9899576324824,target_intercept,-14.999999999999998,-13.198086996253162,0.0
3.64,154.88208915379332,257.31875823205775,1137.2627625299717,38.477219676469325,3.470264356466804,-27.95255087189795,47.68526259737997,10.99779213572802,113.30387788469058,-26.997979788253648,-9.937598192432343,13.12872095017477,-70.35535633572863,-4.172870896617157,7.545859756516868,-13.710204559225835,1246.9216588640918,0.14196239085463397,47.68526259737996,1.9670983900328947,1.096732736906466,88388.24663369353,280.7577920435552,0.0,0.0,0.0,12.207492056398785,0.0006382866933824627,0.17999999998363253,nominal,12289.680004655089,1334.1521849123417,target_intercept,-14.999999999999998,-13.222867859730167,0.0
3.68,156.40779688339245,257.42983479477033,1136.1310783581148,38.14269323997809,2.776914067814347,-28.292104296423137,47.57120415607303,10.997766604260285,114.33043958457475,-29.164117838146797,-12.146424301196484,51.67026575197196,-66.46351830032306,-29.87108786748007,8.654599645089698,-12.922226352493862,1241.102145821647,0.14162097558218759,47.57120415607304,2.0226541729374943,1.096855033811294,88400.4188857678,280.76514799067223,0.0,0.0,0.0,12.21919445272272,0.0006373703880846794,0.17999999998726973,nominal,12273.149572009996,1332.312931690695,target_intercept,-14.999999999999998,-13.246180286464414,0.0
3.72,157.91673080974044,257.51397623584785,1134.983109723867,37.72334815870012,2.10353602693759,-28.699215856195,47.44597823714464,10.997741109444762,112.95952280850874,-30.093563615260926,-15.539164437883901,7.670265751971964,-76.87203003828351,8.292892661869807,10.596651160919135,-13.500738057238099,1234.7162638187663,0.1412462971568302,47.44597823714465,2.7896852069958684,1.0969791011764765,88412.76767821415,280.7726097867948,0.0,0.0,0.0,12.232042632196107,0.0006363609961875023,0.1799999999900987,nominal,12255.942538413361,1330.4736607661548,target_intercept,-14.999999999999998,-13.268018065483187,0.0
3.7600000000000002,159.40237831749477,257.5610545883358,1133.8192248459482,37.141187693857894,1.1769588121993706,-29.0971219479751,47.196351140859704,10.997715655004914,113.96769170163063,-31.91351780602973,-17.582558756528943,51.528499315237234,-58.30000098804999,-24.304691125057076,10.997328721610069,-13.04297012186,1221.8981469769424,0.14050126644180894,47.196351140859704,2.595559718378776,1.0971048996588575,88425.2891089555,280.78017503850134,0.0,0.0,0.0,12.25765437242337,0.0006343383332502058,0.179999999992299,nominal,12232.716081841181,1328.6379322523735,target_intercept,-14.999999999999998,-13.287794362609247,0.0
3.8000000000000003,160.86406790613083,257.57520310764914,1132.6401556391343,36.54223971590159,0.3537129828330968,-29.476730170348493,46.95037825049094,10.997690281471584,113.175635500623,-34.2194458822549,-19.585623908240066,7.528499315237232,-61.52999840923498,-36.056505570150904,12.017740899787226,-11.825577807875614,1209.3354924205983,0.1397671095101467,46.95037825049094,2.66512816454909,1.0972323505923538,88437.9753614931,280.7878389883456,0.0,0.0,0.0,12.282891191090904,0.0006323315651659442,0.1799999999940103,nominal,12209.574591230601,1326.8074672925597,target_intercept,-14.999999999999998,-13.305698500674008,0.0
