time_s,x_m,y_m,altitude_m,vx_mps,vy_mps,vz_mps,speed_mps,mass_kg,roll_deg,pitch_deg,yaw_deg,p_dps,q_dps,r_dps,alpha_deg,beta_deg,qbar_pa,mach,airspeed_mps,load_factor_g,density_kgpm3,pressure_pa,temperature_k,wind_x_mps,wind_y_mps,wind_z_mps,thrust_n,mass_flow_kgps,propulsion_throttle_actual,propulsion_health,energy_j_per_kg,target_distance_m,guidance_mode,pitch_command_deg,heading_command_deg,roll_command_deg,elevator_command_deg,aileron_command_deg,rudder_command_deg,elevator_deg,aileron_deg,rudder_deg,throttle,elevator_saturated,aileron_saturated,rudder_saturated,elevator_failed,aileron_failed,rudder_failed,elevator_raw_rad,aileron_raw_rad,rudder_raw_rad,elevator_effective_rad,aileron_effective_rad,rudder_effective_rad,sensor_time_s,imu_valid,imu_ax_mps2,imu_ay_mps2,imu_az_mps2,gyro_p_rps,gyro_q_rps,gyro_r_rps,imu_accel_norm_mps2,imu_gyro_norm_rps,gps_valid,gps_latency_s,gps_x_m,gps_y_m,gps_z_m,gps_vx_mps,gps_vy_mps,gps_vz_mps,baro_valid,baro_alt_m,baro_bias_m,pitot_valid,pitot_airspeed_mps,pitot_qbar_pa,pitot_compressibility_factor,mag_valid,mag_heading_deg,mag_x_ut,mag_y_ut,mag_z_ut,radar_valid,radar_agl_m,optical_flow_valid,horizon_valid,horizon_roll_deg,horizon_pitch_deg,optical_flow_x_radps,optical_flow_y_radps,optical_flow_quality
0.0,0.0,0.0,1000.0,83.0,1.5,14.0,84.18580640464282,18.0,1.0000000000000002,8.000000000000004,1.0000000000000002,0.0,0.0,0.0,-1.0827684347795592,-6.349201456408931,4114.848473868095,0.2557463875601956,86.0417728600201,1.7180181447872964,1.1116425003060326,89874.56291621955,281.65,-1.6186018662344348,9.566354501788709,0.6653526424403756,319.2,0.17131232378029196,0.84,nominal,13350.275,nan,altitude_hold,20.0,2.0,0.0,-20.05352282957881,2.016666666666644,3.086666666666632,-2.6999999999999997,1.2099999999999864,1.851999999999979,0.84,0.0,0.0,0.0,0.0,0.0,0.0,-0.047123889803846894,0.02111848394913115,0.03232349774693462,-0.047123889803846894,0.02111848394913115,0.03232349774693462,0.0,1.0,16.864680307905445,1.4265596267816167,-0.8404404528891686,-0.005526002259025985,-0.0024404616361534746,-0.0006126780109707863,16.945762137226804,0.006071896599039241,1.0,0.0,-5.12475906770303,4.333339046228245,1006.1844569493729,82.72589914784164,1.4631960598078957,14.027873835128696,1.0,1002.0904441399286,0.0,1.0,85.79311618127807,4168.7033634385725,1.0,1.0,-0.10896602917947859,17.95460209662717,-1.1729541591912578,-44.39431660708244,1.0,999.6310945825524,0.0,1.0,0.49971564607647456,7.729319069471869,,,
0.03,2.505038713561053,0.04646735758959711,1000.4124443331036,83.5012904520351,1.548911919653237,13.748144436787165,84.63968401845987,17.994860630286592,1.0875168236479114,8.37351009423599,0.8472756551265401,2.1922912294498413,-12.540106365730965,-4.811329997703332,-0.594620422282416,-6.20649547405588,4172.776557131109,0.2575467137790701,86.64705138147676,1.750680619766894,1.1115974687753443,89870.06674995969,281.6473191118348,-1.740218816714953,9.672186404383423,0.4963889932391711,324.87,0.17435537163691558,0.84,nominal,13392.632752591597,nan,altitude_hold,19.907233145759406,2.0,0.0,-2.583763905379243,0.5264922610233325,0.8914091445094425,-2.630258343227546,0.799895356613994,1.2756454867056572,0.84,0.0,0.0,0.0,0.0,0.0,0.0,-0.04590666826737177,0.013960807644328397,0.022264213831219272,-0.04590666826737177,0.013960807644328397,0.022264213831219272,0.03,1.0,17.243815456082103,1.1540844049670131,-0.7269511600846663,0.03349620554479126,-0.22117795663459747,-0.09351736760215368,17.297674418439968,0.24246068202946044,1.0,0.0,-5.12475906770303,4.333339046228245,1006.1844569493729,82.72589914784164,1.4631960598078957,14.027873835128696,1.0,1002.0904441399286,0.0,1.0,86.6653780019011,4176.201433726769,1.0,1.0,-0.10896602917947859,17.95460209662717,-1.1729541591912578,-44.39431660708244,1.0,999.6310945825524,0.0,1.0,0.49971564607647456,7.729319069471869,,,
0.06,5.025374712521403,0.09431291798105614,1000.8177512456737,84.011199965345,1.5948520130486343,13.510230418999873,85.10553212650268,17.989629969137486,1.2569634042162854,9.049904216067407,0.5503644567386852,4.149158264784902,-22.742167352265664,-9.319745467947284,0.34378650787854925,-6.361791328838518,4177.459311671509,0.25769751924171164,86.6973817394765,1.782984278154329,1.1115532178826377,89865.64856807032,281.6446846169031,-1.280845437094381,10.368936426153304,0.6759624515447424,330.53999999999996,0.17739841949353916,0.84,nominal,13436.145199520975,nan,altitude_hold,19.907233145759406,2.0,0.0,-0.46052114988769044,0.7223481590896381,1.4006101238706596,-1.3284160272236325,0.7533670380993804,1.3506242690046588,0.84,0.0,0.0,0.0,0.0,0.0,0.0,-0.023185233511315014,0.013148735290831753,0.02357284045147289,-0.023185233511315014,0.013148735290831753,0.02357284045147289,0.06,1.0,17.52104193021589,1.1001543828868088,0.15749220270249298,0.0575256110031866,-0.40708490343908593,-0.17077155041908948,17.55625397915172,0.44518562079411267,1.0,0.0,-5.12475906770303,4.333339046228245,1006.1844569493729,82.72589914784164,1.4631960598078957,14.027873835128696,1.0,999.5809976730133,0.0,1.0,87.27281460984427,4173.060451043527,1.0,1.0,-1.3296307626304564,17.126344347572225,-1.2206921693776833,-44.83306487942049,1.0,1000.8659535388114,0.0,1.0,1.084099159198093,8.450668459318699,,,
0.09,7.561175895979629,0.14347783619651858,1001.2168287340543,84.52670611527418,1.6388306071820813,13.302582946021593,85.58275834239483,17.984308016552678,1.513018674540333,9.783403660434836,0.10846066553847471,6.12508390842677,-24.794442186646826,-13.936800706186428,1.2318487320431573,-6.261416424564768,4218.993072799808,0.25898167851498766,87.1290112264904,1.8076160464562205,1.1115096484272804,89861.29846392456,281.6420906132286,-1.179927649727103,10.92684973224732,0.6704720095922982,336.21,0.18044146735016278,0.84,nominal,13480.787276251187,nan,altitude_hold,19.907233145759406,2.0,0.0,0.4200419290669085,0.9563153199625398,1.9728566303410884,-0.27934125344930805,0.8751360072172761,1.7239636858065166,0.84,0.0,0.0,0.0,0.0,0.0,0.0,-0.004875424609338392,0.015274004728698326,0.03008884250214075,-0.004875424609338392,0.015274004728698326,0.03008884250214075,0.09,1.0,17.532203787553133,1.4501639212526798,0.7773836656815102,0.10268827751808457,-0.43070514357249284,-0.2510986849053447,17.609243890935915,0.5090209746175755,1.0,0.0,-5.12475906770303,4.333339046228245,1006.1844569493729,82.72589914784164,1.4631960598078957,14.027873835128696,1.0,999.5809976730133,0.0,1.0,87.98410000388307,4196.484897083017,1.0,1.0,-1.3296307626304564,17.126344347572225,-1.2206921693776833,-44.83306487942049,1.0,1000.8659535388114,0.0,1.0,1.084099159198093,8.450668459318699,,,
0.12,10.112495149768863,0.19385324382202296,1001.6105835988296,85.0439751263078,1.6791802541834795,13.125162159179917,86.06722508199546,17.978894772532172,1.860739865433513,10.372283728486734,-0.4786263164014617,8.166244354668777,-20.188239713830868,-18.68189303276027,1.8474647363329448,-5.883273810204035,4239.199224058257,0.2596073118325397,87.33909572548417,1.8357162169312347,1.1114666613521311,89857.00654561906,281.63953120660756,-0.8503103090930855,11.253812274755672,0.5308859450499558,341.88,0.18348451520678638,0.84,nominal,13526.228046306896,nan,altitude_hold,19.907233145759406,2.0,0.0,-0.46106767177048597,1.2307942710570257,2.606588338061795,-0.3883771044420148,1.0885309655211257,2.2535384771596836,0.84,0.0,0.0,0.0,0.0,0.0,0.0,-0.006778459211875053,0.018998449358256515,0.03933166624681551,-0.006778459211875053,0.018998449358256515,0.03933166624681551,0.12,1.0,18.04037833830955,1.473560845757219,1.2643259617970626,0.1470851244532552,-0.34495173782693417,-0.32534897060038265,18.144562609585588,0.4964651930759901,1.0,0.0,-5.12475906770303,4.333339046228245,1006.1844569493729,82.72589914784164,1.4631960598078957,14.027873835128696,1.0,997.8182079643965,0.0,1.0,87.64555884899198,4251.604323577366,1.0,1.0,-0.05333680994672952,16.139124467489385,-1.2165233131776643,-45.27569945080873,1.0,1001.4976617076704,0.0,1.0,2.352961015885964,10.485523719183432,,,
0.15,12.679455828744132,0.24524301907600252,1001.9996166984897,85.56535596584227,1.7129925084659852,12.967769988669959,86.55938737869168,17.973390237075968,2.302014308679922,10.784469908633898,-1.2097009029891939,10.235386618022744,-14.600612557669448,-23.440728310232032,2.435150001513484,-4.772140268454287,4293.773743740977,0.26127919656623494,87.90116947741522,1.8624042388776325,1.1114241910114429,89852.76625745157,281.6370024914598,-0.9866438459147318,10.69964597013885,0.5336643255072612,347.55,0.18652756306341,0.84,nominal,13572.523312783449,nan,altitude_hold,19.907233145759406,2.0,0.0,-1.7081661347033203,1.5411624134486335,3.297606610156038,-1.1802505225987983,1.36010983427763,2.879979356957496,0.84,0.0,0.0,0.0,0.0,0.0,0.0,-0.02059925761773277,0.023738394796899077,0.05026512216837737,-0.02059925761773277,0.023738394796899077,0.05026512216837737,0.15,1.0,17.9808125920717,1.1716849136102756,1.6814194968788652,0.17957781822093558,-0.2545046640257841,-0.4058350229676344,18.097227371408874,0.5115885873189598,1.0,0.0,-5.12475906770303,4.333339046228245,1006.1844569493729,82.72589914784164,1.4631960598078957,14.027873835128696,1.0,997.8182079643965,0.0,1.0,87.6406651573085,4317.192244786212,1.0,1.0,-0.05333680994672952,16.139124467489385,-1.2165233131776643,-45.27569945080873,1.0,1001.4976617076704,0.0,1.0,2.352961015885964,10.485523719183432,,,
0.18,15.262186917633834,0.2972877942308745,1002.3844155226793,86.09103629632338,1.7348258384957322,12.826627472986592,87.05859247423862,17.967794410184066,2.831556443673565,11.06963787354055,-2.0738192949754097,12.191279555242419,-10.762717762808082,-27.828374026294135,2.7222124015025195,-4.115407053150833,4298.918550421236,0.26144178389708883,87.95547755183378,1.8924183895174391,1.1113821841435603,89848.57228039898,281.63450129910257,-0.48956094193841726,10.972623123869754,0.3916238722083025,353.21999999999997,0.18957061092003358,0.84,nominal,13619.632390283261,nan,altitude_hold,19.907233145759406,2.0,0.0,-2.6122597585229483,1.873614980275153,4.015319815852971,-2.039456064153288,1.6682129218761437,3.561183632294781,0.84,0.0,0.0,0.0,0.0,0.0,0.0,-0.03559522326923958,0.02911580811105365,0.062154379651675,-0.03559522326923958,0.02911580811105365,0.062154379651675,0.18,1.0,18.39305515692522,1.223292290101758,1.7602843481903452,0.20759744263989854,-0.18419349697798043,-0.4858351620004516,18.517546355259917,0.5595174234602605,1.0,0.0,-5.12475906770303,4.333339046228245,1006.1844569493729,82.72589914784164,1.4631960598078957,14.027873835128696,1.0,1004.6081564211894,0.0,1.0,88.04065164520402,4374.465750790639,1.0,1.0,-2.4784913433836104,15.600228443112938,-1.4302629335918338,-45.350764943927125,1.0,1002.4417727432833,0.0,1.0,2.6086487813268917,11.410814474075229,,,
0.21,17.860901783838965,0.34965469366637253,1002.7652271705366,86.62382887350442,1.745563314516602,12.693721595242788,87.56634791932741,17.962107291856466,3.4493474961582495,11.308528682212435,-3.0706623607514625,14.14510091864037,-9.736941832482671,-32.112375944499156,3.235018266411452,-2.825311216387391,4441.528614389329,0.2657490084950094,89.40414147071769,1.9184322354916319,1.1113406137347506,89844.4219162068,281.6320260233915,-1.4904025160336098,10.57395272894038,0.4037956762495189,358.89,0.1926136587766572,0.84,nominal,13667.70025899629,nan,altitude_hold,19.907233145759406,2.0,0.0,-2.8692830969680165,2.236923377796515,4.787926366918363,-2.537352283842125,2.009439195428367,4.29722927306893,0.84,0.0,0.0,0.0,0.0,0.0,0.0,-0.0442851516360428,0.035071330078850785,0.07500079952813532,-0.0442851516360428,0.035071330078850785,0.07500079952813532,0.21,1.0,18.641436260382438,0.7427499607202939,2.34282033977762,0.24841784421958227,-0.17720445444903424,-0.5622051229418035,18.80275592828155,0.6396776096326124,1.0,0.0,-5.12475906770303,4.333339046228245,1006.1844569493729,82.72589914784164,1.4631960598078957,14.027873835128696,1.0,1004.6081564211894,0.0,1.0,89.86161321593988,4486.067001357081,1.0,1.0,-2.4784913433836104,15.600228443112938,-1.4302629335918338,-45.350764943927125,1.0,1002.4417727432833,0.0,1.0,2.6086487813268917,11.410814474075229,,,
0.24,20.47569639325121,0.40186853302923525,1003.1425177761176,87.15982031374146,1.7404613120954238,12.576353519366783,88.07966933717843,17.956328882093167,4.151202850892727,11.512559526226633,-4.189189586345417,16.01880581881436,-9.208533346856584,-36.017649534207706,3.6339137592840065,-1.6447701464045386,4482.80221660867,0.26698701996022556,89.82024622447213,1.9482160681126366,1.1112994288653637,89840.31008000704,281.6295736344552,-1.4147421310944146,10.393340716460905,0.43752336386267987,364.56,0.19565670663328083,0.84,nominal,13716.481647222508,nan,altitude_hold,19.907233145759406,2.0,0.0,-3.050562333972456,2.6226799223699144,5.582198894515692,-2.845278313920324,2.3773836315932955,5.0682110459369865,0.84,0.0,0.0,0.0,0.0,0.0,0.0,-0.04965947471350246,0.04149317195432289,0.088456969937546,-0.04965947471350246,0.04149317195432289,0.088456969937546,0.24,1.0,18.858920269438528,0.6021518665972625,2.431946699634721,0.27323714816181505,-0.1693307855866953,-0.628100558220513,19.024611043313083,0.7055790284014464,1.0,0.0,-5.12475906770303,4.333339046228245,1006.1844569493729,82.72589914784164,1.4631960598078957,14.027873835128696,1.0,997.0763576531275,0.0,1.0,90.14325856647004,4505.316530402839,1.0,1.0,-5.775277288265017,15.12341577318298,-1.5852214507977611,-45.5501367399906,1.0,1003.0605337890864,0.0,1.0,3.7719951265631053,11.610740937767911,,,
0.27,23.106709810548402,0.45340178474590276,1003.516655503003,87.70044724323985,1.7177750572222503,12.471257562845178,88.59938748665441,17.950459180894168,4.932295827613947,11.68060345784134,-5.416978527253606,17.809267695458537,-8.758695030472852,-39.52334536083139,3.8959493416404136,-0.5577902637018542,4566.279309100406,0.2694675355894241,90.65435428014955,1.9777241175550273,1.1112585893158196,89836.23275538409,281.62714173923047,-1.6907683546029684,10.545733117689835,0.24466031040100292,370.22999999999996,0.1986997544899044,0.84,nominal,13766.06234119369,nan,altitude_hold,19.907233145759406,2.0,0.0,-3.2612846467433965,3.0281251675336156,6.389234823868328,-3.0948821136141675,2.7678285531574875,5.860825312695791,0.84,0.0,0.0,0.0,0.0,0.0,0.0,-0.054015882843648444,0.04830772138330905,0.10229069859076778,-0.054015882843648444,0.04830772138330905,0.10229069859076778,0.27,1.0,19.194968242269926,0.5300279714705516,2.757177838382913,0.3022212393258794,-0.1454865377174758,-0.7043554638777181,19.399220734471836,0.7801414164438935,1.0,0.0,-5.12475906770303,4.333339046228245,1006.1844569493729,82.72589914784164,1.4631960598078957,14.027873835128696,1.0,997.0763576531275,0.0,1.0,90.56777091329862,4586.823260422814,1.0,1.0,-5.775277288265017,15.12341577318298,-1.5852214507977611,-45.5501367399906,1.0,1003.0605337890864,0.0,1.0,3.7719951265631053,11.610740937767911,,,
0.3,25.754081183340116,0.5037035366005226,1003.8879358008487,88.24571242639041,1.6767250618206593,12.376009928192156,89.1250962990607,17.94449818825947,5.789790856874851,11.8166586063061,-6.744973173780968,19.569476023878174,-8.564842448826354,-42.72821926986763,4.374256874771581,0.8013302435134182,4597.638785961814,0.27039734199061694,90.96677028708261,2.009140423879057,1.1112180628081814,89832.18671893406,281.6247284172945,-1.5192153270894353,10.313860043889862,0.43402763139927947,375.9,0.20174280234652803,0.84,nominal,13816.419020779815,nan,altitude_hold,19.907233145759406,2.0,0.0,-3.4565213012429203,3.4555851820076793,7.214207790394285,-3.311865626191419,3.1804825304676023,6.672854799314887,0.84,0.0,0.0,0.0,0.0,0.0,0.0,-0.057802959560664016,0.05550989195882053,0.11646328675555025,-0.057802959560664016,0.05550989195882053,0.11646328675555025,0.3,1.0,19.589821055130074,0.2509023652817964,3.0930512788382005,0.34888792264236235,-0.14777699648938794,-0.7427069702934704,19.834087001484193,0.8337712318014058,1.0,0.0,-5.12475906770303,4.333339046228245,1006.1844569493729,82.72589914784164,1.4631960598078957,14.027873835128696,1.0,993.763398822768,0.0,1.0,91.21231939503593,4571.385059295403,1.0,1.0,-7.281009029080829,14.860216957515092,-1.754675458479747,-45.50085489673609,1.0,1003.5547357295502,0.0,1.0,5.44824403710983,12.33462426490637,,,
0.32999999999999996,28.41789075601646,0.5521064792588803,1004.2567668119585,88.79365242254482,1.6134314219452577,12.294367036994737,89.65526940637322,17.938445904189074,6.715991736774775,11.900837219044202,-8.154459336054733,21.218149545181415,-7.797629600463864,-45.40383953923771,4.737515080651906,2.029954436125203,4657.432319912108,0.2721560456755156,91.5580416987569,2.0403945884460892,1.1111778047680547,89828.1675197469,281.62233101572224,-1.5690396458418359,10.414959373875428,0.4625460623253942,381.57,0.20478585020315163,0.84,nominal,13867.428288421173,nan,altitude_hold,19.907233145759406,2.0,0.0,-3.8464895800544525,3.8942652410377088,8.023502687206388,-3.632639998509239,3.6087521568096657,7.483243532049788,0.84,0.0,0.0,0.0,0.0,0.0,0.0,-0.06340152851362812,0.06298460702477537,0.1306072383628386,-0.06340152851362812,0.06298460702477537,0.1306072383628386,0.32999999999999996,1.0,19.378150379065826,0.07378283169137102,3.6095498940541817,0.37286471911127395,-0.1328302649997942,-0.7828741409291701,19.711595735952177,0.8772479117065088,1.0,0.0,-5.12475906770303,4.333339046228245,1006.1844569493729,82.72589914784164,1.4631960598078957,14.027873835128696,1.0,993.763398822768,0.0,1.0,91.5759331619531,4746.345968115424,1.0,1.0,-7.281009029080829,14.860216957515092,-1.754675458479747,-45.50085489673609,1.0,1003.5547357295502,0.0,1.0,5.44824403710983,12.33462426490637,,,
0.36,31.098217624504475,0.5979284532546032,1004.6234696485185,89.34422894960046,1.5273991331907613,12.22342788533324,90.18944718745448,17.93230232868298,7.705348816537257,11.93828841640467,-9.63196570009545,22.806246434843942,-7.287439278483728,-47.65383910310698,5.069297499763925,3.1253195607713837,4689.733714493786,0.273104251830585,91.87664598047597,2.0726899072302944,1.111137780125129,89824.17165590628,281.61994744728463,-1.3137944732096711,10.775807891156107,0.5226671777334557,387.24,0.20782889805977525,0.84,nominal,13919.058940617962,nan,altitude_hold,19.907233145759406,2.0,0.0,-4.219693404517284,4.345800552058829,8.82544256481532,-3.984872042114066,4.050981193959164,8.288562951709107,0.84,0.0,0.0,0.0,0.0,0.0,0.0,-0.0695491374055606,0.07070295977095843,0.14466271376614367,-0.0695491374055606,0.07070295977095843,0.14466271376614367,0.36,1.0,19.986181941539428,-0.084011304011382,3.7250578956648623,0.3929841417107622,-0.11767717220937503,-0.8301824909430365,20.330533264663117,0.92600616669854,1.0,0.0,-5.12475906770303,4.333339046228245,1006.1844569493729,82.72589914784164,1.4631960598078957,14.027873835128696,1.0,1007.507702477286,0.0,1.0,91.68043654452464,4654.642381395096,1.0,1.0,-10.715617882630124,14.579719154816827,-2.1278066048992836,-45.665327240295184,1.0,1005.0634098653705,0.0,1.0,7.437697971229839,11.934785072722994,,,
0.39,33.79514121718178,0.6404718702367418,1004.9883101117218,89.89745308924361,1.4181138994046194,12.161348773443612,90.72740227160578,17.926067461741187,8.754065257014295,11.940912547857431,-11.167339315756035,24.368979736622236,-7.254519193324085,-49.54755285251231,5.409779614228581,4.591644644165923,4761.020011530686,0.27517817349631873,92.57395668163295,2.105042473092437,1.1110979598498767,89820.19622869261,281.6175759842738,-1.4701769577954693,10.63977642219087,0.46286273481051515,392.90999999999997,0.21087194591639885,0.84,nominal,13971.299372834004,nan,altitude_hold,19.907233145759406,2.0,0.0,-4.513229232493396,4.811783574083422,9.624612154379097,-4.301886356341664,4.507462622033719,9.0901924733111,0.84,0.0,0.0,0.0,0.0,0.0,0.0,-0.07508208096478408,0.0786700636650651,0.15865378829928548,-0.07508208096478408,0.0786700636650651,0.15865378829928548,0.39,1.0,20.10011726384764,-0.266177279215313,3.9973460222250683,0.4191154921814203,-0.12342546916934327,-0.8728165304661939,20.49547119696922,0.9760636957090408,1.0,0.0,-5.12475906770303,4.333339046228245,1006.1844569493729,82.72589914784164,1.4631960598078957,14.027873835128696,1.0,1007.507702477286,0.0,1.0,92.86941590272987,4662.666964284238,1.0,1.0,-10.715617882630124,14.579719154816827,-2.1278066048992836,-45.665327240295184,1.0,1005.0634098653705,0.0,1.0,7.437697971229839,11.934785072722994,,,
0.42,36.50867995542982,0.6789231615924636,1005.3515643275489,90.45129127493463,1.281709711857392,12.108473860900892,91.26715735865041,17.919741303363697,9.854305225555585,11.91575167742219,-12.741985059257962,25.825724704531673,-7.47583706803315,-50.81892486001312,5.815931102943034,6.164075480334256,4819.435102590824,0.27686726938690986,93.14180274475908,2.1180466894017824,1.1110583137892038,89816.23822731785,281.6152148318709,-1.5150602280324668,10.329101117275348,0.4581383063564667,394.7778947368421,0.21187443146760623,0.84,nominal,14023.977924477083,nan,altitude_hold,19.907233145759406,2.0,0.0,-4.7636558912180975,5.282740109846577,10.3906890408935,-4.578948077267524,4.9726291147214345,9.87049041386054,0.84,0.0,0.0,0.0,0.0,0.0,0.0,-0.07991772022618202,0.08678875053241986,0.17227255650840417,-0.07991772022618202,0.08678875053241986,0.17227255650840417,0.42,1.0,20.27374923873095,-0.49973098645776415,4.617467988716975,0.4466723766889898,-0.12805549851645817,-0.8794721665919849,20.79893386403726,0.9946786991824493,1.0,0.0,-5.12475906770303,4.333339046228245,1006.1844569493729,82.72589914784164,1.4631960598078957,14.027873835128696,1.0,1000.4894516669868,0.0,1.0,92.8721544018656,4815.789753012873,1.0,1.0,-12.229326591054164,14.334895719706871,-2.6037686300756384,-45.82052886008962,1.0,1004.9922791564358,0.0,1.0,9.881839188767541,12.329223942854181,,,
0.44999999999999996,39.238618552134554,0.712445268587731,1005.713492532176,90.99795322349108,1.1174035665089161,12.064273487572512,91.80099550864392,17.913385070419668,10.996238767123103,11.859383053808036,-14.332125678210515,27.145702139516477,-7.538483238833357,-51.35605453300859,6.049331028130927,7.142730737142822,4849.459829261765,0.2777344587893355,93.43314644308745,2.12002494638106,1.1110188135275412,89812.29481455787,281.61286229854085,-1.1707466548475631,10.971862539431743,0.33511088561556274,394.7447368421052,0.2118566358661055,0.84,nominal,14076.391609729695,nan,altitude_hold,19.907233145759406,2.0,0.0,-5.060115640321331,5.75190613777232,11.099867768721893,-4.867648615099808,5.440195328551965,10.608116826777351,0.84,0.0,0.0,0.0,0.0,0.0,0.0,-0.08495649516363382,0.09494932043484647,0.18514656606347776,-0.08495649516363382,0.09494932043484647,0.18514656606347776,0.44999999999999996,1.0,20.188430578887484,-0.7335800933673541,4.744587637870124,0.4821940329001729,-0.12998922080655212,-0.8975626472159278,20.751433223885385,1.0271450669538806,1.0,0.0,-5.12475906770303,4.333339046228245,1006.1844569493729,82.72589914784164,1.4631960598078957,14.027873835128696,1.0,1000.4894516669868,0.0,1.0,93.56657551642114,4850.420509429033,1.0,1.0,-12.229326591054164,14.334895719706871,-2.6037686300756384,-45.82052886008962,1.0,1004.9922791564358,0.0,1.0,9.881839188767541,12.329223942854181,,,
0.48,41.98470709110552,0.7403430617105295,1006.0741909304431,91.53628463236542,0.9299264374266183,12.023279942237165,92.32721932369589,17.907029371343686,12.178267920305787,11.78623835053231,-15.929894334137984,28.488819609366942,-8.083058490565373,-51.56099257402588,6.474128141858092,8.584736826326074,4959.155851184444,0.28086425029001494,94.48565188649398,2.124251158501421,1.1109794485538447,89808.36494071735,281.6105177589521,-1.68001635833954,10.887639626445766,0.22906144030769543,394.7115789473684,0.2118388402646048,0.84,nominal,14128.37517851095,nan,altitude_hold,19.907233145759406,2.0,0.0,-5.245749934879515,6.232442360744814,11.791272036144488,-5.094509406967632,5.915543547867674,11.318009952397633,0.84,0.0,0.0,0.0,0.0,0.0,0.0,-0.08891596292540893,0.10324571195539771,0.19753653844282537,-0.08891596292540893,0.10324571195539771,0.19753653844282537,0.48,1.0,20.325068343070466,-1.1333919013795655,5.0979792721381605,0.4968816859425916,-0.13072901717532864,-0.9053033689769385,20.985289443125353,1.0409398040414126,1.0,0.0,-5.12475906770303,4.333339046228245,1006.1844569493729,82.72589914784164,1.4631960598078957,14.027873835128696,1.0,1005.6594398416999,0.0,1.0,95.1618306622041,4914.533679565991,1.0,1.0,-16.997533652428277,14.100031791282738,-3.1015765644833597,-45.83606210252772,1.0,1005.8880374239728,0.0,1.0,12.634639104806809,11.68582920996822,,,
0.51,44.74654144211143,0.7617825264091486,1006.4339318682632,92.06114503353031,0.7146488232873007,11.991364594002532,92.84157459162154,17.900674206135747,13.392269369337617,11.685112997717304,-17.510559668073196,29.749909017844335,-8.129861767990475,-51.058929679012074,6.823828508663773,9.816787904258776,5030.277481850477,0.2828772576199307,95.1624533798223,2.129299113533581,1.1109401891358,89804.44563726813,281.6081794428563,-1.7822732339529619,11.065708901583168,0.0682384772263725,394.67842105263156,0.21182104466310406,0.84,nominal,14179.524304281716,nan,altitude_hold,19.907233145759406,2.0,0.0,-5.5404854840386095,6.7106300276545365,12.409542617751347,-5.362095053210219,6.392595435739792,11.97292955160986,0.84,0.0,0.0,0.0,0.0,0.0,0.0,-0.09358621348341886,0.11157183810162095,0.20896704178492043,-0.09358621348341886,0.11157183810162095,0.20896704178492043,0.51,1.0,19.89073489538637,-1.2190390784854421,5.56385503974703,0.5165714190453149,-0.13467715191797588,-0.8839797321625548,20.690187864220423,1.0326684526494503,1.0,0.0,28.625733425414523,16.49987147660872,1000.3942082318719,92.16321793157418,0.7484168131201919,12.109397951118694,1.0,1005.6594398416999,0.0,1.0,95.89621813113614,5016.516186154199,1.0,1.0,-16.997533652428277,14.100031791282738,-3.1015765644833597,-45.83606210252772,1.0,1005.8880374239728,0.0,1.0,12.634639104806809,11.68582920996822,,,
0.54,47.52374085673945,0.7759795696212184,1006.7928898322162,92.57331382093399,0.47323477373566,11.965265465101757,93.34457649264127,17.894319574795855,14.632808904232881,11.559506964682985,-19.055640047398143,30.975691741347124,-8.153582445623682,-49.96379724925379,7.321050881139745,10.958671490727196,5083.2895069333645,0.2843701062690095,95.66426478139287,2.1360363580755983,1.1109010162235298,89800.53500220568,281.6058462160906,-1.745338348845785,11.23740714312883,0.1425753210384127,394.6452631578947,0.21180324906160333,0.84,nominal,14229.87047336838,nan,altitude_hold,19.99408687652192,2.0,0.0,-6.592310457893916,7.189049007973629,12.963583164773762,-6.100224296020437,6.870467579080094,12.567321719508202,0.84,0.0,0.0,0.0,0.0,0.0,0.0,-0.10646899907570985,0.11991228040647152,0.21934114216281342,-0.10646899907570985,0.11991228040647152,0.21934114216281342,0.54,1.0,19.934399654695376,-1.712950302453859,5.829345848168262,0.5566332576528666,-0.13712402175706798,-0.874098288520254,20.83976394658424,1.0453188025009943,1.0,0.0,28.625733425414523,16.49987147660872,1000.3942082318719,92.16321793157418,0.7484168131201919,12.109397951118694,1.0,1009.9010217380841,0.0,1.0,95.53318930641363,5086.658824339203,1.0,1.0,-18.403456487751598,13.894989320898144,-3.827031229541117,-45.75210018582784,1.0,1006.9413871522435,0.0,1.0,14.786671182293087,11.783383104523407,,,
0.57,50.315879663018215,0.7821629760141481,1007.151271888587,93.0712935426255,0.20611354643098972,11.946068545692132,93.83505058446956,17.887965477324006,15.89880256812136,11.460968890229193,-20.560944662112025,32.18755912960921,-9.77808778007338,-48.30194367859677,8.16034276380081,12.048516965402937,5145.03869321237,0.28609830288230775,96.2452451756987,2.154227827805606,1.1108619072139685,89796.6307788783,281.6035167327242,-1.864019406506816,11.27089651839725,0.6321765555787502,394.6121052631579,0.21178545346010264,0.84,nominal,14279.28837956119,nan,altitude_hold,19.99408687652192,2.0,0.0,-5.703264239187579,7.674570338656612,13.489742397324077,-5.862048261920722,7.3529292348260045,13.120774126197729,0.84,0.0,0.0,0.0,0.0,0.0,0.0,-0.10231204308132753,0.12833282481386107,0.22900070891263233,-0.10231204308132753,0.12833282481386107,0.22900070891263233,0.57,1.0,19.886763421364737,-1.7144977415836553,6.7906185450288685,0.5651341380845816,-0.17141123311573403,-0.8377970389735472,21.084007259231246,1.025018186853142,1.0,0.0,28.625733425414523,16.49987147660872,1000.3942082318719,92.16321793157418,0.7484168131201919,12.109397951118694,1.0,1009.9010217380841,0.0,1.0,95.26951003385192,5139.749315532639,1.0,1.0,-18.403456487751598,13.894989320898144,-3.827031229541117,-45.75210018582784,1.0,1006.9413871522435,0.0,1.0,14.786671182293087,11.783383104523407,,,
0.6,53.12234958869093,0.7795023155633007,1007.5096570013907,93.54899752242395,-0.08868868169491084,11.946170426790372,94.30871535016614,17.881611913720203,17.179713173918355,11.27311899856169,-21.974167191434884,33.4128433352862,-7.145474563358645,-46.0590030391118,8.688743903141962,13.404594945805746,5231.947140423543,0.28851079931008844,97.05642250922111,2.1687235428764136,1.110822798924204,89792.72665970365,281.60118722949096,-2.215357394019464,10.829370825389981,0.547334770212965,394.57894736842104,0.2117676578586019,0.84,nominal,14327.361473332017,nan,altitude_hold,19.99408687652192,2.0,0.0,-6.557957902696066,8.147750620533095,13.837743631930257,-6.279594046385929,7.829822066250258,13.550955829637246,0.84,0.0,0.0,0.0,0.0,0.0,0.0,-0.10959959179806798,0.13665617490137258,0.23650879601948974,-0.10959959179806798,0.13665617490137258,0.23650879601948974,0.6,1.0,19.78056420968593,-2.325349054158525,7.28338526293959,0.5866941176599816,-0.1348688869873272,-0.8077233717419783,21.20673641948684,1.0073810846111093,1.0,0.0,28.625733425414523,16.49987147660872,1000.3942082318719,92.16321793157418,0.7484168131201919,12.109397951118694,1.0,1009.6396532473251,0.0,1.0,97.16546083373224,5197.823367360585,1.0,1.0,-21.310815993340597,13.701483241731816,-4.824158073260764,-45.70501201453405,1.0,1007.6166817034236,0.0,1.0,17.02099857162816,11.213022186058367,,,
0.63,55.942612411304474,0.7671538886289762,1007.8682900731151,94.00876075378478,-0.41161423114415396,11.954435724145837,94.76668749207371,17.875258883984444,18.466544603910346,11.01343114178475,-23.2691794951702,34.55235807258411,-4.723406692529976,-42.973527069288956,9.222779041473318,14.50472322559945,5285.177292050451,0.28998105673989233,97.55062042210064,2.1837114677385374,1.1107836646306704,89788.81997694231,281.5988561145247,-2.2624944450957862,10.54256472250069,0.6418351999386049,394.54578947368424,0.2117498622571012,0.84,nominal,14374.174095955696,nan,altitude_hold,19.99408687652192,2.0,0.0,-7.307421205177009,8.608009661355235,14.06642153126563,-6.896290341660578,8.296734623313244,13.860235250614275,0.84,0.0,0.0,0.0,0.0,0.0,0.0,-0.12036297263546175,0.14480533634102757,0.24190674022420053,-0.12036297263546175,0.14480533634102757,0.24190674022420053,0.63,1.0,19.600350366188323,-2.630807006975745,7.944723063838242,0.6048716504541889,-0.0828244903847599,-0.7417925386393073,21.312285296194183,0.9607214893566283,1.0,0.0,28.625733425414523,16.49987147660872,1000.3942082318719,92.16321793157418,0.7484168131201919,12.109397951118694,1.0,1009.6396532473251,0.0,1.0,98.46466345958598,5205.714064046006,1.0,1.0,-21.310815993340597,13.701483241731816,-4.824158073260764,-45.70501201453405,1.0,1007.6166817034236,0.0,1.0,17.02099857162816,11.213022186058367,,,
0.6599999999999999,58.77616999779498,0.7443535595186487,1008.227345017204,94.45191954968347,-0.7600109703442498,11.968498136298036,95.21022881462628,17.86890638811673,19.756365757680392,10.72596791264191,-24.434335273116968,35.67079054981186,-3.434474015072996,-39.179714710900114,9.695663102699525,15.491664014610043,5326.567139837182,0.29112064832706047,97.93357710081935,2.199145968834103,1.1107444853587478,89784.9088364923,281.59652225738813,-2.2060752903560794,10.214742445360242,0.6648551514237009,394.5126315789473,0.21173206665560043,0.84,nominal,14419.826528479709,nan,altitude_hold,19.99408687652192,2.0,0.0,-7.705422921258149,9.064429938138215,14.209502889233894,-7.381769889419121,8.757351812208226,14.069795833786047,0.84,0.0,0.0,0.0,0.0,0.0,0.0,-0.1288361891949414,0.15284462287852568,0.24556426238294735,-0.1288361891949414,0.15284462287852568,0.24556426238294735,0.6599999999999999,1.0,19.866675713582392,-2.5319345388789674,8.239054247979768,0.6170303485644062,-0.060109592285965824,-0.6888682994700661,21.655888606080474,0.9267573296980598,1.0,0.0,28.625733425414523,16.49987147660872,1000.3942082318719,92.16321793157418,0.7484168131201919,12.109397951118694,1.0,1014.535487773771,0.0,1.0,97.57882129537913,5341.368641052519,1.0,1.0,-26.92336866555752,13.761178743930694,-5.844588089587565,-45.571317636714845,1.0,1007.8838287892396,0.0,1.0,19.41528654433192,10.824640226122456,,,
0.69,61.62255573623781,0.7103896666676296,1008.586933434637,94.87952461476085,-1.1321297617006345,11.98628058109927,95.64035147932684,17.86255442611706,21.048100874353892,10.441396338449874,-25.45634036258891,36.80169267402306,-2.78374142387046,-34.69587295576523,9.944444279421596,16.20587764215812,5367.713135247928,0.2922492659967141,98.3128383624326,2.209646683358515,1.1107052489349867,89780.99202324502,281.59418493267486,-2.09093217444984,10.183887035813465,0.40645066835875276,394.4794736842105,0.21171427105409973,0.84,nominal,14464.39746631137,nan,altitude_hold,19.99408687652192,2.0,0.0,-7.846417492538381,9.5197271671464,14.257009857545826,-7.660558451290677,9.21477702517113,14.182124248041914,0.84,0.0,0.0,0.0,0.0,0.0,0.0,-0.13370196751649996,0.16082819892636463,0.24752476305525636,-0.13370196751649996,0.16082819892636463,0.24752476305525636,0.69,1.0,19.614867722058605,-2.954386269944621,8.528979023707985,0.6367289171425031,-0.055319786488012966,-0.6040033641481309,21.592010493993946,0.8793770844210143,1.0,0.0,28.625733425414523,16.49987147660872,1000.3942082318719,92.16321793157418,0.7484168131201919,12.109397951118694,1.0,1014.535487773771,0.0,1.0,98.11060785517057,5333.023324345265,1.0,1.0,-26.92336866555752,13.761178743930694,-5.844588089587565,-45.571317636714845,1.0,1007.8838287892396,0.0,1.0,19.41528654433192,10.824640226122456,,,
0.72,64.4813995955515,0.6646680901242328,1008.9470202622006,95.29479531045612,-1.5240525514465617,12.002894252120614,96.05982625358476,17.856202997985438,22.344660765193012,10.183428918935377,-26.32571154086595,38.03211709089824,-2.5507545057612715,-29.672030198344217,10.328989046810776,16.393354865199868,5367.630239733678,0.292253392981474,98.31381809606206,2.210248223046514,1.110665959189846,89777.06991971788,281.59184436829565,-1.5996391821212672,10.611804518870235,0.6100734355689845,394.44631578947366,0.211696475452599,0.84,nominal,14508.135406188754,nan,altitude_hold,19.99408687652192,2.0,0.0,-7.775064353261424,9.981564419216042,14.215121989235804,-7.729261992473124,9.674849461598077,14.201922892758247,0.84,0.0,0.0,0.0,0.0,0.0,0.0,-0.1349010705179132,0.16885797773968714,0.24787031459298897,-0.1349010705179132,0.16885797773968714,0.24787031459298897,0.72,1.0,19.559143243830167,-2.9870457212665276,8.903211700718291,0.6693646075631281,-0.04420774167162235,-0.509518149930126,21.69676715922008,0.8423847383411358,1.0,0.0,28.625733425414523,16.49987147660872,1000.3942082318719,92.16321793157418,0.7484168131201919,12.109397951118694,1.0,1002.9919021685844,0.0,1.0,98.63624471621547,5310.570336005829,1.0,1.0,-26.253040057014783,13.875077554243111,-7.1748538389972225,-45.47458386509924,1.0,1008.647784607734,0.0,1.0,22.122067761750902,10.204014578298544,,,
0.75,67.35234214095938,0.6067707210041641,1009.307553156967,95.69808484692952,-1.929912304002289,12.017763158879362,96.46903459771005,17.84985210372186,23.65401137568832,9.94351331369324,-27.03370901370938,39.52254459620277,-1.7178334870118177,-24.516002406675963,10.625418668180433,16.755226039019483,5393.464667345042,0.29296226429142813,98.55187177631846,2.2119466635967644,1.110626621838725,89773.14309657778,281.5895009044797,-1.3763336822555858,10.550281172084642,0.4733502835548748,394.4131578947368,0.21167867985109828,0.84,nominal,14551.063234273857,nan,altitude_hold,19.99408687652192,2.0,0.0,-7.765015650731758,10.461154998983128,14.082151046673726,-7.750714187428305,10.146632784029107,14.130059785107536,0.84,0.0,0.0,0.0,0.0,0.0,0.0,-0.1352754819516608,0.17709215007210663,0.2466160667537689,-0.1352754819516608,0.17709215007210663,0.2466160667537689,0.75,1.0,19.5799856431595,-3.2205008499941874,9.106305109888007,0.6820856896151257,-0.026128123124705315,-0.4379642893418857,21.832825201185436,0.8110094238259531,1.0,0.0,28.625733425414523,16.49987147660872,1000.3942082318719,92.16321793157418,0.7484168131201919,12.109397951118694,1.0,1002.9919021685844,0.0,1.0,98.9060079363794,5471.132711833672,1.0,1.0,-26.253040057014783,13.875077554243111,-7.1748538389972225,-45.47458386509924,1.0,1008.647784607734,0.0,1.0,22.122067761750902,10.204014578298544,,,
0.78,70.23503583226261,0.5362675864576244,1009.668435516945,96.08978971010794,-2.3501044848846555,12.029411999267674,96.86835102690024,17.84350174332633,24.981791066295294,9.71881380365512,-27.565847085672562,41.232225736147754,-0.3718470866349546,-19.012383072270413,11.170211392810348,17.344713916523006,5436.240529140849,0.29412815863577546,98.94366399132676,2.2154072912269847,1.1105872474252694,89769.212606443,281.58715516913986,-1.4351106215709521,9.682825225563272,0.4556890931285456,394.38,0.21166088424959756,0.84,nominal,14593.20367849763,nan,altitude_hold,19.99408687652192,2.0,0.0,-7.770211746830034,10.956593024214945,13.836690634551026,-7.7624127230693425,10.63260892814061,13.954038294773628,0.84,0.0,0.0,0.0,0.0,0.0,0.0,-0.13547965991625882,0.1855740338729988,0.24354391219317487,-0.13547965991625882,0.1855740338729988,0.24354391219317487,0.78,1.0,19.333310383544976,-3.51621452872225,9.300660947212114,0.7189860378603466,-0.004382069701305393,-0.32182624721426273,21.740353011243446,0.7877386994232305,1.0,0.0,28.625733425414523,16.49987147660872,1000.3942082318719,92.16321793157418,0.7484168131201919,12.109397951118694,1.0,1007.2053084731035,0.0,1.0,99.09664871561893,5439.652880879921,1.0,1.0,-29.873021824659368,13.913823778731926,-8.789280492181499,-45.08830359896898,1.0,1010.1642547971246,0.0,1.0,24.224276569713076,10.356528993268522,,,
0.8099999999999999,73.12900672263346,0.452671030350819,1010.0296441664123,96.46569634569518,-2.7865518702268464,12.040288315574225,97.25412066081049,17.83715191679884,26.329425220977107,9.495909338545816,-27.892542401515783,43.105494796684994,2.049000469739053,-12.89639882441678,11.422955095314112,17.160563153446148,5504.858481773274,0.2959851125759863,99.56792157855882,2.2171930594087743,1.1105478384810654,89765.2787021155,281.5848073129183,-1.611923719533979,9.880457560257824,0.4602053321662794,394.34684210526314,0.21164308864809683,0.84,nominal,14634.189202718288,nan,altitude_hold,19.99408687652192,2.0,0.0,-7.8863784460738655,11.461355751811697,13.426055317551876,-7.836792156872056,11.129857022343261,13.637248508440576,0.84,0.0,0.0,0.0,0.0,0.0,0.0,-0.13677782593188534,0.194252650316102,0.23801488738497378,-0.13677782593188534,0.194252650316102,0.23801488738497378,0.8099999999999999,1.0,19.22623236949481,-3.3424577106064666,9.481556290030667,0.751308899610793,0.027401673182668167,-0.22352828392871302,21.69608131331607,0.784334627594438,1.0,0.0,28.625733425414523,16.49987147660872,1000.3942082318719,92.16321793157418,0.7484168131201919,12.109397951118694,1.0,1007.2053084731035,0.0,1.0,99.36725101640876,5513.05520097992,1.0,1.0,-29.873021824659368,13.913823778731926,-8.789280492181499,-45.08830359896898,1.0,1010.1642547971246,0.0,1.0,24.224276569713076,10.356528993268522,,,
0.84,76.03397612212311,0.35569361941377375,1010.3911361087279,96.83231331632155,-3.232580364568176,12.049731410522709,97.63269178440895,17.830802624139398,27.711208261087975,9.282955998256552,-28.011561378946624,45.41433197755652,4.545720314205543,-6.712253907117311,11.606355544196038,16.677098584441815,5534.926485308808,0.29679886809678296,99.84124832586727,2.2162595364199653,1.1105083996998657,89761.34185221918,281.58245761529327,-1.4393806674366574,10.178102826911877,0.5997268180419713,394.31368421052633,0.21162529304659614,0.84,nominal,14674.623487455354,nan,altitude_hold,19.99408687652192,2.0,0.0,-7.929132954996051,12.001894624898885,12.922239718973163,-7.892196635746453,11.653079583876636,13.208243234760129,0.84,0.0,0.0,0.0,0.0,0.0,0.0,-0.1377448165085952,0.203384606735578,0.2305273328508306,-0.1377448165085952,0.203384606735578,0.2305273328508306,0.84,1.0,19.26498644484879,-3.4400298411875583,9.711756720135194,0.7921250621428565,0.08854817115517803,-0.11179972166369061,21.84700726917899,0.804861522532808,1.0,0.0,28.625733425414523,16.49987147660872,1000.3942082318719,92.16321793157418,0.7484168131201919,12.109397951118694,1.0,1021.7271467415412,0.0,1.0,99.69492695571215,5544.65655118565,1.0,1.0,-28.53053897880407,14.235460215157532,-10.674462207845743,-44.59140991776261,1.0,1010.0707873489667,0.0,1.0,27.812340447480757,9.827303666086305,,,
0.87,78.94980377598768,0.24517598708177707,1010.7528259941722,97.19425512881891,-3.6839210777332227,12.056329514810603,98.00841589334357,17.824453865348,29.14586646018094,9.087760599831805,-27.928473901838643,48.26661488096225,7.024058224669829,-0.6931885110055895,11.732845580906197,16.151121512774093,5609.266735019012,0.2987919461204997,100.511287478836,2.2177142857482934,1.1104689403954455,89757.40298653561,281.58010663103784,-1.6832381882762126,10.271820615314983,0.6109155957799641,394.2805263157895,0.2116074974450954,0.84,nominal,14714.923993997047,nan,altitude_hold,19.99408687652192,2.0,0.0,-7.897003325008777,12.592150259551593,12.348392433150899,-7.895080649303847,12.216521989281611,12.69233275379459,0.84,0.0,0.0,0.0,0.0,0.0,0.0,-0.1377951520408439,0.21321853185525153,0.2215229963124344,-0.1377951520408439,0.21321853185525153,0.2215229963124344,0.87,1.0,18.96336654952877,-3.536810270667141,10.13326062284313,0.852945995254221,0.13180192295909343,-0.0171206451142903,21.789935030489342,0.8632390944605427,1.0,0.0,28.625733425414523,16.49987147660872,1000.3942082318719,92.16321793157418,0.7484168131201919,12.109397951118694,1.0,1021.7271467415412,0.0,1.0,100.72243258011382,5641.580124874706,1.0,1.0,-28.53053897880407,14.235460215157532,-10.674462207845743,-44.59140991776261,1.0,1010.0707873489667,0.0,1.0,27.812340447480757,9.827303666086305,,,
0.8999999999999999,81.87636164585044,0.12096251593454822,1011.1146598003133,97.55192899542517,-4.140449038240962,12.061126871371696,98.38187307819499,17.818105640424648,30.65357291160978,8.914286716367053,-27.644633135782772,51.7403000691409,9.671969677215309,5.219080335275412,11.741714439957988,15.765680890100695,5655.675163921903,0.30003201759534553,100.92801637385661,2.219417096931101,1.1104294664629943,89753.46269357316,281.5777547112979,-1.7096222313612928,9.843535616767037,0.3113562190562246,394.2473684210526,0.21158970184359466,0.84,nominal,14755.144053717777,nan,altitude_hold,19.99408687652192,2.0,0.0,-7.819783955178415,13.241594604778161,11.69383720754648,-7.849902632828589,12.831565558579541,12.093235426045725,0.84,0.0,0.0,0.0,0.0,0.0,0.0,-0.13700664690383038,0.22395306718271832,0.21106677540331711,-0.13700664690383038,0.22395306718271832,0.21106677540331711,0.8999999999999999,1.0,18.91310817225176,-3.3649503014354036,10.07305998110872,0.8926045272490677,0.15948059042581486,0.0926038557061609,21.690898751537258,0.9114561837410209,1.0,0.0,28.625733425414523,16.49987147660872,1000.3942082318719,92.16321793157418,0.7484168131201919,12.109397951118694,1.0,1004.1534554592921,0.0,1.0,101.43063127620736,5600.566753114046,1.0,1.0,-26.866669765634768,14.626605173400321,-13.034154233825841,-43.84104980895902,1.0,1011.7587555200317,0.0,1.0,30.553627622367262,8.644211935485995,,,
0.9299999999999999,84.81363979603375,-0.017073121535735244,1011.4764871334631,97.90927167277748,-4.601187915676116,12.060911104993622,98.75657945884755,17.81175794936934,32.25339764978951,8.7706637599467,-27.15874047707094,55.82116922262355,12.436315845204769,11.15553957482547,11.764804892388494,14.974571853203337,5682.778155126872,0.3007566630261248,101.17135792496678,2.218527096088528,1.1103899943101678,89749.52261116302,281.5754028336325,-1.5676196703343501,9.632398197172924,0.33927387035047446,394.21421052631575,0.21157190624209393,0.84,nominal,14795.62688575321,nan,altitude_hold,19.99408687652192,2.0,0.0,-7.6581891392739285,13.955063741059227,10.950957243804881,-7.734874536695791,13.505664468067351,11.407868516701217,0.84,0.0,0.0,0.0,0.0,0.0,0.0,-0.13499902789401252,0.23571831263738385,0.199104866251038,-0.13499902789401252,0.23571831263738385,0.199104866251038,0.9299999999999999,1.0,19.045822385464174,-3.3032082396426192,10.036895435089594,0.9762113569598563,0.21525731430603487,0.19547507968842565,21.780583210465544,1.018594537389067,1.0,0.0,28.625733425414523,16.49987147660872,1000.3942082318719,92.16321793157418,0.7484168131201919,12.109397951118694,1.0,1004.1534554592921,0.0,1.0,100.43199679656126,5734.2560518293885,1.0,1.0,-26.866669765634768,14.626605173400321,-13.034154233825841,-43.84104980895902,1.0,1011.7587555200317,0.0,1.0,30.553627622367262,8.644211935485995,,,
0.96,87.76171223823945,-0.16893463286584337,1011.8381936899418,98.26908140685667,-5.062050377670271,12.056885215956168,99.13528733848628,17.805410792182077,33.96972616203826,8.651465484767169,-26.471978210897728,60.683141330748995,15.691203072428062,16.78527346559429,11.822081443211497,14.197866624426137,5752.865631906648,0.3026122824789291,101.79514368093069,2.2200240647465934,1.1103505364058948,89745.58398392574,281.5730517410154,-1.8571607259253575,9.046189697445023,0.31190861437277884,394.1810526315789,0.2115541106405932,0.84,nominal,14836.645619991585,nan,altitude_hold,19.99408687652192,2.0,0.0,-7.5282067358692695,14.32394487827058,10.126864805448532,-7.610873856199878,13.996632714189289,10.639266289949607,0.84,0.0,0.0,0.0,0.0,0.0,0.0,-0.13283480774464532,0.24428732505495354,0.1856902267560623,-0.13283480774464532,0.24428732505495354,0.1856902267560623,0.96,1.0,18.95194336057154,-3.28426846483095,10.218291478952537,1.0589018393698644,0.2776039249603041,0.2946303952145565,21.780175785338116,1.1336419692118556,1.0,0.0,28.625733425414523,16.49987147660872,1000.3942082318719,92.16321793157418,0.7484168131201919,12.109397951118694,1.0,1010.4643359884988,0.0,1.0,102.05672028664745,5915.473903268614,1.0,1.0,-26.599932907559026,14.954609733153543,-15.945611908002114,-42.70588050573925,1.0,1011.695222171805,0.0,1.0,33.65840008338461,9.313216058979231,,,
0.99,90.72062150358757,-0.3346522334980123,1012.1997079994892,98.63030884493719,-5.523920021072298,12.050476984912907,99.51716189085586,17.79906416886286,35.82305598936845,8.55056607870398,-25.579984673910346,66.23105989012035,19.580669575754953,22.192167895740923,11.543093406852101,13.071909588834378,5745.959120368965,0.3024372125188868,101.73582772902382,2.2165458396719697,1.1103111005453241,89741.64758991657,281.5707018980033,-1.391656656180801,8.803451484939446,0.196722865162632,394.1478947368421,0.2115363150390925,0.84,nominal,14878.121021858597,nan,altitude_hold,19.99408687652192,2.0,0.0,-7.439085939773771,14.32394487827058,9.204944131075987,-7.507801106344213,14.193020012638064,9.778672994625435,0.84,0.0,0.0,0.0,0.0,0.0,0.0,-0.13103584889057945,0.24771493002198142,0.1706700402320676,-0.13103584889057945,0.24771493002198142,0.1706700402320676,0.99,1.0,18.90945288937198,-2.8817466552317947,10.383808365514389,1.1632892515422737,0.3449311217980276,0.3896600594108245,21.764543379819493,1.2743838995525156,1.0,0.0,28.625733425414523,16.49987147660872,1000.3942082318719,92.16321793157418,0.7484168131201919,12.109397951118694,1.0,1010.4643359884988,0.0,1.0,101.2293244125169,5752.2843269110535,1.0,1.0,-26.599932907559026,14.954609733153543,-15.945611908002114,-42.70588050573925,1.0,1011.695222171805,0.0,1.0,33.65840008338461,9.313216058979231,,,
1.02,93.6907369198427,-0.5140306478229043,1012.5607969408804,99.00384720850451,-5.979280477496399,12.036298046376391,99.91189132317875,17.792718079411685,37.832184624816755,8.482030328612435,-24.504396614786206,72.28922428305356,23.08700141002224,27.018064081815744,11.162313260851866,11.91221918181783,5745.595939236175,0.30243427935578066,101.73441703774569,2.2147876590534277,1.1102717121557655,89737.71596714326,281.56835481988423,-0.9837635435474104,8.380183330863868,-0.05399166241482467,394.11473684210523,0.21151851943759178,0.84,nominal,14921.022353207623,nan,altitude_hold,19.99408687652192,2.0,0.0,-7.2146760606567275,14.32394487827058,8.263611753879175,-7.331926078931722,14.271574932017574,8.86963625017768,0.84,0.0,0.0,0.0,0.0,0.0,0.0,-0.1279662505901962,0.24908597200879257,0.154804356019844,-0.1279662505901962,0.24908597200879257,0.154804356019844,1.02,1.0,19.07343076419626,-2.670917950775572,9.768364292346854,1.2539278881899834,0.4035180510172824,0.4785211170358841,21.595150028753228,1.4014793704249262,1.0,0.0,98.78332282231332,1.329510975831735,1004.7118396323671,99.10860003975033,-5.848887562617434,12.206413816003296,1.0,1016.2256364271894,0.0,1.0,101.39793718817971,5708.977588762414,1.0,1.0,-25.09033584306293,15.4519968486359,-19.352989526650077,-41.16228173410312,1.0,1012.1918698855151,0.0,1.0,38.49081960390014,8.838833856609947,,,
1.05,96.67250074431095,-0.706827648487175,1012.9212093655882,99.39212748227472,-6.426566688809024,12.013747490257831,100.32161229574679,17.786372523828557,40.01266701034367,8.454886549085652,-23.263772477313267,78.78416263113196,26.40870501604588,31.262023924434484,10.834435807423272,10.390789968194726,5813.49499122638,0.30422270343746516,102.33559071441984,2.217969586361433,1.1102323986281506,89733.79184952907,281.56601213912364,-1.1886297624401905,8.185559963003287,0.07347305202233738,394.0815789473684,0.21150072383609106,0.84,nominal,14965.576724634113,nan,altitude_hold,19.929322405514494,2.0,0.0,-6.315856121840047,14.32394487827058,7.302453407210416,-6.722284104676717,14.302996899769377,7.9293265443973215,0.84,0.0,0.0,0.0,0.0,0.0,0.0,-0.11732599088108786,0.24963438880351702,0.1383928556655176,-0.11732599088108786,0.24963438880351702,0.1383928556655176,1.05,1.0,19.114267766359056,-2.3079023122740376,9.959493315800458,1.373559269663077,0.46196770812158044,0.5482397298791633,21.67655767031626,1.549401830398573,1.0,0.0,98.78332282231332,1.329510975831735,1004.7118396323671,99.10860003975033,-5.848887562617434,12.206413816003296,1.0,1016.2256364271894,0.0,1.0,102.44834432893045,5802.6372521646945,1.0,1.0,-25.09033584306293,15.4519968486359,-19.352989526650077,-41.16228173410312,1.0,1012.1918698855151,0.0,1.0,38.49081960390014,8.838833856609947,,,
1.08,99.66627679014728,-0.9128023031403958,1013.2808773920041,99.79253486121084,-6.865821821774025,11.98893421386238,100.7443500495122,17.780027502113473,42.37895899190266,8.41643334312599,-21.83315630952387,85.88687670429927,32.042783210677456,34.66097753815157,10.112947118903197,8.865454069093484,5810.690067781759,0.3041559397263455,102.31270772942774,2.216669129289288,1.1101931673606371,89729.87597533342,281.56367429695194,-0.7128447857929539,7.96429881375111,-0.12000243948214771,394.04842105263157,0.21148292823459033,0.84,nominal,15011.60294972562,nan,altitude_hold,19.929322405514494,2.0,0.0,-6.978246795950591,14.32394487827058,6.194949202561614,-6.875861719441041,14.3155656868701,6.8887001392958975,0.84,0.0,0.0,0.0,0.0,0.0,0.0,-0.12000642591608478,0.24985375552140682,0.12023049861330543,-0.12000642591608478,0.24985375552140682,0.12023049861330543,1.08,1.0,19.472481727295804,-1.7610014485821046,9.518887561571471,1.5047453175975298,0.5567549896750835,0.5988997953208992,21.74598563256256,1.7125757075806045,1.0,0.0,98.78332282231332,1.329510975831735,1004.7118396323671,99.10860003975033,-5.848887562617434,12.206413816003296,1.0,1018.7678047909682,0.0,1.0,102.67626360490068,5752.172537576135,1.0,1.0,-23.17495452809274,15.95255680092526,-23.277681517083725,-38.857103015143885,1.0,1012.9478634796848,0.0,1.0,42.50723391550688,8.885128425711404,,,
1.1099999999999999,102.67277092629216,-1.1314741841038847,1013.6394547756428,100.21647120482935,-7.289062698782961,11.952579454624617,101.18960268423972,17.773683014266435,44.95770140834995,8.431295906546989,-20.29139245029695,93.50588974429694,34.75663767059392,37.12872564960463,9.38219199137743,7.190257483145905,5843.550852336682,0.3050213983427798,102.60340811127381,2.195041344000852,1.110154056112169,89725.97211321976,281.5613435439583,-0.5522785407697586,7.778897165265994,-0.1335703166150801,394.0152631578947,0.2114651326330896,0.84,nominal,15060.075204872704,nan,altitude_hold,19.929322405514494,2.0,0.0,-6.532524498162076,14.32394487827058,5.251014537852908,-6.669859386673662,14.32059320171039,5.906088778430104,0.84,0.0,0.0,0.0,0.0,0.0,0.0,-0.116411006942505,0.24994150220856273,0.10308069509869516,-0.116411006942505,0.24994150220856273,0.10308069509869516,1.1099999999999999,1.0,19.712626588304246,-1.4011699150990233,8.79370158763886,1.6333234750956516,0.6078859910167898,0.6513647007545218,21.63053655722253,1.8605232935284706,1.0,0.0,98.78332282231332,1.329510975831735,1004.7118396323671,99.10860003975033,-5.848887562617434,12.206413816003296,1.0,1018.7678047909682,0.0,1.0,102.64176097558864,5884.817728076444,1.0,1.0,-23.17495452809274,15.95255680092526,-23.277681517083725,-38.857103015143885,1.0,1012.9478634796848,0.0,1.0,42.50723391550688,8.885128425711404,,,
1.14,105.69262051091646,-1.3621474831215545,1013.9964840598224,100.66165282080989,-7.6891099672556615,11.900976139321495,101.65394234251083,17.767339060287444,47.774344200609725,8.530889367902304,-18.7022324392236,101.72509619015733,35.64409955053781,38.57220106434161,8.763136450052711,5.547459138492446,5893.842457088571,0.30633778103001735,103.04578959244137,2.1771053266548037,1.1101151147674437,89722.0852420363,281.5590228536111,-0.5854527726147825,7.301965115775872,-0.04582383131994336,393.9821052631579,0.2114473370315889,0.84,nominal,15110.670617292515,nan,altitude_hold,19.929322405514494,2.0,0.0,-5.777500403506325,14.32394487827058,4.4571775949449535,-6.13444399677326,14.322604207646505,5.036742068339014,0.84,0.0,0.0,0.0,0.0,0.0,0.0,-0.10706624552289379,0.2499766008834251,0.08790773266622504,-0.10706624552289379,0.2499766008834251,0.08790773266622504,1.14,1.0,19.44093914565887,-1.1097314571668992,8.405491185028165,1.772306137931477,0.6225319892791928,0.6677965915138369,21.209288079372758,1.9936317141997404,1.0,0.0,98.78332282231332,1.329510975831735,1004.7118396323671,99.10860003975033,-5.848887562617434,12.206413816003296,1.0,1012.9026525320994,0.0,1.0,103.35332652742056,6000.550672879521,1.0,1.0,-18.802774792520136,16.2660477283503,-27.688357081867338,-35.511686845092065,1.0,1013.9642023367481,0.0,1.0,47.58369424405986,8.345458418047194,,,
1.17,108.72635632284116,-1.6041480099524663,1014.3516246264197,101.12452706415647,-8.06668422769706,11.838018886579027,102.13412779055633,17.760995640176496,50.84749457251304,8.696395641311684,-17.08336480087748,110.55170092291279,36.877162169220135,38.98589138996557,7.94741136859239,3.9142596628544952,5966.355909945835,0.3082231370193558,103.67955992287463,2.1561754104074664,1.1100763804627305,89718.21906801914,281.55671443992827,-0.7564575738200006,6.966241644279929,-0.1506113406402691,393.94894736842105,0.21142954143008816,0.84,nominal,15163.081389411525,nan,altitude_hold,19.929322405514494,2.0,0.0,-5.142283212671893,14.32394487827058,3.6980328474456052,-5.539147526312441,14.32340861002095,4.233516535802969,0.84,0.0,0.0,0.0,0.0,0.0,0.0,-0.09667636208785133,0.24999064035337004,0.0738888024873862,-0.09667636208785133,0.24999064035337004,0.0738888024873862,1.17,1.0,19.48391812551762,-0.8809160070234738,7.873028931854444,1.9366597655621618,0.6495588111379769,0.6802311701287597,21.032918558657553,2.1529728612987693,1.0,0.0,98.78332282231332,1.329510975831735,1004.7118396323671,99.10860003975033,-5.848887562617434,12.206413816003296,1.0,1012.9026525320994,0.0,1.0,103.57405199078164,5953.681767140773,1.0,1.0,-18.802774792520136,16.2660477283503,-27.688357081867338,-35.511686845092065,1.0,1013.9642023367481,0.0,1.0,47.58369424405986,8.345458418047194,,,
1.2,111.77455219250429,-1.8566531439441396,1014.704477696234,101.60652898877092,-8.416837799722446,11.761768993809156,102.63074150349159,17.754652753933595,54.19894380417645,8.916061214540445,-15.463486198969271,120.02142017517944,37.91244321721565,38.297926316153244,7.084976962041978,2.35091835412269,6022.836884876042,0.30968523916794277,104.17095499930352,2.137010555569626,1.110037896673639,89714.37793002404,281.55442089497444,-0.7867739964902178,6.51239034960019,-0.25145355889935084,393.91578947368424,0.21141174582858746,0.84,nominal,15217.38621697803,nan,altitude_hold,19.929322405514494,2.0,0.0,-4.5745509498834265,14.32394487827058,3.014987931811838,-4.960389580455032,14.323730370970729,3.50239937340829,0.84,0.0,0.0,0.0,0.0,0.0,0.0,-0.08657513036056047,0.24999625614134802,0.061128400785761,-0.08657513036056047,0.24999625614134802,0.061128400785761,1.2,1.0,19.745794104825485,-0.37235839932319337,6.913787610417051,2.082080295463792,0.6637360740910963,0.6724889038259284,20.924518984427426,2.2864481753535224,1.0,0.0,98.78332282231332,1.329510975831735,1004.7118396323671,99.10860003975033,-5.848887562617434,12.206413816003296,1.0,1020.6712307221579,0.0,1.0,104.92592188875463,6061.279128109545,1.0,1.0,-15.084535415975889,16.38947315889151,-32.48300891700764,-31.30812415214418,1.0,1014.6929824554378,0.0,1.0,53.42694905875114,9.576979203526157,,,
1.23,114.83778284575342,-2.1187491032375987,1015.0546490221623,102.10768844163772,-8.736531976448632,11.67237753094377,103.14335377083172,17.748310401558737,57.850493754368784,9.179534063066342,-13.876742848567394,130.08675328796005,38.43312361246473,36.49592679191775,6.196982252994613,0.842441439368426,6116.1542965957415,0.31208176817726696,104.97666763047172,2.120663212398329,1.1099997063770142,89710.56611698671,281.55214478135593,-1.1304352004493667,6.0401634409501375,-0.31260666600430637,393.8826315789473,0.2113939502270867,0.84,nominal,15273.56138738066,nan,altitude_hold,19.929322405514494,2.0,0.0,-4.068395400238162,14.32394487827058,2.4369163953266004,-4.425193072324911,14.32385907535064,2.863109586559277,0.84,0.0,0.0,0.0,0.0,0.0,0.0,-0.07723418914851325,0.2499985024565392,0.049970689130872964,-0.07723418914851325,0.2499985024565392,0.049970689130872964,1.23,1.0,19.916088532200728,0.12024059803761268,6.098720705243999,2.268708489525223,0.6746964358349844,0.6349006695784263,20.82929270197252,2.450582043352841,1.0,0.0,98.78332282231332,1.329510975831735,1004.7118396323671,99.10860003975033,-5.848887562617434,12.206413816003296,1.0,1020.6712307221579,0.0,1.0,104.71940478871353,6075.138274910339,1.0,1.0,-15.084535415975889,16.38947315889151,-32.48300891700764,-31.30812415214418,1.0,1014.6929824554378,0.0,1.0,53.42694905875114,9.576979203526157,,,
