time_s,sensor_time_s,imu_valid,imu_ax_mps2,imu_ay_mps2,imu_az_mps2,gyro_p_rps,gyro_q_rps,gyro_r_rps,imu_accel_norm_mps2,imu_gyro_norm_rps,gps_valid,gps_latency_s,gps_x_m,gps_y_m,gps_z_m,gps_vx_mps,gps_vy_mps,gps_vz_mps,baro_valid,baro_alt_m,baro_bias_m,pitot_valid,pitot_airspeed_mps,pitot_qbar_pa,pitot_compressibility_factor,mag_valid,mag_heading_deg,mag_x_ut,mag_y_ut,mag_z_ut,radar_valid,radar_agl_m,optical_flow_valid,horizon_valid,horizon_roll_deg,horizon_pitch_deg,optical_flow_x_radps,optical_flow_y_radps,optical_flow_quality
0.0,0.0,1.0,16.864680307905445,1.4265596267816167,-0.8404404528891686,-0.005526002259025985,-0.0024404616361534746,-0.0006126780109707863,16.945762137226804,0.006071896599039241,1.0,0.0,-5.12475906770303,4.333339046228245,1006.1844569493729,82.72589914784164,1.4631960598078957,14.027873835128696,1.0,1002.0904441399286,0.0,1.0,85.79311618127807,4168.7033634385725,1.0,1.0,-0.10896602917947859,17.95460209662717,-1.1729541591912578,-44.39431660708244,1.0,999.6310945825524,0.0,1.0,0.49971564607647456,7.729319069471869,,,
0.03,0.03,1.0,17.243815456082103,1.1540844049670131,-0.7269511600846663,0.03349620554479126,-0.22117795663459747,-0.09351736760215368,17.297674418439968,0.24246068202946044,1.0,0.0,-5.12475906770303,4.333339046228245,1006.1844569493729,82.72589914784164,1.4631960598078957,14.027873835128696,1.0,1002.0904441399286,0.0,1.0,86.6653780019011,4176.201433726769,1.0,1.0,-0.10896602917947859,17.95460209662717,-1.1729541591912578,-44.39431660708244,1.0,999.6310945825524,0.0,1.0,0.49971564607647456,7.729319069471869,,,
0.06,0.06,1.0,17.52104193021589,1.1001543828868088,0.15749220270249298,0.0575256110031866,-0.40708490343908593,-0.17077155041908948,17.55625397915172,0.44518562079411267,1.0,0.0,-5.12475906770303,4.333339046228245,1006.1844569493729,82.72589914784164,1.4631960598078957,14.027873835128696,1.0,999.5809976730133,0.0,1.0,87.27281460984427,4173.060451043527,1.0,1.0,-1.3296307626304564,17.126344347572225,-1.2206921693776833,-44.83306487942049,1.0,1000.8659535388114,0.0,1.0,1.084099159198093,8.450668459318699,,,
0.09,0.09,1.0,17.532203787553133,1.4501639212526798,0.7773836656815102,0.10268827751808457,-0.43070514357249284,-0.2510986849053447,17.609243890935915,0.5090209746175755,1.0,0.0,-5.12475906770303,4.333339046228245,1006.1844569493729,82.72589914784164,1.4631960598078957,14.027873835128696,1.0,999.5809976730133,0.0,1.0,87.98410000388307,4196.484897083017,1.0,1.0,-1.3296307626304564,17.126344347572225,-1.2206921693776833,-44.83306487942049,1.0,1000.8659535388114,0.0,1.0,1.084099159198093,8.450668459318699,,,
0.12,0.12,1.0,18.04037833830955,1.473560845757219,1.2643259617970626,0.1470851244532552,-0.34495173782693417,-0.32534897060038265,18.144562609585588,0.4964651930759901,1.0,0.0,-5.12475906770303,4.333339046228245,1006.1844569493729,82.72589914784164,1.4631960598078957,14.027873835128696,1.0,997.8182079643965,0.0,1.0,87.64555884899198,4251.604323577366,1.0,1.0,-0.05333680994672952,16.139124467489385,-1.2165233131776643,-45.27569945080873,1.0,1001.4976617076704,0.0,1.0,2.352961015885964,10.485523719183432,,,
0.15,0.15,1.0,17.9808125920717,1.1716849136102756,1.6814194968788652,0.17957781822093558,-0.2545046640257841,-0.4058350229676344,18.097227371408874,0.5115885873189598,1.0,0.0,-5.12475906770303,4.333339046228245,1006.1844569493729,82.72589914784164,1.4631960598078957,14.027873835128696,1.0,997.8182079643965,0.0,1.0,87.6406651573085,4317.192244786212,1.0,1.0,-0.05333680994672952,16.139124467489385,-1.2165233131776643,-45.27569945080873,1.0,1001.4976617076704,0.0,1.0,2.352961015885964,10.485523719183432,,,
0.18,0.18,1.0,18.39305515692522,1.223292290101758,1.7602843481903452,0.20759744263989854,-0.18419349697798043,-0.4858351620004516,18.517546355259917,0.5595174234602605,1.0,0.0,-5.12475906770303,4.333339046228245,1006.1844569493729,82.72589914784164,1.4631960598078957,14.027873835128696,1.0,1004.6081564211894,0.0,1.0,88.04065164520402,4374.465750790639,1.0,1.0,-2.4784913433836104,15.600228443112938,-1.4302629335918338,-45.350764943927125,1.0,1002.4417727432833,0.0,1.0,2.6086487813268917,11.410814474075229,,,
0.21,0.21,1.0,18.641436260382438,0.7427499607202939,2.34282033977762,0.24841784421958227,-0.17720445444903424,-0.5622051229418035,18.80275592828155,0.6396776096326124,1.0,0.0,-5.12475906770303,4.333339046228245,1006.1844569493729,82.72589914784164,1.4631960598078957,14.027873835128696,1.0,1004.6081564211894,0.0,1.0,89.86161321593988,4486.067001357081,1.0,1.0,-2.4784913433836104,15.600228443112938,-1.4302629335918338,-45.350764943927125,1.0,1002.4417727432833,0.0,1.0,2.6086487813268917,11.410814474075229,,,
0.24,0.24,1.0,18.858920269438528,0.6021518665972625,2.431946699634721,0.27323714816181505,-0.1693307855866953,-0.628100558220513,19.024611043313083,0.7055790284014464,1.0,0.0,-5.12475906770303,4.333339046228245,1006.1844569493729,82.72589914784164,1.4631960598078957,14.027873835128696,1.0,997.0763576531275,0.0,1.0,90.14325856647004,4505.316530402839,1.0,1.0,-5.775277288265017,15.12341577318298,-1.5852214507977611,-45.5501367399906,1.0,1003.0605337890864,0.0,1.0,3.7719951265631053,11.610740937767911,,,
0.27,0.27,1.0,19.194968242269926,0.5300279714705516,2.757177838382913,0.3022212393258794,-0.1454865377174758,-0.7043554638777181,19.399220734471836,0.7801414164438935,1.0,0.0,-5.12475906770303,4.333339046228245,1006.1844569493729,82.72589914784164,1.4631960598078957,14.027873835128696,1.0,997.0763576531275,0.0,1.0,90.56777091329862,4586.823260422814,1.0,1.0,-5.775277288265017,15.12341577318298,-1.5852214507977611,-45.5501367399906,1.0,1003.0605337890864,0.0,1.0,3.7719951265631053,11.610740937767911,,,
0.3,0.3,1.0,19.589821055130074,0.2509023652817964,3.0930512788382005,0.34888792264236235,-0.14777699648938794,-0.7427069702934704,19.834087001484193,0.8337712318014058,1.0,0.0,-5.12475906770303,4.333339046228245,1006.1844569493729,82.72589914784164,1.4631960598078957,14.027873835128696,1.0,993.763398822768,0.0,1.0,91.21231939503593,4571.385059295403,1.0,1.0,-7.281009029080829,14.860216957515092,-1.754675458479747,-45.50085489673609,1.0,1003.5547357295502,0.0,1.0,5.44824403710983,12.33462426490637,,,
0.32999999999999996,0.32999999999999996,1.0,19.378150379065826,0.07378283169137102,3.6095498940541817,0.37286471911127395,-0.1328302649997942,-0.7828741409291701,19.711595735952177,0.8772479117065088,1.0,0.0,-5.12475906770303,4.333339046228245,1006.1844569493729,82.72589914784164,1.4631960598078957,14.027873835128696,1.0,993.763398822768,0.0,1.0,91.5759331619531,4746.345968115424,1.0,1.0,-7.281009029080829,14.860216957515092,-1.754675458479747,-45.50085489673609,1.0,1003.5547357295502,0.0,1.0,5.44824403710983,12.33462426490637,,,
0.36,0.36,1.0,19.986181941539428,-0.084011304011382,3.7250578956648623,0.3929841417107622,-0.11767717220937503,-0.8301824909430365,20.330533264663117,0.92600616669854,1.0,0.0,-5.12475906770303,4.333339046228245,1006.1844569493729,82.72589914784164,1.4631960598078957,14.027873835128696,1.0,1007.507702477286,0.0,1.0,91.68043654452464,4654.642381395096,1.0,1.0,-10.715617882630124,14.579719154816827,-2.1278066048992836,-45.665327240295184,1.0,1005.0634098653705,0.0,1.0,7.437697971229839,11.934785072722994,,,
0.39,0.39,1.0,20.10011726384764,-0.266177279215313,3.9973460222250683,0.4191154921814203,-0.12342546916934327,-0.8728165304661939,20.49547119696922,0.9760636957090408,1.0,0.0,-5.12475906770303,4.333339046228245,1006.1844569493729,82.72589914784164,1.4631960598078957,14.027873835128696,1.0,1007.507702477286,0.0,1.0,92.86941590272987,4662.666964284238,1.0,1.0,-10.715617882630124,14.579719154816827,-2.1278066048992836,-45.665327240295184,1.0,1005.0634098653705,0.0,1.0,7.437697971229839,11.934785072722994,,,
0.42,0.42,1.0,20.27374923873095,-0.49973098645776415,4.617467988716975,0.4466723766889898,-0.12805549851645817,-0.8794721665919849,20.79893386403726,0.9946786991824493,1.0,0.0,-5.12475906770303,4.333339046228245,1006.1844569493729,82.72589914784164,1.4631960598078957,14.027873835128696,1.0,1000.4894516669868,0.0,1.0,92.8721544018656,4815.789753012873,1.0,1.0,-12.229326591054164,14.334895719706871,-2.6037686300756384,-45.82052886008962,1.0,1004.9922791564358,0.0,1.0,9.881839188767541,12.329223942854181,,,
0.44999999999999996,0.44999999999999996,1.0,20.188430578887484,-0.7335800933673541,4.744587637870124,0.4821940329001729,-0.12998922080655212,-0.8975626472159278,20.751433223885385,1.0271450669538806,1.0,0.0,-5.12475906770303,4.333339046228245,1006.1844569493729,82.72589914784164,1.4631960598078957,14.027873835128696,1.0,1000.4894516669868,0.0,1.0,93.56657551642114,4850.420509429033,1.0,1.0,-12.229326591054164,14.334895719706871,-2.6037686300756384,-45.82052886008962,1.0,1004.9922791564358,0.0,1.0,9.881839188767541,12.329223942854181,,,
0.48,0.48,1.0,20.325068343070466,-1.1333919013795655,5.0979792721381605,0.4968816859425916,-0.13072901717532864,-0.9053033689769385,20.985289443125353,1.0409398040414126,1.0,0.0,-5.12475906770303,4.333339046228245,1006.1844569493729,82.72589914784164,1.4631960598078957,14.027873835128696,1.0,1005.6594398416999,0.0,1.0,95.1618306622041,4914.533679565991,1.0,1.0,-16.997533652428277,14.100031791282738,-3.1015765644833597,-45.83606210252772,1.0,1005.8880374239728,0.0,1.0,12.634639104806809,11.68582920996822,,,
0.51,0.51,1.0,19.89073489538637,-1.2190390784854421,5.56385503974703,0.5165714190453149,-0.13467715191797588,-0.8839797321625548,20.690187864220423,1.0326684526494503,1.0,0.0,28.625733425414523,16.49987147660872,1000.3942082318719,92.16321793157418,0.7484168131201919,12.109397951118694,1.0,1005.6594398416999,0.0,1.0,95.89621813113614,5016.516186154199,1.0,1.0,-16.997533652428277,14.100031791282738,-3.1015765644833597,-45.83606210252772,1.0,1005.8880374239728,0.0,1.0,12.634639104806809,11.68582920996822,,,
0.54,0.54,1.0,19.934399654695376,-1.712950302453859,5.829345848168262,0.5566332576528666,-0.13712402175706798,-0.874098288520254,20.83976394658424,1.0453188025009943,1.0,0.0,28.625733425414523,16.49987147660872,1000.3942082318719,92.16321793157418,0.7484168131201919,12.109397951118694,1.0,1009.9010217380841,0.0,1.0,95.53318930641363,5086.658824339203,1.0,1.0,-18.403456487751598,13.894989320898144,-3.827031229541117,-45.75210018582784,1.0,1006.9413871522435,0.0,1.0,14.786671182293087,11.783383104523407,,,
0.57,0.57,1.0,19.886763421364737,-1.7144977415836553,6.7906185450288685,0.5651341380845816,-0.17141123311573403,-0.8377970389735472,21.084007259231246,1.025018186853142,1.0,0.0,28.625733425414523,16.49987147660872,1000.3942082318719,92.16321793157418,0.7484168131201919,12.109397951118694,1.0,1009.9010217380841,0.0,1.0,95.26951003385192,5139.749315532639,1.0,1.0,-18.403456487751598,13.894989320898144,-3.827031229541117,-45.75210018582784,1.0,1006.9413871522435,0.0,1.0,14.786671182293087,11.783383104523407,,,
0.6,0.6,1.0,19.78056420968593,-2.325349054158525,7.28338526293959,0.5866941176599816,-0.1348688869873272,-0.8077233717419783,21.20673641948684,1.0073810846111093,1.0,0.0,28.625733425414523,16.49987147660872,1000.3942082318719,92.16321793157418,0.7484168131201919,12.109397951118694,1.0,1009.6396532473251,0.0,1.0,97.16546083373224,5197.823367360585,1.0,1.0,-21.310815993340597,13.701483241731816,-4.824158073260764,-45.70501201453405,1.0,1007.6166817034236,0.0,1.0,17.02099857162816,11.213022186058367,,,
0.63,0.63,1.0,19.600350366188323,-2.630807006975745,7.944723063838242,0.6048716504541889,-0.0828244903847599,-0.7417925386393073,21.312285296194183,0.9607214893566283,1.0,0.0,28.625733425414523,16.49987147660872,1000.3942082318719,92.16321793157418,0.7484168131201919,12.109397951118694,1.0,1009.6396532473251,0.0,1.0,98.46466345958598,5205.714064046006,1.0,1.0,-21.310815993340597,13.701483241731816,-4.824158073260764,-45.70501201453405,1.0,1007.6166817034236,0.0,1.0,17.02099857162816,11.213022186058367,,,
0.6599999999999999,0.6599999999999999,1.0,19.866675713582392,-2.5319345388789674,8.239054247979768,0.6170303485644062,-0.060109592285965824,-0.6888682994700661,21.655888606080474,0.9267573296980598,1.0,0.0,28.625733425414523,16.49987147660872,1000.3942082318719,92.16321793157418,0.7484168131201919,12.109397951118694,1.0,1014.535487773771,0.0,1.0,97.57882129537913,5341.368641052519,1.0,1.0,-26.92336866555752,13.761178743930694,-5.844588089587565,-45.571317636714845,1.0,1007.8838287892396,0.0,1.0,19.41528654433192,10.824640226122456,,,
0.69,0.69,1.0,19.614867722058605,-2.954386269944621,8.528979023707985,0.6367289171425031,-0.055319786488012966,-0.6040033641481309,21.592010493993946,0.8793770844210143,1.0,0.0,28.625733425414523,16.49987147660872,1000.3942082318719,92.16321793157418,0.7484168131201919,12.109397951118694,1.0,1014.535487773771,0.0,1.0,98.11060785517057,5333.023324345265,1.0,1.0,-26.92336866555752,13.761178743930694,-5.844588089587565,-45.571317636714845,1.0,1007.8838287892396,0.0,1.0,19.41528654433192,10.824640226122456,,,
0.72,0.72,1.0,19.559143243830167,-2.9870457212665276,8.903211700718291,0.6693646075631281,-0.04420774167162235,-0.509518149930126,21.69676715922008,0.8423847383411358,1.0,0.0,28.625733425414523,16.49987147660872,1000.3942082318719,92.16321793157418,0.7484168131201919,12.109397951118694,1.0,1002.9919021685844,0.0,1.0,98.63624471621547,5310.570336005829,1.0,1.0,-26.253040057014783,13.875077554243111,-7.1748538389972225,-45.47458386509924,1.0,1008.647784607734,0.0,1.0,22.122067761750902,10.204014578298544,,,
0.75,0.75,1.0,19.5799856431595,-3.2205008499941874,9.106305109888007,0.6820856896151257,-0.026128123124705315,-0.4379642893418857,21.832825201185436,0.8110094238259531,1.0,0.0,28.625733425414523,16.49987147660872,1000.3942082318719,92.16321793157418,0.7484168131201919,12.109397951118694,1.0,1002.9919021685844,0.0,1.0,98.9060079363794,5471.132711833672,1.0,1.0,-26.253040057014783,13.875077554243111,-7.1748538389972225,-45.47458386509924,1.0,1008.647784607734,0.0,1.0,22.122067761750902,10.204014578298544,,,
0.78,0.78,1.0,19.333310383544976,-3.51621452872225,9.300660947212114,0.7189860378603466,-0.004382069701305393,-0.32182624721426273,21.740353011243446,0.7877386994232305,1.0,0.0,28.625733425414523,16.49987147660872,1000.3942082318719,92.16321793157418,0.7484168131201919,12.109397951118694,1.0,1007.2053084731035,0.0,1.0,99.09664871561893,5439.652880879921,1.0,1.0,-29.873021824659368,13.913823778731926,-8.789280492181499,-45.08830359896898,1.0,1010.1642547971246,0.0,1.0,24.224276569713076,10.356528993268522,,,
0.8099999999999999,0.8099999999999999,1.0,19.22623236949481,-3.3424577106064666,9.481556290030667,0.751308899610793,0.027401673182668167,-0.22352828392871302,21.69608131331607,0.784334627594438,1.0,0.0,28.625733425414523,16.49987147660872,1000.3942082318719,92.16321793157418,0.7484168131201919,12.109397951118694,1.0,1007.2053084731035,0.0,1.0,99.36725101640876,5513.05520097992,1.0,1.0,-29.873021824659368,13.913823778731926,-8.789280492181499,-45.08830359896898,1.0,1010.1642547971246,0.0,1.0,24.224276569713076,10.356528993268522,,,
0.84,0.84,1.0,19.26498644484879,-3.4400298411875583,9.711756720135194,0.7921250621428565,0.08854817115517803,-0.11179972166369061,21.84700726917899,0.804861522532808,1.0,0.0,28.625733425414523,16.49987147660872,1000.3942082318719,92.16321793157418,0.7484168131201919,12.109397951118694,1.0,1021.7271467415412,0.0,1.0,99.69492695571215,5544.65655118565,1.0,1.0,-28.53053897880407,14.235460215157532,-10.674462207845743,-44.59140991776261,1.0,1010.0707873489667,0.0,1.0,27.812340447480757,9.827303666086305,,,
0.87,0.87,1.0,18.96336654952877,-3.536810270667141,10.13326062284313,0.852945995254221,0.13180192295909343,-0.0171206451142903,21.789935030489342,0.8632390944605427,1.0,0.0,28.625733425414523,16.49987147660872,1000.3942082318719,92.16321793157418,0.7484168131201919,12.109397951118694,1.0,1021.7271467415412,0.0,1.0,100.72243258011382,5641.580124874706,1.0,1.0,-28.53053897880407,14.235460215157532,-10.674462207845743,-44.59140991776261,1.0,1010.0707873489667,0.0,1.0,27.812340447480757,9.827303666086305,,,
0.8999999999999999,0.8999999999999999,1.0,18.91310817225176,-3.3649503014354036,10.07305998110872,0.8926045272490677,0.15948059042581486,0.0926038557061609,21.690898751537258,0.9114561837410209,1.0,0.0,28.625733425414523,16.49987147660872,1000.3942082318719,92.16321793157418,0.7484168131201919,12.109397951118694,1.0,1004.1534554592921,0.0,1.0,101.43063127620736,5600.566753114046,1.0,1.0,-26.866669765634768,14.626605173400321,-13.034154233825841,-43.84104980895902,1.0,1011.7587555200317,0.0,1.0,30.553627622367262,8.644211935485995,,,
0.9299999999999999,0.9299999999999999,1.0,19.045822385464174,-3.3032082396426192,10.036895435089594,0.9762113569598563,0.21525731430603487,0.19547507968842565,21.780583210465544,1.018594537389067,1.0,0.0,28.625733425414523,16.49987147660872,1000.3942082318719,92.16321793157418,0.7484168131201919,12.109397951118694,1.0,1004.1534554592921,0.0,1.0,100.43199679656126,5734.2560518293885,1.0,1.0,-26.866669765634768,14.626605173400321,-13.034154233825841,-43.84104980895902,1.0,1011.7587555200317,0.0,1.0,30.553627622367262,8.644211935485995,,,
0.96,0.96,1.0,18.95194336057154,-3.28426846483095,10.218291478952537,1.0589018393698644,0.2776039249603041,0.2946303952145565,21.780175785338116,1.1336419692118556,1.0,0.0,28.625733425414523,16.49987147660872,1000.3942082318719,92.16321793157418,0.7484168131201919,12.109397951118694,1.0,1010.4643359884988,0.0,1.0,102.05672028664745,5915.473903268614,1.0,1.0,-26.599932907559026,14.954609733153543,-15.945611908002114,-42.70588050573925,1.0,1011.695222171805,0.0,1.0,33.65840008338461,9.313216058979231,,,
0.99,0.99,1.0,18.90945288937198,-2.8817466552317947,10.383808365514389,1.1632892515422737,0.3449311217980276,0.3896600594108245,21.764543379819493,1.2743838995525156,1.0,0.0,28.625733425414523,16.49987147660872,1000.3942082318719,92.16321793157418,0.7484168131201919,12.109397951118694,1.0,1010.4643359884988,0.0,1.0,101.2293244125169,5752.2843269110535,1.0,1.0,-26.599932907559026,14.954609733153543,-15.945611908002114,-42.70588050573925,1.0,1011.695222171805,0.0,1.0,33.65840008338461,9.313216058979231,,,
1.02,1.02,1.0,19.07343076419626,-2.670917950775572,9.768364292346854,1.2539278881899834,0.4035180510172824,0.4785211170358841,21.595150028753228,1.4014793704249262,1.0,0.0,98.78332282231332,1.329510975831735,1004.7118396323671,99.10860003975033,-5.848887562617434,12.206413816003296,1.0,1016.2256364271894,0.0,1.0,101.39793718817971,5708.977588762414,1.0,1.0,-25.09033584306293,15.4519968486359,-19.352989526650077,-41.16228173410312,1.0,1012.1918698855151,0.0,1.0,38.49081960390014,8.838833856609947,,,
1.05,1.05,1.0,19.114267766359056,-2.3079023122740376,9.959493315800458,1.373559269663077,0.46196770812158044,0.5482397298791633,21.67655767031626,1.549401830398573,1.0,0.0,98.78332282231332,1.329510975831735,1004.7118396323671,99.10860003975033,-5.848887562617434,12.206413816003296,1.0,1016.2256364271894,0.0,1.0,102.44834432893045,5802.6372521646945,1.0,1.0,-25.09033584306293,15.4519968486359,-19.352989526650077,-41.16228173410312,1.0,1012.1918698855151,0.0,1.0,38.49081960390014,8.838833856609947,,,
1.08,1.08,1.0,19.472481727295804,-1.7610014485821046,9.518887561571471,1.5047453175975298,0.5567549896750835,0.5988997953208992,21.74598563256256,1.7125757075806045,1.0,0.0,98.78332282231332,1.329510975831735,1004.7118396323671,99.10860003975033,-5.848887562617434,12.206413816003296,1.0,1018.7678047909682,0.0,1.0,102.67626360490068,5752.172537576135,1.0,1.0,-23.17495452809274,15.95255680092526,-23.277681517083725,-38.857103015143885,1.0,1012.9478634796848,0.0,1.0,42.50723391550688,8.885128425711404,,,
1.1099999999999999,1.1099999999999999,1.0,19.712626588304246,-1.4011699150990233,8.79370158763886,1.6333234750956516,0.6078859910167898,0.6513647007545218,21.63053655722253,1.8605232935284706,1.0,0.0,98.78332282231332,1.329510975831735,1004.7118396323671,99.10860003975033,-5.848887562617434,12.206413816003296,1.0,1018.7678047909682,0.0,1.0,102.64176097558864,5884.817728076444,1.0,1.0,-23.17495452809274,15.95255680092526,-23.277681517083725,-38.857103015143885,1.0,1012.9478634796848,0.0,1.0,42.50723391550688,8.885128425711404,,,
1.14,1.14,1.0,19.44093914565887,-1.1097314571668992,8.405491185028165,1.772306137931477,0.6225319892791928,0.6677965915138369,21.209288079372758,1.9936317141997404,1.0,0.0,98.78332282231332,1.329510975831735,1004.7118396323671,99.10860003975033,-5.848887562617434,12.206413816003296,1.0,1012.9026525320994,0.0,1.0,103.35332652742056,6000.550672879521,1.0,1.0,-18.802774792520136,16.2660477283503,-27.688357081867338,-35.511686845092065,1.0,1013.9642023367481,0.0,1.0,47.58369424405986,8.345458418047194,,,
1.17,1.17,1.0,19.48391812551762,-0.8809160070234738,7.873028931854444,1.9366597655621618,0.6495588111379769,0.6802311701287597,21.032918558657553,2.1529728612987693,1.0,0.0,98.78332282231332,1.329510975831735,1004.7118396323671,99.10860003975033,-5.848887562617434,12.206413816003296,1.0,1012.9026525320994,0.0,1.0,103.57405199078164,5953.681767140773,1.0,1.0,-18.802774792520136,16.2660477283503,-27.688357081867338,-35.511686845092065,1.0,1013.9642023367481,0.0,1.0,47.58369424405986,8.345458418047194,,,
1.2,1.2,1.0,19.745794104825485,-0.37235839932319337,6.913787610417051,2.082080295463792,0.6637360740910963,0.6724889038259284,20.924518984427426,2.2864481753535224,1.0,0.0,98.78332282231332,1.329510975831735,1004.7118396323671,99.10860003975033,-5.848887562617434,12.206413816003296,1.0,1020.6712307221579,0.0,1.0,104.92592188875463,6061.279128109545,1.0,1.0,-15.084535415975889,16.38947315889151,-32.48300891700764,-31.30812415214418,1.0,1014.6929824554378,0.0,1.0,53.42694905875114,9.576979203526157,,,
1.23,1.23,1.0,19.916088532200728,0.12024059803761268,6.098720705243999,2.268708489525223,0.6746964358349844,0.6349006695784263,20.82929270197252,2.450582043352841,1.0,0.0,98.78332282231332,1.329510975831735,1004.7118396323671,99.10860003975033,-5.848887562617434,12.206413816003296,1.0,1020.6712307221579,0.0,1.0,104.71940478871353,6075.138274910339,1.0,1.0,-15.084535415975889,16.38947315889151,-32.48300891700764,-31.30812415214418,1.0,1014.6929824554378,0.0,1.0,53.42694905875114,9.576979203526157,,,
1.26,1.26,1.0,20.031038089526493,0.33542075993020637,5.223744558503036,2.454663098130479,0.6590731105114104,0.5831075369955693,20.7036832772032,2.607635459573241,1.0,0.0,98.78332282231332,1.329510975831735,1004.7118396323671,99.10860003975033,-5.848887562617434,12.206413816003296,1.0,1013.6954556191024,0.0,1.0,105.3643278500927,6189.882801979209,1.0,1.0,-12.875339670609527,16.315321454192063,-37.09774266299352,-25.770059326130223,1.0,1015.3876644642827,0.0,1.0,61.719350601852284,10.109613589546614,,,
1.29,1.29,1.0,19.914585791432046,0.7474223839703786,4.184360142933361,2.6619491714017576,0.6272872088624073,0.5225762576662955,20.363158823476684,2.7843398820196867,1.0,0.0,98.78332282231332,1.329510975831735,1004.7118396323671,99.10860003975033,-5.848887562617434,12.206413816003296,1.0,1013.6954556191024,0.0,1.0,105.7928427707628,6188.801358781759,1.0,1.0,-12.875339670609527,16.315321454192063,-37.09774266299352,-25.770059326130223,1.0,1015.3876644642827,0.0,1.0,61.719350601852284,10.109613589546614,,,
1.3199999999999998,1.3199999999999998,1.0,20.266349842807728,1.1003865055899456,3.1941875231054273,2.8679409636921656,0.5561541948973951,0.43128202903038554,20.546012273565875,2.9530318400400097,1.0,0.0,98.78332282231332,1.329510975831735,1004.7118396323671,99.10860003975033,-5.848887562617434,12.206413816003296,1.0,1024.8580786688938,0.0,1.0,107.18280476456209,6369.555067302733,1.0,1.0,-7.658947696717007,15.991989248593953,-41.30368438278351,-18.59322623575156,1.0,1016.3737256331574,0.0,1.0,71.15210945863677,10.604714756310225,,,
1.3499999999999999,1.3499999999999999,1.0,20.264519449773086,1.3580254691877611,2.26460569580463,3.0695819799361277,0.45856612993988244,0.3247920689181536,20.43583667635522,3.1205939042286124,1.0,0.0,98.78332282231332,1.329510975831735,1004.7118396323671,99.10860003975033,-5.848887562617434,12.206413816003296,1.0,1024.8580786688938,0.0,1.0,108.27745624858788,6567.954502570663,1.0,1.0,-7.658947696717007,15.991989248593953,-41.30368438278351,-18.59322623575156,1.0,1016.3737256331574,0.0,1.0,71.15210945863677,10.604714756310225,,,
1.38,1.38,1.0,20.517078418096318,1.4457252014959272,0.8588376095057831,3.2949116570284636,0.280828058552774,0.21012623728630722,20.585874531145276,3.313526861470822,1.0,0.0,98.78332282231332,1.329510975831735,1004.7118396323671,99.10860003975033,-5.848887562617434,12.206413816003296,1.0,1016.003858121652,0.0,1.0,108.61254034467912,6521.197533678815,1.0,1.0,-9.108293939648355,15.598801141447142,-44.22871651915824,-10.11358816605354,1.0,1016.837665837569,0.0,0.0,71.15210945863677,10.604714756310225,,,
1.41,1.41,1.0,20.46646158787031,1.839240760853826,0.08854082000618803,3.5176771994397495,-0.0007056891945741335,0.0908126190218123,20.549128837519227,3.5188492876548607,1.0,0.0,98.78332282231332,1.329510975831735,1004.7118396323671,99.10860003975033,-5.848887562617434,12.206413816003296,1.0,1016.003858121652,0.0,1.0,109.06910396998215,6581.313451044318,1.0,1.0,-9.108293939648355,15.598801141447142,-44.22871651915824,-10.11358816605354,1.0,1016.837665837569,0.0,0.0,71.15210945863677,10.604714756310225,,,
1.44,1.44,1.0,20.478914199552836,2.119429766023944,0.176856689033661,3.7502625143815314,-0.3463121575462875,-0.06029157903994788,20.58905504422704,3.7667009586298166,1.0,0.0,98.78332282231332,1.329510975831735,1004.7118396323671,99.10860003975033,-5.848887562617434,12.206413816003296,1.0,1007.7840777676278,0.0,1.0,109.98240928473861,6855.688187034858,1.0,1.0,-10.489855925602576,15.634503506419302,-45.38186001801185,-0.4698275417194548,1.0,1017.0593377869262,0.0,0.0,71.15210945863677,10.604714756310225,,,
1.47,1.47,1.0,20.392322516633197,2.3887675901307905,1.2255117254782917,3.983529828133554,-0.7890285942473374,-0.17709671583903377,20.568298597874577,4.064780345963437,1.0,0.0,98.78332282231332,1.329510975831735,1004.7118396323671,99.10860003975033,-5.848887562617434,12.206413816003296,1.0,1007.7840777676278,0.0,1.0,110.42429871103474,6733.622541208573,1.0,1.0,-10.489855925602576,15.634503506419302,-45.38186001801185,-0.4698275417194548,1.0,1017.0593377869262,0.0,0.0,71.15210945863677,10.604714756310225,,,
1.5,1.5,1.0,20.16217402794866,3.019438724836747,2.862556822761442,4.219788350717094,-1.3645655834984833,-0.30201211119074706,20.58699840457247,4.4452068874037955,1.0,0.0,98.78332282231332,1.329510975831735,1004.7118396323671,99.10860003975033,-5.848887562617434,12.206413816003296,1.0,1017.6600356636276,0.0,1.0,110.60049888904203,6931.730139055445,1.0,1.0,-12.365711607162247,16.534398028181748,-43.978478266554426,9.6109833725144,1.0,1017.8548686802972,0.0,0.0,71.15210945863677,10.604714756310225,,,
1.53,1.53,1.0,19.27927485473367,3.0245000062392764,6.0100771991382285,4.453486444408765,-1.9453305170034567,-0.4100912773780359,20.419575586963326,4.87709208306539,1.0,0.0,148.52659220027454,0.5939413217112586,1015.2491098495823,108.07523906501106,-10.356991096629132,10.676987605277809,1.0,1017.6600356636276,0.0,1.0,110.93280286788342,6777.928878819588,1.0,1.0,-12.365711607162247,16.534398028181748,-43.978478266554426,9.6109833725144,1.0,1017.8548686802972,0.0,0.0,71.15210945863677,10.604714756310225,,,
1.56,1.56,1.0,19.077004709760914,3.534316296734672,9.6348611224994,4.701836896277535,-2.5208998484575513,-0.4927683901080341,21.662272485393927,5.357707245775914,1.0,0.0,148.52659220027454,0.5939413217112586,1015.2491098495823,108.07523906501106,-10.356991096629132,10.676987605277809,1.0,1019.7930920955047,0.0,1.0,111.20544311043905,6980.567594441165,1.0,1.0,-18.530420809135908,19.61827076928711,-39.55052137003918,18.72130609471611,1.0,1018.4820750835084,0.0,0.0,71.15210945863677,10.604714756310225,,,
1.5899999999999999,1.5899999999999999,1.0,17.43034603259781,3.9719386790977786,12.522809260035327,4.933104670917661,-3.0852312233576322,-0.5391834771632734,21.826910258894586,5.843363091393205,1.0,0.0,148.52659220027454,0.5939413217112586,1015.2491098495823,108.07523906501106,-10.356991096629132,10.676987605277809,1.0,1019.7930920955047,0.0,1.0,111.53656436896925,6897.214721426219,1.0,1.0,-18.530420809135908,19.61827076928711,-39.55052137003918,18.72130609471611,1.0,1018.4820750835084,0.0,0.0,71.15210945863677,10.604714756310225,,,
1.6199999999999999,1.6199999999999999,1.0,15.131050667482159,5.277690349647796,16.15411718952586,5.1821895482813485,-3.6622786538840506,-0.5391264004824496,22.754300953921057,6.368518723275326,1.0,0.0,148.52659220027454,0.5939413217112586,1015.2491098495823,108.07523906501106,-10.356991096629132,10.676987605277809,1.0,1016.026841002704,0.0,1.0,112.24562542479393,7019.140809411487,1.0,1.0,-26.22325167455084,25.259771228241895,-32.171897554031176,25.145016843130673,1.0,1019.1736110572435,0.0,0.0,71.15210945863677,10.604714756310225,,,
1.65,1.65,1.0,14.95257571007114,6.3992221335662025,15.862397887954348,5.450674065597671,-4.1046392981567665,-0.4966842645929524,22.71882987822902,6.8413892445939775,1.0,0.0,148.52659220027454,0.5939413217112586,1015.2491098495823,108.07523906501106,-10.356991096629132,10.676987605277809,1.0,1016.026841002704,0.0,1.0,113.31190584059667,7066.281800501193,1.0,1.0,-26.22325167455084,25.259771228241895,-32.171897554031176,25.145016843130673,1.0,1019.1736110572435,0.0,0.0,71.15210945863677,10.604714756310225,,,
1.68,1.68,1.0,14.804431726709185,8.341559767522563,14.971398698209509,5.738963089324114,-4.52418400195657,-0.4597717474552789,22.647198437923706,7.322248854275743,1.0,0.0,148.52659220027454,0.5939413217112586,1015.2491098495823,108.07523906501106,-10.356991096629132,10.676987605277809,1.0,1014.108885280259,0.0,1.0,112.91424385929133,6994.526581475779,1.0,1.0,-30.44945441086051,32.86674915912,-22.50570418566606,26.703372933713663,1.0,1020.2860114105002,0.0,0.0,71.15210945863677,10.604714756310225,,,
1.71,1.71,1.0,14.560485707835207,10.996891525885733,14.2729377244572,6.045505498539715,-4.881513435697874,-0.4150603545070278,23.16583947467487,7.781361401043926,1.0,0.0,148.52659220027454,0.5939413217112586,1015.2491098495823,108.07523906501106,-10.356991096629132,10.676987605277809,1.0,1014.108885280259,0.0,1.0,113.06598386377186,7143.4739423004385,1.0,1.0,-30.44945441086051,32.86674915912,-22.50570418566606,26.703372933713663,1.0,1020.2860114105002,0.0,0.0,71.15210945863677,10.604714756310225,,,
1.74,1.74,1.0,15.586393266571063,13.281459567794435,14.418669283411175,6.42305503081486,-5.217336746824981,-0.40800697215780685,25.044577201772743,8.285089519611464,1.0,0.0,148.52659220027454,0.5939413217112586,1015.2491098495823,108.07523906501106,-10.356991096629132,10.676987605277809,1.0,1019.6863461959274,0.0,1.0,112.56484960340252,7082.494125677612,1.0,1.0,-33.90200606145753,40.88437098991453,-12.28123741867239,22.045397591311836,1.0,1020.431995035048,0.0,0.0,71.15210945863677,10.604714756310225,,,
1.77,1.77,1.0,16.163912874821683,16.12537782466598,14.618744362328414,6.761908265029031,-5.51493476555044,-0.42161042437794033,27.11102314823556,8.735883710471938,1.0,0.0,148.52659220027454,0.5939413217112586,1015.2491098495823,108.07523906501106,-10.356991096629132,10.676987605277809,1.0,1019.6863461959274,0.0,1.0,113.86139774445782,7189.141355175987,1.0,1.0,-33.90200606145753,40.88437098991453,-12.28123741867239,22.045397591311836,1.0,1020.431995035048,0.0,0.0,71.15210945863677,10.604714756310225,,,
1.7999999999999998,1.7999999999999998,1.0,17.187247856476546,16.56954524916625,14.523189692971714,7.095292223389898,-5.797701625941541,-0.42335995038024177,27.94412921352471,9.17255414409358,1.0,0.0,148.52659220027454,0.5939413217112586,1015.2491098495823,108.07523906501106,-10.356991096629132,10.676987605277809,1.0,1025.148037737636,0.0,1.0,113.80869629813769,7126.983097201022,1.0,1.0,-21.979599032012484,46.7228701969769,-4.23589806866902,10.469965923348894,1.0,1020.258478819694,0.0,0.0,71.15210945863677,10.604714756310225,,,
1.8299999999999998,1.8299999999999998,1.0,17.904161920950507,16.93563458786141,13.440048649883508,7.400836864618298,-6.046204931466303,-0.32109088774302413,28.07150941250608,9.562012326292631,1.0,0.0,148.52659220027454,0.5939413217112586,1015.2491098495823,108.07523906501106,-10.356991096629132,10.676987605277809,1.0,1025.148037737636,0.0,1.0,113.5516044570623,7236.86517426943,1.0,1.0,-21.979599032012484,46.7228701969769,-4.23589806866902,10.469965923348894,1.0,1020.258478819694,0.0,0.0,71.15210945863677,10.604714756310225,,,
1.8599999999999999,1.8599999999999999,1.0,18.66872990952628,17.825258308713032,12.640974575222437,7.630380854476163,-6.2540687413505776,-0.09231294324969096,28.741182098490732,9.86633718688887,1.0,0.0,148.52659220027454,0.5939413217112586,1015.2491098495823,108.07523906501106,-10.356991096629132,10.676987605277809,1.0,1025.3973796618286,0.0,1.0,114.30301509050668,7282.102169211183,1.0,1.0,15.675743314098124,47.564844230778306,-2.675135712907281,-5.796471238399417,1.0,1020.4525738803104,0.0,0.0,71.15210945863677,10.604714756310225,,,
1.89,1.89,1.0,18.97608797335327,18.069838491637913,11.078026832226367,7.913317878165556,-6.399278905185113,0.2245385090645674,28.448790068856162,10.179478763143758,1.0,0.0,148.52659220027454,0.5939413217112586,1015.2491098495823,108.07523906501106,-10.356991096629132,10.676987605277809,1.0,1025.3973796618286,0.0,1.0,112.89789147450811,7096.900767584925,1.0,1.0,15.675743314098124,47.564844230778306,-2.675135712907281,-5.796471238399417,1.0,1020.4525738803104,0.0,0.0,71.15210945863677,10.604714756310225,,,
1.92,1.92,1.0,20.853753321306296,13.766553979646444,12.050599104810093,8.230451581725537,-6.501776358223293,0.6270590782729489,27.74191728855925,10.507456026038096,1.0,0.0,148.52659220027454,0.5939413217112586,1015.2491098495823,108.07523906501106,-10.356991096629132,10.676987605277809,1.0,1024.4343931332767,0.0,1.0,112.3886438310755,6953.089986774805,1.0,1.0,53.2452220835929,42.147443444902514,-10.347306877004913,-20.386794588892617,1.0,1020.8934533693701,0.0,1.0,-28.916934157160924,-53.545735178734304,,,
1.95,1.95,1.0,20.78891211633149,13.408073258999988,-15.808688668151591,8.560712406286207,-6.543980480744786,1.1306849196739241,29.357621376838576,10.83457086474076,1.0,0.0,148.52659220027454,0.5939413217112586,1015.2491098495823,108.07523906501106,-10.356991096629132,10.676987605277809,1.0,1024.4343931332767,0.0,1.0,112.45407110899971,7089.6001003938845,1.0,1.0,53.2452220835929,42.147443444902514,-10.347306877004913,-20.386794588892617,1.0,1020.8934533693701,0.0,1.0,-28.916934157160924,-53.545735178734304,,,
1.98,1.98,1.0,20.575316584722312,14.226045087608679,-12.444130022234706,8.915420892632193,-7.119761914833063,1.7085600997493515,27.938868685158088,11.536677035920937,1.0,0.0,148.52659220027454,0.5939413217112586,1015.2491098495823,108.07523906501106,-10.356991096629132,10.676987605277809,1.0,1022.8667864312565,0.0,1.0,112.7059808301403,7051.875502911613,1.0,1.0,62.2411333347134,30.791272234970616,-26.00795241273826,-26.127323675811734,1.0,1020.7581591585673,0.0,1.0,9.061889043200313,-31.11426469067265,,,
2.01,2.01,1.0,20.48092849440738,13.315698220675369,-12.990027472029327,9.070441873136687,-7.697603332099517,2.287307499885681,27.66797905198719,12.114362898284591,1.0,0.0,148.52659220027454,0.5939413217112586,1015.2491098495823,108.07523906501106,-10.356991096629132,10.676987605277809,1.0,1022.8667864312565,0.0,1.0,113.53279458809062,7082.406820234041,1.0,1.0,62.2411333347134,30.791272234970616,-26.00795241273826,-26.127323675811734,1.0,1020.7581591585673,0.0,1.0,9.061889043200313,-31.11426469067265,,,
2.04,2.04,1.0,19.679818522270367,12.079274011742704,-13.330581955160785,9.076861766972224,-8.272048603592179,2.867568477103107,26.662868056222248,12.611072777832536,1.0,0.0,201.0568162428919,-10.184180607570873,1005.6934590697434,107.19539178335293,-11.650375365363594,-2.9667105535863327,1.0,1023.2334965975314,0.0,1.0,112.99295694573148,6904.160406470071,1.0,1.0,58.91070809429912,14.313974659612024,-41.994919422158844,-18.221380740386106,1.0,1020.5358905914904,0.0,1.0,39.6984196800068,-2.986790609838624,,,
2.07,2.07,1.0,19.35205497280428,11.752500602175775,-13.683013353402087,9.07465359732952,-8.839896479146129,3.438422587402041,26.454643382664614,13.126913481969106,1.0,0.0,201.0568162428919,-10.184180607570873,1005.6934590697434,107.19539178335293,-11.650375365363594,-2.9667105535863327,1.0,1023.2334965975314,0.0,1.0,112.04451503882063,7012.926842461212,1.0,1.0,58.91070809429912,14.313974659612024,-41.994919422158844,-18.221380740386106,1.0,1020.5358905914904,0.0,1.0,39.6984196800068,-2.986790609838624,,,
2.1,2.1,1.0,18.753228814226922,10.637938290602612,-13.221984701203466,9.08044926521586,-9.001969695396282,4.01062758232524,25.291702225676282,13.400565318638623,1.0,0.0,201.0568162428919,-10.184180607570873,1005.6934590697434,107.19539178335293,-11.650375365363594,-2.9667105535863327,1.0,1013.0618373112382,0.0,1.0,111.69771824208553,6952.321994155572,1.0,1.0,40.9097540659379,-0.308165370506404,-47.88062615189998,3.248544208342888,1.0,1020.2019698100747,0.0,1.0,75.10427697422489,23.437888778495168,,,
2.13,2.13,1.0,17.860677504905713,8.634513776315117,-12.35340960318561,9.070072968057431,-8.745935659748465,4.596622894419533,23.37018095590402,13.41217939948045,1.0,0.0,201.0568162428919,-10.184180607570873,1005.6934590697434,107.19539178335293,-11.650375365363594,-2.9667105535863327,1.0,1013.0618373112382,0.0,1.0,110.58090015325328,6873.6470081214875,1.0,1.0,40.9097540659379,-0.308165370506404,-47.88062615189998,3.248544208342888,1.0,1020.2019698100747,0.0,1.0,75.10427697422489,23.437888778495168,,,
2.16,2.16,1.0,17.476940210043406,8.312949794263838,-12.3461371751,9.077436266360602,-8.1818330677324,5.173983489634809,22.955950786969584,13.2707327103326,1.0,0.0,201.0568162428919,-10.184180607570873,1005.6934590697434,107.19539178335293,-11.650375365363594,-2.9667105535863327,1.0,1013.306140299966,0.0,1.0,111.22205224132524,6961.483400574321,1.0,1.0,8.450939639014942,-4.982736996145383,-37.99882374380042,28.812790139259658,1.0,1020.3593026281483,0.0,0.0,75.10427697422489,23.437888778495168,,,
2.19,2.19,1.0,17.891153561979067,8.650848850876232,-13.673888659945622,9.078312115260845,-7.595945502057787,5.7399046162505805,24.12272357557522,13.155251572508162,1.0,0.0,201.0568162428919,-10.184180607570873,1005.6934590697434,107.19539178335293,-11.650375365363594,-2.9667105535863327,1.0,1013.306140299966,0.0,1.0,111.9614234152687,6851.875216948776,1.0,1.0,8.450939639014942,-4.982736996145383,-37.99882374380042,28.812790139259658,1.0,1020.3593026281483,0.0,0.0,75.10427697422489,23.437888778495168,,,
2.2199999999999998,2.2199999999999998,1.0,18.235529943723883,10.0767603627748,-15.170587518134072,9.073474172841653,-7.0348830196685626,6.307440025624363,25.772512050295077,13.099668405822106,1.0,0.0,201.0568162428919,-10.184180607570873,1005.6934590697434,107.19539178335293,-11.650375365363594,-2.9667105535863327,1.0,1019.1939051180649,0.0,1.0,111.11381479236975,6889.435439885132,1.0,1.0,-28.182888527680685,1.5331867005756896,-16.625775478397813,44.97751941685153,1.0,1020.2088538232962,0.0,0.0,75.10427697422489,23.437888778495168,,,
2.25,2.25,1.0,18.266093618450114,12.09111059311603,-16.302767376034286,9.07967325706537,-6.650247424998508,6.892352768320499,27.306141352634107,13.197377919561998,1.0,0.0,201.0568162428919,-10.184180607570873,1005.6934590697434,107.19539178335293,-11.650375365363594,-2.9667105535863327,1.0,1019.1939051180649,0.0,1.0,111.70669468975703,7019.592696009789,1.0,1.0,-28.182888527680685,1.5331867005756896,-16.625775478397813,44.97751941685153,1.0,1020.2088538232962,0.0,0.0,75.10427697422489,23.437888778495168,,,
2.28,2.28,1.0,18.563542459511424,13.032806256589884,-16.261279321802967,9.065786132402753,-6.536320985961397,7.438154973372116,27.908571313300662,13.42527912700089,1.0,0.0,201.0568162428919,-10.184180607570873,1005.6934590697434,107.19539178335293,-11.650375365363594,-2.9667105535863327,1.0,1018.1510033065722,0.0,1.0,112.14280937458052,6825.860107197192,1.0,1.0,-48.20660287177714,17.385697914830853,4.434983031957249,44.571130604835574,1.0,1019.9953976502962,0.0,0.0,75.10427697422489,23.437888778495168,,,
2.31,2.31,1.0,18.915847109300273,13.857472456294278,-15.61734697969251,9.06894052034061,-6.660959904692796,7.903950340756864,28.173397761425385,13.75087269967079,1.0,0.0,201.0568162428919,-10.184180607570873,1005.6934590697434,107.19539178335293,-11.650375365363594,-2.9667105535863327,1.0,1018.1510033065722,0.0,1.0,112.55831133467007,6966.93641851084,1.0,1.0,-48.20660287177714,17.385697914830853,4.434983031957249,44.571130604835574,1.0,1019.9953976502962,0.0,0.0,75.10427697422489,23.437888778495168,,,
2.34,2.34,1.0,18.88367043037144,15.139049616271139,-14.161385146132782,9.05509096358342,-7.01140014158449,8.357195235915135,28.041552408237212,14.177345185731486,1.0,0.0,201.0568162428919,-10.184180607570873,1005.6934590697434,107.19539178335293,-11.650375365363594,-2.9667105535863327,1.0,1028.2496237656947,0.0,1.0,112.65622953357041,7009.97286757344,1.0,1.0,-52.22572616439532,37.078949001920044,11.355881936096933,28.247629253293294,1.0,1019.8088556245064,0.0,0.0,75.10427697422489,23.437888778495168,,,
2.37,2.37,1.0,19.010656453743213,15.313352099844685,-13.326167068468866,8.97470167117011,-7.549860263499139,8.83720749872938,27.811697899855204,14.684750473210826,1.0,0.0,201.0568162428919,-10.184180607570873,1005.6934590697434,107.19539178335293,-11.650375365363594,-2.9667105535863327,1.0,1028.2496237656947,0.0,1.0,112.65344762814664,6990.845774965015,1.0,1.0,-52.22572616439532,37.078949001920044,11.355881936096933,28.247629253293294,1.0,1019.8088556245064,0.0,0.0,75.10427697422489,23.437888778495168,,,
2.4,2.4,1.0,19.836773428926385,14.77617521243242,-14.10226937298474,8.85300551252579,-8.131558750462402,9.071822864364988,28.47291582271274,15.059745163828273,1.0,0.0,201.0568162428919,-10.184180607570873,1005.6934590697434,107.19539178335293,-11.650375365363594,-2.9667105535863327,1.0,1025.4035233083691,0.0,1.0,111.51146179334371,7062.202588466519,1.0,1.0,-4.345350338253511,47.596171419321536,-3.295029663257028,5.0202676912169215,1.0,1019.494532998153,0.0,1.0,-48.77188055849457,-66.70368453260575,,,
2.4299999999999997,2.4299999999999997,1.0,19.994983047470388,14.176821503460271,-14.239232210682012,8.740095525177932,-8.715790158022566,9.071516063168263,28.346734361462623,15.318181078451781,1.0,0.0,201.0568162428919,-10.184180607570873,1005.6934590697434,107.19539178335293,-11.650375365363594,-2.9667105535863327,1.0,1025.4035233083691,0.0,1.0,112.36318138296733,6950.156162122036,1.0,1.0,-4.345350338253511,47.596171419321536,-3.295029663257028,5.0202676912169215,1.0,1019.494532998153,0.0,1.0,-48.77188055849457,-66.70368453260575,,,
2.46,2.46,1.0,20.210507447821616,13.2031099935045,-14.314745676789414,8.645098244760444,-9.080506379336027,9.073334942081726,28.065969938525065,15.476392562154903,1.0,0.0,201.0568162428919,-10.184180607570873,1005.6934590697434,107.19539178335293,-11.650375365363594,-2.9667105535863327,1.0,1015.699910730169,0.0,1.0,111.48879510058642,6832.526413002325,1.0,1.0,53.56260919099209,36.9890965855958,-28.92500681088023,-10.04334424280829,1.0,1019.372445661212,0.0,1.0,30.95946651654825,-39.2929645430301,,,
2.4899999999999998,2.4899999999999998,1.0,19.823688059837018,12.340336021200049,-14.325564033558356,8.576823209843322,-9.0652752313546,9.074071449670202,27.39496826589571,15.42983746080425,1.0,0.0,201.0568162428919,-10.184180607570873,1005.6934590697434,107.19539178335293,-11.650375365363594,-2.9667105535863327,1.0,1015.699910730169,0.0,1.0,111.12940680833964,6957.451601700731,1.0,1.0,53.56260919099209,36.9890965855958,-28.92500681088023,-10.04334424280829,1.0,1019.372445661212,0.0,1.0,30.95946651654825,-39.2929645430301,,,
2.52,2.52,1.0,19.71585838851977,11.880152843410597,-14.14730004074489,8.517114195608286,-9.014258295455186,9.076045542926572,27.01849740495986,15.367911033562503,1.0,0.0,201.0568162428919,-10.184180607570873,1005.6934590697434,107.19539178335293,-11.650375365363594,-2.9667105535863327,1.0,1018.5144452678996,0.0,1.0,111.25418111856226,6885.613953157007,1.0,1.0,54.288607212315,11.442520007238484,-46.51889737335923,-3.5378794503981066,1.0,1019.2431889413043,0.0,1.0,61.595306564903204,3.0788069265691917,,,
2.55,2.55,1.0,19.287496215896454,10.786615932643315,-13.665671100201738,8.4876238046154,-8.667331142325516,9.074598108140336,25.98286281716208,15.149611143645366,1.0,0.0,271.01160087886734,-18.65885001061916,1017.5483481525807,105.19399502754231,-9.829668925780503,-7.491696310374095,1.0,1018.5144452678996,0.0,1.0,110.32472463152027,6764.593685042449,1.0,1.0,54.288607212315,11.442520007238484,-46.51889737335923,-3.5378794503981066,1.0,1019.2431889413043,0.0,1.0,61.595306564903204,3.0788069265691917,,,
2.58,2.58,1.0,18.850056821293514,10.11405016771394,-13.054510796125772,8.444516290952325,-8.081647491897957,9.074833099133546,25.060704401257215,14.797820020144504,1.0,0.0,271.01160087886734,-18.65885001061916,1017.5483481525807,105.19399502754231,-9.829668925780503,-7.491696310374095,1.0,1020.0547549090918,0.0,1.0,109.63696243068095,6742.530460189903,1.0,1.0,29.0371393966865,-9.844639887584448,-42.53557016531465,19.782623949456603,1.0,1018.262174648316,0.0,0.0,61.595306564903204,3.0788069265691917,,,
2.61,2.61,1.0,18.597112282478566,10.07369582961811,-13.040803743516365,8.400087902119367,-7.509445953223834,9.066829981458854,24.847424317053285,14.462387811160477,1.0,0.0,271.01160087886734,-18.65885001061916,1017.5483481525807,105.19399502754231,-9.829668925780503,-7.491696310374095,1.0,1020.0547549090918,0.0,1.0,109.85879308157806,6675.855180350715,1.0,1.0,29.0371393966865,-9.844639887584448,-42.53557016531465,19.782623949456603,1.0,1018.262174648316,0.0,0.0,61.595306564903204,3.0788069265691917,,,
2.6399999999999997,2.6399999999999997,1.0,18.304205645608405,10.487433486349666,-13.045688851191468,8.394168422521574,-6.934379524355278,9.072045670689866,24.80363285991454,14.172145057983947,1.0,0.0,271.01160087886734,-18.65885001061916,1017.5483481525807,105.19399502754231,-9.829668925780503,-7.491696310374095,1.0,1012.4327421842031,0.0,1.0,110.70520106004747,6585.0528604647425,1.0,1.0,-21.850198495339697,-13.783443386246448,-19.641021190462563,41.535882516311965,1.0,1017.7273879838858,0.0,0.0,61.595306564903204,3.0788069265691917,,,
2.67,2.67,1.0,17.909854547720425,10.95970875970156,-13.18053698914682,8.399919281639404,-6.355531494824488,9.072852688898887,24.79122145720635,13.902089067266948,1.0,0.0,271.01160087886734,-18.65885001061916,1017.5483481525807,105.19399502754231,-9.829668925780503,-7.491696310374095,1.0,1012.4327421842031,0.0,1.0,110.02096605436414,6689.422005275831,1.0,1.0,-21.850198495339697,-13.783443386246448,-19.641021190462563,41.535882516311965,1.0,1017.7273879838858,0.0,0.0,61.595306564903204,3.0788069265691917,,,
2.6999999999999997,2.6999999999999997,1.0,18.111878456939504,11.745681560339763,-13.23029779611462,8.413916841541125,-6.02219980328488,9.068564198104985,25.318806376480907,13.758624339017523,1.0,0.0,271.01160087886734,-18.65885001061916,1017.5483481525807,105.19399502754231,-9.829668925780503,-7.491696310374095,1.0,1013.0418751972035,0.0,1.0,110.34149800919333,6732.779607597499,1.0,1.0,-52.8946327632164,-0.012085444827273641,7.625652153740044,47.359295867653415,1.0,1017.1236522600746,0.0,0.0,61.595306564903204,3.0788069265691917,,,
2.73,2.73,1.0,18.26260758184458,12.117297226093596,-13.354873061050997,8.382618815866168,-6.005313476769913,9.070763110061836,25.665236453824622,13.73356587217051,1.0,0.0,271.01160087886734,-18.65885001061916,1017.5483481525807,105.19399502754231,-9.829668925780503,-7.491696310374095,1.0,1013.0418751972035,0.0,1.0,111.06101127959607,6717.952581245608,1.0,1.0,-52.8946327632164,-0.012085444827273641,7.625652153740044,47.359295867653415,1.0,1017.1236522600746,0.0,0.0,61.595306564903204,3.0788069265691917,,,
2.76,2.76,1.0,18.335457644475845,12.751097813209286,-13.678349854631712,8.330532208350798,-6.313874840514257,9.083183154395378,26.189248886138405,13.84799619411924,1.0,0.0,271.01160087886734,-18.65885001061916,1017.5483481525807,105.19399502754231,-9.829668925780503,-7.491696310374095,1.0,1012.3987696054946,0.0,1.0,109.7343054030807,6744.944737759037,1.0,1.0,-59.21250384611424,24.280855899726294,22.27652152747159,34.95715949638243,1.0,1016.9614760791966,0.0,0.0,61.595306564903204,3.0788069265691917,,,
2.79,2.79,1.0,18.45546000974019,12.890536556508556,-13.670273414735886,8.24032586317656,-6.843735775590155,9.07315269293369,26.337165984961967,14.037869834370134,1.0,0.0,271.01160087886734,-18.65885001061916,1017.5483481525807,105.19399502754231,-9.829668925780503,-7.491696310374095,1.0,1012.3987696054946,0.0,1.0,108.96185739408773,6656.345022879169,1.0,1.0,-59.21250384611424,24.280855899726294,22.27652152747159,34.95715949638243,1.0,1016.9614760791966,0.0,0.0,61.595306564903204,3.0788069265691917,,,
2.82,2.82,1.0,18.3434230789933,13.107989835830974,-13.897094378333795,8.075662213172906,-7.411001528790685,9.07812860670888,26.4845200060622,14.232065304830241,1.0,0.0,271.01160087886734,-18.65885001061916,1017.5483481525807,105.19399502754231,-9.829668925780503,-7.491696310374095,1.0,1008.104777580638,0.0,1.0,109.63326201545419,6699.837373973512,1.0,1.0,-33.68680288409259,44.74003271680245,14.210094034929819,9.920920959173232,1.0,1016.129123906863,0.0,1.0,-73.66541490178942,-50.875437288070245,,,
2.85,2.85,1.0,18.494892513314905,12.625376426041777,-13.835741053692955,7.950885060903884,-7.995169816222426,9.080267615929726,26.322783087720182,14.477243301776786,1.0,0.0,271.01160087886734,-18.65885001061916,1017.5483481525807,105.19399502754231,-9.829668925780503,-7.491696310374095,1.0,1008.104777580638,0.0,1.0,108.78077912235437,6683.578617580316,1.0,1.0,-33.68680288409259,44.74003271680245,14.210094034929819,9.920920959173232,1.0,1016.129123906863,0.0,1.0,-73.66541490178942,-50.875437288070245,,,
2.88,2.88,1.0,18.6211866400933,12.929320622339464,-13.337809064494525,7.82801563412928,-8.574900016054984,9.078720454707305,26.302339711161707,14.738721252138294,1.0,0.0,271.01160087886734,-18.65885001061916,1017.5483481525807,105.19399502754231,-9.829668925780503,-7.491696310374095,1.0,1011.0116043193223,0.0,1.0,110.4450338645145,6699.151393934243,1.0,1.0,29.412389235768725,44.32724149559149,-12.106949005206966,-13.839497511489313,1.0,1015.5654469013903,0.0,1.0,3.0778925126057377,-46.030414336241975,,,
2.9099999999999997,2.9099999999999997,1.0,18.89521658144596,13.201004787618569,-13.104924048227293,7.7296468323889265,-9.077036059773144,9.083231233229611,26.514802872589584,14.98816577904715,1.0,0.0,271.01160087886734,-18.65885001061916,1017.5483481525807,105.19399502754231,-9.829668925780503,-7.491696310374095,1.0,1011.0116043193223,0.0,1.0,110.59522821514257,6822.470476389507,1.0,1.0,29.412389235768725,44.32724149559149,-12.106949005206966,-13.839497511489313,1.0,1015.5654469013903,0.0,1.0,3.0778925126057377,-46.030414336241975,,,
2.94,2.94,1.0,19.153330337540098,12.60322710146731,-12.785875567443876,7.639510735535326,-9.070251407795325,9.080171005885788,26.252047737581393,14.935899382866152,1.0,0.0,271.01160087886734,-18.65885001061916,1017.5483481525807,105.19399502754231,-9.829668925780503,-7.491696310374095,1.0,1009.1027438158388,0.0,1.0,109.63530810854688,6801.482970476692,1.0,1.0,47.0131189498231,20.09204332721475,-38.713776230401635,-19.904754823874462,1.0,1015.6882318221718,0.0,1.0,38.69057307610849,-5.289144923823835,,,
2.9699999999999998,2.9699999999999998,1.0,19.494699489573673,12.499923697415674,-12.396929687230626,7.593823479333048,-9.062551631956838,9.06394243645702,26.267380270977498,14.898021667609424,1.0,0.0,271.01160087886734,-18.65885001061916,1017.5483481525807,105.19399502754231,-9.829668925780503,-7.491696310374095,1.0,1009.1027438158388,0.0,1.0,108.94929458274761,6695.150874179054,1.0,1.0,47.0131189498231,20.09204332721475,-38.713776230401635,-19.904754823874462,1.0,1015.6882318221718,0.0,1.0,38.69057307610849,-5.289144923823835,,,
3.0,3.0,1.0,19.943847629288257,12.765199866431923,-12.623197211595516,7.536614869153144,-8.993296330068615,9.08821094186798,26.833793875131658,14.841681868651367,1.0,0.0,271.01160087886734,-18.65885001061916,1017.5483481525807,105.19399502754231,-9.829668925780503,-7.491696310374095,1.0,1012.2471041671538,0.0,1.0,108.99595753658575,6583.644093307542,1.0,1.0,39.99031916932853,-10.835852130084492,-46.69503999848267,-2.1718624706355008,1.0,1014.5708733926754,0.0,1.0,67.70470891144369,36.60013698210424,,,
3.03,3.03,1.0,20.162635052342537,13.016554156781435,-12.43843932380858,7.48970858260959,-8.62863673851317,9.07450931393134,27.031043397960865,14.590950137200167,1.0,0.0,271.01160087886734,-18.65885001061916,1017.5483481525807,105.19399502754231,-9.829668925780503,-7.491696310374095,1.0,1012.2471041671538,0.0,1.0,108.75520298821941,6572.569362786148,1.0,1.0,39.99031916932853,-10.835852130084492,-46.69503999848267,-2.1718624706355008,1.0,1014.5708733926754,0.0,1.0,67.70470891144369,36.60013698210424,,,
3.06,3.06,1.0,20.348306866289914,12.91948348232884,-12.740383706293708,7.469383814920291,-8.059905215093874,9.083234033792088,27.26323573529861,14.256889813824385,1.0,0.0,324.0904676480779,-25.47458340641138,1036.048447621314,104.28120988079321,-8.487972217199557,-11.30224285614825,1.0,1019.5609582110696,0.0,1.0,109.06868514910742,6572.472273498716,1.0,1.0,-12.131084068728958,-26.737984650869176,-30.420513633412085,25.719120919897993,1.0,1014.1212638528476,0.0,0.0,67.70470891144369,36.60013698210424,,,
3.09,3.09,1.0,20.243412225277453,12.806400486288146,-13.1553967501852,7.4730084475610115,-7.474354159975833,9.080949197193734,27.32881438322009,13.934685632911846,1.0,0.0,324.0904676480779,-25.47458340641138,1036.048447621314,104.28120988079321,-8.487972217199557,-11.30224285614825,1.0,1019.5609582110696,0.0,1.0,109.23434012065864,6530.522272852007,1.0,1.0,-12.131084068728958,-26.737984650869176,-30.420513633412085,25.719120919897993,1.0,1014.1212638528476,0.0,0.0,67.70470891144369,36.60013698210424,,,
3.12,3.12,1.0,20.486875193253375,12.479367125457182,-13.75638586214115,7.461239955919084,-6.987377302213675,9.074740094161385,27.65293494412481,13.669105713976846,1.0,0.0,324.0904676480779,-25.47458340641138,1036.048447621314,104.28120988079321,-8.487972217199557,-11.30224285614825,1.0,1012.3579858552396,0.0,1.0,107.24197008555399,6481.023763666696,1.0,1.0,-68.13689442641922,-19.97230977850172,-0.9803444363569744,43.626292180459174,1.0,1013.2181043530175,0.0,0.0,67.70470891144369,36.60013698210424,,,
3.15,3.15,1.0,20.588117481048577,11.223792871433206,-14.12591749439982,7.421324790660736,-6.854048691256056,9.078377548751451,27.374909185107516,13.582009572528612,1.0,0.0,324.0904676480779,-25.47458340641138,1036.048447621314,104.28120988079321,-8.487972217199557,-11.30224285614825,1.0,1012.3579858552396,0.0,1.0,108.46661157525342,6584.204230068623,1.0,1.0,-68.13689442641922,-19.97230977850172,-0.9803444363569744,43.626292180459174,1.0,1013.2181043530175,0.0,0.0,67.70470891144369,36.60013698210424,,,
3.1799999999999997,3.1799999999999997,1.0,19.845400308465898,9.878885646211351,-14.50156819426915,7.323131826292695,-7.007325807698385,9.081386918266666,26.49014486761478,13.608911164371738,1.0,0.0,324.0904676480779,-25.47458340641138,1036.048447621314,104.28120988079321,-8.487972217199557,-11.30224285614825,1.0,1020.6110570051462,0.0,1.0,107.983842094651,6501.345727607065,1.0,1.0,-73.59456539859931,4.792759656432926,23.056711456198823,41.85376900941687,1.0,1012.7768310186067,0.0,0.0,67.70470891144369,36.60013698210424,,,
3.21,3.21,1.0,19.23844439036193,9.042790607002335,-14.408289381125817,7.146628310001048,-7.466426213659949,9.07783727995769,25.68051026388302,13.756051260689839,1.0,0.0,324.0904676480779,-25.47458340641138,1036.048447621314,104.28120988079321,-8.487972217199557,-11.30224285614825,1.0,1020.6110570051462,0.0,1.0,107.39916978791601,6410.6997689728805,1.0,1.0,-73.59456539859931,4.792759656432926,23.056711456198823,41.85376900941687,1.0,1012.7768310186067,0.0,0.0,67.70470891144369,36.60013698210424,,,
3.2399999999999998,3.2399999999999998,1.0,18.595565416481435,8.881016259194864,-14.126483929502122,6.909783919402719,-8.036275145994102,9.0749817037182,24.98449621595772,13.952853649263973,1.0,0.0,324.0904676480779,-25.47458340641138,1036.048447621314,104.28120988079321,-8.487972217199557,-11.30224285614825,1.0,1002.4383462171741,0.0,1.0,108.10538375577762,6403.831327073075,1.0,1.0,-57.18863653591253,34.10036228671029,26.014254527036424,21.334419776712814,1.0,1012.2909606353331,0.0,0.0,67.70470891144369,36.60013698210424,,,
3.27,3.27,1.0,18.47529578743782,9.75133564696296,-13.573176497340928,6.579286411218435,-8.609034529056299,9.065366052621831,24.912972957096397,14.127397030994617,1.0,0.0,324.0904676480779,-25.47458340641138,1036.048447621314,104.28120988079321,-8.487972217199557,-11.30224285614825,1.0,1002.4383462171741,0.0,1.0,107.76714238660364,6479.8675138422395,1.0,1.0,-57.18863653591253,34.10036228671029,26.014254527036424,21.334419776712814,1.0,1012.2909606353331,0.0,0.0,67.70470891144369,36.60013698210424,,,
3.3,3.3,1.0,18.471833784568126,11.672070898663394,-14.31281693611676,6.300380112211105,-9.07080847750566,9.072099344706146,26.120922860322683,14.29256248942615,1.0,0.0,324.0904676480779,-25.47458340641138,1036.048447621314,104.28120988079321,-8.487972217199557,-11.30224285614825,1.0,1008.993412357641,0.0,1.0,108.09954108347243,6555.554870244962,1.0,1.0,-2.389956336508622,47.058378172314626,5.799642588491599,-7.703156127536451,1.0,1011.7362711510542,0.0,1.0,-30.526765581049087,-48.64235414808568,,,
3.33,3.33,1.0,18.930067579688213,11.725736260008127,-15.094828701262093,6.0898051550928285,-9.069467010694042,9.08659706187322,26.901565064718408,14.209405506561694,1.0,0.0,324.0904676480779,-25.47458340641138,1036.048447621314,104.28120988079321,-8.487972217199557,-11.30224285614825,1.0,1008.993412357641,0.0,1.0,107.80625106472345,6480.947421328413,1.0,1.0,-2.389956336508622,47.058378172314626,5.799642588491599,-7.703156127536451,1.0,1011.7362711510542,0.0,1.0,-30.526765581049087,-48.64235414808568,,,
3.36,3.36,1.0,19.5643822111312,11.850222859571813,-15.159200974812501,5.942867941671084,-9.081263180141514,9.079105046207784,27.44073991931525,14.149811615679253,1.0,0.0,324.0904676480779,-25.47458340641138,1036.048447621314,104.28120988079321,-8.487972217199557,-11.30224285614825,1.0,1014.1967928777293,0.0,1.0,107.1205517914014,6360.679389250481,1.0,1.0,37.20634384347681,32.26140959657201,-23.392881298253467,-26.95438048782204,1.0,1010.2532726123263,0.0,1.0,15.829968793656423,-20.7069235669475,,,
3.3899999999999997,3.3899999999999997,1.0,19.98130356395889,12.162469841999592,-13.430940636345865,5.813791957298007,-9.078333041607971,9.075571775805777,26.973474584296188,14.09192360165554,1.0,0.0,324.0904676480779,-25.47458340641138,1036.048447621314,104.28120988079321,-8.487972217199557,-11.30224285614825,1.0,1014.1967928777293,0.0,1.0,107.34602425813121,6323.40716194106,1.0,1.0,37.20634384347681,32.26140959657201,-23.392881298253467,-26.95438048782204,1.0,1010.2532726123263,0.0,1.0,15.829968793656423,-20.7069235669475,,,
3.42,3.42,1.0,20.62501087288596,13.065805093749493,-10.780345981823283,5.715064591812738,-9.079173635845807,9.071464171293877,26.689364843366498,14.049370783401574,1.0,0.0,324.0904676480779,-25.47458340641138,1036.048447621314,104.28120988079321,-8.487972217199557,-11.30224285614825,1.0,1010.3681533204508,0.0,1.0,106.6150247245161,6381.925254267425,1.0,1.0,53.166048813048654,-0.9013542076603335,-41.49945959982466,-24.152280145515228,1.0,1009.920375060204,0.0,1.0,36.36762829654539,20.82227799905836,,,
