time_s,x_m,y_m,altitude_m,vx_mps,vy_mps,vz_mps,speed_mps,mass_kg,roll_deg,pitch_deg,yaw_deg,p_dps,q_dps,r_dps,alpha_deg,beta_deg,qbar_pa,mach,airspeed_mps,load_factor_g,density_kgpm3,pressure_pa,temperature_k,wind_x_mps,wind_y_mps,wind_z_mps,thrust_n,mass_flow_kgps,propulsion_throttle_actual,propulsion_health,energy_j_per_kg,target_distance_m,guidance_mode,pitch_command_deg,heading_command_deg,roll_command_deg
0.0,0.0,0.0,1000.0,83.0,1.5,14.0,84.18580640464282,18.0,1.0000000000000002,8.000000000000004,1.0000000000000002,0.0,0.0,0.0,-1.0827684347795592,-6.349201456408931,4114.848473868095,0.2557463875601956,86.0417728600201,1.7180181447872964,1.1116425003060326,89874.56291621955,281.65,-1.6186018662344348,9.566354501788709,0.6653526424403756,319.2,0.17131232378029196,0.84,nominal,13350.275,nan,altitude_hold,20.0,2.0,0.0
0.03,2.505038713561053,0.04646735758959711,1000.4124443331036,83.5012904520351,1.548911919653237,13.748144436787165,84.63968401845987,17.994860630286592,1.0875168236479114,8.37351009423599,0.8472756551265401,2.1922912294498413,-12.540106365730965,-4.811329997703332,-0.594620422282416,-6.20649547405588,4172.776557131109,0.2575467137790701,86.64705138147676,1.750680619766894,1.1115974687753443,89870.06674995969,281.6473191118348,-1.740218816714953,9.672186404383423,0.4963889932391711,324.87,0.17435537163691558,0.84,nominal,13392.632752591597,nan,altitude_hold,19.907233145759406,2.0,0.0
0.06,5.025374712521403,0.09431291798105614,1000.8177512456737,84.011199965345,1.5948520130486343,13.510230418999873,85.10553212650268,17.989629969137486,1.2569634042162854,9.049904216067407,0.5503644567386852,4.149158264784902,-22.742167352265664,-9.319745467947284,0.34378650787854925,-6.361791328838518,4177.459311671509,0.25769751924171164,86.6973817394765,1.782984278154329,1.1115532178826377,89865.64856807032,281.6446846169031,-1.280845437094381,10.368936426153304,0.6759624515447424,330.53999999999996,0.17739841949353916,0.84,nominal,13436.145199520975,nan,altitude_hold,19.907233145759406,2.0,0.0
0.09,7.561175895979629,0.14347783619651858,1001.2168287340543,84.52670611527418,1.6388306071820813,13.302582946021593,85.58275834239483,17.984308016552678,1.513018674540333,9.783403660434836,0.10846066553847471,6.12508390842677,-24.794442186646826,-13.936800706186428,1.2318487320431573,-6.261416424564768,4218.993072799808,0.25898167851498766,87.1290112264904,1.8076160464562205,1.1115096484272804,89861.29846392456,281.6420906132286,-1.179927649727103,10.92684973224732,0.6704720095922982,336.21,0.18044146735016278,0.84,nominal,13480.787276251187,nan,altitude_hold,19.907233145759406,2.0,0.0
0.12,10.112495149768863,0.19385324382202296,1001.6105835988296,85.0439751263078,1.6791802541834795,13.125162159179917,86.06722508199546,17.978894772532172,1.860739865433513,10.372283728486734,-0.4786263164014617,8.166244354668777,-20.188239713830868,-18.68189303276027,1.8474647363329448,-5.883273810204035,4239.199224058257,0.2596073118325397,87.33909572548417,1.8357162169312347,1.1114666613521311,89857.00654561906,281.63953120660756,-0.8503103090930855,11.253812274755672,0.5308859450499558,341.88,0.18348451520678638,0.84,nominal,13526.228046306896,nan,altitude_hold,19.907233145759406,2.0,0.0
0.15,12.679455828744132,0.24524301907600252,1001.9996166984897,85.56535596584227,1.7129925084659852,12.967769988669959,86.55938737869168,17.973390237075968,2.302014308679922,10.784469908633898,-1.2097009029891939,10.235386618022744,-14.600612557669448,-23.440728310232032,2.435150001513484,-4.772140268454287,4293.773743740977,0.26127919656623494,87.90116947741522,1.8624042388776325,1.1114241910114429,89852.76625745157,281.6370024914598,-0.9866438459147318,10.69964597013885,0.5336643255072612,347.55,0.18652756306341,0.84,nominal,13572.523312783449,nan,altitude_hold,19.907233145759406,2.0,0.0
0.18,15.262186917633834,0.2972877942308745,1002.3844155226793,86.09103629632338,1.7348258384957322,12.826627472986592,87.05859247423862,17.967794410184066,2.831556443673565,11.06963787354055,-2.0738192949754097,12.191279555242419,-10.762717762808082,-27.828374026294135,2.7222124015025195,-4.115407053150833,4298.918550421236,0.26144178389708883,87.95547755183378,1.8924183895174391,1.1113821841435603,89848.57228039898,281.63450129910257,-0.48956094193841726,10.972623123869754,0.3916238722083025,353.21999999999997,0.18957061092003358,0.84,nominal,13619.632390283261,nan,altitude_hold,19.907233145759406,2.0,0.0
0.21,17.860901783838965,0.34965469366637253,1002.7652271705366,86.62382887350442,1.745563314516602,12.693721595242788,87.56634791932741,17.962107291856466,3.4493474961582495,11.308528682212435,-3.0706623607514625,14.14510091864037,-9.736941832482671,-32.112375944499156,3.235018266411452,-2.825311216387391,4441.528614389329,0.2657490084950094,89.40414147071769,1.9184322354916319,1.1113406137347506,89844.4219162068,281.6320260233915,-1.4904025160336098,10.57395272894038,0.4037956762495189,358.89,0.1926136587766572,0.84,nominal,13667.70025899629,nan,altitude_hold,19.907233145759406,2.0,0.0
0.24,20.47569639325121,0.40186853302923525,1003.1425177761176,87.15982031374146,1.7404613120954238,12.576353519366783,88.07966933717843,17.956328882093167,4.151202850892727,11.512559526226633,-4.189189586345417,16.01880581881436,-9.208533346856584,-36.017649534207706,3.6339137592840065,-1.6447701464045386,4482.80221660867,0.26698701996022556,89.82024622447213,1.9482160681126366,1.1112994288653637,89840.31008000704,281.6295736344552,-1.4147421310944146,10.393340716460905,0.43752336386267987,364.56,0.19565670663328083,0.84,nominal,13716.481647222508,nan,altitude_hold,19.907233145759406,2.0,0.0
0.27,23.106709810548402,0.45340178474590276,1003.516655503003,87.70044724323985,1.7177750572222503,12.471257562845178,88.59938748665441,17.950459180894168,4.932295827613947,11.68060345784134,-5.416978527253606,17.809267695458537,-8.758695030472852,-39.52334536083139,3.8959493416404136,-0.5577902637018542,4566.279309100406,0.2694675355894241,90.65435428014955,1.9777241175550273,1.1112585893158196,89836.23275538409,281.62714173923047,-1.6907683546029684,10.545733117689835,0.24466031040100292,370.22999999999996,0.1986997544899044,0.84,nominal,13766.06234119369,nan,altitude_hold,19.907233145759406,2.0,0.0
0.3,25.754081183340116,0.5037035366005226,1003.8879358008487,88.24571242639041,1.6767250618206593,12.376009928192156,89.1250962990607,17.94449818825947,5.789790856874851,11.8166586063061,-6.744973173780968,19.569476023878174,-8.564842448826354,-42.72821926986763,4.374256874771581,0.8013302435134182,4597.638785961814,0.27039734199061694,90.96677028708261,2.009140423879057,1.1112180628081814,89832.18671893406,281.6247284172945,-1.5192153270894353,10.313860043889862,0.43402763139927947,375.9,0.20174280234652803,0.84,nominal,13816.419020779815,nan,altitude_hold,19.907233145759406,2.0,0.0
0.32999999999999996,28.41789075601646,0.5521064792588803,1004.2567668119585,88.79365242254482,1.6134314219452577,12.294367036994737,89.65526940637322,17.938445904189074,6.715991736774775,11.900837219044202,-8.154459336054733,21.218149545181415,-7.797629600463864,-45.40383953923771,4.737515080651906,2.029954436125203,4657.432319912108,0.2721560456755156,91.5580416987569,2.0403945884460892,1.1111778047680547,89828.1675197469,281.62233101572224,-1.5690396458418359,10.414959373875428,0.4625460623253942,381.57,0.20478585020315163,0.84,nominal,13867.428288421173,nan,altitude_hold,19.907233145759406,2.0,0.0
0.36,31.098217624504475,0.5979284532546032,1004.6234696485185,89.34422894960046,1.5273991331907613,12.22342788533324,90.18944718745448,17.93230232868298,7.705348816537257,11.93828841640467,-9.63196570009545,22.806246434843942,-7.287439278483728,-47.65383910310698,5.069297499763925,3.1253195607713837,4689.733714493786,0.273104251830585,91.87664598047597,2.0726899072302944,1.111137780125129,89824.17165590628,281.61994744728463,-1.3137944732096711,10.775807891156107,0.5226671777334557,387.24,0.20782889805977525,0.84,nominal,13919.058940617962,nan,altitude_hold,19.907233145759406,2.0,0.0
0.39,33.79514121718178,0.6404718702367418,1004.9883101117218,89.89745308924361,1.4181138994046194,12.161348773443612,90.72740227160578,17.926067461741187,8.754065257014295,11.940912547857431,-11.167339315756035,24.368979736622236,-7.254519193324085,-49.54755285251231,5.409779614228581,4.591644644165923,4761.020011530686,0.27517817349631873,92.57395668163295,2.105042473092437,1.1110979598498767,89820.19622869261,281.6175759842738,-1.4701769577954693,10.63977642219087,0.46286273481051515,392.90999999999997,0.21087194591639885,0.84,nominal,13971.299372834004,nan,altitude_hold,19.907233145759406,2.0,0.0
0.42,36.50867995542982,0.6789231615924636,1005.3515643275489,90.45129127493463,1.281709711857392,12.108473860900892,91.26715735865041,17.919741303363697,9.854305225555585,11.91575167742219,-12.741985059257962,25.825724704531673,-7.47583706803315,-50.81892486001312,5.815931102943034,6.164075480334256,4819.435102590824,0.27686726938690986,93.14180274475908,2.1180466894017824,1.1110583137892038,89816.23822731785,281.6152148318709,-1.5150602280324668,10.329101117275348,0.4581383063564667,394.7778947368421,0.21187443146760623,0.84,nominal,14023.977924477083,nan,altitude_hold,19.907233145759406,2.0,0.0
0.44999999999999996,39.238618552134554,0.712445268587731,1005.713492532176,90.99795322349108,1.1174035665089161,12.064273487572512,91.80099550864392,17.913385070419668,10.996238767123103,11.859383053808036,-14.332125678210515,27.145702139516477,-7.538483238833357,-51.35605453300859,6.049331028130927,7.142730737142822,4849.459829261765,0.2777344587893355,93.43314644308745,2.12002494638106,1.1110188135275412,89812.29481455787,281.61286229854085,-1.1707466548475631,10.971862539431743,0.33511088561556274,394.7447368421052,0.2118566358661055,0.84,nominal,14076.391609729695,nan,altitude_hold,19.907233145759406,2.0,0.0
0.48,41.98470709110552,0.7403430617105295,1006.0741909304431,91.53628463236542,0.9299264374266183,12.023279942237165,92.32721932369589,17.907029371343686,12.178267920305787,11.78623835053231,-15.929894334137984,28.488819609366942,-8.083058490565373,-51.56099257402588,6.474128141858092,8.584736826326074,4959.155851184444,0.28086425029001494,94.48565188649398,2.124251158501421,1.1109794485538447,89808.36494071735,281.6105177589521,-1.68001635833954,10.887639626445766,0.22906144030769543,394.7115789473684,0.2118388402646048,0.84,nominal,14128.37517851095,nan,altitude_hold,19.907233145759406,2.0,0.0
0.51,44.74654144211143,0.7617825264091486,1006.4339318682632,92.06114503353031,0.7146488232873007,11.991364594002532,92.84157459162154,17.900674206135747,13.392269369337617,11.685112997717304,-17.510559668073196,29.749909017844335,-8.129861767990475,-51.058929679012074,6.823828508663773,9.816787904258776,5030.277481850477,0.2828772576199307,95.1624533798223,2.129299113533581,1.1109401891358,89804.44563726813,281.6081794428563,-1.7822732339529619,11.065708901583168,0.0682384772263725,394.67842105263156,0.21182104466310406,0.84,nominal,14179.524304281716,nan,altitude_hold,19.907233145759406,2.0,0.0
0.54,47.52374085673945,0.7759795696212184,1006.7928898322162,92.57331382093399,0.47323477373566,11.965265465101757,93.34457649264127,17.894319574795855,14.632808904232881,11.559506964682985,-19.055640047398143,30.975691741347124,-8.153582445623682,-49.96379724925379,7.321050881139745,10.958671490727196,5083.2895069333645,0.2843701062690095,95.66426478139287,2.1360363580755983,1.1109010162235298,89800.53500220568,281.6058462160906,-1.745338348845785,11.23740714312883,0.1425753210384127,394.6452631578947,0.21180324906160333,0.84,nominal,14229.87047336838,nan,altitude_hold,19.99408687652192,2.0,0.0
0.57,50.315879663018215,0.7821629760141481,1007.151271888587,93.0712935426255,0.20611354643098972,11.946068545692132,93.83505058446956,17.887965477324006,15.89880256812136,11.460968890229193,-20.560944662112025,32.18755912960921,-9.77808778007338,-48.30194367859677,8.16034276380081,12.048516965402937,5145.03869321237,0.28609830288230775,96.2452451756987,2.154227827805606,1.1108619072139685,89796.6307788783,281.6035167327242,-1.864019406506816,11.27089651839725,0.6321765555787502,394.6121052631579,0.21178545346010264,0.84,nominal,14279.28837956119,nan,altitude_hold,19.99408687652192,2.0,0.0
0.6,53.12234958869093,0.7795023155633007,1007.5096570013907,93.54899752242395,-0.08868868169491084,11.946170426790372,94.30871535016614,17.881611913720203,17.179713173918355,11.27311899856169,-21.974167191434884,33.4128433352862,-7.145474563358645,-46.0590030391118,8.688743903141962,13.404594945805746,5231.947140423543,0.28851079931008844,97.05642250922111,2.1687235428764136,1.110822798924204,89792.72665970365,281.60118722949096,-2.215357394019464,10.829370825389981,0.547334770212965,394.57894736842104,0.2117676578586019,0.84,nominal,14327.361473332017,nan,altitude_hold,19.99408687652192,2.0,0.0
0.63,55.942612411304474,0.7671538886289762,1007.8682900731151,94.00876075378478,-0.41161423114415396,11.954435724145837,94.76668749207371,17.875258883984444,18.466544603910346,11.01343114178475,-23.2691794951702,34.55235807258411,-4.723406692529976,-42.973527069288956,9.222779041473318,14.50472322559945,5285.177292050451,0.28998105673989233,97.55062042210064,2.1837114677385374,1.1107836646306704,89788.81997694231,281.5988561145247,-2.2624944450957862,10.54256472250069,0.6418351999386049,394.54578947368424,0.2117498622571012,0.84,nominal,14374.174095955696,nan,altitude_hold,19.99408687652192,2.0,0.0
0.6599999999999999,58.77616999779498,0.7443535595186487,1008.227345017204,94.45191954968347,-0.7600109703442498,11.968498136298036,95.21022881462628,17.86890638811673,19.756365757680392,10.72596791264191,-24.434335273116968,35.67079054981186,-3.434474015072996,-39.179714710900114,9.695663102699525,15.491664014610043,5326.567139837182,0.29112064832706047,97.93357710081935,2.199145968834103,1.1107444853587478,89784.9088364923,281.59652225738813,-2.2060752903560794,10.214742445360242,0.6648551514237009,394.5126315789473,0.21173206665560043,0.84,nominal,14419.826528479709,nan,altitude_hold,19.99408687652192,2.0,0.0
0.69,61.62255573623781,0.7103896666676296,1008.586933434637,94.87952461476085,-1.1321297617006345,11.98628058109927,95.64035147932684,17.86255442611706,21.048100874353892,10.441396338449874,-25.45634036258891,36.80169267402306,-2.78374142387046,-34.69587295576523,9.944444279421596,16.20587764215812,5367.713135247928,0.2922492659967141,98.3128383624326,2.209646683358515,1.1107052489349867,89780.99202324502,281.59418493267486,-2.09093217444984,10.183887035813465,0.40645066835875276,394.4794736842105,0.21171427105409973,0.84,nominal,14464.39746631137,nan,altitude_hold,19.99408687652192,2.0,0.0
0.72,64.4813995955515,0.6646680901242328,1008.9470202622006,95.29479531045612,-1.5240525514465617,12.002894252120614,96.05982625358476,17.856202997985438,22.344660765193012,10.183428918935377,-26.32571154086595,38.03211709089824,-2.5507545057612715,-29.672030198344217,10.328989046810776,16.393354865199868,5367.630239733678,0.292253392981474,98.31381809606206,2.210248223046514,1.110665959189846,89777.06991971788,281.59184436829565,-1.5996391821212672,10.611804518870235,0.6100734355689845,394.44631578947366,0.211696475452599,0.84,nominal,14508.135406188754,nan,altitude_hold,19.99408687652192,2.0,0.0
0.75,67.35234214095938,0.6067707210041641,1009.307553156967,95.69808484692952,-1.929912304002289,12.017763158879362,96.46903459771005,17.84985210372186,23.65401137568832,9.94351331369324,-27.03370901370938,39.52254459620277,-1.7178334870118177,-24.516002406675963,10.625418668180433,16.755226039019483,5393.464667345042,0.29296226429142813,98.55187177631846,2.2119466635967644,1.110626621838725,89773.14309657778,281.5895009044797,-1.3763336822555858,10.550281172084642,0.4733502835548748,394.4131578947368,0.21167867985109828,0.84,nominal,14551.063234273857,nan,altitude_hold,19.99408687652192,2.0,0.0
0.78,70.23503583226261,0.5362675864576244,1009.668435516945,96.08978971010794,-2.3501044848846555,12.029411999267674,96.86835102690024,17.84350174332633,24.981791066295294,9.71881380365512,-27.565847085672562,41.232225736147754,-0.3718470866349546,-19.012383072270413,11.170211392810348,17.344713916523006,5436.240529140849,0.29412815863577546,98.94366399132676,2.2154072912269847,1.1105872474252694,89769.212606443,281.58715516913986,-1.4351106215709521,9.682825225563272,0.4556890931285456,394.38,0.21166088424959756,0.84,nominal,14593.20367849763,nan,altitude_hold,19.99408687652192,2.0,0.0
0.8099999999999999,73.12900672263346,0.452671030350819,1010.0296441664123,96.46569634569518,-2.7865518702268464,12.040288315574225,97.25412066081049,17.83715191679884,26.329425220977107,9.495909338545816,-27.892542401515783,43.105494796684994,2.049000469739053,-12.89639882441678,11.422955095314112,17.160563153446148,5504.858481773274,0.2959851125759863,99.56792157855882,2.2171930594087743,1.1105478384810654,89765.2787021155,281.5848073129183,-1.611923719533979,9.880457560257824,0.4602053321662794,394.34684210526314,0.21164308864809683,0.84,nominal,14634.189202718288,nan,altitude_hold,19.99408687652192,2.0,0.0
0.84,76.03397612212311,0.35569361941377375,1010.3911361087279,96.83231331632155,-3.232580364568176,12.049731410522709,97.63269178440895,17.830802624139398,27.711208261087975,9.282955998256552,-28.011561378946624,45.41433197755652,4.545720314205543,-6.712253907117311,11.606355544196038,16.677098584441815,5534.926485308808,0.29679886809678296,99.84124832586727,2.2162595364199653,1.1105083996998657,89761.34185221918,281.58245761529327,-1.4393806674366574,10.178102826911877,0.5997268180419713,394.31368421052633,0.21162529304659614,0.84,nominal,14674.623487455354,nan,altitude_hold,19.99408687652192,2.0,0.0
0.87,78.94980377598768,0.24517598708177707,1010.7528259941722,97.19425512881891,-3.6839210777332227,12.056329514810603,98.00841589334357,17.824453865348,29.14586646018094,9.087760599831805,-27.928473901838643,48.26661488096225,7.024058224669829,-0.6931885110055895,11.732845580906197,16.151121512774093,5609.266735019012,0.2987919461204997,100.511287478836,2.2177142857482934,1.1104689403954455,89757.40298653561,281.58010663103784,-1.6832381882762126,10.271820615314983,0.6109155957799641,394.2805263157895,0.2116074974450954,0.84,nominal,14714.923993997047,nan,altitude_hold,19.99408687652192,2.0,0.0
0.8999999999999999,81.87636164585044,0.12096251593454822,1011.1146598003133,97.55192899542517,-4.140449038240962,12.061126871371696,98.38187307819499,17.818105640424648,30.65357291160978,8.914286716367053,-27.644633135782772,51.7403000691409,9.671969677215309,5.219080335275412,11.741714439957988,15.765680890100695,5655.675163921903,0.30003201759534553,100.92801637385661,2.219417096931101,1.1104294664629943,89753.46269357316,281.5777547112979,-1.7096222313612928,9.843535616767037,0.3113562190562246,394.2473684210526,0.21158970184359466,0.84,nominal,14755.144053717777,nan,altitude_hold,19.99408687652192,2.0,0.0
0.9299999999999999,84.81363979603375,-0.017073121535735244,1011.4764871334631,97.90927167277748,-4.601187915676116,12.060911104993622,98.75657945884755,17.81175794936934,32.25339764978951,8.7706637599467,-27.15874047707094,55.82116922262355,12.436315845204769,11.15553957482547,11.764804892388494,14.974571853203337,5682.778155126872,0.3007566630261248,101.17135792496678,2.218527096088528,1.1103899943101678,89749.52261116302,281.5754028336325,-1.5676196703343501,9.632398197172924,0.33927387035047446,394.21421052631575,0.21157190624209393,0.84,nominal,14795.62688575321,nan,altitude_hold,19.99408687652192,2.0,0.0
0.96,87.76171223823945,-0.16893463286584337,1011.8381936899418,98.26908140685667,-5.062050377670271,12.056885215956168,99.13528733848628,17.805410792182077,33.96972616203826,8.651465484767169,-26.471978210897728,60.683141330748995,15.691203072428062,16.78527346559429,11.822081443211497,14.197866624426137,5752.865631906648,0.3026122824789291,101.79514368093069,2.2200240647465934,1.1103505364058948,89745.58398392574,281.5730517410154,-1.8571607259253575,9.046189697445023,0.31190861437277884,394.1810526315789,0.2115541106405932,0.84,nominal,14836.645619991585,nan,altitude_hold,19.99408687652192,2.0,0.0
0.99,90.72062150358757,-0.3346522334980123,1012.1997079994892,98.63030884493719,-5.523920021072298,12.050476984912907,99.51716189085586,17.79906416886286,35.82305598936845,8.55056607870398,-25.579984673910346,66.23105989012035,19.580669575754953,22.192167895740923,11.543093406852101,13.071909588834378,5745.959120368965,0.3024372125188868,101.73582772902382,2.2165458396719697,1.1103111005453241,89741.64758991657,281.5707018980033,-1.391656656180801,8.803451484939446,0.196722865162632,394.1478947368421,0.2115363150390925,0.84,nominal,14878.121021858597,nan,altitude_hold,19.99408687652192,2.0,0.0
1.02,93.6907369198427,-0.5140306478229043,1012.5607969408804,99.00384720850451,-5.979280477496399,12.036298046376391,99.91189132317875,17.792718079411685,37.832184624816755,8.482030328612435,-24.504396614786206,72.28922428305356,23.08700141002224,27.018064081815744,11.162313260851866,11.91221918181783,5745.595939236175,0.30243427935578066,101.73441703774569,2.2147876590534277,1.1102717121557655,89737.71596714326,281.56835481988423,-0.9837635435474104,8.380183330863868,-0.05399166241482467,394.11473684210523,0.21151851943759178,0.84,nominal,14921.022353207623,nan,altitude_hold,19.99408687652192,2.0,0.0
1.05,96.67250074431095,-0.706827648487175,1012.9212093655882,99.39212748227472,-6.426566688809024,12.013747490257831,100.32161229574679,17.786372523828557,40.01266701034367,8.454886549085652,-23.263772477313267,78.78416263113196,26.40870501604588,31.262023924434484,10.834435807423272,10.390789968194726,5813.49499122638,0.30422270343746516,102.33559071441984,2.217969586361433,1.1102323986281506,89733.79184952907,281.56601213912364,-1.1886297624401905,8.185559963003287,0.07347305202233738,394.0815789473684,0.21150072383609106,0.84,nominal,14965.576724634113,nan,altitude_hold,19.929322405514494,2.0,0.0
1.08,99.66627679014728,-0.9128023031403958,1013.2808773920041,99.79253486121084,-6.865821821774025,11.98893421386238,100.7443500495122,17.780027502113473,42.37895899190266,8.41643334312599,-21.83315630952387,85.88687670429927,32.042783210677456,34.66097753815157,10.112947118903197,8.865454069093484,5810.690067781759,0.3041559397263455,102.31270772942774,2.216669129289288,1.1101931673606371,89729.87597533342,281.56367429695194,-0.7128447857929539,7.96429881375111,-0.12000243948214771,394.04842105263157,0.21148292823459033,0.84,nominal,15011.60294972562,nan,altitude_hold,19.929322405514494,2.0,0.0
1.1099999999999999,102.67277092629216,-1.1314741841038847,1013.6394547756428,100.21647120482935,-7.289062698782961,11.952579454624617,101.18960268423972,17.773683014266435,44.95770140834995,8.431295906546989,-20.29139245029695,93.50588974429694,34.75663767059392,37.12872564960463,9.38219199137743,7.190257483145905,5843.550852336682,0.3050213983427798,102.60340811127381,2.195041344000852,1.110154056112169,89725.97211321976,281.5613435439583,-0.5522785407697586,7.778897165265994,-0.1335703166150801,394.0152631578947,0.2114651326330896,0.84,nominal,15060.075204872704,nan,altitude_hold,19.929322405514494,2.0,0.0
1.14,105.69262051091646,-1.3621474831215545,1013.9964840598224,100.66165282080989,-7.6891099672556615,11.900976139321495,101.65394234251083,17.767339060287444,47.774344200609725,8.530889367902304,-18.7022324392236,101.72509619015733,35.64409955053781,38.57220106434161,8.763136450052711,5.547459138492446,5893.842457088571,0.30633778103001735,103.04578959244137,2.1771053266548037,1.1101151147674437,89722.0852420363,281.5590228536111,-0.5854527726147825,7.301965115775872,-0.04582383131994336,393.9821052631579,0.2114473370315889,0.84,nominal,15110.670617292515,nan,altitude_hold,19.929322405514494,2.0,0.0
1.17,108.72635632284116,-1.6041480099524663,1014.3516246264197,101.12452706415647,-8.06668422769706,11.838018886579027,102.13412779055633,17.760995640176496,50.84749457251304,8.696395641311684,-17.08336480087748,110.55170092291279,36.877162169220135,38.98589138996557,7.94741136859239,3.9142596628544952,5966.355909945835,0.3082231370193558,103.67955992287463,2.1561754104074664,1.1100763804627305,89718.21906801914,281.55671443992827,-0.7564575738200006,6.966241644279929,-0.1506113406402691,393.94894736842105,0.21142954143008816,0.84,nominal,15163.081389411525,nan,altitude_hold,19.929322405514494,2.0,0.0
1.2,111.77455219250429,-1.8566531439441396,1014.704477696234,101.60652898877092,-8.416837799722446,11.761768993809156,102.63074150349159,17.754652753933595,54.19894380417645,8.916061214540445,-15.463486198969271,120.02142017517944,37.91244321721565,38.297926316153244,7.084976962041978,2.35091835412269,6022.836884876042,0.30968523916794277,104.17095499930352,2.137010555569626,1.110037896673639,89714.37793002404,281.55442089497444,-0.7867739964902178,6.51239034960019,-0.25145355889935084,393.91578947368424,0.21141174582858746,0.84,nominal,15217.38621697803,nan,altitude_hold,19.929322405514494,2.0,0.0
1.23,114.83778284575342,-2.1187491032375987,1015.0546490221623,102.10768844163772,-8.736531976448632,11.67237753094377,103.14335377083172,17.748310401558737,57.850493754368784,9.179534063066342,-13.876742848567394,130.08675328796005,38.43312361246473,36.49592679191775,6.196982252994613,0.842441439368426,6116.1542965957415,0.31208176817726696,104.97666763047172,2.120663212398329,1.1099997063770142,89710.56611698671,281.55214478135593,-1.1304352004493667,6.0401634409501375,-0.31260666600430637,393.8826315789473,0.2113939502270867,0.84,nominal,15273.56138738066,nan,altitude_hold,19.929322405514494,2.0,0.0
1.26,117.91657034539911,-2.3894820882159307,1015.401803231755,102.62624998818953,-9.024432832611064,11.571806986425655,103.67012246312709,17.741968583051925,61.82719157249774,9.475378113698163,-12.363783122217495,140.79464640087093,38.101424614238404,33.55434693502807,5.164822284322178,-0.5637545807760229,6182.574173065937,0.31377836522455016,105.54693839160372,2.1061873649905176,1.1099618461246101,89706.78727642198,281.5498882789936,-1.205277316338038,5.663319980460784,-0.4048394036218789,393.8494736842105,0.211376154625586,0.84,nominal,15331.437239422574,nan,altitude_hold,19.929322405514494,2.0,0.0
1.29,121.01146591463174,-2.6677257289164755,1015.7455819984124,103.16318564108758,-9.274788023351501,11.459292221912921,104.21122752718537,17.735627298413156,66.15643846240366,9.797749686453852,-10.988622740863967,152.06217244743075,35.93382526274903,29.49847176131998,4.211911196512535,-1.9128478017222323,6263.446375599804,0.3158305002895647,106.23680204434896,2.09790629852664,1.1099243549678304,89703.04530522168,281.5476537170103,-1.4247897366980484,5.227830536470851,-0.25768562624381286,393.81631578947366,0.21135835902408526,0.84,nominal,15391.05138306613,nan,altitude_hold,19.929322405514494,2.0,0.0
1.3199999999999998,124.12291982107762,-2.9523971915372353,1016.085767336633,103.71513021486247,-9.489048754025324,11.339511274023005,104.76380480717489,17.729286547642435,70.86612565182809,10.123487147951128,-9.808446869496198,163.8948524692413,32.10639261226986,24.31952480586046,3.2221835365278104,-2.979636759416052,6330.807150336283,0.31753082523944964,106.80832574968817,2.0945571432043106,1.109887256649847,89699.34257227396,281.54544251231187,-1.4934957784143046,4.7982393436558235,-0.28102506782319514,393.7831578947368,0.21134056342258453,0.84,nominal,15452.124889089711,nan,altitude_hold,19.929322405514494,2.0,0.0
1.3499999999999999,127.25134466440036,-3.242385362296184,1016.4221764607795,104.28082811075802,-9.666272358631613,11.213637471551095,105.32650947468106,17.722946330739756,75.98489446248226,10.426908159862846,-8.898243637487848,176.16245110333634,25.755971138809148,18.22942738819999,2.273843489619765,-3.6608388312942814,6477.375960973459,0.32119203475532143,108.03943279925973,2.0942794511092484,1.1098505710731883,89695.68106307702,281.5432558530049,-2.1645280937734124,4.48925274451677,-0.6828448291256324,393.75,0.21132276782108383,0.84,nominal,15514.533335849143,nan,altitude_hold,19.929322405514494,2.0,0.0
1.38,130.3970565779064,-3.5366678564246534,1016.754699745757,104.85706378353431,-9.809416470948989,11.084109499250445,105.89658143772198,17.716606647705124,81.54665075698156,10.671810606338271,-8.351436927489784,188.8826625072219,16.004765807998158,11.512035164497279,1.0933851539072097,-4.378875387084077,6485.958235609584,0.3214112321953138,108.11274929662056,2.1064127100581835,1.1098143101608198,89692.06196666369,281.54109445165255,-1.603869240757576,4.989188995713742,-0.5536555917464866,393.71684210526314,0.2113049722195831,0.84,nominal,15578.000456359769,nan,altitude_hold,19.929322405514494,2.0,0.0
1.41,133.5604317416381,-3.8339907917417393,1017.0833391800157,105.44583879105703,-9.910764510569528,10.954647808626827,106.47559570222936,17.710267498538535,87.58937954718616,10.796744936826398,-8.3222908311067,201.79266169502034,0.5567990203297163,4.2420453704543615,0.6777074224858397,-4.652355391408655,6574.460008593507,0.32360310445768536,108.8496140605057,2.1122819398111545,1.1097784736641212,89688.48525724477,281.53895829532985,-1.7718204094124435,4.852765820696326,-0.6492398524467213,393.68368421052634,0.2112871766180824,0.84,nominal,15642.706568242003,nan,altitude_hold,19.929322405514494,2.0,0.0
1.44,136.74153730074482,-4.133980894644608,1017.408262269876,106.03685197022436,-9.999670096762314,10.83076966200767,107.05658760333633,17.703928883239993,94.1398802221114,10.694540774566065,-8.914283118500691,214.89707032525442,-19.46715666549565,-3.118786484706813,1.0214627840391313,-4.704557887765337,6678.185589735968,0.32615229516213295,109.70666784209064,2.106711572889309,1.109743043286631,89684.94910777458,281.53684629524577,-2.107884557124167,4.33762092884554,-0.7757378442233043,393.6505263157895,0.21126938101658166,0.84,nominal,15707.92320982429,nan,altitude_hold,19.929322405514494,2.0,0.0
1.47,139.9401943408336,-4.437167325784789,1017.7296022923978,106.62190133629254,-10.106214371339348,10.711334084059647,107.63409353613707,17.697590801809493,101.21539911353709,10.208678492944648,-10.230392145185407,228.16270956415713,-45.00161776043838,-10.30452357700505,1.9127160160234993,-4.71608166174686,6780.303469505032,0.32864288196195485,110.54400745260307,2.0944397025707415,1.1097080044663263,89681.45206398658,281.5347575850994,-2.405250264822376,4.109095459231736,-0.7334360687019004,393.6173684210526,0.21125158541508093,0.84,nominal,15773.067049993693,nan,altitude_hold,19.929322405514494,2.0,0.0
1.5,143.15604873027488,-4.744765608830255,1018.0472669902564,107.19514631470892,-10.25327610151552,10.58882326195277,108.2037533652074,17.69125325424704,108.8150514606642,9.108803620867693,-12.383481940889387,241.59974719909482,-78.00161776043838,-17.11265739431139,3.80290290658281,-4.695547031295954,6854.182989535292,0.33043487841310926,111.14636499656052,2.083074077030674,1.1096733672342298,89677.99512614518,281.5326927645633,-2.4873132011858763,3.704470109814374,-0.7449248909249653,393.58421052631576,0.2112337898135802,0.84,nominal,15837.659351989314,nan,altitude_hold,19.929322405514494,2.0,0.0
1.53,146.38835851830282,-5.0593161230950985,1018.3604560807602,107.74365960093144,-10.485017142161464,10.439636350124433,108.75485173451179,17.684916240552635,116.85889069016838,7.182216488519497,-15.2048530863741,255.17694360148553,-111.00161776043838,-23.098104501410234,6.5127510177242485,-4.829605394761544,6872.5570158108185,0.3308837683334149,111.29695297200477,2.1078416726818383,1.1096392188190105,89674.58699905315,281.53065703547503,-2.1274204403651806,3.360170606385944,-0.6809880756488734,393.5510526315789,0.21121599421207948,0.84,nominal,15900.513454522208,nan,altitude_hold,19.929322405514494,2.0,0.0
1.56,149.6359390301213,-5.38422422389702,1018.6671939300953,108.25268372728237,-10.830270026730702,10.224594977837157,109.27250626517056,17.678579760726272,125.23790387761694,4.2426078600646395,-18.479137093009665,268.8731339799499,-144.00161776043836,-27.99010008191207,9.901051811638197,-5.274946146316232,6883.101129097863,0.3311436605678717,111.38397661003339,2.207197049273992,1.1096057745909116,89671.24917609947,281.5286632394544,-1.7147385742355858,3.266998737999277,-0.4909680591218293,393.5178947368421,0.21119819861057876,0.84,nominal,15959.95295009044,nan,altitude_hold,19.771263352256266,2.0,0.0
1.5899999999999999,152.89702443262652,-5.723120764084206,1018.963909165104,108.70284675017406,-11.2965513395729,9.89050783362299,109.73487644758339,17.672243814767956,133.84186170772642,0.16721097699127677,-21.979550168310922,282.8203986680701,-177.00161776043836,-30.594446206231467,14.191270755853283,-6.315917749311308,6939.013086411565,0.3324918788007933,111.83708223069591,2.2140608619810327,1.1095734238818422,89668.02051174667,281.5267345904268,-1.7490897759496153,2.89717613014695,-0.4265062702688191,393.48473684210524,0.21118040300907803,0.84,nominal,16013.493974297162,nan,altitude_hold,19.771263352256266,2.0,0.0
1.6199999999999999,156.16836993188278,-6.077835843839245,1019.2466665215876,109.04484997520838,-11.823835991834613,9.425245216120313,110.08822666871106,17.665908402677683,142.59300887799392,-5.127641094151045,-25.474872344337108,297.3522750931354,-210.00161776043834,-30.85856927285004,19.113705944382517,-8.007602140778376,6996.4313303607305,0.33387040780717303,112.30039814593393,2.32205290126722,1.109542595664528,89664.94381564533,281.52489666760965,-1.8604279335401972,2.7481276232975547,-0.5274746190699312,393.45157894736843,0.21116260740757734,0.84,nominal,16055.10414777468,nan,altitude_hold,19.771263352256266,2.0,0.0
1.65,159.44576328732916,-6.449417233265709,1019.5106522739924,109.24644518154561,-12.386046314215493,8.799525080158377,110.29792187407102,17.659573524455457,151.49930213880043,-11.50694146177929,-28.60998234485785,312.7164231079002,-235.74936184684694,-28.962175834710152,24.315267610338328,-10.895684542922641,7057.377956408182,0.33532681523729463,112.78993051736141,2.311646626954613,1.1095138146524144,89662.0714514099,281.523180760219,-2.2097257270330646,2.2773117497665387,-0.3697891142821855,393.4184210526316,0.2111448118060766,0.84,nominal,16080.799922992086,nan,altitude_hold,19.771263352256266,2.0,0.0
1.68,162.7270923722052,-6.836900409575478,1019.7536531449526,109.37763616253422,-12.916105876992308,8.100029032007743,110.43506487456217,17.653239180101274,160.70225178192223,-18.886235434607936,-31.097809006481594,329.3639351823142,-258.64371689800834,-26.558359312990103,29.599338927329693,-14.505674409508142,7048.997384215873,0.3351325985758345,112.72428792180469,2.29924985297067,1.1094873220191057,89659.42748438264,281.52160125455777,-1.980003529116266,2.3289792917067604,-0.4923250099055884,393.3852631578947,0.21112701620457588,0.84,nominal,16098.318939538327,nan,altitude_hold,19.771263352256266,2.0,0.0
1.71,166.01045604443505,-7.239051378187391,1019.9739554143805,109.44545574099511,-13.405032287063747,7.343408980927463,110.50759398535699,17.646905369615137,170.50976539585386,-27.14742118339249,-32.59250481237069,347.40289948998634,-279.7678718768637,-24.136718374940326,34.85427533631118,-19.279784515337827,7134.634579927621,0.3371666972461403,113.40818338196254,2.354496505494085,1.1094633044689535,89657.03054368228,281.5201692898065,-2.5625277108380105,2.398305019076439,-0.7733780089523208,393.3521052631579,0.21110922060307516,0.84,nominal,16108.49175408069,nan,altitude_hold,19.771263352256266,2.0,0.0
1.74,169.29321480037694,-7.6547595843881115,1020.1696968371609,109.4252918647298,-13.8569402066907,6.5247140926827445,110.49199602489023,17.640572092997044,-178.45262861938835,-36.08683346613348,-32.50804601482064,367.5681091960763,-299.07798927984726,-23.185379592701214,35.0,-25.212813794304655,7092.5084502907475,0.3361738234424392,113.0739683858617,2.556796426304947,1.1094419648979466,89654.90087432474,281.51889697055844,-2.247902287763814,2.3016507788292078,-0.8046768553424779,393.31894736842105,0.21109142500157443,0.84,nominal,16108.687750270323,nan,altitude_hold,19.771263352256266,2.0,0.0
1.77,172.57254231362614,-8.082303711699774,1020.3377107942932,109.31091710830654,-14.251470910388777,5.60046523774215,110.3781963661659,17.634239350246997,-165.0944603166797,-45.30574303504032,-29.79544037639354,387.43675656429576,-316.212125963318,-24.13729096694834,35.0,-29.999999999999996,7194.862027305975,0.33859428621234033,113.88788383709588,2.7543492322002536,1.1094236484031725,89653.07291284246,281.51780487983706,-3.174158406652559,2.3541794283106845,-0.8656192122663999,393.28578947368425,0.21107362940007374,0.84,nominal,16097.767928084795,nan,altitude_hold,19.771263352256266,2.0,0.0
1.7999999999999998,175.84547020710275,-8.518209124668303,1020.4749903614958,109.09759644922052,-14.53018043228428,4.575985573419477,110.1560317838286,17.627907141364993,-147.44212672238936,-54.071986199108345,-22.62242718130692,406.98255263997027,-332.0289162837802,-24.483751671002643,35.0,-29.999999999999996,7190.382768629013,0.3384916910999674,113.8531950185726,2.834535336335593,1.1094086826725638,89651.57935837006,281.51691256265025,-3.392321856105815,2.191149079107011,-0.8059689943569689,393.25263157894733,0.21105583379857298,0.84,nominal,16074.61673340849,nan,altitude_hold,19.771263352256266,2.0,0.0
1.8299999999999998,179.1103775772451,-8.956930782122711,1020.5799176756418,108.8302456714111,-14.62405524848029,3.4975771382007794,109.8640906331453,17.621575466351036,-122.6826531781838,-61.02375178680888,-8.334966491410624,423.82906514638256,-346.20185561349024,-18.310568282086397,35.0,-29.999999999999996,7124.8488482607645,0.3369477807378349,113.33375657302743,2.8800393847358556,1.1093972439737618,89650.43779886789,281.5162305351083,-3.130135457550756,2.4601105038934943,-0.691064283221651,393.21947368421047,0.21103803819707223,0.84,nominal,16043.529254997815,nan,altitude_hold,19.771263352256266,2.0,0.0
1.8599999999999999,182.36631725866783,-9.392405589438312,1020.6524597189741,108.53132271409179,-14.515826910520037,2.4180681110780915,109.5244461038554,17.615244325205122,-89.78336588357055,-63.885974806014175,13.959344281907086,437.662185272635,-357.9085320533405,-5.659355222925258,35.0,-29.999999999999996,7176.672869238679,0.3381724776917892,113.74559311615688,2.9252406404409035,1.1093893358227167,89649.64858266154,281.5157590118266,-3.8749634481932382,2.5967200924194622,-0.7517141560487124,393.18631578947367,0.21102024259557153,0.84,nominal,16006.98359128124,nan,altitude_hold,19.771263352256266,2.0,0.0
1.89,185.6126385956829,-9.81851987801023,1020.6941231358604,108.21071123383578,-14.203809619063922,1.3887805628774754,109.14776655927977,17.608913717927255,-55.92153587747245,-60.966738681920795,36.80408841756649,453.7193591157085,-366.9184494835491,12.24706746809477,35.0,-29.999999999999996,7110.164231488246,0.3366027023173587,113.21753876967374,2.91582172486473,1.1093847939161996,89649.19531090629,281.51548819961687,-3.674027679644075,2.9990286957621946,-0.6307830630012445,393.1531578947368,0.2110024469940708,0.84,nominal,15966.207495089802,nan,altitude_hold,19.771263352256266,2.0,0.0
1.92,188.84970861188782,-10.22979929123289,1020.7080787594948,107.902333873497,-13.709313774088697,0.4651874544794039,108.77074670549909,17.602583644517434,-28.97379576922298,-53.47125546280046,52.05790770221572,471.4948006849285,-372.3933850985087,35.9613594374991,13.650759210380013,-29.999999999999996,7078.662717403289,0.3358565014615814,112.96653320723749,2.817850991739619,1.1093832725574126,89649.04348291899,281.5153974880633,-3.861616659024301,2.7024118637816237,-0.489929194569377,393.12,0.2109846513925701,0.84,nominal,15925.264550002721,nan,altitude_hold,19.771263352256266,2.0,0.0
1.95,192.08271891372735,-10.620301416661318,1020.7001592059408,107.76701006131748,-13.016737514280926,-0.2639851184655029,108.55060387309949,17.596254104975657,-8.23172982419691,-43.527116684772245,60.16295348350213,490.82411257009534,-374.8944133502936,65.02545401578789,-24.540159585619158,-29.999999999999996,7098.190861999538,0.3363192900839784,113.12220415504314,3.0086947049073087,1.1093841358996726,89649.12964241646,281.51544896516134,-4.207011814233367,3.054808465453647,-0.6601009224880346,393.08684210526314,0.21096685579106939,0.84,nominal,15901.26601688422,nan,altitude_hold,19.771263352256266,2.0,0.0
1.98,195.30839559558027,-11.00342068833717,1020.6589857155766,107.52255606176438,-12.770642389195057,-1.37244967880864,108.28699361977334,17.589925099301926,9.15644700056519,-31.418172447023764,63.69194423852366,510.6340395135051,-407.8944133502936,98.02545401578787,-35.0,-29.999999999999996,7099.827950516412,0.3363572309617899,113.13501948277785,2.839778239594977,1.1093886243950941,89649.57758380305,281.5157165928487,-4.413214989812285,3.6200579550442202,-0.24962525669978802,393.0536842105263,0.21094906018956863,0.84,nominal,15872.281935872074,nan,altitude_hold,19.771263352256266,2.0,0.0
2.01,198.52613404012646,-11.370197761870195,1020.5917231237247,107.25794815154035,-12.225902451100799,-2.242086395062902,107.97577081838905,17.583596627496238,24.62404051796638,-17.81030247892514,63.60351425809328,520.0,-440.8944133502935,131.0254540157879,-35.0,-29.999999999999996,7059.063830455543,0.3353888637476741,112.80939312781435,2.8079125097545345,1.1093959570031244,89650.30936191841,281.51615379969576,-4.42368334123769,3.5455142205439523,-0.1361943877509998,393.0205263157895,0.21093126458806793,0.84,nominal,15837.969363483913,nan,altitude_hold,19.771263352256266,2.0,0.0
2.04,201.73677333670526,-11.715973619429159,1020.5045591143268,107.02130988595987,-11.525861918632119,-2.905466979932768,107.67937593172383,17.577268689558597,39.503380878652635,-3.360732068631785,60.227368544846335,520.0,-473.8944133502936,164.0254540157879,-35.0,-29.999999999999996,7010.499731632628,0.3342314209449787,112.42019571194017,2.742998376384317,1.109405459212415,89651.25766314687,281.51672036575684,-4.285859422910704,3.9755569900776937,0.047578257451841355,392.9873684210526,0.2109134689865672,0.84,nominal,15805.155035161264,nan,altitude_hold,19.771263352256266,2.0,0.0
2.07,204.94224860953332,-12.038362374425999,1020.4050386752624,106.8491757609357,-10.746291833228009,-3.3173479688121206,107.43944315986757,17.570941285489,55.48935401411731,11.06095534234859,53.12541939256141,520.0,-506.8944133502936,197.02545401578786,-35.0,-29.999999999999996,6990.490451314556,0.33375208514646465,112.2590980031593,2.677868401312446,1.1094163085375324,89652.3404061381,281.51736724861075,-4.34050995459153,4.358837530708028,-0.0319344691193269,392.95421052631576,0.21089567338506648,0.84,nominal,15778.37204577597,nan,altitude_hold,19.91459811395385,2.0,0.0
2.1,208.14496370398547,-12.337797886403193,1020.301607829362,106.75716981507162,-9.981183732573152,-3.4476948633495357,107.2781615031605,17.564614415287448,74.43895158286021,23.70143660460141,41.69813768622097,520.0,-515.9990133982102,230.02545401578786,-35.0,-28.879579163896903,6914.815836589909,0.3319385921398079,111.6492543388851,2.56624554828114,1.1094275842457713,89653.46570402896,281.5180395491091,-3.883455316041702,4.594566900639075,-0.019056867888077533,392.9210526315789,0.21087787778356573,0.84,nominal,15760.042730168905,nan,altitude_hold,19.91459811395385,2.0,0.0
2.13,211.34794434391412,-12.618211121450049,1020.2016456523681,106.76602133095504,-9.347107834895203,-3.3320725664594,107.2261835714918,17.55828807895394,97.60557326698586,32.53744798634148,25.572894561911614,520.0,-501.4299921493354,263.02545401578783,-35.0,-23.49913527399736,6847.983658708008,0.330328588940428,111.10784969453279,2.400988961065286,1.1094384818938576,89654.5532746668,281.5186893032596,-3.413185179250182,4.669353901877111,-0.32615891067362085,392.8878947368421,0.21086008218206503,0.84,nominal,15753.487689990423,nan,altitude_hold,19.91459811395385,2.0,0.0
2.16,214.55429414677357,-12.885843020769714,1020.1094237945838,106.87832676198165,-8.921063310655546,-3.0740619261445654,107.29404437693371,17.551962276488478,124.08997335476265,35.819564521254904,6.163910879404471,520.0,-468.4299921493354,296.02545401578783,-33.64909840161018,-21.200810248438064,6889.920011133977,0.3313366403612022,111.44703202355468,2.3281409082760356,1.1094485357826596,89655.5566414878,281.5192887453352,-3.742694711308947,4.368435972745962,-0.46259416615292376,392.85473684210524,0.2108422865805643,0.84,nominal,15759.862060234864,nan,altitude_hold,19.91459811395385,2.0,0.0
2.19,217.76571826857136,-13.148035271369318,1020.0275330896822,107.04747072659273,-8.739741686653442,-2.729690163386321,107.4383324614555,17.54563700789106,150.53133043142884,32.924433360859545,-13.07790996032796,520.0,-435.4299921493354,329.0254540157878,-27.585256230552208,-21.65787395646382,6901.163129072195,0.33160522355391864,111.53747700954445,2.452940242287923,1.1094574634430752,89656.44761377048,281.5198210349171,-3.6884992075820304,4.435134753576654,-0.5904446943319478,392.8215789473684,0.21082449097906358,0.84,nominal,15774.550648423052,nan,altitude_hold,19.91459811395385,2.0,0.0
2.2199999999999998,220.98249321299954,-13.412065847843426,1019.9577164809843,107.22583148093939,-8.80101921580358,-2.3272202899262044,107.61158316042747,17.539312273161688,173.71673411584865,24.837973320221263,-28.86377399276874,520.0,-402.4299921493355,362.0254540157878,-23.348866000795365,-24.73260533918128,6917.577652534705,0.33199794699561874,111.66966198416189,2.6073570842219254,1.1094650748383945,89657.20722533984,281.52027484287356,-3.656673613930966,4.3136932381708455,-0.5417823065206209,392.7884210526316,0.21080669537756289,0.84,nominal,15792.494755475043,nan,altitude_hold,19.91459811395385,2.0,0.0
2.25,224.20331832183692,-13.686711564137243,1019.8990889621235,107.36083696124557,-9.154857209793917,-1.9542506286947043,107.76817628163994,17.532988072300363,-167.0010271846497,12.875428110077813,-40.45257313089097,520.0,-381.1953846970833,395.0254540157878,-21.462809189303666,-29.415783963256438,6948.454433476001,0.33273687895923054,111.91828228980218,2.7667177189179917,1.1094714664318195,89657.84510253686,281.5206559217462,-3.6962682975334578,4.608174930171364,-0.34172820881802124,392.7552631578947,0.21078889977606213,0.84,nominal,15808.78331030572,nan,altitude_hold,19.91459811395385,2.0,0.0
2.28,227.42542207845534,-13.980534155592805,1019.8467015072904,107.40345855394744,-9.794086381852075,-1.7462484944385068,107.86323016305889,17.52666440530708,-150.75425082868452,-1.9961994775028928,-48.20324053813081,520.0,-374.8358897526408,425.8478223628864,-21.921478223582394,-29.999999999999996,6948.624955668715,0.33273990411387333,111.91936750786579,2.8386173387961766,1.1094771777550259,89658.41508990382,281.52099644020257,-3.483168251583685,5.291985160161002,-0.16155152629132802,392.7221052631579,0.21077110417456144,0.84,nominal,15818.517865940976,nan,altitude_hold,19.91459811395385,2.0,0.0
2.31,230.64588018012788,-14.298487744001047,1019.7920230791714,107.34860338908445,-10.598452946941396,-1.8226142706327495,107.88592019923173,17.520341272181845,-135.99680550079856,-19.005829696959267,-52.25654288963718,520.0,-381.7288029284753,452.7298057475587,-25.37302852620292,-29.999999999999996,7008.4828781978085,0.3341688920507307,112.40008843168728,2.864666997171651,1.1094831388660058,89659.01000670833,281.52135184998536,-3.8910227701556526,5.430953257437069,-0.21525987951110934,392.68894736842105,0.2107533085730607,0.84,nominal,15820.429331746855,nan,altitude_hold,19.91459811395385,2.0,0.0
2.34,233.86151533900377,-14.640909002916164,1019.7243587941394,107.18783862919666,-11.414041963837235,-2.255476167732086,107.81743957585967,17.514018672924653,-120.17367473064822,-37.407242037435,-51.547323583747186,519.2822443791321,-401.912715975844,478.32047754317534,-31.406853605919938,-29.999999999999996,6991.906811284719,0.33377210910082084,112.26671535510282,2.829209652719283,1.1094905157453547,89659.74621774393,281.52179166783804,-3.6368684751860054,6.41312237423746,-0.28269044324314246,392.6557894736842,0.21073551297155999,0.84,nominal,15812.380021515623,nan,altitude_hold,19.91459811395385,2.0,0.0
2.37,237.06975747930056,-15.002265290056386,1019.6333683572204,106.94140467655969,-12.045209571340719,-3.0330145639668067,107.66034685601963,17.507696607535507,-97.02232049473572,-55.66528003786376,-40.92816462169174,514.2302136279519,-433.04176850282215,506.2282455806931,-35.0,-29.999999999999996,6996.90173563599,0.3338894655879491,112.30630704649376,2.8372851872097455,1.109500435741961,89660.73623316993,281.52238310567805,-3.769178898427923,6.580322464533548,-0.039213754353858835,392.62263157894733,0.21071771737005923,0.84,nominal,15794.562714379565,nan,altitude_hold,19.91459811395385,2.0,0.0
2.4,240.26886601595686,-15.373694996243646,1019.5125262832232,106.63695122187619,-12.380990206242032,-4.028069133241052,107.4288305126982,17.501375076014405,-49.05441949666596,-66.83482794326238,-3.940632148323744,507.40658285324065,-466.04176850282215,520.0,-35.0,-29.999999999999996,6951.058708266079,0.33279142213325535,111.93712778553227,2.8881055967438383,1.109513610340845,89662.05106104136,281.523168579159,-3.616259569302187,6.572131509838411,-0.164228514632688,392.5894736842105,0.2106999217685585,0.84,nominal,15768.479328538388,nan,altitude_hold,19.91459811395385,2.0,0.0
2.4299999999999997,243.45804838384083,-15.745305421969865,1019.3593834521538,106.3060789294656,-12.387014190873971,-5.104761035649318,107.14699773280522,17.49505407836135,5.0622760487011265,-58.39027519161939,39.627081788747844,500.97256092746784,-499.04176850282215,520.0,-35.0,-29.999999999999996,6961.093429748466,0.33302845396998143,112.01705342852918,2.8956139166521435,1.1095303066460498,89663.71736125008,281.52416400756096,-3.883463544366098,7.153815298149552,-0.18124896614948638,392.5563157894737,0.2106821261670578,0.84,nominal,15736.740259307946,nan,altitude_hold,19.91459811395385,2.0,0.0
2.46,246.63794035119744,-16.1065852822978,1019.1759672916842,105.99639891188717,-12.04266201093114,-6.113872015655449,106.853365513779,17.488733614576336,31.12767262916258,-38.973169677923714,54.396770567234306,495.59432284234674,-520.0,520.0,-35.0,-29.999999999999996,6877.651430841116,0.3310227614738397,111.34265685107519,2.8590066475775853,1.1095503037357817,89665.7130892779,281.52535621260404,-3.4372396590163303,7.618334872088548,-0.20530320797992963,392.5231578947368,0.21066433056555708,0.84,nominal,15703.522860451621,nan,altitude_hold,19.91459811395385,2.0,0.0
2.4899999999999998,249.8104544418512,-16.449063453008282,1018.9686019901503,105.75046968845824,-11.41593902368277,-6.912176717794497,106.58922877148511,17.48241368465937,47.00696810355675,-17.46406080152818,56.91812330298742,491.54136029094354,-520.0,520.0,-35.0,-29.999999999999996,6861.8277306851805,0.3306375831628712,111.21336468986202,2.8143554837605684,1.1095729122313436,89667.96944819887,281.526704087064,-3.4556947398831883,8.566031273791797,-0.3435391481652141,392.49,0.2106465349640564,0.84,nominal,15673.300285756703,nan,altitude_hold,19.91459811395385,2.0,0.0
2.52,252.9778543734849,-16.7679728412078,1018.7464673903776,105.57999772112298,-10.630312939984005,-7.404486659091633,106.37182848235237,17.476094288610447,61.18279581711019,3.8341427111747146,53.57946251017696,488.6077754749079,-516.4731396764597,520.0,-35.0,-29.999999999999996,6818.859975773274,0.3295963132501032,110.86340709758164,2.73985951314138,1.1095971313757755,89670.38656407472,281.52814796196253,-3.372872032823733,8.472740189414484,0.014446336900266334,392.45684210526315,0.21062873936255563,0.84,nominal,15647.972991773342,nan,altitude_hold,19.91459811395385,2.0,0.0
2.55,256.14253978158405,-17.063227940401646,1018.5197372943254,105.48951360330517,-9.84183663979483,-7.5576698684052745,106.2168423676119,17.46977542642957,77.718881759869,23.32254214065104,45.077360128047374,486.1760570332473,-496.3515605675561,520.0,-35.0,-27.259497749937623,6744.744847365914,0.3277956960883677,110.25803796070677,2.647370480335748,1.1096218519802779,89672.85373938699,281.52962170758684,-2.9921182096725376,8.364543828061926,-0.0013344868963587053,392.4236842105263,0.2106109437610549,0.84,nominal,15629.275383010454,nan,altitude_hold,19.91459811395385,2.0,0.0
2.58,259.30656651663145,-17.33915122373444,1018.2972913192468,105.4675578349129,-9.197442777759798,-7.414865835953676,106.12718287355061,17.463457098116738,100.3293244432822,38.97373024136637,29.47841706145629,483.53320922087437,-463.3515605675561,520.0,-35.0,-24.805865294328886,6709.828922152298,0.3269417226783111,109.97107609650364,2.5689907225921194,1.1096461058923435,89675.2743502322,281.53106760642487,-2.772813028259461,8.772034743231275,-0.01502996963223413,392.3905263157895,0.2105931481595542,0.84,nominal,15617.57460425392,nan,altitude_hold,19.73677477771129,2.0,0.0
2.61,262.47108760124564,-17.603168624491808,1018.085312342264,105.48403615380569,-8.800580025245548,-7.0659658994263435,106.08609695040153,17.45713930367195,131.92622578082265,47.308313266325534,4.557631968081558,481.44034171632063,-430.3515605675561,520.0,-35.0,-23.665541829286663,6722.359483392219,0.3272426521554349,110.07256697386116,2.520693754664442,1.1096692189354787,89677.58111061402,281.53244546977527,-2.8478484644484157,9.266285255462618,0.26623392062575013,392.3573684210526,0.21057535255805349,0.84,nominal,15611.13631136626,nan,altitude_hold,19.73677477771129,2.0,0.0
2.6399999999999997,265.63617732490064,-17.86451963237319,1017.8865901283242,105.50299078850082,-8.711700262712805,-6.624073797995007,106.0690960669842,17.45082204309521,166.52859631508943,45.03003399923986,-23.260613926715056,480.5338613129415,-397.35156056755613,520.0,-35.0,-23.756822348576293,6719.954878888019,0.327180174276133,110.05180414240135,2.5227649970402655,1.1096908868672208,89679.74365421252,281.53373716416587,-2.8837393681116565,9.155583215597872,0.04499675649934304,392.32421052631577,0.21055755695655273,0.84,nominal,15607.384099315492,nan,altitude_hold,19.73677477771129,2.0,0.0
2.67,268.80077144020555,-18.132552476569867,1017.7002786224515,105.48647051016326,-8.934428139889185,-6.210383529091209,106.04616131881811,17.444505316386515,-166.30770615691029,34.120264685897254,-43.146075983036724,481.23776294071155,-364.35156056755613,520.0,-35.0,-24.360865709542793,6742.212335032186,0.3277178556487653,110.23289816638345,2.549594585906943,1.1097112018754665,89681.77117981242,281.53494818895405,-2.987611913389829,9.676094547308862,-0.02057530607155378,392.2910526315789,0.210539761355052,0.84,nominal,15603.124602581262,nan,altitude_hold,19.73677477771129,2.0,0.0
2.6999999999999997,271.9631389533278,-18.41542084495613,1017.5219165605644,105.41225043740953,-9.42894561287546,-5.945402062903482,105.99997812895663,17.438189123545865,-146.91756287468485,18.632841862756504,-54.325794428709976,481.35387003975256,-344.9470589567674,520.0,-35.0,-25.503676337285118,6746.018621183247,0.3278068009623504,110.26304330838177,2.591969740643519,1.1097306503599034,89683.71223076346,281.5361075423563,-2.9784072420204843,9.900984648898369,0.03438418090604628,392.2578947368421,0.2105219657535513,0.84,nominal,15596.4789847083,nan,altitude_hold,19.73677477771129,2.0,0.0
2.73,275.1213624919046,-18.71877366848477,1017.3440349581083,105.2741179525599,-10.111760784287949,-5.929386748534856,105.92471498220733,17.431873464573258,-131.71044703034613,0.9105227323484861,-59.389266816249204,480.4025435755386,-344.42930595545477,520.0,-35.0,-26.627618003637405,6771.770296311829,0.3284283312368705,110.47233177118412,2.632840566781348,1.1097500467150592,89685.64808692611,281.5372637727723,-3.0419085539893613,10.720325937821757,0.21867405122878472,392.22473684210524,0.21050417015205058,0.84,nominal,15586.75950245286,nan,altitude_hold,19.73677477771129,2.0,0.0
2.76,278.2738261259418,-19.044638447131096,1017.1574427237412,105.08212113457378,-10.862159288210865,-6.219741145572285,105.82496806737825,17.425558339468697,-117.44816577747788,-17.76980506523611,-59.32160956354526,477.539210188493,-361.21417668376546,520.0,-35.0,-28.311166461760592,6691.325382009829,0.32646803290845755,109.81318935821562,2.6673219462008153,1.1097703931633494,89687.67877582178,281.53847662229566,-2.378342475491854,10.852596442795488,0.07745674522071985,392.1915789473684,0.21048637455054983,0.84,nominal,15574.36896891759,nan,altitude_hold,19.73677477771129,2.0,0.0
2.79,281.419736785268,-19.391048436774607,1016.95258452599,104.86368864420639,-11.546999654783697,-6.828606591703733,105.71828727841222,17.41924374823218,-100.30056447062147,-36.04313890085487,-52.651575112005716,471.9686614440444,-391.7804636356547,520.0,-35.0,-29.999999999999996,6611.105447584924,0.3245011439425069,109.15185023939945,2.6827393892647327,1.1097927317031406,89689.90829662253,281.53980820058104,-1.7543717457976096,10.71868977354684,0.3096483518292961,392.1584210526316,0.21046857894904913,0.84,nominal,15561.076195582247,nan,altitude_hold,19.73677477771129,2.0,0.0
2.82,284.55928521252224,-19.752309897670116,1016.7215943580235,104.65161424180793,-12.04204869651696,-7.69967226555018,105.62318047295463,17.41292969086371,-73.71475675905126,-50.85739551038477,-34.333478261719115,463.10474620443034,-424.78046363565466,520.0,-35.0,-29.999999999999996,6667.525967765526,0.3258783145272948,109.61537884972451,2.698277676715951,1.1098179201878735,89692.42227174019,281.54130963667285,-2.188627472013404,11.139226464332648,0.25787213067153286,392.1252631578947,0.2104507833475484,0.84,nominal,15548.760949922284,nan,altitude_hold,19.73677477771129,2.0,0.0
2.85,287.69322830509134,-20.12016764421114,1016.4595949627507,104.46476975230291,-12.261924884700756,-8.733313175759122,105.54389456669483,17.406616167363282,-33.01755769961412,-55.27151222763329,-0.7962696293947288,455.2855569130025,-457.78046363565466,520.0,-35.0,-29.999999999999996,6702.171375616346,0.3267186789099932,109.89838379513019,2.708779888243264,1.1098464906248975,89695.27380398958,281.5430126327421,-2.5301470615524355,11.136906456482915,0.3351612629070956,392.0921052631579,0.2104329877460477,0.84,nominal,15537.820327094256,nan,altitude_hold,19.73677477771129,2.0,0.0
2.88,290.82289797343014,-20.484947883823068,1016.1654519722157,104.32232227795994,-12.15934132039762,-9.804766351163735,105.48521199681679,17.4003031777309,2.9767039763347283,-44.99136744478175,28.277795945068,448.4953234607571,-490.7804636356547,520.0,-35.0,-29.999999999999996,6712.64407582357,0.3269680066999556,109.98262363885421,2.698144438718405,1.1098785669181976,89698.47526611331,281.5449245621806,-2.686113860381091,11.141389037480087,0.3168966792831687,392.05894736842106,0.210415192144547,0.84,nominal,15528.743904590017,nan,altitude_hold,19.73677477771129,2.0,0.0
2.9099999999999997,293.95007300374795,-20.837114965654408,1015.8424413357023,104.23916767725953,-11.738902727711261,-10.767021217110198,105.44920417522455,17.393990721966563,24.387383207370824,-26.386737316012017,42.086682827531845,442.6874474469976,-520.0,520.0,-35.0,-29.999999999999996,6732.550994983606,0.3274460564325958,110.14383649160374,2.6970817895416026,1.1099137920453523,89701.99103125278,281.5470241313179,-2.8681540054729036,11.445010949715975,0.2870506859676323,392.0257894736842,0.21039739654304623,0.84,nominal,15521.778607918863,nan,altitude_hold,19.73677477771129,2.0,0.0
2.94,297.07621142956634,-21.169311262032608,1015.4976946415408,104.20461419394573,-11.073209879273382,-11.491556472054466,105.41951179212475,17.387678800070272,38.908877944122786,-5.3007030802297015,47.25618834776362,438.07266263300136,-520.0,520.0,-35.0,-29.999999999999996,6667.979598158854,0.3258652019774213,109.6125167893671,2.691173890376866,1.1099513884881287,89705.7435026398,281.54926498482996,-2.4652301296589885,11.229461483264636,0.2999234593129001,391.99263157894734,0.2103796009415455,0.84,nominal,15515.267200401431,nan,altitude_hold,19.73677477771129,2.0,0.0
