time_s,x_m,y_m,altitude_m,vx_mps,vy_mps,vz_mps,speed_mps,mass_kg,roll_deg,pitch_deg,yaw_deg,p_dps,q_dps,r_dps,alpha_deg,beta_deg,qbar_pa,mach,airspeed_mps,load_factor_g,density_kgpm3,pressure_pa,temperature_k,wind_x_mps,wind_y_mps,wind_z_mps,thrust_n,mass_flow_kgps,propulsion_throttle_actual,propulsion_health,energy_j_per_kg,target_distance_m,guidance_mode,pitch_command_deg,heading_command_deg,roll_command_deg,elevator_command_deg,aileron_command_deg,rudder_command_deg,elevator_deg,aileron_deg,rudder_deg,throttle,elevator_saturated,aileron_saturated,rudder_saturated,elevator_failed,aileron_failed,rudder_failed,elevator_raw_rad,aileron_raw_rad,rudder_raw_rad,elevator_effective_rad,aileron_effective_rad,rudder_effective_rad,sensor_time_s,imu_valid,imu_ax_mps2,imu_ay_mps2,imu_az_mps2,gyro_p_rps,gyro_q_rps,gyro_r_rps,imu_accel_norm_mps2,imu_gyro_norm_rps,gps_valid,gps_latency_s,gps_x_m,gps_y_m,gps_z_m,gps_vx_mps,gps_vy_mps,gps_vz_mps,baro_valid,baro_alt_m,baro_bias_m,pitot_valid,pitot_airspeed_mps,pitot_qbar_pa,pitot_compressibility_factor,mag_valid,mag_heading_deg,mag_x_ut,mag_y_ut,mag_z_ut,radar_valid,radar_agl_m,optical_flow_valid,horizon_valid,horizon_roll_deg,horizon_pitch_deg,optical_flow_x_radps,optical_flow_y_radps,optical_flow_quality
0.0,0.0,-120.0,1000.0,88.0,4.0,14.0,89.19641248391103,18.0,-5.018455958195359e-17,8.000000000000004,3.0000000000000004,0.0,0.0,0.0,-0.6802501273997699,-6.663809789559333,4603.010869089943,0.2704914765006901,91.00252169218186,1.7964389517083164,1.1116425003060326,89874.56291621955,281.65,-1.7826439091004773,9.86942436359809,0.3586780454497614,334.4,0.17947005348411538,0.88,nominal,13784.65,1538.473269186046,target_intercept,18.965424854227184,4.730938623779238,0.0,-20.05352282957881,-0.0,5.342830552065215,-2.6999999999999997,0.0,2.6999999999999997,0.88,0.0,0.0,0.0,0.0,0.0,0.0,-0.047123889803846894,0.0,0.047123889803846894,-0.047123889803846894,0.0,0.047123889803846894,0.0,1.0,17.50544931893502,1.6044302316757102,-0.7617014070394992,0.0011795551696321186,0.002982802560093238,0.0017401726722909368,17.59531588973621,0.0036492002466421065,1.0,0.0,-0.7658830172640091,-121.33930817381692,1000.335930710274,88.01166284655733,4.253777560437563,14.24831216786183,1.0,1001.3249718431521,0.0,1.0,91.52995941362157,4677.67612456939,1.0,1.0,4.278327064146713,17.963328002603575,-1.2082217914267943,-44.46072234159003,1.0,1000.0489477121154,0.0,1.0,-0.08935740668074815,8.42961517096461,,,
0.03,2.6556207227512005,-119.87772995620709,1000.412670722683,88.52069075837335,4.0756681264304575,13.755690756098712,89.67576479291262,17.994615898395477,0.0801329894564675,8.388483675084816,2.816953163926686,1.801441826976003,-12.953726625800904,-6.03025107087283,-0.08687218635435189,-6.530532181287751,4647.094589951899,0.271790460867151,91.43910873750103,1.8320498080000354,1.1115974440580425,89870.06428207623,281.64731764030256,-1.737654675042008,10.04690527549587,0.38086315943698384,340.34,0.1826580083815306,0.88,nominal,13831.568312939491,1535.8267877398612,target_intercept,18.98307577992858,4.734772278224343,0.0,-2.8523450499033633,0.16160152873722106,1.3038320027208683,-2.791407029942018,0.09696091724233263,1.862299201632521,0.88,0.0,0.0,0.0,0.0,0.0,0.0,-0.04871924343580415,0.001692287251632445,0.03250325272574925,-0.04871924343580415,0.001692287251632445,0.03250325272574925,0.03,1.0,17.83377123303013,1.4555087607372459,-0.3234548449816473,0.03127925247414877,-0.22740592951519087,-0.10457157518928262,17.895991874757264,0.2522440539469212,1.0,0.0,-0.7658830172640091,-121.33930817381692,1000.335930710274,88.01166284655733,4.253777560437563,14.24831216786183,1.0,1001.3249718431521,0.0,1.0,92.09866567384465,4651.142910958359,1.0,1.0,4.278327064146713,17.963328002603575,-1.2082217914267943,-44.46072234159003,1.0,1000.0489477121154,0.0,1.0,-0.08935740668074815,8.42961517096461,,,
0.06,5.327139326819664,-119.75330376984037,1000.8185346231006,89.05062013561542,4.147539545557278,13.528796680588423,90.16786218184579,17.98913615814403,0.24309973185080136,9.096114842709524,2.4634543501538997,3.6412368965774617,-23.62077182815789,-11.580076042681743,0.80736692709408,-6.224963091382337,4693.001291224851,0.27313633708885476,91.89147469922733,1.8563688891423453,1.1115531323557926,89865.64002877621,281.6446795249498,-1.6959898592719087,10.211129355173762,0.40139116939672026,346.28000000000003,0.1858459632789458,0.88,nominal,13879.798767783797,1533.167526236207,target_intercept,19.001223016717585,4.738586963451582,0.0,0.1832493985628429,0.35669614347165224,1.9083916949183908,-1.0066131728391015,0.25280205297992436,1.8899546976040429,0.88,0.0,0.0,0.0,0.0,0.0,0.0,-0.017568714159989077,0.004412228180300823,0.03298593218672433,-0.017568714159989077,0.004412228180300823,0.03298593218672433,0.06,1.0,18.1052530302002,1.4649068906060077,0.5705084803944447,0.06514104733092668,-0.4179093186371442,-0.19917062344019235,18.173376665108783,0.46750453676160947,1.0,0.0,-0.7658830172640091,-121.33930817381692,1000.335930710274,88.01166284655733,4.253777560437563,14.24831216786183,1.0,1000.0264554348836,0.0,1.0,91.82973258272943,4712.343220042882,1.0,1.0,1.8294495593275348,17.10524764244446,-1.2139430550122505,-44.8245107429989,1.0,1000.3097447515746,0.0,1.0,0.6738997694245976,9.553838587752688,,,
0.09,8.014624875394958,-119.62685350696138,1001.2186420022928,89.5828516191765,4.215008762632771,13.336912639740113,90.66822399193956,17.983560779245664,0.4940020292962969,9.785929640645335,1.9434566356096483,5.520129567946469,-23.1036330601625,-16.95065726976324,1.655734031599427,-5.754645570299925,4740.299603466154,0.27451594723233663,92.35519162952107,1.8830012373952283,1.1115094504659275,89861.2786989651,281.6420788269851,-1.657826517677134,10.361382077277707,0.42017275965971335,352.22,0.18903391817636103,0.88,nominal,13928.964216518045,1530.495099384268,target_intercept,19.019833143378317,4.742388138765958,0.0,0.4012565093700174,0.5910712059961799,2.572348270948696,-0.16189136351363015,0.4557635447896776,2.299390841610834,0.88,0.0,0.0,0.0,0.0,0.0,0.0,-0.0028255373238558618,0.007954574467140521,0.040131940976312494,-0.0028255373238558618,0.007954574467140521,0.040131940976312494,0.09,1.0,18.319060102267482,1.3871022912284194,1.2913298339372685,0.09490816558016005,-0.3981602434139956,-0.2985095758848742,18.416827863039714,0.5066035000118443,1.0,0.0,-0.7658830172640091,-121.33930817381692,1000.335930710274,88.01166284655733,4.253777560437563,14.24831216786183,1.0,1000.0264554348836,0.0,1.0,91.72646880991371,4744.3928662016,1.0,1.0,1.8294495593275348,17.10524764244446,-1.2139430550122505,-44.8245107429989,1.0,1000.3097447515746,0.0,1.0,0.6738997694245976,9.553838587752688,,,
0.12,10.718133968376248,-119.49856880331053,1001.6139365795917,90.11696976604301,4.276156788361481,13.176485909964528,91.17550952765801,17.977889761700375,0.8353419561163263,10.26707116188271,1.260620512495861,7.415117710852363,-16.29710080876531,-22.22651461913373,2.2731803346835044,-5.12479128484196,4788.903851943406,0.27592633588674675,92.82926417071062,1.9117593488797395,1.1114662953053893,89856.96999892435,281.63950941223266,-1.623326668962608,10.497009704672017,0.4371262130840022,358.16,0.19222187307377622,0.88,nominal,13978.96407997228,1527.8091719993056,target_intercept,19.03887611587909,4.746183538881737,0.0,-1.0877824074639821,0.8612695626741391,3.2949538663608946,-0.7174259898838413,0.6990671555203545,2.8967286564608705,0.88,0.0,0.0,0.0,0.0,0.0,0.0,-0.012521445662852562,0.01220102355638144,0.0505574525921139,-0.012521445662852562,0.01220102355638144,0.0505574525921139,0.12,1.0,18.58060529117145,1.3486182615749636,1.7847308849913472,0.12947730771450652,-0.28620434331301636,-0.3899083867258049,18.714778345831512,0.5007053518621024,1.0,0.0,-0.7658830172640091,-121.33930817381692,1000.335930710274,88.01166284655733,4.253777560437563,14.24831216786183,1.0,1001.0105561244432,0.0,1.0,92.8987467611923,4817.251167704754,1.0,1.0,-0.26844239038767403,16.198291363189117,-1.2400126128219837,-45.18827320108468,1.0,1001.7272855188768,0.0,1.0,0.8355644406286852,10.388214643191493,,,
0.15,13.4377992888348,-119.36871115984722,1002.0050129151407,90.65551068195168,4.328588115443523,13.035877851632026,91.69019796816497,17.97212310550816,1.2662999901085688,10.56416446739224,0.4190180146795644,9.293481047560157,-10.407500679030589,-27.405548145397216,2.6969524533295717,-4.340122817916735,4838.927015662292,0.2773702845099764,93.31462737523931,1.9410893222797059,1.1114236019207888,89852.7074422238,281.63696741605156,-1.592636947428426,10.61742213279545,0.45217776659943126,364.1,0.19540982797119144,0.88,nominal,14029.858661624905,1525.1094560318345,target_intercept,19.058334973688588,4.749984053468599,0.0,-2.4746044610270728,1.1614683865250632,4.07341376936649,-1.7717330725697802,0.9765078941231796,3.602739724204242,0.88,0.0,0.0,0.0,0.0,0.0,0.0,-0.030922575582818294,0.01704327792416567,0.06287967027975647,-0.030922575582818294,0.01704327792416567,0.06287967027975647,0.15,1.0,18.849774107164546,1.3024907917999522,2.0576652067837635,0.16106320754144354,-0.17847481182322678,-0.480741934284387,19.006431865478145,0.5375010908438868,1.0,0.0,-0.7658830172640091,-121.33930817381692,1000.335930710274,88.01166284655733,4.253777560437563,14.24831216786183,1.0,1001.0105561244432,0.0,1.0,93.78139675128752,4888.83499758532,1.0,1.0,-0.26844239038767403,16.198291363189117,-1.2400126128219837,-45.18827320108468,1.0,1001.7272855188768,0.0,1.0,0.8355644406286852,10.388214643191493,,,
0.18,16.17381447468421,-119.23762093681344,1002.3922328309649,91.2005061949803,4.369674101126234,12.907330527471,92.21293598685642,17.966260810669024,1.7847276071980882,10.783339353850975,-0.5774534295593087,11.128694412717282,-8.172268574455096,-32.43592028404107,3.0444997081198193,-3.40679576142697,4890.501391901473,0.27885105318927467,93.81237754334956,1.971086971143683,1.1113813307735092,89848.48708008826,281.6344504865987,-1.5658877864642469,10.722095457157224,0.46526193214465283,370.04,0.19859778286860666,0.88,nominal,14081.722571749822,1522.395687885282,target_intercept,19.078201617733836,4.753803986592417,0.0,-3.020687140021792,1.4887006910018705,4.90657178775087,-2.5211055130409874,1.2838235722503941,4.385038962332219,0.88,0.0,0.0,0.0,0.0,0.0,0.0,-0.044001591992746066,0.022406948350484686,0.07653336772093283,-0.044001591992746066,0.022406948350484686,0.07653336772093283,0.18,1.0,19.176240188972265,1.1709088045383014,2.262745578113684,0.19018991200925864,-0.14239291137527252,-0.5677166943391867,19.344746903616326,0.6154268347020865,1.0,0.0,-0.7658830172640091,-121.33930817381692,1000.335930710274,88.01166284655733,4.253777560437563,14.24831216786183,1.0,1002.9051480501219,0.0,1.0,93.5375582219455,4866.719091879783,1.0,1.0,0.06828521051820001,15.799528031862142,-1.1280349092312583,-45.26222146325468,1.0,1002.7744415798645,0.0,1.0,1.7733753027956791,10.600738317112997,,,
0.21,18.926383370118607,-119.10572288522756,1002.7759182313494,91.7522965144799,4.396601719529418,12.789513346150292,92.74365570750683,17.960302877182965,2.388249936728515,10.990068036322672,-1.7234754782088946,12.902336730203913,-8.252258221244125,-37.23891920664627,3.389397560022884,-2.3336261507170333,4943.683512488886,0.28036967118935924,94.32286049366354,2.0019376912712685,1.111339446687382,89844.3053994377,281.6319565314962,-1.5431925594524727,10.810574252802013,0.47632178160025157,375.98,0.20178573776602185,0.88,nominal,14134.565295519744,1519.6676139632702,target_intercept,19.098469387900156,4.75766114342374,0.0,-3.0281951541759016,1.8417580270723515,5.788421929034815,-2.8253592977219357,1.6185842451435686,5.227068742353777,0.88,0.0,0.0,0.0,0.0,0.0,0.0,-0.0493118222970825,0.02824962429866231,0.09122955978215258,-0.0493118222970825,0.02824962429866231,0.09122955978215258,0.21,1.0,19.434745061313244,1.0885249403319839,2.6115082097221474,0.2253469170704224,-0.14677571212620502,-0.6498986680785603,19.63960736046957,0.7033438856445581,1.0,0.0,19.555266331360023,-120.30795075953047,1003.1006390140063,91.96640043863779,4.216160033546203,12.756424431062264,1.0,1002.9051480501219,0.0,1.0,94.87548629374042,4902.501033350585,1.0,1.0,0.06828521051820001,15.799528031862142,-1.1280349092312583,-45.26222146325468,1.0,1002.7744415798645,0.0,1.0,1.7733753027956791,10.600738317112997,,,
0.24,21.695688775703836,-118.97352931786457,1003.1564371085694,92.31018018617426,4.40645224543305,12.683962574001796,93.28166536878466,17.954249305049984,3.073597611312737,11.185789771284131,-3.0100950002877767,14.596763704010252,-8.52203134818362,-41.73014347153323,3.7399913083045733,-1.1321420893993075,4998.4628489888755,0.2819252406555422,94.84577365898761,2.033512809540641,1.1112979094597544,89840.15838549218,281.6294831587943,-1.5246469553806015,10.882473555826179,0.4853091944782724,381.92,0.20497369266343707,0.88,nominal,14188.338620957711,1516.9249922546965,target_intercept,19.119129617069813,4.761576888422611,0.0,-3.02991576911974,2.2180052882665113,6.705529572132335,-2.948093180560618,1.9782368710173341,6.114145240220911,0.88,0.0,0.0,0.0,0.0,0.0,0.0,-0.051453932656374476,0.03452674678360287,0.10671196538699454,-0.051453932656374476,0.03452674678360287,0.10671196538699454,0.24,1.0,19.774059430164932,0.7671693030042133,2.91877026880007,0.25452472899281453,-0.1457363124923441,-0.7298057511264409,20.003029644761263,0.7865356602373222,1.0,0.0,19.555266331360023,-120.30795075953047,1003.1006390140063,91.96640043863779,4.216160033546203,12.756424431062264,1.0,1003.9108238363926,0.0,1.0,94.87668884454166,4978.028417206441,1.0,1.0,-3.8995459387352884,15.37322691547839,-1.1369274539460044,-45.47690629911132,1.0,1002.893199215682,0.0,1.0,3.5122630323946282,11.02064457441219,,,
0.27,24.48188911577452,-118.8416394874837,1003.5341818179468,92.87334466902283,4.396327679362244,12.591490312578475,93.82607033957672,17.94810009427008,3.835615073313491,11.34659156907519,-4.424372832025996,16.1900909764022,-8.136482672281886,-45.8298295855247,4.0799667197563405,0.1838915190862891,5054.80527322178,0.2835162074505235,95.3805936578145,2.0655595115721472,1.1112566762334892,89836.04175860468,281.6270278181833,-1.510328592692133,10.937480538323786,0.4921850672904733,387.86,0.20816164756085226,0.88,nominal,14242.974221808567,1514.16760246618,target_intercept,19.140172347723034,4.765576145841482,0.0,-3.2505138287729216,2.6124943789943007,7.6418508084566055,-3.129545569488,2.358791375803514,7.030768581162327,0.88,0.0,0.0,0.0,0.0,0.0,0.0,-0.05462087427876659,0.041168675875418226,0.12271006068705279,-0.05462087427876659,0.041168675875418226,0.12271006068705279,0.27,1.0,19.94352802568486,0.58106121608347,3.2909563532484896,0.28000316287178323,-0.1429091721418498,-0.8025943653332759,20.221580946283613,0.8619643368290797,1.0,0.0,19.555266331360023,-120.30795075953047,1003.1006390140063,91.96640043863779,4.216160033546203,12.756424431062264,1.0,1003.9108238363926,0.0,1.0,96.03475524507128,5061.277384789405,1.0,1.0,-3.8995459387352884,15.37322691547839,-1.1369274539460044,-45.47690629911132,1.0,1002.893199215682,0.0,1.0,3.5122630323946282,11.02064457441219,,,
0.3,27.28512406577797,-118.7107357399692,1003.9095223922833,93.44116500011505,4.363458250483622,12.511352477883202,94.37597695021903,17.941855244843257,4.667133502231966,11.459303310579,-5.950733013702221,17.65772138016033,-7.444303462092106,-49.46194776605768,4.404458049478935,1.5987333996746529,5112.6728794684195,0.28514093285398207,95.92676867987855,2.0980316552889455,1.111215706593068,89831.95148304605,281.62458810445014,-1.5002967490428538,10.975355869474885,0.49691948368436056,393.8,0.21134960245826748,0.88,nominal,14298.401830422421,1511.3952557016664,target_intercept,19.161588063405613,4.769687301740485,0.0,-3.607868102802856,3.0193607739786614,8.583833432686554,-3.4165390894769136,2.755133014708602,7.962607492076863,0.88,0.0,0.0,0.0,0.0,0.0,0.0,-0.05962985613446129,0.04808614243706247,0.13897371778070955,-0.05962985613446129,0.04808614243706247,0.13897371778070955,0.3,1.0,20.266978259780366,0.3242454364317508,3.4684538560343703,0.3069138262662017,-0.12714542776320742,-0.8656389604582744,20.56418525098664,0.9271962394324791,1.0,0.0,19.555266331360023,-120.30795075953047,1003.1006390140063,91.96640043863779,4.216160033546203,12.756424431062264,1.0,1003.7363413864462,0.0,1.0,95.47122275192184,5159.981090163917,1.0,1.0,-6.486542919829359,15.161098183686784,-1.2624799901790047,-45.556417138035464,1.0,1004.2195338733846,0.0,1.0,4.241613657009664,11.41912331320584,,,
0.32999999999999996,30.105512977066354,-118.58157814939865,1004.2827909976843,94.01296370961282,4.305253019018248,12.44228684670027,94.9304116234535,17.93551475676951,5.559517497725137,11.528024445969313,-7.572101393354628,18.976491819764004,-7.002235656981779,-52.550861839795196,4.725390373529779,3.09460058972324,5172.013205067365,0.28679739872038224,96.48361931408405,2.1311784930476785,1.1111749642607813,89827.88393633188,281.622161858515,-1.4945921242899574,10.995934756854064,0.49949184460675794,399.74,0.21453755735568267,0.88,nominal,14354.541357836597,1508.6078006743726,target_intercept,19.183368233155207,4.773942020642211,0.0,-3.9557998698208587,3.4331377833590673,9.52033316335638,-3.740095557683281,3.161935875898881,8.897242894844572,0.88,0.0,0.0,0.0,0.0,0.0,0.0,-0.06527698182078676,0.05518619177136629,0.1552861828647094,-0.06527698182078676,0.05518619177136629,0.1552861828647094,0.32999999999999996,1.0,20.530227687943782,0.020756278831791687,3.849147945017889,0.3338074529299082,-0.12049229997623997,-0.9201337713905631,20.887953936289687,0.9862007743043696,1.0,0.0,19.555266331360023,-120.30795075953047,1003.1006390140063,91.96640043863779,4.216160033546203,12.756424431062264,1.0,1003.7363413864462,0.0,1.0,97.17881398310062,5196.999918910463,1.0,1.0,-6.486542919829359,15.161098183686784,-1.2624799901790047,-45.556417138035464,1.0,1004.2195338733846,0.0,1.0,4.241613657009664,11.41912331320584,,,
0.36,32.94314454204936,-118.4549984769225,1004.6542969943309,94.5877188327668,4.219322415871952,12.383533221556075,95.4881727267048,17.92907863004884,6.50311973349953,11.562498847935931,-9.26980131668774,20.126764054719185,-6.968999835503127,-55.021912559930016,5.0586984518826,4.651599666607415,5232.741258140956,0.2884827251889831,97.050176284978,2.165348292221784,1.1111344154522762,89823.83574502925,281.6197470695368,-1.4932366386513456,10.999127663428633,0.4998909579285791,405.68,0.21772551225309789,0.88,nominal,14411.28862696196,1505.8051280795678,target_intercept,19.205504653077373,4.778375004032308,0.0,-4.241834599994523,3.848762299682177,10.4392551392976,-4.041138983070026,3.574031730168859,9.822450241516389,0.88,0.0,0.0,0.0,0.0,0.0,0.0,-0.07053118078526735,0.062378621262196135,0.1714340973277732,-0.07053118078526735,0.062378621262196135,0.1714340973277732,0.36,1.0,20.801336755640435,-0.2863414683848212,4.164367235210986,0.34919275591243387,-0.12175064948575345,-0.960485813035256,21.21602122754814,1.0292190235678313,1.0,0.0,19.555266331360023,-120.30795075953047,1003.1006390140063,91.96640043863779,4.216160033546203,12.756424431062264,1.0,1005.0184752834783,0.0,1.0,96.55866312090122,5237.655839492584,1.0,1.0,-9.579516936477264,14.85687201302534,-1.3611878270281084,-45.54798933010792,1.0,1004.1268852848254,0.0,1.0,7.103105013600859,12.013540598163548,,,
0.39,35.798064894099724,-118.33189291681154,1005.024346706176,95.16401173501214,4.10351867036527,12.334990394835533,96.04780051110097,17.922546864681244,7.487355919949497,11.568081619180028,-11.022863048999472,21.091822233418156,-7.15749818506514,-56.805193609535934,5.413672155219086,6.247893269622705,5294.734299508328,0.290193055389583,97.62514165022465,2.200804801075634,1.1110940267184377,89819.8035692918,281.6173417464098,-1.4962333056590293,10.984920697126826,0.4981150871408533,411.62,0.2209134671505131,0.88,nominal,14468.512001136245,1502.9871747597172,target_intercept,19.227988592256885,4.783023692251652,0.0,-4.499554781387713,4.260968216065601,11.325700219408347,-4.316188462060638,3.9861936217069043,10.724400228251563,0.88,0.0,0.0,0.0,0.0,0.0,0.0,-0.07533169979954848,0.06957220332078279,0.18717609428462118,-0.07533169979954848,0.06957220332078279,0.18717609428462118,0.39,1.0,21.144542226286706,-0.5472578564714481,4.577732570295798,0.3658133328494158,-0.12464099963797202,-0.9907746761480078,21.641321415427438,1.0634797751613991,1.0,0.0,19.555266331360023,-120.30795075953047,1003.1006390140063,91.96640043863779,4.216160033546203,12.756424431062264,1.0,1005.0184752834783,0.0,1.0,97.6375656728212,5381.568386549977,1.0,1.0,-9.579516936477264,14.85687201302534,-1.3611878270281084,-45.54798933010792,1.0,1004.1268852848254,0.0,1.0,7.103105013600859,12.013540598163548,,,
0.42,38.6702700119063,-118.21321275656429,1005.3932514378353,95.74017059355235,3.9560053415750454,12.296824388644193,96.607671194322,17.91591946066673,8.500664860359512,11.54483933710905,-12.80781675054119,21.856744904703117,-7.340210289947253,-57.838920105165364,5.791788037264157,7.860064163765315,5357.840200884904,0.2919238147652212,98.20697603764587,2.2156261843358847,1.1110537640703437,89815.7840154985,281.614943865654,-1.5035662050229839,10.953375671281055,0.49417195891013177,413.57684210526315,0.22196369010892084,0.88,nominal,14526.060796007963,1500.1539274826869,target_intercept,19.250810408427306,4.7879278934438965,0.0,-4.772998678262384,4.6640809351425165,12.163167157764326,-4.590274591781686,4.392926009768272,11.58766038595922,0.88,0.0,0.0,0.0,0.0,0.0,0.0,-0.08011540519722907,0.07667102266695291,0.2022428263379053,-0.08011540519722907,0.07667102266695291,0.2022428263379053,0.42,1.0,21.069999594392332,-0.9001132110636376,4.870079940000519,0.37978814636342784,-0.13018988805433993,-1.0094188807842046,21.644231687043543,1.0863309440282949,1.0,0.0,39.99102900944774,-118.4261081320933,1005.0864194663136,95.70099930747347,4.161233740109276,12.367732171334266,1.0,1005.7784148427903,0.0,1.0,98.85835958604432,5397.425140467184,1.0,1.0,-12.99930344599544,14.607651699933974,-1.486997156162286,-45.777843397533154,1.0,1005.1586938072004,0.0,1.0,8.102741132384716,11.292666439099891,,,
0.44999999999999996,41.559512087283416,-118.09990930561361,1005.761284979419,96.30806917923736,3.776781698355862,12.267784719458652,97.15969746223374,17.90926054996346,9.530640198056394,11.491605041035402,-14.599200110710944,22.408412002325147,-7.417090370944808,-58.070875607170805,6.190947802345683,9.464044424208408,5421.16852111221,0.29365053489528214,98.78744760972326,2.2212095600231696,1.111013597617081,89811.77409925775,281.6125516476338,-1.5152006136100669,10.904629835683219,0.4880787294604023,413.5421052631579,0.22194504709782484,0.88,nominal,14583.152310819813,1497.3056147610616,target_intercept,19.273958689803585,4.793126930615592,0.0,-5.073096327227838,5.052349632147881,12.93566375026765,-4.879967633049377,4.788580183196037,12.396462404544279,0.88,0.0,0.0,0.0,0.0,0.0,0.0,-0.08517150258746609,0.08357649069252408,0.21635908455899094,-0.08517150258746609,0.08357649069252408,0.21635908455899094,0.44999999999999996,1.0,21.034515484954312,-1.2689797655528512,5.259388715167278,0.39204245629234996,-0.12961284535661324,-1.0139000439364534,21.7191694359935,1.0947557153591474,1.0,0.0,39.99102900944774,-118.4261081320933,1005.0864194663136,95.70099930747347,4.161233740109276,12.367732171334266,1.0,1005.7784148427903,0.0,1.0,98.29104597587514,5393.16148420128,1.0,1.0,-12.99930344599544,14.607651699933974,-1.486997156162286,-45.777843397533154,1.0,1005.1586938072004,0.0,1.0,8.102741132384716,11.292666439099891,,,
0.48,44.465399565858306,-117.992927269479,1006.1286990643587,96.86291595249632,3.5660678711538822,12.247136164654968,97.69919995126695,17.902602198550525,10.564331072549196,11.408929796639313,-16.37024499753772,22.736297286681975,-7.381809756631511,-57.45860895251963,6.607626509986328,11.034961209755014,5484.177265272686,0.29535869678093984,99.36167177361361,2.2287935413354067,1.1109734998781862,89807.77107691814,281.61016345608164,-1.531083131547899,10.838895279422252,0.4798619099277814,413.5073684210526,0.2219264040867288,0.88,nominal,14639.318842238314,1494.4426070582456,target_intercept,19.29742092847423,4.798659708195199,0.0,-5.385223959231032,5.420333999546877,13.628480414824867,-5.18312142875837,5.167632473006541,13.135673210712632,0.88,0.0,0.0,0.0,0.0,0.0,0.0,-0.09046253446250627,0.09019220118694113,0.22926074699295032,-0.09046253446250627,0.09019220118694113,0.22926074699295032,0.48,1.0,21.030535518357254,-1.6339766705951078,5.769667986465793,0.39361360505998,-0.12626329669525665,-1.0007761291851311,21.868753339479216,1.0827866599323444,1.0,0.0,39.99102900944774,-118.4261081320933,1005.0864194663136,95.70099930747347,4.161233740109276,12.367732171334266,1.0,1006.1051834511024,0.0,1.0,99.2203536949849,5547.095357504972,1.0,1.0,-15.679236316386998,14.352056321045705,-1.6343040887696267,-45.737783264934905,1.0,1005.7395814714355,0.0,1.0,10.284451303927934,11.051199609063236,,,
0.51,47.38749730396746,-117.89320926464843,1006.4957410707357,97.40325793697167,3.3239334943521825,12.234733545900836,98.22490466042868,17.895944406427923,11.588584641948332,11.299221317305474,-18.093333804148298,22.83366059972343,-7.230724419152646,-55.970736912185046,7.036718755171865,12.547313480342128,5546.687961068732,0.297043844661714,99.92814937891491,2.2384690512985723,1.1109334438515492,89803.77225267586,281.6077776830402,-1.5511418863683786,10.75645800810207,0.46955725101275875,413.47263157894736,0.22190776107563284,0.88,nominal,14694.417406946483,1491.5653170717226,target_intercept,19.321184118328222,4.804565233140422,0.0,-5.692566155999459,5.763093907013824,14.227769146476696,-5.4887882651030235,5.5249093334109105,13.790930772171071,0.88,0.0,0.0,0.0,0.0,0.0,0.0,-0.09579742717087514,0.09642785874218554,0.24069714888898916,-0.09579742717087514,0.09642785874218554,0.24069714888898916,0.51,1.0,20.95608698328529,-2.079047453916738,6.2144604868257405,0.3989226499198723,-0.1256671559074342,-0.980541639968209,21.956765224162123,1.0660175525780526,1.0,0.0,39.99102900944774,-118.4261081320933,1005.0864194663136,95.70099930747347,4.161233740109276,12.367732171334266,1.0,1006.1051834511024,0.0,1.0,99.69513169922979,5557.868116522228,1.0,1.0,-15.679236316386998,14.352056321045705,-1.6343040887696267,-45.737783264934905,1.0,1005.7395814714355,0.0,1.0,10.284451303927934,11.051199609063236,,,
0.54,50.325332999663175,-117.80168128055261,1006.8626528271707,97.92785652319061,3.05093280319386,12.23039188116725,98.73578763428756,17.889287173595655,12.590353391302482,11.165674576622294,-19.740263172573403,22.698338560079552,-6.925508029034495,-53.58859618806234,7.470583039303734,13.97560700485976,5608.537482757473,0.29870202655223477,100.48555077399803,2.250443342496848,1.1108934031436395,89799.77499157282,281.60539275662336,-1.575286845895516,10.657676699454912,0.457209587431864,413.4378947368421,0.22188911806453684,0.88,nominal,14748.327514229139,1488.6741929420568,target_intercept,19.345234884720277,4.810882049297732,0.0,-5.986777145207989,6.076238269212758,14.32394487827058,-5.787581593166003,5.855706694892019,14.110739235830778,0.88,0.0,0.0,0.0,0.0,0.0,0.0,-0.10101235452856569,0.10220136185694075,0.24627885955559567,-0.10101235452856569,0.10220136185694075,0.24627885955559567,0.54,1.0,20.88266685569774,-2.3793552802532485,6.63529720479954,0.3935171854443147,-0.11930431733466514,-0.9350505187146101,22.040287556013112,1.0214738214575874,1.0,0.0,39.99102900944774,-118.4261081320933,1005.0864194663136,95.70099930747347,4.161233740109276,12.367732171334266,1.0,1006.0844241046877,0.0,1.0,100.11938546242392,5673.302094645492,1.0,1.0,-20.575355078107652,14.118708187157083,-1.9134561048887975,-45.832443231987426,1.0,1006.9881867781229,0.0,1.0,12.80982574760212,11.46428523301717,,,
0.57,53.27840084784821,-117.71925784519121,1007.2296634356695,98.43559493950121,2.747447845380313,12.233686949963321,99.23093225978654,17.88263050005372,13.556162171648616,11.012706848704202,-21.278206279065863,22.333197916263178,-6.413423659310304,-50.16075068356462,7.8984482728384675,15.29004686055168,5669.571228130002,0.3003295960894652,101.03264915139702,2.2643799881909668,1.1108533527526245,89795.77679767163,281.60300718766814,-1.60341021915543,10.542981142764262,0.4428726428455327,413.40315789473686,0.22187047505344087,0.88,nominal,14800.93773750458,1485.769717622314,target_intercept,19.36955977737132,4.817648457429503,0.0,-6.2552010702664855,6.354338060653924,14.32394487827058,-6.0681532794262925,6.1548855143491625,14.23866262129466,0.88,0.0,0.0,0.0,0.0,0.0,0.0,-0.10590925424168028,0.10742301730869758,0.24851154382223828,-0.10590925424168028,0.10742301730869758,0.24851154382223828,0.57,1.0,20.8601220220742,-2.8693467924332334,7.188481537366558,0.3926467387657441,-0.1096484811567969,-0.8782319151950667,22.249766484260725,0.9682383734135731,1.0,0.0,39.99102900944774,-118.4261081320933,1005.0864194663136,95.70099930747347,4.161233740109276,12.367732171334266,1.0,1006.0844241046877,0.0,1.0,100.42144975337722,5557.078352450256,1.0,1.0,-20.575355078107652,14.118708187157083,-1.9134561048887975,-45.832443231987426,1.0,1006.9881867781229,0.0,1.0,12.80982574760212,11.46428523301717,,,
0.6,56.24617873248297,-117.64681193579496,1007.5969875599684,98.92592948782513,2.414863646541627,12.244137476630724,99.71002955574815,17.875974385802117,14.473026714688823,10.844955076267905,-22.672988384314067,21.747420891759766,-5.630247508766377,-45.647715055151096,8.306215349766417,16.460573378480643,5729.6861766402735,0.3019243351530682,101.5686982028183,2.2795870563088623,1.110813269254955,89791.775332676,281.6006195808602,-1.63538692643822,10.41287036888731,0.4266087961109138,413.3684210526316,0.22185183204234488,0.88,nominal,14852.19599505905,1482.852390940002,target_intercept,19.394145578533152,4.824901345192112,0.0,-6.493414234357643,6.593666921874768,14.32394487827058,-6.323309852385102,6.418154358864526,14.289831975480212,0.88,0.0,0.0,0.0,0.0,0.0,0.0,-0.11036257654791665,0.11201792546341169,0.2494046175288953,-0.11036257654791665,0.11201792546341169,0.2494046175288953,0.6,1.0,20.73120258495244,-3.206152634969834,7.6246609639383776,0.3786691870399959,-0.10039791458683602,-0.7944361752568185,22.320341174634148,0.8857758920988985,1.0,0.0,39.99102900944774,-118.4261081320933,1005.0864194663136,95.70099930747347,4.161233740109276,12.367732171334266,1.0,1007.3910788234289,0.0,1.0,101.27764240389331,5713.5358969380495,1.0,1.0,-23.69168170905656,13.88313217852674,-2.243947689594384,-45.8389392679095,1.0,1007.5815041629469,0.0,1.0,13.799631154254923,10.661606039528404,,,
0.63,59.22815039991718,-117.58514696345574,1007.9648215709399,99.39905558114043,2.0554990779740248,12.261133699047928,100.17351309836411,17.869318830840847,15.3292896146764,10.667065839851398,-23.89215779389308,20.957686722872374,-4.537025221359447,-40.10919408540209,8.67765162046822,17.459709763919612,5788.849832820674,0.3034859100744881,102.09358558436509,2.2951287957887136,1.110773131225759,89787.76845789085,281.59822865978884,-1.6710751478903207,10.267910479013079,0.4084888098766347,413.3336842105263,0.22183318903124885,0.88,nominal,14902.12458069272,1479.9227078594915,target_intercept,19.41897975672649,4.832675104336509,0.0,-6.698739169987026,6.792356198449344,14.32394487827058,-6.548567442946256,6.642675462615417,14.310299717154434,0.88,0.0,0.0,0.0,0.0,0.0,0.0,-0.11429406316831808,0.11593655796407652,0.24976184701155812,-0.11429406316831808,0.11593655796407652,0.24976184701155812,0.63,1.0,20.766411748280504,-3.4527245429682374,8.085247835669874,0.36818227534629594,-0.07663664349540407,-0.7020902856073842,22.55075156691994,0.796468538078985,1.0,0.0,59.165282231253805,-117.2236584230081,1009.2679811378042,99.48788378481348,2.304202227488535,12.72006705770673,1.0,1007.3910788234289,0.0,1.0,101.87812486490317,5705.893195072579,1.0,1.0,-23.69168170905656,13.88313217852674,-2.243947689594384,-45.8389392679095,1.0,1007.5815041629469,0.0,1.0,13.799631154254923,10.661606039528404,,,
0.6599999999999999,62.22382930310745,-117.53497590526933,1008.3333370493857,99.85596343967565,1.672368606213637,12.283849281527804,100.62257800509873,17.862663835169908,16.115210656852895,10.48417421904871,-24.906962841475952,19.989042447548023,-3.142480913309158,-33.66141648686057,8.996447975492933,18.263962202424366,5847.108407616272,0.3050160356801253,102.60788809600015,2.309918814731959,1.1107329199475189,89783.75430495873,281.59583330917894,-1.7103169490251533,10.108732181603072,0.38859152270038405,413.298947368421,0.22181454602015285,0.88,nominal,14950.823721971448,1476.9811366338351,target_intercept,19.444051038858724,4.841000833040935,0.0,-6.864236724431581,6.950192133526014,14.32394487827058,-6.737969011837452,6.827185465161775,14.318486813824121,0.88,0.0,0.0,0.0,0.0,0.0,0.0,-0.1175997441539123,0.1191568650113736,0.24990473880462324,-0.1175997441539123,0.1191568650113736,0.24990473880462324,0.6599999999999999,1.0,20.6671044443209,-3.813123725080145,8.425271521352508,0.3496158750174294,-0.05775477623232903,-0.586197252927888,22.641870922336594,0.6849774401993481,1.0,0.0,59.165282231253805,-117.2236584230081,1009.2679811378042,99.48788378481348,2.304202227488535,12.72006705770673,1.0,1008.3742810473663,0.0,1.0,102.18410004505071,5739.310714135216,1.0,1.0,-23.593257658260306,13.852446704984537,-2.7554693952260036,-45.89668684305892,1.0,1008.3089817296548,0.0,1.0,15.53700746370106,10.520177540756086,,,
0.69,65.23278241729936,-117.4969050647354,1008.7026741550688,100.29843713973027,1.2690280177976496,12.311236856105692,101.05915830695166,17.856009398789304,16.823397918027638,10.302117990228476,-25.693702042200776,18.875353755313622,-1.4933238412412386,-26.457241293202472,9.248094819447196,18.85461710145736,5904.589117133773,0.3065184848322063,103.11287488528141,2.3228450669794856,1.1106926201332248,89779.73134803728,281.59343261799205,-1.7529389767096273,9.936028048231078,0.36700350602888476,413.26421052631576,0.22179590300905686,0.88,nominal,14998.470818357564,1474.0280974167033,target_intercept,19.469349991400332,4.849905718347929,0.0,-6.9807916187523205,7.068501373267585,14.32394487827058,-6.8836625759863725,6.971975010025261,14.321761652491997,0.88,0.0,0.0,0.0,0.0,0.0,0.0,-0.12014257654727656,0.12168391929170547,0.2499618955218493,-0.12014257654727656,0.12168391929170547,0.2499618955218493,0.69,1.0,20.68686654698479,-3.9817180566429493,8.767635051674421,0.3286077856933146,-0.02342414097440611,-0.4606914825622869,22.81823723723427,0.5663642019973456,1.0,0.0,59.165282231253805,-117.2236584230081,1009.2679811378042,99.48788378481348,2.304202227488535,12.72006705770673,1.0,1008.3742810473663,0.0,1.0,103.33958981822238,5965.641412137944,1.0,1.0,-23.593257658260306,13.852446704984537,-2.7554693952260036,-45.89668684305892,1.0,1008.3089817296548,0.0,1.0,15.53700746370106,10.520177540756086,,,
0.72,68.25465205146037,-117.47142150967352,1009.072936459727,100.72898780536705,0.8494518353961197,12.342076821936077,101.48584833853937,17.84935552169903,17.44909209994736,10.127139267600974,-26.2345998988563,17.65921609679895,0.34543191266717815,-18.675333916723943,9.421191191720068,19.218207580808695,5961.495441209722,0.307998918662463,103.61045033062167,2.3328916514424094,1.1106522204896745,89775.69846001615,281.5910259130118,-1.7987532202449965,9.750549500261652,0.3438186875327065,413.2294736842105,0.22177725999796086,0.88,nominal,15045.313818829287,1471.063942582106,target_intercept,19.494869527640528,4.859412555507906,0.0,-7.041550261089925,7.150005871514444,14.32394487827058,-6.978395187048504,7.07879352691877,14.323071587959147,0.88,0.0,0.0,0.0,0.0,0.0,0.0,-0.12179597251932195,0.1235482541135944,0.24998475820873972,-0.12179597251932195,0.1235482541135944,0.24998475820873972,0.72,1.0,20.60665907224184,-4.170781983749111,9.039516447349756,0.30730422574187916,0.008076279084869008,-0.32742656901136463,22.885425014132466,0.44912055345667096,1.0,0.0,59.165282231253805,-117.2236584230081,1009.2679811378042,99.48788378481348,2.304202227488535,12.72006705770673,1.0,1009.5276233811284,0.0,1.0,103.54430646524357,5916.623476510702,1.0,1.0,-24.992226749635257,13.869797386704123,-3.3217403991877745,-45.86130429276297,1.0,1008.9417807447595,0.0,1.0,17.356679654813362,10.711948001810958,,,
0.75,71.28917395194964,-117.45888369607752,1009.444187755998,101.15073001630893,0.41792711986640235,12.375043209034027,101.90577285088024,17.842702203899094,17.990329293021396,9.965376625274263,-26.518356799733514,16.39135332368931,2.3016106410814143,-10.512937710628735,9.508338683001435,19.346785800558347,6018.095906343231,0.3094645570530057,104.10304318321353,2.3396853819218704,1.1106117140650933,89771.654947201,281.588612779586,-1.847557833496484,9.553103539478077,0.3191379424347595,413.19473684210527,0.2217586169868649,0.88,nominal,15091.659114024955,1468.0889401353036,target_intercept,19.520605299484135,4.869539380136331,0.0,-7.043950471084716,7.198677241014228,13.966606330227025,-7.017728357470231,7.150723755376045,14.109192433319874,0.88,0.0,0.0,0.0,0.0,0.0,0.0,-0.12248246584842913,0.12480367343188556,0.2462518627589023,-0.12248246584842913,0.12480367343188556,0.2462518627589023,0.75,1.0,20.59851374837219,-4.2840514498412325,9.236532881632295,0.2837633032724178,0.03808053742413166,-0.18470892819877358,22.977497799809264,0.3407185462679197,1.0,0.0,59.165282231253805,-117.2236584230081,1009.2679811378042,99.48788378481348,2.304202227488535,12.72006705770673,1.0,1009.5276233811284,0.0,1.0,104.07520286774842,6052.444069968963,1.0,1.0,-24.992226749635257,13.869797386704123,-3.3217403991877745,-45.86130429276297,1.0,1008.9417807447595,0.0,1.0,17.356679654813362,10.711948001810958,,,
0.78,74.33618251932803,-117.45953305768785,1009.8164446651565,101.56695224594668,-0.02164538701098656,12.408563638618482,102.32213205669065,17.836049445389488,18.44731194718098,9.823773926493855,-26.536374694270837,15.129630185504212,4.298523269484531,-2.037741453965823,9.50649260645272,19.233510303299006,6074.681012506487,0.31092304351136285,104.59322471433642,2.342898070284544,1.1105710990550575,89767.60062974432,281.58619310967646,-1.899138023781137,9.344549236884514,0.2930686546105642,413.16,0.2217399739757689,0.88,nominal,15137.825791388976,1465.1032723164376,target_intercept,19.546556060065303,4.880299917676205,0.0,-6.977406120868144,7.2181969384459945,13.271745822556985,-6.9935350155089795,7.191207665218014,13.60672446686214,0.88,0.0,0.0,0.0,0.0,0.0,0.0,-0.12206021237414438,0.12551025095270846,0.23748214235841442,-0.12206021237414438,0.12551025095270846,0.23748214235841442,0.78,1.0,20.540375391926514,-4.321023446348021,9.335615782099504,0.26731981819319234,0.07458632056818185,-0.03560827489386225,22.972417959286194,0.27980520662714237,1.0,0.0,59.165282231253805,-117.2236584230081,1009.2679811378042,99.48788378481348,2.304202227488535,12.72006705770673,1.0,1010.36252535965,0.0,1.0,104.77441601295116,6103.6436705544365,1.0,1.0,-27.11023317364668,14.087836233808218,-3.931932815770256,-45.74299498872143,1.0,1009.5622807352268,0.0,1.0,18.251557628034746,10.27991256015599,,,
0.8099999999999999,77.39561583652574,-117.47349487104317,1010.1896763391647,101.98111057325661,-0.4653937785107971,12.441055800275842,102.73822742557634,17.829397246170213,18.822184194306406,9.70927496574164,-26.28117742531318,13.938808693603274,6.295339717600543,6.724312710414077,9.415992922430508,18.871537149653097,6131.562729663134,0.3123824251283088,105.08370197165094,2.3421001555513437,1.1105303788342815,89763.53584479676,281.5837671037954,-1.95326698675143,9.125793994959292,0.26572424936991146,413.1252631578947,0.2217213309646729,0.88,nominal,15184.148276746193,1462.1070311665762,target_intercept,19.572723779129824,4.891703593998099,0.0,-6.838041034646299,7.2125515465496,12.442493781081994,-6.900238626991371,7.204013994016965,12.908186055394053,0.88,0.0,0.0,0.0,0.0,0.0,0.0,-0.12043188321429228,0.12573376355534313,0.22529034712664536,-0.12043188321429228,0.12573376355534313,0.22529034712664536,0.8099999999999999,1.0,20.531063901650445,-4.2736752431578084,9.332702786691078,0.24269278783777623,0.11415655760623765,0.11431864462782955,22.954045968463713,0.29154804307784693,1.0,0.0,59.165282231253805,-117.2236584230081,1009.2679811378042,99.48788378481348,2.304202227488535,12.72006705770673,1.0,1010.36252535965,0.0,1.0,104.93892364994585,6149.636166914514,1.0,1.0,-27.11023317364668,14.087836233808218,-3.931932815770256,-45.74299498872143,1.0,1009.5622807352268,0.0,1.0,18.251557628034746,10.27991256015599,,,
0.84,80.46752283553117,-117.50076494705064,1010.5638111752353,102.39689996684767,-0.9090025335820819,12.471161202350693,103.15755556507571,17.822745606241273,19.119362961623814,9.627096088896847,-25.748008810330283,12.89074343740594,8.28605686833689,15.677967261366422,9.239658897814577,18.256326484264136,6189.081450910505,0.3138513204680333,105.57737424621037,2.3371596382728415,1.1104895612233516,89759.46137328926,281.58133522736097,-2.0097068833316563,8.897789599621962,0.23722369995274525,413.0905263157895,0.2217026879535769,0.88,nominal,15230.986233942462,1459.1002085883954,target_intercept,19.599113545683338,4.903754965580775,0.0,-6.637339048603266,7.187074982097353,11.484094803482119,-6.742498879958508,7.1938505868651985,12.053731304246893,0.88,0.0,0.0,0.0,0.0,0.0,0.0,-0.11767880526730587,0.12555637863732405,0.21037729840981864,-0.11767880526730587,0.12555637863732405,0.21037729840981864,0.84,1.0,20.490393624028073,-4.2869066096039745,9.24257643838214,0.22421174191160703,0.14361875435061117,0.27529704213713585,22.883597146567958,0.38299570914269293,1.0,0.0,81.90460440294456,-119.22810151903707,1010.9894286501045,102.60968674992668,-0.7945524551249673,12.274952537689584,1.0,1010.3356602596161,0.0,1.0,104.56404841273837,6147.940865668586,1.0,1.0,-25.759530959706446,14.44449007692297,-4.807711891866597,-45.522910614609536,1.0,1010.9487596723262,0.0,1.0,18.828486470562165,9.311275088688578,,,
0.87,83.55206460635041,-117.54120098256742,1010.9387417475991,102.81805902730807,-1.3478678505591701,12.497685745461025,103.58359985479302,17.816094525602665,19.345796405356893,9.580743733710335,-24.93587103296876,12.064361578943897,10.251428073302082,24.693728101807825,8.98306628107963,17.386593745116624,6247.584796691205,0.31533837015965327,106.07714824679778,2.328242207523557,1.1104486579500683,89755.37838614521,281.5788981786406,-2.0682098676056815,8.66152807909168,0.20769100988646,413.05578947368423,0.2216840449424809,0.88,nominal,15278.70349119803,1456.0826928417953,target_intercept,19.625733455201676,4.916453315749443,0.0,-6.387594021558853,7.148417814763379,10.406137753947338,-6.529555964918715,7.166590923604106,11.06517517406716,0.88,0.0,0.0,0.0,0.0,0.0,0.0,-0.11396225028106693,0.12508060776043306,0.19312373909740863,-0.11396225028106693,0.12508060776043306,0.19312373909740863,0.87,1.0,20.517482689601277,-4.14484659832913,9.07086529771413,0.20900000339361957,0.18026575342005363,0.42811842265695255,22.812878961039598,0.5093742505200961,1.0,0.0,81.90460440294456,-119.22810151903707,1010.9894286501045,102.60968674992668,-0.7945524551249673,12.274952537689584,1.0,1010.3356602596161,0.0,1.0,106.22039727391335,6155.514733751819,1.0,1.0,-25.759530959706446,14.44449007692297,-4.807711891866597,-45.522910614609536,1.0,1010.9487596723262,0.0,1.0,18.828486470562165,9.311275088688578,,,
0.8999999999999999,86.64951005856686,-117.5945163893276,1011.3143296198899,103.2481817405482,-1.7771802253393323,12.519595743026919,104.0196408369661,17.80944400425439,19.511220268026232,9.572595565964868,-23.848304349313796,11.545522398305918,12.147078375437328,33.62225435433723,8.65486040058607,16.264945866502657,6307.407093226338,0.31685171727003186,106.58576329723567,2.3158269777754072,1.1104076841239083,89751.28839180418,281.5764568574707,-2.1285191586564967,8.418037387654675,0.17725467345683427,413.021052631579,0.22166540193138493,0.88,nominal,15327.648510492605,1453.0542705429978,target_intercept,19.65259442382639,4.929792328862292,0.0,-6.096887734451888,7.104633531591405,9.222193483388283,-6.269955026638619,7.129416488396485,9.959386159659834,0.88,0.0,0.0,0.0,0.0,0.0,0.0,-0.10943135916681267,0.12443179146849077,0.17382407996361776,-0.10943135916681267,0.12443179146849077,0.17382407996361776,0.8999999999999999,1.0,20.51236024903387,-3.983784312394143,8.757248829523538,0.19931121563345308,0.2103029645950492,0.5885106725808408,22.656497246838793,0.6559703570560982,1.0,0.0,81.90460440294456,-119.22810151903707,1010.9894286501045,102.60968674992668,-0.7945524551249673,12.274952537689584,1.0,1011.3833891077005,0.0,1.0,106.68870380624514,6317.78760055083,1.0,1.0,-23.311871661344966,14.655082646649994,-5.719918182578795,-45.311750553518216,1.0,1011.4959862876411,0.0,1.0,19.678247045425497,9.70303445851043,,,
0.9299999999999999,89.7602256714321,-117.66027620717666,1011.6904115437799,103.69052042884098,-2.1919939283023298,12.536064129664828,104.46856832583029,17.80279404219645,19.628395967957164,9.60407721889642,-22.493819529272873,11.426693651284834,13.923744869845649,42.30064810297103,8.266169590587602,14.898401528084863,6368.848178339078,0.3183984835403825,107.10561514510617,2.3006531042328975,1.1103666575593358,89747.19316866141,281.5740123249654,-2.1903701494042327,8.16837693312039,0.1460471166400488,412.9863157894737,0.2216467589202889,0.88,nominal,15378.134658390143,1450.0146338712811,target_intercept,19.67970986868792,4.943759825801235,0.0,-5.7723601671875615,7.065231422003256,7.949070467525882,-5.971398110967985,7.090905448560548,8.753196744379462,0.88,0.0,0.0,0.0,0.0,0.0,0.0,-0.10422055798376105,0.12375964702498697,0.15277210326427007,-0.10422055798376105,0.12375964702498697,0.15277210326427007,0.9299999999999999,1.0,20.4597409803937,-3.7303955487582363,8.52024832435158,0.19703708026149092,0.2416555735442216,0.7409576407961638,22.474685391426785,0.8038900749960636,1.0,0.0,81.90460440294456,-119.22810151903707,1010.9894286501045,102.60968674992668,-0.7945524551249673,12.274952537689584,1.0,1011.3833891077005,0.0,1.0,107.61236019212402,6323.6498110103785,1.0,1.0,-23.311871661344966,14.655082646649994,-5.719918182578795,-45.311750553518216,1.0,1011.4959862876411,0.0,1.0,19.678247045425497,9.70303445851043,,,
0.96,92.88465976447745,-117.73789522903175,1012.066806872861,104.14780310151184,-2.587300728502917,12.546510969371333,104.9327115509532,17.796144639428842,19.713352078604146,9.675496849020735,-20.886082960849237,11.806513703010728,15.544452529748307,50.555926975127825,7.829308843385966,13.29884244696395,6432.153587627936,0.3199842940851128,107.63859607555786,2.2836227075652316,1.1103255979666793,89743.09468429103,281.5715657553264,-2.2534915478342255,7.913632967425933,0.1142041209282416,412.95157894736843,0.22162811590919293,0.88,nominal,15430.421928337513,1446.963392636727,target_intercept,19.707095263644128,4.958337568045461,0.0,-5.423153062057982,7.0412667452563955,6.606233085657286,-5.642451081621983,7.061122226578057,7.465018549146157,0.88,0.0,0.0,0.0,0.0,0.0,0.0,-0.09847934925701891,0.12323983173954015,0.13028915240505057,-0.09847934925701891,0.12323983173954015,0.13028915240505057,0.96,1.0,20.566415802321455,-3.3258467337738016,8.160611450768998,0.21015303137854477,0.2734098467333725,0.8804725910331164,22.374858540356264,0.9455946406621218,1.0,0.0,81.90460440294456,-119.22810151903707,1010.9894286501045,102.60968674992668,-0.7945524551249673,12.274952537689584,1.0,1012.1862954635187,0.0,1.0,108.66426420443102,6446.581626954252,1.0,1.0,-19.70517397715359,15.133058973986468,-7.052442392755741,-44.98368471082037,1.0,1012.1133859028248,0.0,1.0,19.810363327452755,10.172115557691344,,,
0.99,96.02332237081505,-117.82663863078953,1012.4433250014487,104.62208687792031,-2.958113391926279,12.550604286256231,105.41370482760196,17.789495795951566,19.785666377427603,9.785994893234784,-19.044042218663005,12.78935085606357,16.984734611805326,58.20789130312079,7.356388333243535,11.483379742896696,6497.498215991025,0.32161290263084075,108.18596884940762,2.2657104617073984,1.1102845261404117,89738.99501441457,281.56911838749056,-2.317606547386833,7.654913860443975,0.08186423255549694,412.91684210526313,0.2216094728980969,0.88,nominal,15484.701915865851,1443.9000906123802,target_intercept,19.734767626421707,4.973501147022298,0.0,-5.059477891857351,7.0455070634720816,5.215695778362813,-5.292667167763203,7.051753128714472,6.11542488667615,0.88,0.0,0.0,0.0,0.0,0.0,0.0,-0.09237446828967098,0.12307631013387901,0.10673429943089993,-0.09237446828967098,0.12307631013387901,0.10673429943089993,0.99,1.0,20.640223566861234,-2.9425797952603414,7.778500056613495,0.22138411546849535,0.29615914790946296,1.0171383517454606,22.25270023777394,1.0822622575252727,1.0,0.0,81.90460440294456,-119.22810151903707,1010.9894286501045,102.60968674992668,-0.7945524551249673,12.274952537689584,1.0,1012.1862954635187,0.0,1.0,108.51829027306567,6517.263011476277,1.0,1.0,-19.70517397715359,15.133058973986468,-7.052442392755741,-44.98368471082037,1.0,1012.1133859028248,0.0,1.0,19.810363327452755,10.172115557691344,,,
1.02,99.17676201135671,-117.92562555862821,1012.8197717843946,105.11465468472198,-3.2995642612894627,12.548226098197448,105.91239649830518,17.782847511764622,19.868795094050867,9.933787523880493,-16.992062780815896,14.48491287561763,18.225471683412714,65.07213603659278,6.8581319094596935,9.474607341911636,6564.974429866848,0.32328593978107995,108.74828202954606,2.247895947248201,1.1102434632587344,89734.89627298363,281.5666714834014,-2.3824340229340746,7.393345277557336,0.04916815969466701,412.8821052631579,0.2215908298870009,0.88,nominal,15541.086880976536,1440.8242253022142,target_intercept,19.762744991340117,4.98921998325719,0.0,-4.690032181773488,7.092626143956578,3.802110489944778,-4.931086176169375,7.076276937859736,4.727436248637328,0.88,0.0,0.0,0.0,0.0,0.0,0.0,-0.08606368947373273,0.12350433134859456,0.08250932771685066,-0.08606368947373273,0.12350433134859456,0.08250932771685066,1.02,1.0,20.63617747317111,-2.497763387585961,7.260279799191635,0.2524404891687602,0.3198920368345545,1.137629542521582,22.018226663542407,1.2084113917949413,1.0,0.0,81.90460440294456,-119.22810151903707,1010.9894286501045,102.60968674992668,-0.7945524551249673,12.274952537689584,1.0,1013.3383914518053,0.0,1.0,108.55033712675409,6486.9109081105,1.0,1.0,-17.012402780091662,15.500987891093454,-8.734461285804302,-44.63032390101389,1.0,1012.7336188334675,0.0,1.0,20.51495883277751,10.250461067915547,,,
1.05,102.34554072936416,-118.03383623883134,1013.195954399031,105.62595726691477,-3.607022673437733,12.539420487884431,106.42880496975795,17.776199786868013,19.990426076206816,10.116564681595452,-14.760025017323725,17.007920955285577,19.249158391680982,70.9633938873451,6.342867923009023,7.300723017941057,6634.585173107323,0.32500279483750244,109.32533023746518,2.2311102914150984,1.1102024303532037,89730.8005592389,281.5642262964063,-2.4476897479058985,7.130065281982219,0.016258160247777338,412.84736842105264,0.22157218687590494,0.88,nominal,15599.603369852644,1437.735270104603,target_intercept,19.79104590452468,5.005457465361544,0.0,-4.320488683544296,7.199367430265629,2.3927018923602983,-4.564727680594327,7.150131233303271,3.3265956348711097,0.88,0.0,0.0,0.0,0.0,0.0,0.0,-0.07966952748329507,0.12479333197082491,0.05806004671097196,-0.07966952748329507,0.12479333197082491,0.05806004671097196,1.05,1.0,20.695667046810936,-2.021533944831822,6.804061665259946,0.29481706156138276,0.33845631451478975,1.2345526360795898,21.87904223560125,1.313617138999673,1.0,0.0,102.70585052870702,-119.68790262482183,1014.6269760417418,105.65071287712122,-3.787921334228017,12.604891798054535,1.0,1013.3383914518053,0.0,1.0,109.38584514916137,6597.733157510151,1.0,1.0,-17.012402780091662,15.500987891093454,-8.734461285804302,-44.63032390101389,1.0,1012.7336188334675,0.0,1.0,20.51495883277751,10.250461067915547,,,
1.08,105.53020890390768,-118.15012312235362,1013.5716843235887,106.15560581811745,-3.876229450742469,12.524330818585579,106.96212724053176,17.769552621261735,20.182829917707867,10.331873257511212,-12.383318777685066,20.477873176997967,20.04014111111033,75.69929150008936,5.815627913369771,4.995510689295572,6706.242827166779,0.32676064576412367,109.91616424552555,2.216192200890477,1.1101614479838868,89726.709925287,281.56178405189667,-2.5130876277272307,6.866219383149544,-0.016722577106306955,412.8126315789474,0.22155354386480894,0.88,nominal,15660.191089981774,1434.6326976113392,target_intercept,19.81968897343591,5.0221712579470275,0.0,-3.953404835100429,7.384663540366177,1.0169926228237003,-4.197933973297989,7.2908506175410155,1.9408338276426642,0.88,0.0,0.0,0.0,0.0,0.0,0.0,-0.07326776961537762,0.12724934854715256,0.033873940526448626,-0.07326776961537762,0.12724934854715256,0.033873940526448626,1.08,1.0,20.751004590216986,-1.3889204901778882,6.309611728012867,0.35777994098176696,0.34605075728443924,1.3214690733431826,21.733487796244763,1.412104147925549,1.0,0.0,102.70585052870702,-119.68790262482183,1014.6269760417418,105.65071287712122,-3.787921334228017,12.604891798054535,1.0,1013.399753062125,0.0,1.0,109.85000467524135,6641.832500539675,1.0,1.0,-14.301264284165322,15.582080991118417,-10.652683822677218,-44.08046924325458,1.0,1014.1352772424775,0.0,1.0,19.882952794981374,10.66386323878766,,,
1.1099999999999999,108.7312815711665,-118.2732263381301,1013.946778074573,106.7024222419608,-4.103440525882647,12.503125032811592,107.51080537340081,17.76290601494579,20.48319539674372,10.577439006589216,-9.902720841720566,25.018930281079964,20.583902912480518,79.10459396719992,5.277426263834315,2.598191753947162,6779.774648331187,0.3285546517659518,110.51915577185734,2.203858366537497,1.1101205361590114,89722.62636808255,281.5593459425153,-2.578340944716044,6.602955552688385,-0.04963055591395179,412.77789473684214,0.22153490085371297,0.88,nominal,15722.707807223645,1431.5160025819634,target_intercept,19.848692507560383,5.0393137989927,0.0,-3.5885535139187126,7.669727520586734,-0.2935598373506591,-3.832305697670423,7.518176759368448,0.6001976286466701,0.88,0.0,0.0,0.0,0.0,0.0,0.0,-0.06688635236728727,0.13121693819789684,0.010475424782546632,-0.06688635236728727,0.13121693819789684,0.010475424782546632,1.1099999999999999,1.0,20.76942783590169,-0.7777501538271857,5.773129891297507,0.4364679682915301,0.3610587848915586,1.378861154811433,21.570884466667074,1.4906796496027652,1.0,0.0,102.70585052870702,-119.68790262482183,1014.6269760417418,105.65071287712122,-3.787921334228017,12.604891798054535,1.0,1013.399753062125,0.0,1.0,110.18914138634773,6843.220763770282,1.0,1.0,-14.301264284165322,15.582080991118417,-10.652683822677218,-44.08046924325458,1.0,1014.1352772424775,0.0,1.0,19.882952794981374,10.66386323878766,,,
1.14,111.94921807640826,-118.40179336379565,1014.3210553866537,107.26455017472489,-4.285567522184961,12.47591040268959,108.07265220003264,17.75625996792018,20.933944851851635,10.85144441536944,-7.364170013579552,30.75993856652379,20.862604944698887,81.01597807617378,4.724871225048453,0.1531673726553577,6854.935176178924,0.3303783110104747,111.13211782718561,2.194694008364447,1.1100797145335621,89718.55184925332,281.5569131399867,-2.643163609495874,6.341419229696583,-0.0823225962879272,412.74315789473684,0.22151625784261694,0.88,nominal,15786.940654582137,1428.3847230066667,target_intercept,19.878074288113908,5.056832992686869,0.0,-3.2231351494254015,8.078129789994605,-1.5059297625596946,-3.46680336872341,7.854148577744142,-0.6634788060771487,0.88,0.0,0.0,0.0,0.0,0.0,0.0,-0.06050713330345451,0.1370807526224651,-0.011579889683247208,-0.06050713330345451,0.1370807526224651,-0.011579889683247208,1.14,1.0,20.874537006609412,-0.1546735255704494,5.24415967319169,0.535189444259248,0.36349584434398435,1.4136002309699784,21.523741073933877,1.5546133226948253,1.0,0.0,102.70585052870702,-119.68790262482183,1014.6269760417418,105.65071287712122,-3.787921334228017,12.604891798054535,1.0,1015.071461243866,0.0,1.0,111.41112813139821,6894.746600198117,1.0,1.0,-6.968089496666056,15.564963951956791,-13.212366217915186,-43.37197515011838,1.0,1014.1758058306126,0.0,1.0,21.3399829933239,10.931113458844846,,,
1.17,115.18440676550075,-118.53440238544886,1014.6943347679122,107.83962296974964,-4.420300721773509,12.442646041950153,108.64503109325305,17.749614480184903,21.583029464202966,11.15274726512189,-4.818452399447234,37.834588937491255,20.847588920827498,81.28735454002286,4.150245667870229,-2.290316995504528,6931.42528366847,0.3322239678027247,111.75247533457608,2.189165247069029,1.1100390028941045,89714.48834349295,281.55448682400856,-2.7072714135905755,6.0827483370302255,-0.1146564578712218,412.7084210526316,0.22149761483152094,0.88,nominal,15852.623588678707,1425.238457661455,target_intercept,19.90785149508575,5.074673085168069,0.0,-2.852150397390624,8.635867999723256,-2.585894020864551,-3.0980115859237385,8.32318023093161,-1.8169279349495904,0.88,0.0,0.0,0.0,0.0,0.0,0.0,-0.05407050243930045,0.1452668992666586,-0.031711374736331704,-0.05407050243930045,0.1452668992666586,-0.031711374736331704,1.17,1.0,20.924034205515238,0.5519214991585867,4.6552858390497995,0.6584752538974035,0.365761190255987,1.4185727723520816,21.442749614218386,1.6061505591791192,1.0,0.0,102.70585052870702,-119.68790262482183,1014.6269760417418,105.65071287712122,-3.787921334228017,12.604891798054535,1.0,1015.071461243866,0.0,1.0,112.09547475218137,6908.090455518953,1.0,1.0,-6.968089496666056,15.564963951956791,-13.212366217915186,-43.37197515011838,1.0,1014.1758058306126,0.0,1.0,21.3399829933239,10.931113458844846,,,
1.2,118.4371560952575,-118.66958834790623,1015.0664267633496,108.42497765855857,-4.5061987485792105,12.403066514579418,109.22507801043544,17.742969551739957,22.48421075582782,11.480976379388668,-2.320803951559529,46.381722659989464,20.490261999384643,79.79579667881603,3.5421843148802097,-4.678555306552799,7008.916745429459,0.33408343496611537,112.37747450016037,2.187653297872298,1.1099984218934549,89710.43791188874,281.5520682260382,-2.7703832772810673,5.828068330295633,-0.14649145871304595,412.67368421052635,0.22147897182042497,0.88,nominal,15919.460007211655,1422.076878694824,target_intercept,19.938040801682334,5.09277568937108,0.0,-2.469370969668662,9.371442583914463,-3.4984188006350267,-2.7208272161706923,8.952137642721322,-2.825822454360852,0.88,0.0,0.0,0.0,0.0,0.0,0.0,-0.047487393300050085,0.15624427695721085,-0.049319905905384064,-0.047487393300050085,0.15624427695721085,-0.049319905905384064,1.2,1.0,21.02007420458165,1.177801905756708,3.979601054518907,0.8114846225315614,0.35821242176576695,1.3948427586181562,21.425871311301464,1.653000227762233,1.0,0.0,102.70585052870702,-119.68790262482183,1014.6269760417418,105.65071287712122,-3.787921334228017,12.604891798054535,1.0,1014.7182321442739,0.0,1.0,112.3905006457169,7062.877214971065,1.0,1.0,-3.0958435935810282,15.2408808952947,-16.50326748895115,-42.46875653695858,1.0,1015.1596427927723,0.0,1.0,22.96479654104969,11.726757024046787,,,
