time_s,sensor_time_s,imu_valid,imu_ax_mps2,imu_ay_mps2,imu_az_mps2,gyro_p_rps,gyro_q_rps,gyro_r_rps,imu_accel_norm_mps2,imu_gyro_norm_rps,gps_valid,gps_latency_s,gps_x_m,gps_y_m,gps_z_m,gps_vx_mps,gps_vy_mps,gps_vz_mps,baro_valid,baro_alt_m,baro_bias_m,pitot_valid,pitot_airspeed_mps,pitot_qbar_pa,pitot_compressibility_factor,mag_valid,mag_heading_deg,mag_x_ut,mag_y_ut,mag_z_ut,radar_valid,radar_agl_m,optical_flow_valid,horizon_valid,horizon_roll_deg,horizon_pitch_deg,optical_flow_x_radps,optical_flow_y_radps,optical_flow_quality
0.0,0.0,1.0,17.50544931893502,1.6044302316757102,-0.7617014070394992,0.0011795551696321186,0.002982802560093238,0.0017401726722909368,17.59531588973621,0.0036492002466421065,1.0,0.0,-0.7658830172640091,-121.33930817381692,1000.335930710274,88.01166284655733,4.253777560437563,14.24831216786183,1.0,1001.3249718431521,0.0,1.0,91.52995941362157,4677.67612456939,1.0,1.0,4.278327064146713,17.963328002603575,-1.2082217914267943,-44.46072234159003,1.0,1000.0489477121154,0.0,1.0,-0.08935740668074815,8.42961517096461,,,
0.03,0.03,1.0,17.83377123303013,1.4555087607372459,-0.3234548449816473,0.03127925247414877,-0.22740592951519087,-0.10457157518928262,17.895991874757264,0.2522440539469212,1.0,0.0,-0.7658830172640091,-121.33930817381692,1000.335930710274,88.01166284655733,4.253777560437563,14.24831216786183,1.0,1001.3249718431521,0.0,1.0,92.09866567384465,4651.142910958359,1.0,1.0,4.278327064146713,17.963328002603575,-1.2082217914267943,-44.46072234159003,1.0,1000.0489477121154,0.0,1.0,-0.08935740668074815,8.42961517096461,,,
0.06,0.06,1.0,18.1052530302002,1.4649068906060077,0.5705084803944447,0.06514104733092668,-0.4179093186371442,-0.19917062344019235,18.173376665108783,0.46750453676160947,1.0,0.0,-0.7658830172640091,-121.33930817381692,1000.335930710274,88.01166284655733,4.253777560437563,14.24831216786183,1.0,1000.0264554348836,0.0,1.0,91.82973258272943,4712.343220042882,1.0,1.0,1.8294495593275348,17.10524764244446,-1.2139430550122505,-44.8245107429989,1.0,1000.3097447515746,0.0,1.0,0.6738997694245976,9.553838587752688,,,
0.09,0.09,1.0,18.319060102267482,1.3871022912284194,1.2913298339372685,0.09490816558016005,-0.3981602434139956,-0.2985095758848742,18.416827863039714,0.5066035000118443,1.0,0.0,-0.7658830172640091,-121.33930817381692,1000.335930710274,88.01166284655733,4.253777560437563,14.24831216786183,1.0,1000.0264554348836,0.0,1.0,91.72646880991371,4744.3928662016,1.0,1.0,1.8294495593275348,17.10524764244446,-1.2139430550122505,-44.8245107429989,1.0,1000.3097447515746,0.0,1.0,0.6738997694245976,9.553838587752688,,,
0.12,0.12,1.0,18.58060529117145,1.3486182615749636,1.7847308849913472,0.12947730771450652,-0.28620434331301636,-0.3899083867258049,18.714778345831512,0.5007053518621024,1.0,0.0,-0.7658830172640091,-121.33930817381692,1000.335930710274,88.01166284655733,4.253777560437563,14.24831216786183,1.0,1001.0105561244432,0.0,1.0,92.8987467611923,4817.251167704754,1.0,1.0,-0.26844239038767403,16.198291363189117,-1.2400126128219837,-45.18827320108468,1.0,1001.7272855188768,0.0,1.0,0.8355644406286852,10.388214643191493,,,
0.15,0.15,1.0,18.849774107164546,1.3024907917999522,2.0576652067837635,0.16106320754144354,-0.17847481182322678,-0.480741934284387,19.006431865478145,0.5375010908438868,1.0,0.0,-0.7658830172640091,-121.33930817381692,1000.335930710274,88.01166284655733,4.253777560437563,14.24831216786183,1.0,1001.0105561244432,0.0,1.0,93.78139675128752,4888.83499758532,1.0,1.0,-0.26844239038767403,16.198291363189117,-1.2400126128219837,-45.18827320108468,1.0,1001.7272855188768,0.0,1.0,0.8355644406286852,10.388214643191493,,,
0.18,0.18,1.0,19.176240188972265,1.1709088045383014,2.262745578113684,0.19018991200925864,-0.14239291137527252,-0.5677166943391867,19.344746903616326,0.6154268347020865,1.0,0.0,-0.7658830172640091,-121.33930817381692,1000.335930710274,88.01166284655733,4.253777560437563,14.24831216786183,1.0,1002.9051480501219,0.0,1.0,93.5375582219455,4866.719091879783,1.0,1.0,0.06828521051820001,15.799528031862142,-1.1280349092312583,-45.26222146325468,1.0,1002.7744415798645,0.0,1.0,1.7733753027956791,10.600738317112997,,,
0.21,0.21,1.0,19.434745061313244,1.0885249403319839,2.6115082097221474,0.2253469170704224,-0.14677571212620502,-0.6498986680785603,19.63960736046957,0.7033438856445581,1.0,0.0,19.555266331360023,-120.30795075953047,1003.1006390140063,91.96640043863779,4.216160033546203,12.756424431062264,1.0,1002.9051480501219,0.0,1.0,94.87548629374042,4902.501033350585,1.0,1.0,0.06828521051820001,15.799528031862142,-1.1280349092312583,-45.26222146325468,1.0,1002.7744415798645,0.0,1.0,1.7733753027956791,10.600738317112997,,,
0.24,0.24,1.0,19.774059430164932,0.7671693030042133,2.91877026880007,0.25452472899281453,-0.1457363124923441,-0.7298057511264409,20.003029644761263,0.7865356602373222,1.0,0.0,19.555266331360023,-120.30795075953047,1003.1006390140063,91.96640043863779,4.216160033546203,12.756424431062264,1.0,1003.9108238363926,0.0,1.0,94.87668884454166,4978.028417206441,1.0,1.0,-3.8995459387352884,15.37322691547839,-1.1369274539460044,-45.47690629911132,1.0,1002.893199215682,0.0,1.0,3.5122630323946282,11.02064457441219,,,
0.27,0.27,1.0,19.94352802568486,0.58106121608347,3.2909563532484896,0.28000316287178323,-0.1429091721418498,-0.8025943653332759,20.221580946283613,0.8619643368290797,1.0,0.0,19.555266331360023,-120.30795075953047,1003.1006390140063,91.96640043863779,4.216160033546203,12.756424431062264,1.0,1003.9108238363926,0.0,1.0,96.03475524507128,5061.277384789405,1.0,1.0,-3.8995459387352884,15.37322691547839,-1.1369274539460044,-45.47690629911132,1.0,1002.893199215682,0.0,1.0,3.5122630323946282,11.02064457441219,,,
0.3,0.3,1.0,20.266978259780366,0.3242454364317508,3.4684538560343703,0.3069138262662017,-0.12714542776320742,-0.8656389604582744,20.56418525098664,0.9271962394324791,1.0,0.0,19.555266331360023,-120.30795075953047,1003.1006390140063,91.96640043863779,4.216160033546203,12.756424431062264,1.0,1003.7363413864462,0.0,1.0,95.47122275192184,5159.981090163917,1.0,1.0,-6.486542919829359,15.161098183686784,-1.2624799901790047,-45.556417138035464,1.0,1004.2195338733846,0.0,1.0,4.241613657009664,11.41912331320584,,,
0.32999999999999996,0.32999999999999996,1.0,20.530227687943782,0.020756278831791687,3.849147945017889,0.3338074529299082,-0.12049229997623997,-0.9201337713905631,20.887953936289687,0.9862007743043696,1.0,0.0,19.555266331360023,-120.30795075953047,1003.1006390140063,91.96640043863779,4.216160033546203,12.756424431062264,1.0,1003.7363413864462,0.0,1.0,97.17881398310062,5196.999918910463,1.0,1.0,-6.486542919829359,15.161098183686784,-1.2624799901790047,-45.556417138035464,1.0,1004.2195338733846,0.0,1.0,4.241613657009664,11.41912331320584,,,
0.36,0.36,1.0,20.801336755640435,-0.2863414683848212,4.164367235210986,0.34919275591243387,-0.12175064948575345,-0.960485813035256,21.21602122754814,1.0292190235678313,1.0,0.0,19.555266331360023,-120.30795075953047,1003.1006390140063,91.96640043863779,4.216160033546203,12.756424431062264,1.0,1005.0184752834783,0.0,1.0,96.55866312090122,5237.655839492584,1.0,1.0,-9.579516936477264,14.85687201302534,-1.3611878270281084,-45.54798933010792,1.0,1004.1268852848254,0.0,1.0,7.103105013600859,12.013540598163548,,,
0.39,0.39,1.0,21.144542226286706,-0.5472578564714481,4.577732570295798,0.3658133328494158,-0.12464099963797202,-0.9907746761480078,21.641321415427438,1.0634797751613991,1.0,0.0,19.555266331360023,-120.30795075953047,1003.1006390140063,91.96640043863779,4.216160033546203,12.756424431062264,1.0,1005.0184752834783,0.0,1.0,97.6375656728212,5381.568386549977,1.0,1.0,-9.579516936477264,14.85687201302534,-1.3611878270281084,-45.54798933010792,1.0,1004.1268852848254,0.0,1.0,7.103105013600859,12.013540598163548,,,
0.42,0.42,1.0,21.069999594392332,-0.9001132110636376,4.870079940000519,0.37978814636342784,-0.13018988805433993,-1.0094188807842046,21.644231687043543,1.0863309440282949,1.0,0.0,39.99102900944774,-118.4261081320933,1005.0864194663136,95.70099930747347,4.161233740109276,12.367732171334266,1.0,1005.7784148427903,0.0,1.0,98.85835958604432,5397.425140467184,1.0,1.0,-12.99930344599544,14.607651699933974,-1.486997156162286,-45.777843397533154,1.0,1005.1586938072004,0.0,1.0,8.102741132384716,11.292666439099891,,,
0.44999999999999996,0.44999999999999996,1.0,21.034515484954312,-1.2689797655528512,5.259388715167278,0.39204245629234996,-0.12961284535661324,-1.0139000439364534,21.7191694359935,1.0947557153591474,1.0,0.0,39.99102900944774,-118.4261081320933,1005.0864194663136,95.70099930747347,4.161233740109276,12.367732171334266,1.0,1005.7784148427903,0.0,1.0,98.29104597587514,5393.16148420128,1.0,1.0,-12.99930344599544,14.607651699933974,-1.486997156162286,-45.777843397533154,1.0,1005.1586938072004,0.0,1.0,8.102741132384716,11.292666439099891,,,
0.48,0.48,1.0,21.030535518357254,-1.6339766705951078,5.769667986465793,0.39361360505998,-0.12626329669525665,-1.0007761291851311,21.868753339479216,1.0827866599323444,1.0,0.0,39.99102900944774,-118.4261081320933,1005.0864194663136,95.70099930747347,4.161233740109276,12.367732171334266,1.0,1006.1051834511024,0.0,1.0,99.2203536949849,5547.095357504972,1.0,1.0,-15.679236316386998,14.352056321045705,-1.6343040887696267,-45.737783264934905,1.0,1005.7395814714355,0.0,1.0,10.284451303927934,11.051199609063236,,,
0.51,0.51,1.0,20.95608698328529,-2.079047453916738,6.2144604868257405,0.3989226499198723,-0.1256671559074342,-0.980541639968209,21.956765224162123,1.0660175525780526,1.0,0.0,39.99102900944774,-118.4261081320933,1005.0864194663136,95.70099930747347,4.161233740109276,12.367732171334266,1.0,1006.1051834511024,0.0,1.0,99.69513169922979,5557.868116522228,1.0,1.0,-15.679236316386998,14.352056321045705,-1.6343040887696267,-45.737783264934905,1.0,1005.7395814714355,0.0,1.0,10.284451303927934,11.051199609063236,,,
0.54,0.54,1.0,20.88266685569774,-2.3793552802532485,6.63529720479954,0.3935171854443147,-0.11930431733466514,-0.9350505187146101,22.040287556013112,1.0214738214575874,1.0,0.0,39.99102900944774,-118.4261081320933,1005.0864194663136,95.70099930747347,4.161233740109276,12.367732171334266,1.0,1006.0844241046877,0.0,1.0,100.11938546242392,5673.302094645492,1.0,1.0,-20.575355078107652,14.118708187157083,-1.9134561048887975,-45.832443231987426,1.0,1006.9881867781229,0.0,1.0,12.80982574760212,11.46428523301717,,,
0.57,0.57,1.0,20.8601220220742,-2.8693467924332334,7.188481537366558,0.3926467387657441,-0.1096484811567969,-0.8782319151950667,22.249766484260725,0.9682383734135731,1.0,0.0,39.99102900944774,-118.4261081320933,1005.0864194663136,95.70099930747347,4.161233740109276,12.367732171334266,1.0,1006.0844241046877,0.0,1.0,100.42144975337722,5557.078352450256,1.0,1.0,-20.575355078107652,14.118708187157083,-1.9134561048887975,-45.832443231987426,1.0,1006.9881867781229,0.0,1.0,12.80982574760212,11.46428523301717,,,
0.6,0.6,1.0,20.73120258495244,-3.206152634969834,7.6246609639383776,0.3786691870399959,-0.10039791458683602,-0.7944361752568185,22.320341174634148,0.8857758920988985,1.0,0.0,39.99102900944774,-118.4261081320933,1005.0864194663136,95.70099930747347,4.161233740109276,12.367732171334266,1.0,1007.3910788234289,0.0,1.0,101.27764240389331,5713.5358969380495,1.0,1.0,-23.69168170905656,13.88313217852674,-2.243947689594384,-45.8389392679095,1.0,1007.5815041629469,0.0,1.0,13.799631154254923,10.661606039528404,,,
0.63,0.63,1.0,20.766411748280504,-3.4527245429682374,8.085247835669874,0.36818227534629594,-0.07663664349540407,-0.7020902856073842,22.55075156691994,0.796468538078985,1.0,0.0,59.165282231253805,-117.2236584230081,1009.2679811378042,99.48788378481348,2.304202227488535,12.72006705770673,1.0,1007.3910788234289,0.0,1.0,101.87812486490317,5705.893195072579,1.0,1.0,-23.69168170905656,13.88313217852674,-2.243947689594384,-45.8389392679095,1.0,1007.5815041629469,0.0,1.0,13.799631154254923,10.661606039528404,,,
0.6599999999999999,0.6599999999999999,1.0,20.6671044443209,-3.813123725080145,8.425271521352508,0.3496158750174294,-0.05775477623232903,-0.586197252927888,22.641870922336594,0.6849774401993481,1.0,0.0,59.165282231253805,-117.2236584230081,1009.2679811378042,99.48788378481348,2.304202227488535,12.72006705770673,1.0,1008.3742810473663,0.0,1.0,102.18410004505071,5739.310714135216,1.0,1.0,-23.593257658260306,13.852446704984537,-2.7554693952260036,-45.89668684305892,1.0,1008.3089817296548,0.0,1.0,15.53700746370106,10.520177540756086,,,
0.69,0.69,1.0,20.68686654698479,-3.9817180566429493,8.767635051674421,0.3286077856933146,-0.02342414097440611,-0.4606914825622869,22.81823723723427,0.5663642019973456,1.0,0.0,59.165282231253805,-117.2236584230081,1009.2679811378042,99.48788378481348,2.304202227488535,12.72006705770673,1.0,1008.3742810473663,0.0,1.0,103.33958981822238,5965.641412137944,1.0,1.0,-23.593257658260306,13.852446704984537,-2.7554693952260036,-45.89668684305892,1.0,1008.3089817296548,0.0,1.0,15.53700746370106,10.520177540756086,,,
0.72,0.72,1.0,20.60665907224184,-4.170781983749111,9.039516447349756,0.30730422574187916,0.008076279084869008,-0.32742656901136463,22.885425014132466,0.44912055345667096,1.0,0.0,59.165282231253805,-117.2236584230081,1009.2679811378042,99.48788378481348,2.304202227488535,12.72006705770673,1.0,1009.5276233811284,0.0,1.0,103.54430646524357,5916.623476510702,1.0,1.0,-24.992226749635257,13.869797386704123,-3.3217403991877745,-45.86130429276297,1.0,1008.9417807447595,0.0,1.0,17.356679654813362,10.711948001810958,,,
0.75,0.75,1.0,20.59851374837219,-4.2840514498412325,9.236532881632295,0.2837633032724178,0.03808053742413166,-0.18470892819877358,22.977497799809264,0.3407185462679197,1.0,0.0,59.165282231253805,-117.2236584230081,1009.2679811378042,99.48788378481348,2.304202227488535,12.72006705770673,1.0,1009.5276233811284,0.0,1.0,104.07520286774842,6052.444069968963,1.0,1.0,-24.992226749635257,13.869797386704123,-3.3217403991877745,-45.86130429276297,1.0,1008.9417807447595,0.0,1.0,17.356679654813362,10.711948001810958,,,
0.78,0.78,1.0,20.540375391926514,-4.321023446348021,9.335615782099504,0.26731981819319234,0.07458632056818185,-0.03560827489386225,22.972417959286194,0.27980520662714237,1.0,0.0,59.165282231253805,-117.2236584230081,1009.2679811378042,99.48788378481348,2.304202227488535,12.72006705770673,1.0,1010.36252535965,0.0,1.0,104.77441601295116,6103.6436705544365,1.0,1.0,-27.11023317364668,14.087836233808218,-3.931932815770256,-45.74299498872143,1.0,1009.5622807352268,0.0,1.0,18.251557628034746,10.27991256015599,,,
0.8099999999999999,0.8099999999999999,1.0,20.531063901650445,-4.2736752431578084,9.332702786691078,0.24269278783777623,0.11415655760623765,0.11431864462782955,22.954045968463713,0.29154804307784693,1.0,0.0,59.165282231253805,-117.2236584230081,1009.2679811378042,99.48788378481348,2.304202227488535,12.72006705770673,1.0,1010.36252535965,0.0,1.0,104.93892364994585,6149.636166914514,1.0,1.0,-27.11023317364668,14.087836233808218,-3.931932815770256,-45.74299498872143,1.0,1009.5622807352268,0.0,1.0,18.251557628034746,10.27991256015599,,,
0.84,0.84,1.0,20.490393624028073,-4.2869066096039745,9.24257643838214,0.22421174191160703,0.14361875435061117,0.27529704213713585,22.883597146567958,0.38299570914269293,1.0,0.0,81.90460440294456,-119.22810151903707,1010.9894286501045,102.60968674992668,-0.7945524551249673,12.274952537689584,1.0,1010.3356602596161,0.0,1.0,104.56404841273837,6147.940865668586,1.0,1.0,-25.759530959706446,14.44449007692297,-4.807711891866597,-45.522910614609536,1.0,1010.9487596723262,0.0,1.0,18.828486470562165,9.311275088688578,,,
0.87,0.87,1.0,20.517482689601277,-4.14484659832913,9.07086529771413,0.20900000339361957,0.18026575342005363,0.42811842265695255,22.812878961039598,0.5093742505200961,1.0,0.0,81.90460440294456,-119.22810151903707,1010.9894286501045,102.60968674992668,-0.7945524551249673,12.274952537689584,1.0,1010.3356602596161,0.0,1.0,106.22039727391335,6155.514733751819,1.0,1.0,-25.759530959706446,14.44449007692297,-4.807711891866597,-45.522910614609536,1.0,1010.9487596723262,0.0,1.0,18.828486470562165,9.311275088688578,,,
0.8999999999999999,0.8999999999999999,1.0,20.51236024903387,-3.983784312394143,8.757248829523538,0.19931121563345308,0.2103029645950492,0.5885106725808408,22.656497246838793,0.6559703570560982,1.0,0.0,81.90460440294456,-119.22810151903707,1010.9894286501045,102.60968674992668,-0.7945524551249673,12.274952537689584,1.0,1011.3833891077005,0.0,1.0,106.68870380624514,6317.78760055083,1.0,1.0,-23.311871661344966,14.655082646649994,-5.719918182578795,-45.311750553518216,1.0,1011.4959862876411,0.0,1.0,19.678247045425497,9.70303445851043,,,
0.9299999999999999,0.9299999999999999,1.0,20.4597409803937,-3.7303955487582363,8.52024832435158,0.19703708026149092,0.2416555735442216,0.7409576407961638,22.474685391426785,0.8038900749960636,1.0,0.0,81.90460440294456,-119.22810151903707,1010.9894286501045,102.60968674992668,-0.7945524551249673,12.274952537689584,1.0,1011.3833891077005,0.0,1.0,107.61236019212402,6323.6498110103785,1.0,1.0,-23.311871661344966,14.655082646649994,-5.719918182578795,-45.311750553518216,1.0,1011.4959862876411,0.0,1.0,19.678247045425497,9.70303445851043,,,
0.96,0.96,1.0,20.566415802321455,-3.3258467337738016,8.160611450768998,0.21015303137854477,0.2734098467333725,0.8804725910331164,22.374858540356264,0.9455946406621218,1.0,0.0,81.90460440294456,-119.22810151903707,1010.9894286501045,102.60968674992668,-0.7945524551249673,12.274952537689584,1.0,1012.1862954635187,0.0,1.0,108.66426420443102,6446.581626954252,1.0,1.0,-19.70517397715359,15.133058973986468,-7.052442392755741,-44.98368471082037,1.0,1012.1133859028248,0.0,1.0,19.810363327452755,10.172115557691344,,,
0.99,0.99,1.0,20.640223566861234,-2.9425797952603414,7.778500056613495,0.22138411546849535,0.29615914790946296,1.0171383517454606,22.25270023777394,1.0822622575252727,1.0,0.0,81.90460440294456,-119.22810151903707,1010.9894286501045,102.60968674992668,-0.7945524551249673,12.274952537689584,1.0,1012.1862954635187,0.0,1.0,108.51829027306567,6517.263011476277,1.0,1.0,-19.70517397715359,15.133058973986468,-7.052442392755741,-44.98368471082037,1.0,1012.1133859028248,0.0,1.0,19.810363327452755,10.172115557691344,,,
1.02,1.02,1.0,20.63617747317111,-2.497763387585961,7.260279799191635,0.2524404891687602,0.3198920368345545,1.137629542521582,22.018226663542407,1.2084113917949413,1.0,0.0,81.90460440294456,-119.22810151903707,1010.9894286501045,102.60968674992668,-0.7945524551249673,12.274952537689584,1.0,1013.3383914518053,0.0,1.0,108.55033712675409,6486.9109081105,1.0,1.0,-17.012402780091662,15.500987891093454,-8.734461285804302,-44.63032390101389,1.0,1012.7336188334675,0.0,1.0,20.51495883277751,10.250461067915547,,,
1.05,1.05,1.0,20.695667046810936,-2.021533944831822,6.804061665259946,0.29481706156138276,0.33845631451478975,1.2345526360795898,21.87904223560125,1.313617138999673,1.0,0.0,102.70585052870702,-119.68790262482183,1014.6269760417418,105.65071287712122,-3.787921334228017,12.604891798054535,1.0,1013.3383914518053,0.0,1.0,109.38584514916137,6597.733157510151,1.0,1.0,-17.012402780091662,15.500987891093454,-8.734461285804302,-44.63032390101389,1.0,1012.7336188334675,0.0,1.0,20.51495883277751,10.250461067915547,,,
1.08,1.08,1.0,20.751004590216986,-1.3889204901778882,6.309611728012867,0.35777994098176696,0.34605075728443924,1.3214690733431826,21.733487796244763,1.412104147925549,1.0,0.0,102.70585052870702,-119.68790262482183,1014.6269760417418,105.65071287712122,-3.787921334228017,12.604891798054535,1.0,1013.399753062125,0.0,1.0,109.85000467524135,6641.832500539675,1.0,1.0,-14.301264284165322,15.582080991118417,-10.652683822677218,-44.08046924325458,1.0,1014.1352772424775,0.0,1.0,19.882952794981374,10.66386323878766,,,
1.1099999999999999,1.1099999999999999,1.0,20.76942783590169,-0.7777501538271857,5.773129891297507,0.4364679682915301,0.3610587848915586,1.378861154811433,21.570884466667074,1.4906796496027652,1.0,0.0,102.70585052870702,-119.68790262482183,1014.6269760417418,105.65071287712122,-3.787921334228017,12.604891798054535,1.0,1013.399753062125,0.0,1.0,110.18914138634773,6843.220763770282,1.0,1.0,-14.301264284165322,15.582080991118417,-10.652683822677218,-44.08046924325458,1.0,1014.1352772424775,0.0,1.0,19.882952794981374,10.66386323878766,,,
1.14,1.14,1.0,20.874537006609412,-0.1546735255704494,5.24415967319169,0.535189444259248,0.36349584434398435,1.4136002309699784,21.523741073933877,1.5546133226948253,1.0,0.0,102.70585052870702,-119.68790262482183,1014.6269760417418,105.65071287712122,-3.787921334228017,12.604891798054535,1.0,1015.071461243866,0.0,1.0,111.41112813139821,6894.746600198117,1.0,1.0,-6.968089496666056,15.564963951956791,-13.212366217915186,-43.37197515011838,1.0,1014.1758058306126,0.0,1.0,21.3399829933239,10.931113458844846,,,
1.17,1.17,1.0,20.924034205515238,0.5519214991585867,4.6552858390497995,0.6584752538974035,0.365761190255987,1.4185727723520816,21.442749614218386,1.6061505591791192,1.0,0.0,102.70585052870702,-119.68790262482183,1014.6269760417418,105.65071287712122,-3.787921334228017,12.604891798054535,1.0,1015.071461243866,0.0,1.0,112.09547475218137,6908.090455518953,1.0,1.0,-6.968089496666056,15.564963951956791,-13.212366217915186,-43.37197515011838,1.0,1014.1758058306126,0.0,1.0,21.3399829933239,10.931113458844846,,,
1.2,1.2,1.0,21.02007420458165,1.177801905756708,3.979601054518907,0.8114846225315614,0.35821242176576695,1.3948427586181562,21.425871311301464,1.653000227762233,1.0,0.0,102.70585052870702,-119.68790262482183,1014.6269760417418,105.65071287712122,-3.787921334228017,12.604891798054535,1.0,1014.7182321442739,0.0,1.0,112.3905006457169,7062.877214971065,1.0,1.0,-3.0958435935810282,15.2408808952947,-16.50326748895115,-42.46875653695858,1.0,1015.1596427927723,0.0,1.0,22.96479654104969,11.726757024046787,,,
1.23,1.23,1.0,21.20706715656798,1.8951920619611118,3.242110367849616,0.9854641412433508,0.3444737991091749,1.3323682318911607,21.537008380279342,1.6926331195217648,1.0,0.0,102.70585052870702,-119.68790262482183,1014.6269760417418,105.65071287712122,-3.787921334228017,12.604891798054535,1.0,1014.7182321442739,0.0,1.0,113.18318745144856,7050.610021512807,1.0,1.0,-3.0958435935810282,15.2408808952947,-16.50326748895115,-42.46875653695858,1.0,1015.1596427927723,0.0,1.0,22.96479654104969,11.726757024046787,,,
1.26,1.26,1.0,21.295676191340565,2.5888899029223653,2.4485933654468774,1.1976623497195862,0.32127182721262404,1.2437712235413452,21.59175270433582,1.7562965431287263,1.0,0.0,125.7607815036114,-117.6349630227069,1015.3413580001182,109.45457032112395,-4.699922244133169,12.180246636806043,1.0,1015.441087101115,0.0,1.0,113.95679330034109,7171.626022939661,1.0,1.0,2.4745941307613015,14.62096785120995,-20.388811989741296,-40.907548140173134,1.0,1015.7383600430718,0.0,1.0,25.170063124799057,12.005103680492105,,,
1.29,1.29,1.0,21.52484651084109,3.0940043739328655,1.5719373652505573,1.4340891861471319,0.2849779163415481,1.11469481107195,21.802817878922312,1.8385779092704349,1.0,0.0,125.7607815036114,-117.6349630227069,1015.3413580001182,109.45457032112395,-4.699922244133169,12.180246636806043,1.0,1015.441087101115,0.0,1.0,114.02331267112496,7319.61720517053,1.0,1.0,2.4745941307613015,14.62096785120995,-20.388811989741296,-40.907548140173134,1.0,1015.7383600430718,0.0,1.0,25.170063124799057,12.005103680492105,,,
1.3199999999999998,1.3199999999999998,1.0,21.564192183652438,3.533017554181045,0.5339813758402998,1.717898642953858,0.23636133226361797,0.9625213931643148,21.85821890459954,1.9833027653767623,1.0,0.0,125.7607815036114,-117.6349630227069,1015.3413580001182,109.45457032112395,-4.699922244133169,12.180246636806043,1.0,1016.2472722675199,0.0,1.0,114.88661397426718,7375.88782523544,1.0,1.0,6.686375215022883,13.803479983749853,-24.96048627688819,-38.52136870275271,1.0,1016.2403687613223,0.0,1.0,30.023956548953944,12.795391399449453,,,
1.3499999999999999,1.3499999999999999,1.0,21.627723032679985,4.079869165081422,-0.5067308451840893,2.0290031632207817,0.1577754490021671,0.7687856605642964,22.01500652127906,2.1754949599015516,1.0,0.0,125.7607815036114,-117.6349630227069,1015.3413580001182,109.45457032112395,-4.699922244133169,12.180246636806043,1.0,1016.2472722675199,0.0,1.0,116.58332678109498,7418.751685292318,1.0,1.0,6.686375215022883,13.803479983749853,-24.96048627688819,-38.52136870275271,1.0,1016.2403687613223,0.0,1.0,30.023956548953944,12.795391399449453,,,
1.38,1.38,1.0,21.48321320749087,4.497721537982528,-1.6538915246769808,2.3644324376840853,0.05640597184273617,0.5565002900111508,22.01120864303322,2.429694416755886,1.0,0.0,125.7607815036114,-117.6349630227069,1015.3413580001182,109.45457032112395,-4.699922244133169,12.180246636806043,1.0,1017.6428907902307,0.0,1.0,116.23897462932557,7587.70274340551,1.0,1.0,6.931608288317382,13.052982717347705,-30.415367897653788,-34.804488712325025,1.0,1017.5625428784961,0.0,1.0,37.32847993468233,13.633137787748309,,,
1.41,1.41,1.0,21.38600149548054,4.775224872400456,-2.7600544154876983,2.70763246436785,-0.06682010061562876,0.313730053038594,22.08578123868705,2.726566528461134,1.0,0.0,125.7607815036114,-117.6349630227069,1015.3413580001182,109.45457032112395,-4.699922244133169,12.180246636806043,1.0,1017.6428907902307,0.0,1.0,117.06003913517803,7557.676995081011,1.0,1.0,6.931608288317382,13.052982717347705,-30.415367897653788,-34.804488712325025,1.0,1017.5625428784961,0.0,1.0,37.32847993468233,13.633137787748309,,,
1.44,1.44,1.0,21.239773408296205,4.979892472670112,-3.7015003974609257,3.0491823456927465,-0.24680823927586,0.06361465469775103,22.12754863665486,3.0598160252784945,1.0,0.0,125.7607815036114,-117.6349630227069,1015.3413580001182,109.45457032112395,-4.699922244133169,12.180246636806043,1.0,1018.1854851817594,0.0,1.0,117.00750395645731,7640.920639378077,1.0,1.0,8.213866811917182,12.328820132688243,-36.14241882522763,-29.182784628502727,1.0,1017.8893091672029,0.0,1.0,46.52588253271174,14.74447940984321,,,
1.47,1.47,1.0,21.193102772293567,4.979461460586366,-4.235407044925591,3.400143534922394,-0.4916452659864545,-0.19589073480916364,22.178397471203088,3.441084757111559,1.0,0.0,149.03849653759895,-118.7942514748932,1020.2077339694683,113.83670354392657,-3.0466978160867058,11.852520330899699,1.0,1018.1854851817594,0.0,1.0,117.96487186060837,7738.633206676392,1.0,1.0,8.213866811917182,12.328820132688243,-36.14241882522763,-29.182784628502727,1.0,1017.8893091672029,0.0,1.0,46.52588253271174,14.74447940984321,,,
1.5,1.5,1.0,21.14901783571276,4.993191319068461,-4.285788461621194,3.7470856569778275,-0.8114226539978582,-0.45370944592936097,22.149060876296367,3.8606877503205843,1.0,0.0,149.03849653759895,-118.7942514748932,1020.2077339694683,113.83670354392657,-3.0466978160867058,11.852520330899699,1.0,1019.9120629943458,0.0,1.0,117.89120500557571,7794.490921532712,1.0,1.0,6.0829676586774095,12.184723447460515,-41.23042946678514,-21.39447040949782,1.0,1018.8271729785487,0.0,1.0,59.173288058872814,15.538199885475068,,,
1.53,1.53,1.0,21.25006196560697,4.795814692152611,-3.6613160833916116,4.087015772451268,-1.2129201815291755,-0.6963542048436551,22.090047704025107,4.3196970344724,1.0,0.0,149.03849653759895,-118.7942514748932,1020.2077339694683,113.83670354392657,-3.0466978160867058,11.852520330899699,1.0,1019.9120629943458,0.0,1.0,119.19622685188699,7853.607055377346,1.0,1.0,6.0829676586774095,12.184723447460515,-41.23042946678514,-21.39447040949782,1.0,1018.8271729785487,0.0,1.0,59.173288058872814,15.538199885475068,,,
1.56,1.56,1.0,21.427517692339936,4.561495547780856,-1.8306890341032658,4.4087441355995525,-1.7383152728233242,-0.9066555789762859,21.98402097951036,4.825017013421102,1.0,0.0,149.03849653759895,-118.7942514748932,1020.2077339694683,113.83670354392657,-3.0466978160867058,11.852520330899699,1.0,1019.3178707046178,0.0,1.0,119.51862971128925,7970.458299459897,1.0,1.0,1.5899912227855586,12.732709854808865,-44.84580679650313,-11.44090641648071,1.0,1019.7044783496226,0.0,1.0,75.74789742453926,14.203886299270781,,,
1.5899999999999999,1.5899999999999999,1.0,21.03459775988168,4.363066577488499,1.698909289520925,4.728659612786473,-2.3122728244642863,-1.074402213849268,21.549407083575108,5.372259065372608,1.0,0.0,149.03849653759895,-118.7942514748932,1020.2077339694683,113.83670354392657,-3.0466978160867058,11.852520330899699,1.0,1019.3178707046178,0.0,1.0,119.76359978490495,8096.104414213002,1.0,1.0,1.5899912227855586,12.732709854808865,-44.84580679650313,-11.44090641648071,1.0,1019.7044783496226,0.0,1.0,75.74789742453926,14.203886299270781,,,
1.6199999999999999,1.6199999999999999,1.0,20.24340241875906,4.363427539740059,7.14689873239435,5.038222174750774,-2.8877759647382284,-1.1840970157629147,21.906916781543725,5.926636351878599,1.0,0.0,149.03849653759895,-118.7942514748932,1020.2077339694683,113.83670354392657,-3.0466978160867058,11.852520330899699,1.0,1019.3872674020349,0.0,1.0,120.77746729091896,8220.134514090376,1.0,1.0,-7.0417596655882955,15.078800754518545,-45.567135549206384,-0.34505831174068147,1.0,1020.075592855232,0.0,0.0,75.74789742453926,14.203886299270781,,,
1.65,1.65,1.0,18.785558868388794,4.451930705857838,13.317624582255123,5.342257006259292,-3.461827642891471,-1.2291915229770647,23.453699783218568,6.483430600397654,1.0,0.0,149.03849653759895,-118.7942514748932,1020.2077339694683,113.83670354392657,-3.0466978160867058,11.852520330899699,1.0,1019.3872674020349,0.0,1.0,121.32328851787548,8114.757938793426,1.0,1.0,-7.0417596655882955,15.078800754518545,-45.567135549206384,-0.34505831174068147,1.0,1020.075592855232,0.0,0.0,75.74789742453926,14.203886299270781,,,
1.68,1.68,1.0,15.916835411965504,4.9849320013967215,17.849937748547696,5.6483645738546775,-3.8830073228546245,-1.2047218561810917,24.429807085140403,6.959390991981955,1.0,0.0,172.4468083293261,-118.20117953962884,1022.1692318158772,117.5837885542042,-3.4141859233492844,11.075467443797411,1.0,1020.8186839302948,0.0,1.0,121.79593088685064,8256.002286947738,1.0,1.0,-19.909794000703673,19.45709778649515,-42.573502132664665,10.52008826986113,1.0,1020.7809187182187,0.0,0.0,75.74789742453926,14.203886299270781,,,
1.71,1.71,1.0,14.373240987172204,5.993748555826073,19.4355865236978,5.957211622706567,-4.285148815825182,-1.1207934747717747,24.904961388163958,7.423412200906613,1.0,0.0,172.4468083293261,-118.20117953962884,1022.1692318158772,117.5837885542042,-3.4141859233492844,11.075467443797411,1.0,1020.8186839302948,0.0,1.0,122.52993207429803,8336.659140809492,1.0,1.0,-19.909794000703673,19.45709778649515,-42.573502132664665,10.52008826986113,1.0,1020.7809187182187,0.0,0.0,75.74789742453926,14.203886299270781,,,
1.74,1.74,1.0,14.328252908206553,7.7101960819480535,17.976967657224524,6.279528970463125,-4.676333198628864,-1.010913058955843,24.247006437342183,7.894461443838433,1.0,0.0,172.4468083293261,-118.20117953962884,1022.1692318158772,117.5837885542042,-3.4141859233492844,11.075467443797411,1.0,1021.4001379291922,0.0,1.0,122.39525635717153,8398.892212528843,1.0,1.0,-31.29055566396549,26.097298504710874,-35.554665548745696,18.93786990475953,1.0,1021.3800318690664,0.0,0.0,75.74789742453926,14.203886299270781,,,
1.77,1.77,1.0,14.306104863698287,10.415487354476975,16.82128420660169,6.628415169691413,-5.1175119187396305,-0.8965474153226582,24.415212789604535,8.421912678730358,1.0,0.0,172.4468083293261,-118.20117953962884,1022.1692318158772,117.5837885542042,-3.4141859233492844,11.075467443797411,1.0,1021.4001379291922,0.0,1.0,122.2489536197793,8279.520870454347,1.0,1.0,-31.29055566396549,26.097298504710874,-35.554665548745696,18.93786990475953,1.0,1021.3800318690664,0.0,0.0,75.74789742453926,14.203886299270781,,,
1.7999999999999998,1.7999999999999998,1.0,15.154891687130212,13.700405836406494,17.20059169535376,7.012355432292777,-5.535696788900802,-0.7928636463332936,26.70640778542038,8.969152714115731,1.0,0.0,172.4468083293261,-118.20117953962884,1022.1692318158772,117.5837885542042,-3.4141859233492844,11.075467443797411,1.0,1020.9866489197217,0.0,1.0,122.38559725226438,8374.039263218965,1.0,1.0,-39.5986139849775,34.2848504876645,-25.623460613951433,21.833886263305597,1.0,1021.9649140317174,0.0,0.0,75.74789742453926,14.203886299270781,,,
1.8299999999999998,1.8299999999999998,1.0,16.21991112374465,17.67688997571677,17.29683666861648,7.443457363481374,-5.908403822992169,-0.7292653519427541,29.575978678930763,9.531323161610763,1.0,0.0,172.4468083293261,-118.20117953962884,1022.1692318158772,117.5837885542042,-3.4141859233492844,11.075467443797411,1.0,1020.9866489197217,0.0,1.0,122.32217492764806,8218.810184748669,1.0,1.0,-39.5986139849775,34.2848504876645,-25.623460613951433,21.833886263305597,1.0,1021.9649140317174,0.0,0.0,75.74789742453926,14.203886299270781,,,
1.8599999999999999,1.8599999999999999,1.0,17.366378343454002,19.56808828521954,16.982687561829277,7.938656183788243,-6.238339776069011,-0.7265653245912019,31.191550983060225,10.122600571838365,1.0,0.0,172.4468083293261,-118.20117953962884,1022.1692318158772,117.5837885542042,-3.4141859233492844,11.075467443797411,1.0,1021.8239294675489,0.0,1.0,122.06131563481763,8195.588079242632,1.0,1.0,-40.329871320338604,42.44499107456917,-14.688426999578368,17.105421468526373,1.0,1022.3460456710676,0.0,0.0,75.74789742453926,14.203886299270781,,,
1.89,1.89,1.0,18.342389517595898,20.402509064662883,16.047784992348873,8.391363867149389,-6.532638900383736,-0.640270474465659,31.784226158733528,10.653652182898579,1.0,0.0,195.18004303361496,-122.32488188993548,1022.0149688486765,117.49563859809577,-7.513906167833823,6.223989821391329,1.0,1021.8239294675489,0.0,1.0,121.18618809622393,8300.294377327566,1.0,1.0,-40.329871320338604,42.44499107456917,-14.688426999578368,17.105421468526373,1.0,1022.3460456710676,0.0,0.0,75.74789742453926,14.203886299270781,,,
1.92,1.92,1.0,19.24428835015663,21.07974835107786,14.403577308837862,8.773937942679579,-6.782746381687788,-0.4051989074111281,31.971259967983947,11.09737904438964,1.0,0.0,195.18004303361496,-122.32488188993548,1022.0149688486765,117.49563859809577,-7.513906167833823,6.223989821391329,1.0,1021.4603882947199,0.0,1.0,120.88692980330377,8028.4949919165,1.0,1.0,-22.12850893400904,47.19748360798475,-7.534173203441602,4.501256344106741,1.0,1022.1108340808681,0.0,0.0,75.74789742453926,14.203886299270781,,,
1.95,1.95,1.0,19.89906096996899,21.439807253026217,12.437844085635088,9.073755884504477,-6.968362697457066,-0.027794527628144047,31.785813313993184,11.440799669195192,1.0,0.0,195.18004303361496,-122.32488188993548,1022.0149688486765,117.49563859809577,-7.513906167833823,6.223989821391329,1.0,1021.4603882947199,0.0,1.0,119.89533317362036,8032.207472990887,1.0,1.0,-22.12850893400904,47.19748360798475,-7.534173203441602,4.501256344106741,1.0,1022.1108340808681,0.0,0.0,75.74789742453926,14.203886299270781,,,
1.98,1.98,1.0,22.72032661074414,13.298121102677802,3.7282945028882666,9.074290411297678,-7.074760472348554,0.4681537490835362,26.5885961656617,11.515821731099154,1.0,0.0,195.18004303361496,-122.32488188993548,1022.0149688486765,117.49563859809577,-7.513906167833823,6.223989821391329,1.0,1022.6285134687702,0.0,1.0,119.86950760139395,7961.403270305126,1.0,1.0,39.19243037018481,45.721152214856275,-9.9444092428553,-10.892410105325002,1.0,1023.2049022493422,0.0,1.0,-45.90749154216133,-64.96585187081877,,,
2.01,2.01,1.0,21.568709581608566,16.705726027186508,-14.871106288969484,9.074112045856364,-7.651364891393838,1.0386236334078056,31.07153548457201,11.914765342795596,1.0,0.0,195.18004303361496,-122.32488188993548,1022.0149688486765,117.49563859809577,-7.513906167833823,6.223989821391329,1.0,1022.6285134687702,0.0,1.0,119.6067772685344,7959.019829771683,1.0,1.0,39.19243037018481,45.721152214856275,-9.9444092428553,-10.892410105325002,1.0,1023.2049022493422,0.0,1.0,-45.90749154216133,-64.96585187081877,,,
2.04,2.04,1.0,21.268030142621054,16.355137305099724,-14.085984682273692,9.07497012826435,-8.227928901329998,1.614663079741804,30.302385828270214,12.355607378648491,1.0,0.0,195.18004303361496,-122.32488188993548,1022.0149688486765,117.49563859809577,-7.513906167833823,6.223989821391329,1.0,1023.0057099872619,0.0,1.0,118.98701284591075,7868.979023082916,1.0,1.0,61.399972204327575,36.21350015118781,-22.505734041391197,-22.07786634491954,1.0,1023.3643766109888,0.0,1.0,4.42884223323549,-41.33259194513051,,,
2.07,2.07,1.0,20.72594597499592,15.220306499367307,-14.687311101575851,9.07615766860913,-8.802327605165594,2.1895308134657023,29.613167238368906,12.831666083452623,1.0,0.0,195.18004303361496,-122.32488188993548,1022.0149688486765,117.49563859809577,-7.513906167833823,6.223989821391329,1.0,1023.0057099872619,0.0,1.0,118.35539270823007,7774.849679939197,1.0,1.0,61.399972204327575,36.21350015118781,-22.505734041391197,-22.07786634491954,1.0,1023.3643766109888,0.0,1.0,4.42884223323549,-41.33259194513051,,,
2.1,2.1,1.0,20.137549468382243,13.950744983959755,-14.918184571086506,9.077078238868994,-9.076922965868494,2.7640730094802555,28.68268493527103,13.131031166081252,1.0,0.0,221.89638961500935,-121.48627983922528,1021.5521357563457,114.88347109651008,-5.995294207796384,-0.7291551212174991,1.0,1024.1681058791842,0.0,1.0,118.14535360018971,7661.852801133739,1.0,1.0,57.80914186901919,19.648816651618112,-38.698775217932464,-20.424888371574866,1.0,1022.9408743018797,0.0,1.0,34.148332470791175,-10.07763786132243,,,
2.13,2.13,1.0,19.50785738431103,13.432424859222827,-14.825946450341702,9.074914774361822,-9.073929383550471,3.3432298515162984,27.94271328045445,13.261502873342101,1.0,0.0,221.89638961500935,-121.48627983922528,1021.5521357563457,114.88347109651008,-5.995294207796384,-0.7291551212174991,1.0,1024.1681058791842,0.0,1.0,117.70936052782693,7813.843054228319,1.0,1.0,57.80914186901919,19.648816651618112,-38.698775217932464,-20.424888371574866,1.0,1022.9408743018797,0.0,1.0,34.148332470791175,-10.07763786132243,,,
2.16,2.16,1.0,18.7288513435811,13.08101417981765,-14.349755734363901,9.07666156986463,-9.072793998388212,3.9206928946039272,26.97773701144074,13.419135924672808,1.0,0.0,221.89638961500935,-121.48627983922528,1021.5521357563457,114.88347109651008,-5.995294207796384,-0.7291551212174991,1.0,1023.6923012259058,0.0,1.0,118.41768321179322,7811.723792492397,1.0,1.0,42.90045571518296,3.271880243844968,-47.79656269003482,-2.6538569421394813,1.0,1022.7693048289855,0.0,1.0,67.35576566606872,19.30602745475117,,,
2.19,2.19,1.0,18.183357581088558,11.846122630282427,-13.563658481500223,9.076630837222268,-8.953074354834843,4.494139678890315,25.591755424280553,13.518138156262197,1.0,0.0,221.89638961500935,-121.48627983922528,1021.5521357563457,114.88347109651008,-5.995294207796384,-0.7291551212174991,1.0,1023.6923012259058,0.0,1.0,117.67885303580893,7775.0266922465,1.0,1.0,42.90045571518296,3.271880243844968,-47.79656269003482,-2.6538569421394813,1.0,1022.7693048289855,0.0,1.0,67.35576566606872,19.30602745475117,,,
2.2199999999999998,2.2199999999999998,1.0,18.498187695068445,11.352791435758395,-14.489166566463421,9.072005967625493,-8.43049806086815,5.0706688353620235,26.096068078860696,13.382311917932785,1.0,0.0,221.89638961500935,-121.48627983922528,1021.5521357563457,114.88347109651008,-5.995294207796384,-0.7291551212174991,1.0,1022.5332081634868,0.0,1.0,116.96583207970701,7767.547645043797,1.0,1.0,9.288842149792353,-4.691291961424248,-41.86225828220945,23.155378878052804,1.0,1022.7541495206123,0.0,0.0,67.35576566606872,19.30602745475117,,,
2.25,2.25,1.0,18.71472148862929,12.139300124026445,-16.00862146489462,9.07530766504635,-7.857228421359509,5.6457420450991265,27.456863788576367,13.26543067225745,1.0,0.0,221.89638961500935,-121.48627983922528,1021.5521357563457,114.88347109651008,-5.995294207796384,-0.7291551212174991,1.0,1022.5332081634868,0.0,1.0,117.74491077016476,7631.332128904029,1.0,1.0,9.288842149792353,-4.691291961424248,-41.86225828220945,23.155378878052804,1.0,1022.7541495206123,0.0,0.0,67.35576566606872,19.30602745475117,,,
2.28,2.28,1.0,18.85787205042716,13.943227511754998,-17.21773799156678,9.076885820599536,-7.275297889347344,6.22133710285436,29.09438834657098,13.191847896572153,1.0,0.0,221.89638961500935,-121.48627983922528,1021.5521357563457,114.88347109651008,-5.995294207796384,-0.7291551212174991,1.0,1021.7804171362795,0.0,1.0,118.45854451094296,7655.398857858267,1.0,1.0,-28.049741079772566,-1.0033783077026805,-22.330526985597587,42.54935402820998,1.0,1022.9993445967375,0.0,0.0,67.35576566606872,19.30602745475117,,,
2.31,2.31,1.0,19.182889003068397,14.65801567383769,-17.731867428418596,9.078288481538797,-6.883442258143519,6.750880952338588,29.954294792191753,13.242790216109439,1.0,0.0,246.85564498957874,-123.70564812048097,1023.4873966870887,114.53033601524466,-3.1453198079080282,-0.05391167967756763,1.0,1021.7804171362795,0.0,1.0,118.54186512918409,7669.652069854111,1.0,1.0,-28.049741079772566,-1.0033783077026805,-22.330526985597587,42.54935402820998,1.0,1022.9993445967375,0.0,0.0,67.35576566606872,19.30602745475117,,,
2.34,2.34,1.0,19.44745660367079,15.38010246991969,-17.212709285763495,9.074651799684249,-6.800016616482373,7.177107340645197,30.183248355554728,13.42014906955553,1.0,0.0,246.85564498957874,-123.70564812048097,1023.4873966870887,114.53033601524466,-3.1453198079080282,-0.05391167967756763,1.0,1021.6673443711724,0.0,1.0,117.64883026242302,7737.443773405418,1.0,1.0,-49.285349355233805,13.142392377648612,0.06659806813770443,46.123665447476256,1.0,1022.7204834369686,0.0,0.0,67.35576566606872,19.30602745475117,,,
2.37,2.37,1.0,19.520379583764324,16.27911671154213,-15.649960367722851,9.074904966799632,-6.982481174453653,7.54601173280598,29.849223097319456,13.713177479333147,1.0,0.0,246.85564498957874,-123.70564812048097,1023.4873966870887,114.53033601524466,-3.1453198079080282,-0.05391167967756763,1.0,1021.6673443711724,0.0,1.0,117.89585547642862,7669.361495264662,1.0,1.0,-49.285349355233805,13.142392377648612,0.06659806813770443,46.123665447476256,1.0,1022.7204834369686,0.0,0.0,67.35576566606872,19.30602745475117,,,
2.4,2.4,1.0,19.52754412216287,17.055871582336923,-14.199669293913278,9.077944367117777,-7.42893822733212,7.94526791186555,29.56109509021426,14.167761972496653,1.0,0.0,246.85564498957874,-123.70564812048097,1023.4873966870887,114.53033601524466,-3.1453198079080282,-0.05391167967756763,1.0,1022.6278351152449,0.0,1.0,117.7596280928769,7808.323993599476,1.0,1.0,-56.247182919780656,33.699791822012756,11.090585537204097,32.25343538247953,1.0,1022.6508083260804,0.0,0.0,67.35576566606872,19.30602745475117,,,
2.4299999999999997,2.4299999999999997,1.0,20.0298723992351,16.725220779713908,-14.889672110091622,9.007955035571618,-8.002134276619456,8.42201693599718,30.043820229888446,14.700604619339687,1.0,0.0,246.85564498957874,-123.70564812048097,1023.4873966870887,114.53033601524466,-3.1453198079080282,-0.05391167967756763,1.0,1022.6278351152449,0.0,1.0,118.26004302516186,7565.063191298986,1.0,1.0,-56.247182919780656,33.699791822012756,11.090585537204097,32.25343538247953,1.0,1022.6508083260804,0.0,0.0,67.35576566606872,19.30602745475117,,,
2.46,2.46,1.0,20.51618885518028,16.11292998134651,-15.576602352046105,8.850510861032,-8.577520051435204,8.998098277091083,30.383730162028606,15.260116819284441,1.0,0.0,246.85564498957874,-123.70564812048097,1023.4873966870887,114.53033601524466,-3.1453198079080282,-0.05391167967756763,1.0,1021.2309199053848,0.0,1.0,116.80922262027096,7678.049860687154,1.0,1.0,-17.494458568042383,47.354053462309196,0.1596253524653541,7.699855197617464,1.0,1022.8862717057342,0.0,1.0,-64.94242315609068,-65.12342530970678,,,
2.4899999999999998,2.4899999999999998,1.0,20.6418148610578,15.383509302337549,-15.868877363921046,8.69392716947902,-9.07101303909385,9.077372936064817,30.241662454376712,15.500527300837804,1.0,0.0,246.85564498957874,-123.70564812048097,1023.4873966870887,114.53033601524466,-3.1453198079080282,-0.05391167967756763,1.0,1021.2309199053848,0.0,1.0,116.23120155095862,7567.286283621734,1.0,1.0,-17.494458568042383,47.354053462309196,0.1596253524653541,7.699855197617464,1.0,1022.8862717057342,0.0,1.0,-64.94242315609068,-65.12342530970678,,,
2.52,2.52,1.0,20.67056741956885,14.611800686588982,-15.841456892850413,8.552348630777184,-9.076598638860705,9.07722920415132,29.86182903372768,15.42476579977868,1.0,0.0,270.9294991961023,-125.47681542415674,1026.0613862325406,113.31328253101448,-6.387137729477629,-3.8504340434267466,1.0,1022.5604283096408,0.0,1.0,116.18858027867788,7427.09127619153,1.0,1.0,51.763400865374884,39.30166001123096,-25.4035817635193,-10.318087378529812,1.0,1022.7847395222833,0.0,1.0,24.503096762866033,-43.04360494505557,,,
2.55,2.55,1.0,20.478275390663256,13.706010071778616,-15.694128489398055,8.46489325206663,-9.074820493433712,9.078451586113419,29.2150670734345,15.376120055408416,1.0,0.0,270.9294991961023,-125.47681542415674,1026.0613862325406,113.31328253101448,-6.387137729477629,-3.8504340434267466,1.0,1022.5604283096408,0.0,1.0,116.33701201181451,7469.156899338077,1.0,1.0,51.763400865374884,39.30166001123096,-25.4035817635193,-10.318087378529812,1.0,1022.7847395222833,0.0,1.0,24.503096762866033,-43.04360494505557,,,
2.58,2.58,1.0,20.138141986249572,12.924161878542328,-15.382969896451675,8.414804950100216,-9.074781206515159,9.074886713762442,28.446695515582352,15.346470772199513,1.0,0.0,270.9294991961023,-125.47681542415674,1026.0613862325406,113.31328253101448,-6.387137729477629,-3.8504340434267466,1.0,1021.3681615283597,0.0,1.0,115.87973182882143,7485.763539983874,1.0,1.0,53.18094658465249,14.12471327175441,-45.404040134000965,-6.815622570637527,1.0,1022.6226945209816,0.0,1.0,57.22310991303131,-0.8373420318413356,,,
2.61,2.61,1.0,19.74700371499678,12.600268181306536,-14.892815697420891,8.395455115646866,-8.938942105382269,9.075113761647351,27.7580055724162,15.25601659507023,1.0,0.0,270.9294991961023,-125.47681542415674,1026.0613862325406,113.31328253101448,-6.387137729477629,-3.8504340434267466,1.0,1021.3681615283597,0.0,1.0,115.73942988462804,7382.178403436614,1.0,1.0,53.18094658465249,14.12471327175441,-45.404040134000965,-6.815622570637527,1.0,1022.6226945209816,0.0,1.0,57.22310991303131,-0.8373420318413356,,,
2.6399999999999997,2.6399999999999997,1.0,19.504548265231538,12.422608654551064,-14.376234197617858,8.386325783346456,-8.493579755515999,9.072341481741477,27.22911527243643,14.992622758178767,1.0,0.0,270.9294991961023,-125.47681542415674,1026.0613862325406,113.31328253101448,-6.387137729477629,-3.8504340434267466,1.0,1020.5658331416431,0.0,1.0,114.8295867329485,7318.326030092913,1.0,1.0,32.34284046485525,-9.349692788350742,-44.380215915850556,15.594764448070743,1.0,1022.226784010587,0.0,0.0,57.22310991303131,-0.8373420318413356,,,
2.67,2.67,1.0,19.306350142723485,12.633127258330633,-13.954431700078336,8.388816165493173,-7.921727879945712,9.074767194465345,26.963998669165647,14.679148779683826,1.0,0.0,270.9294991961023,-125.47681542415674,1026.0613862325406,113.31328253101448,-6.387137729477629,-3.8504340434267466,1.0,1020.5658331416431,0.0,1.0,114.7459643827505,7399.266274955007,1.0,1.0,32.34284046485525,-9.349692788350742,-44.380215915850556,15.594764448070743,1.0,1022.226784010587,0.0,0.0,57.22310991303131,-0.8373420318413356,,,
2.6999999999999997,2.6999999999999997,1.0,19.314194556928026,13.081789590273583,-13.506414335465168,8.420027017936766,-7.341713972000826,9.074640249874808,26.955417979848086,14.392592354892331,1.0,0.0,270.9294991961023,-125.47681542415674,1026.0613862325406,113.31328253101448,-6.387137729477629,-3.8504340434267466,1.0,1021.8551017158554,0.0,1.0,114.41250918054877,7484.738391521092,1.0,1.0,-21.40380152161446,-15.39911776172704,-22.862756861821293,39.3238272705039,1.0,1021.4624013304211,0.0,0.0,57.22310991303131,-0.8373420318413356,,,
2.73,2.73,1.0,19.186840847202973,13.695799886472809,-13.60482052627115,8.483675917691336,-6.764873793839655,9.074025252578204,27.21765856531847,14.144759057948686,1.0,0.0,294.6377342265616,-125.61586949993607,1022.0760376811763,112.14133883116394,-3.268501440364298,-3.863983881945778,1.0,1021.8551017158554,0.0,1.0,115.06682923377198,7367.490827937344,1.0,1.0,-21.40380152161446,-15.39911776172704,-22.862756861821293,39.3238272705039,1.0,1021.4624013304211,0.0,0.0,57.22310991303131,-0.8373420318413356,,,
2.76,2.76,1.0,19.363981843446386,14.262185258664438,-14.07510987525295,8.530532227825319,-6.187969764181659,9.07431089874119,27.86543448766284,13.906979117673469,1.0,0.0,294.6377342265616,-125.61586949993607,1022.0760376811763,112.14133883116394,-3.268501440364298,-3.863983881945778,1.0,1021.5978588152392,0.0,1.0,114.67306972666324,7411.703975043654,1.0,1.0,-53.45712436513313,-2.7820656720588715,5.516211678559917,47.65950896279176,1.0,1021.1608727886506,0.0,0.0,57.22310991303131,-0.8373420318413356,,,
2.79,2.79,1.0,19.54004043938558,14.231047089451781,-14.451832008345242,8.55808196556417,-5.7157896940985475,9.074403609574029,28.163652640104228,13.720634811331728,1.0,0.0,294.6377342265616,-125.61586949993607,1022.0760376811763,112.14133883116394,-3.268501440364298,-3.863983881945778,1.0,1021.5978588152392,0.0,1.0,115.46889394697858,7215.968952858285,1.0,1.0,-53.45712436513313,-2.7820656720588715,5.516211678559917,47.65950896279176,1.0,1021.1608727886506,0.0,0.0,57.22310991303131,-0.8373420318413356,,,
2.82,2.82,1.0,19.686272053413553,14.005061696877506,-14.800613784755399,8.561270483504561,-5.616169190713161,9.078715457779786,28.332829525125945,13.684289643009308,1.0,0.0,294.6377342265616,-125.61586949993607,1022.0760376811763,112.14133883116394,-3.268501440364298,-3.863983881945778,1.0,1021.3313881512958,0.0,1.0,114.84267659417208,7361.315568295236,1.0,1.0,-61.27619252349392,20.40397555837505,23.11922240756715,36.778237045810194,1.0,1021.4029583454846,0.0,0.0,57.22310991303131,-0.8373420318413356,,,
2.85,2.85,1.0,19.633645660863476,13.523990581852727,-15.058412684551037,8.509694309671504,-5.827219706315497,9.074487089706002,28.19812326685292,13.737456194323903,1.0,0.0,294.6377342265616,-125.61586949993607,1022.0760376811763,112.14133883116394,-3.268501440364298,-3.863983881945778,1.0,1021.3313881512958,0.0,1.0,114.62527360167144,7183.562959356845,1.0,1.0,-61.27619252349392,20.40397555837505,23.11922240756715,36.778237045810194,1.0,1021.4029583454846,0.0,0.0,57.22310991303131,-0.8373420318413356,,,
2.88,2.88,1.0,19.453811720546977,12.742025957446302,-15.373439841954886,8.395960025389922,-6.342478271382104,9.077219626748017,27.877458071584147,13.896585606656013,1.0,0.0,294.6377342265616,-125.61586949993607,1022.0760376811763,112.14133883116394,-3.268501440364298,-3.863983881945778,1.0,1020.5977448129526,0.0,1.0,114.50499877068503,7292.9208888176345,1.0,1.0,-44.83555142757128,41.87835978347106,18.85624765758681,13.792165335924418,1.0,1021.2603116484646,0.0,0.0,57.22310991303131,-0.8373420318413356,,,
2.9099999999999997,2.9099999999999997,1.0,19.386200677242144,12.309264757339712,-15.490079694858549,8.304149734097699,-6.9135448023910975,9.077589060548693,27.699915965895247,14.11235726918707,1.0,0.0,294.6377342265616,-125.61586949993607,1022.0760376811763,112.14133883116394,-3.268501440364298,-3.863983881945778,1.0,1020.5977448129526,0.0,1.0,113.67261623135776,7207.478682605198,1.0,1.0,-44.83555142757128,41.87835978347106,18.85624765758681,13.792165335924418,1.0,1021.2603116484646,0.0,0.0,57.22310991303131,-0.8373420318413356,,,
2.94,2.94,1.0,19.229577480360312,12.489593159948997,-14.89746349801011,8.231298457508423,-7.490630987094074,9.0733479938558,27.34412196521894,14.359299101940929,1.0,0.0,315.50317961544533,-127.6242030570224,1019.456027841598,110.91412035268377,-6.681488897514706,-7.2650820588659135,1.0,1019.9795384344444,0.0,1.0,114.27478654066164,7233.324978942752,1.0,1.0,15.314319445652037,46.73059549302586,-5.245085351981965,-9.891894365090426,1.0,1020.7277481792755,0.0,1.0,-6.0224993317976,-49.60516387852139,,,
2.9699999999999998,2.9699999999999998,1.0,19.132824933349273,12.986970710354063,-14.215666634723753,8.177495963320702,-8.068337711307441,9.077056121297797,27.14427335611296,14.641122275393439,1.0,0.0,315.50317961544533,-127.6242030570224,1019.456027841598,110.91412035268377,-6.681488897514706,-7.2650820588659135,1.0,1019.9795384344444,0.0,1.0,113.96638047013367,7347.742637363029,1.0,1.0,15.314319445652037,46.73059549302586,-5.245085351981965,-9.891894365090426,1.0,1020.7277481792755,0.0,1.0,-6.0224993317976,-49.60516387852139,,,
3.0,3.0,1.0,19.06208319568473,13.115219118309092,-13.670042710486102,8.166717262129593,-8.347983857341937,9.071934611922902,26.87456150315723,14.78797156221947,1.0,0.0,315.50317961544533,-127.6242030570224,1019.456027841598,110.91412035268377,-6.681488897514706,-7.2650820588659135,1.0,1020.0386330141746,0.0,1.0,114.2955348801766,7160.560018265006,1.0,1.0,40.32371800520332,28.04228744487399,-34.03093950852067,-19.081613607433965,1.0,1019.8437584127084,0.0,1.0,37.75108273684196,-13.90047192807689,,,
3.03,3.03,1.0,19.294210869256393,13.10951490461985,-13.136406302487494,8.169836101219595,-8.288694240579577,9.075071382144932,26.77108747596583,14.758238198566723,1.0,0.0,315.50317961544533,-127.6242030570224,1019.456027841598,110.91412035268377,-6.681488897514706,-7.2650820588659135,1.0,1020.0386330141746,0.0,1.0,114.10671382447354,7123.138205112521,1.0,1.0,40.32371800520332,28.04228744487399,-34.03093950852067,-19.081613607433965,1.0,1019.8437584127084,0.0,1.0,37.75108273684196,-13.90047192807689,,,
3.06,3.06,1.0,19.67004596846166,13.363299075375792,-12.90631290558208,8.196852249438276,-7.9157914921397365,9.07667955803604,27.056632890959083,14.568261857387878,1.0,0.0,315.50317961544533,-127.6242030570224,1019.456027841598,110.91412035268377,-6.681488897514706,-7.2650820588659135,1.0,1018.3314567464018,0.0,1.0,113.59484504567385,7165.231061795646,1.0,1.0,37.51981885540685,-1.5438424470754621,-47.75102684820619,-4.808303204867234,1.0,1019.8739901059186,0.0,1.0,67.14980586461124,26.193072820741733,,,
3.09,3.09,1.0,20.069767328491924,13.92674777829741,-12.847101710474224,8.235313233614756,-7.338470527507652,9.074519084585893,27.60068634399122,14.283572044672942,1.0,0.0,315.50317961544533,-127.6242030570224,1019.456027841598,110.91412035268377,-6.681488897514706,-7.2650820588659135,1.0,1018.3314567464018,0.0,1.0,114.462424392765,7052.490993985675,1.0,1.0,37.51981885540685,-1.5438424470754621,-47.75102684820619,-4.808303204867234,1.0,1019.8739901059186,0.0,1.0,67.14980586461124,26.193072820741733,,,
3.12,3.12,1.0,20.5758326018682,14.136264043778556,-12.970393900440797,8.305468080724237,-6.762648137794071,9.079288758826005,28.132365103348857,14.040929251359506,1.0,0.0,315.50317961544533,-127.6242030570224,1019.456027841598,110.91412035268377,-6.681488897514706,-7.2650820588659135,1.0,1019.8375686077417,0.0,1.0,113.73366139495506,7240.807783099438,1.0,1.0,2.1987731168520512,-21.716853134370318,-36.58237582071126,22.228997602166164,1.0,1018.8473439889395,0.0,0.0,67.14980586461124,26.193072820741733,,,
3.15,3.15,1.0,20.942150908851715,14.23096313422424,-13.138158811382322,8.400925305671706,-6.186259150466063,9.074448761475923,28.5255186345467,13.82718223619159,1.0,0.0,343.72376396897954,-127.66062749416643,1021.6139521097517,110.61859016265478,-3.154827272556446,-8.771289803822349,1.0,1019.8375686077417,0.0,1.0,113.50899560509842,7158.3173223563135,1.0,1.0,2.1987731168520512,-21.716853134370318,-36.58237582071126,22.228997602166164,1.0,1018.8473439889395,0.0,0.0,67.14980586461124,26.193072820741733,,,
3.1799999999999997,3.1799999999999997,1.0,21.164937581428518,13.96283156390427,-14.009113853554958,8.51750651958622,-5.611907954046836,9.074396877225205,28.968440052401718,13.652329723577674,1.0,0.0,343.72376396897954,-127.66062749416643,1021.6139521097517,110.61859016265478,-3.154827272556446,-8.771289803822349,1.0,1017.4658878644714,0.0,1.0,113.53827027381408,7106.258509187225,1.0,1.0,-57.80526885639985,-22.46493686997856,-7.042188467929994,41.853804434270145,1.0,1018.421595597174,0.0,0.0,67.14980586461124,26.193072820741733,,,
3.21,3.21,1.0,21.357157306730027,12.41196348891883,-14.633384801651989,8.624522608687476,-5.033855949119163,9.077134516847089,28.71099017149853,13.495053426392229,1.0,0.0,343.72376396897954,-127.66062749416643,1021.6139521097517,110.61859016265478,-3.154827272556446,-8.771289803822349,1.0,1017.4658878644714,0.0,1.0,113.40239945861265,7128.257442631124,1.0,1.0,-57.80526885639985,-22.46493686997856,-7.042188467929994,41.853804434270145,1.0,1018.421595597174,0.0,0.0,67.14980586461124,26.193072820741733,,,
3.2399999999999998,3.2399999999999998,1.0,21.167536852160758,9.401333368152486,-15.181238702902089,8.67030915118352,-4.460941250878419,9.077761258935041,27.693314970245318,13.322162252994342,1.0,0.0,343.72376396897954,-127.66062749416643,1021.6139521097517,110.61859016265478,-3.154827272556446,-8.771289803822349,1.0,1018.854164234297,0.0,1.0,112.48590589385664,7024.782608508012,1.0,1.0,-74.71207889113386,-5.425663771642971,23.357039972667668,41.5385045814026,1.0,1018.1697213555339,0.0,0.0,67.14980586461124,26.193072820741733,,,
3.27,3.27,1.0,20.95819944117326,6.478923882227041,-15.555557845599406,8.647361186994342,-4.126795378740786,9.075404160162394,26.892340143161142,13.197357927502965,1.0,0.0,343.72376396897954,-127.66062749416643,1021.6139521097517,110.61859016265478,-3.154827272556446,-8.771289803822349,1.0,1018.854164234297,0.0,1.0,112.82118773827672,6949.638026740579,1.0,1.0,-74.71207889113386,-5.425663771642971,23.357039972667668,41.5385045814026,1.0,1018.1697213555339,0.0,0.0,67.14980586461124,26.193072820741733,,,
3.3,3.3,1.0,20.406047829899148,3.976990818826896,-15.665799440968003,8.535521024496537,-4.135126637262919,9.074448233440704,26.031529269979483,13.126309542564464,1.0,0.0,343.72376396897954,-127.66062749416643,1021.6139521097517,110.61859016265478,-3.154827272556446,-8.771289803822349,1.0,1016.6269450122529,0.0,1.0,112.17194224522156,7008.019743031533,1.0,1.0,-69.1386816765354,20.105775713309686,36.69981238530668,23.61312357337195,1.0,1017.7385320324871,0.0,0.0,67.14980586461124,26.193072820741733,,,
3.33,3.33,1.0,19.820713563267375,2.192192352387738,-15.44789704963249,8.333084722346314,-4.460993920171886,9.075807233043019,25.225065247150557,13.103856099521547,1.0,0.0,343.72376396897954,-127.66062749416643,1021.6139521097517,110.61859016265478,-3.154827272556446,-8.771289803822349,1.0,1016.6269450122529,0.0,1.0,112.1427668912921,7011.234259474478,1.0,1.0,-69.1386816765354,20.105775713309686,36.69981238530668,23.61312357337195,1.0,1017.7385320324871,0.0,0.0,67.14980586461124,26.193072820741733,,,
3.36,3.36,1.0,19.002452276481286,1.7161596354486957,-15.126223543330923,8.139076258758008,-5.0367044285230635,9.077042115999099,24.348327151923822,13.191120021507023,1.0,0.0,360.4885547728713,-129.4005069356573,1019.1802450571345,108.71959467097435,-7.035769566878077,-9.762496563767593,1.0,1017.0698192037703,0.0,1.0,112.78262248507099,6961.625339128512,1.0,1.0,-39.665372343513184,40.7687277932807,25.311447099274634,-1.4156297453267217,1.0,1016.7882965616321,0.0,1.0,-48.74211964143929,-40.047082275433944,,,
3.3899999999999997,3.3899999999999997,1.0,18.391822824168248,2.5565177548654905,-14.622490290260533,7.956611580541507,-5.609977852971538,9.07933086899475,23.634977303041822,13.31216617921814,1.0,0.0,360.4885547728713,-129.4005069356573,1019.1802450571345,108.71959467097435,-7.035769566878077,-9.762496563767593,1.0,1017.0698192037703,0.0,1.0,112.90719367560884,6943.467080479094,1.0,1.0,-39.665372343513184,40.7687277932807,25.311447099274634,-1.4156297453267217,1.0,1016.7882965616321,0.0,1.0,-48.74211964143929,-40.047082275433944,,,
3.42,3.42,1.0,18.81648441936173,4.673534323890821,-16.45373483421958,7.8180133596041586,-6.187341086150466,9.079859973122575,25.428869400259998,13.485116971640558,1.0,0.0,360.4885547728713,-129.4005069356573,1019.1802450571345,108.71959467097435,-7.035769566878077,-9.762496563767593,1.0,1016.7552864730351,0.0,1.0,112.32564773781911,6980.5653151399465,1.0,1.0,5.2100794827525165,42.38985201807542,-4.125028349469533,-22.02558547869164,1.0,1015.9523610258501,0.0,1.0,6.3919857457745985,-32.3431695839729,,,
