time_s,x_m,y_m,altitude_m,vx_mps,vy_mps,vz_mps,speed_mps,mass_kg,roll_deg,pitch_deg,yaw_deg,p_dps,q_dps,r_dps,alpha_deg,beta_deg,qbar_pa,mach,airspeed_mps,load_factor_g,density_kgpm3,pressure_pa,temperature_k,wind_x_mps,wind_y_mps,wind_z_mps,thrust_n,mass_flow_kgps,propulsion_throttle_actual,propulsion_health,energy_j_per_kg,target_distance_m,guidance_mode,pitch_command_deg,heading_command_deg,roll_command_deg
0.0,0.0,-120.0,1000.0,88.0,4.0,14.0,89.19641248391103,18.0,-5.018455958195359e-17,8.000000000000004,3.0000000000000004,0.0,0.0,0.0,-0.6802501273997699,-6.663809789559333,4603.010869089943,0.2704914765006901,91.00252169218186,1.7964389517083164,1.1116425003060326,89874.56291621955,281.65,-1.7826439091004773,9.86942436359809,0.3586780454497614,334.4,0.17947005348411538,0.88,nominal,13784.65,1538.473269186046,target_intercept,18.965424854227184,4.730938623779238,0.0
0.03,2.6556207227512005,-119.87772995620709,1000.412670722683,88.52069075837335,4.0756681264304575,13.755690756098712,89.67576479291262,17.994615898395477,0.0801329894564675,8.388483675084816,2.816953163926686,1.801441826976003,-12.953726625800904,-6.03025107087283,-0.08687218635435189,-6.530532181287751,4647.094589951899,0.271790460867151,91.43910873750103,1.8320498080000354,1.1115974440580425,89870.06428207623,281.64731764030256,-1.737654675042008,10.04690527549587,0.38086315943698384,340.34,0.1826580083815306,0.88,nominal,13831.568312939491,1535.8267877398612,target_intercept,18.98307577992858,4.734772278224343,0.0
0.06,5.327139326819664,-119.75330376984037,1000.8185346231006,89.05062013561542,4.147539545557278,13.528796680588423,90.16786218184579,17.98913615814403,0.24309973185080136,9.096114842709524,2.4634543501538997,3.6412368965774617,-23.62077182815789,-11.580076042681743,0.80736692709408,-6.224963091382337,4693.001291224851,0.27313633708885476,91.89147469922733,1.8563688891423453,1.1115531323557926,89865.64002877621,281.6446795249498,-1.6959898592719087,10.211129355173762,0.40139116939672026,346.28000000000003,0.1858459632789458,0.88,nominal,13879.798767783797,1533.167526236207,target_intercept,19.001223016717585,4.738586963451582,0.0
0.09,8.014624875394958,-119.62685350696138,1001.2186420022928,89.5828516191765,4.215008762632771,13.336912639740113,90.66822399193956,17.983560779245664,0.4940020292962969,9.785929640645335,1.9434566356096483,5.520129567946469,-23.1036330601625,-16.95065726976324,1.655734031599427,-5.754645570299925,4740.299603466154,0.27451594723233663,92.35519162952107,1.8830012373952283,1.1115094504659275,89861.2786989651,281.6420788269851,-1.657826517677134,10.361382077277707,0.42017275965971335,352.22,0.18903391817636103,0.88,nominal,13928.964216518045,1530.495099384268,target_intercept,19.019833143378317,4.742388138765958,0.0
0.12,10.718133968376248,-119.49856880331053,1001.6139365795917,90.11696976604301,4.276156788361481,13.176485909964528,91.17550952765801,17.977889761700375,0.8353419561163263,10.26707116188271,1.260620512495861,7.415117710852363,-16.29710080876531,-22.22651461913373,2.2731803346835044,-5.12479128484196,4788.903851943406,0.27592633588674675,92.82926417071062,1.9117593488797395,1.1114662953053893,89856.96999892435,281.63950941223266,-1.623326668962608,10.497009704672017,0.4371262130840022,358.16,0.19222187307377622,0.88,nominal,13978.96407997228,1527.8091719993056,target_intercept,19.03887611587909,4.746183538881737,0.0
0.15,13.4377992888348,-119.36871115984722,1002.0050129151407,90.65551068195168,4.328588115443523,13.035877851632026,91.69019796816497,17.97212310550816,1.2662999901085688,10.56416446739224,0.4190180146795644,9.293481047560157,-10.407500679030589,-27.405548145397216,2.6969524533295717,-4.340122817916735,4838.927015662292,0.2773702845099764,93.31462737523931,1.9410893222797059,1.1114236019207888,89852.7074422238,281.63696741605156,-1.592636947428426,10.61742213279545,0.45217776659943126,364.1,0.19540982797119144,0.88,nominal,14029.858661624905,1525.1094560318345,target_intercept,19.058334973688588,4.749984053468599,0.0
0.18,16.17381447468421,-119.23762093681344,1002.3922328309649,91.2005061949803,4.369674101126234,12.907330527471,92.21293598685642,17.966260810669024,1.7847276071980882,10.783339353850975,-0.5774534295593087,11.128694412717282,-8.172268574455096,-32.43592028404107,3.0444997081198193,-3.40679576142697,4890.501391901473,0.27885105318927467,93.81237754334956,1.971086971143683,1.1113813307735092,89848.48708008826,281.6344504865987,-1.5658877864642469,10.722095457157224,0.46526193214465283,370.04,0.19859778286860666,0.88,nominal,14081.722571749822,1522.395687885282,target_intercept,19.078201617733836,4.753803986592417,0.0
0.21,18.926383370118607,-119.10572288522756,1002.7759182313494,91.7522965144799,4.396601719529418,12.789513346150292,92.74365570750683,17.960302877182965,2.388249936728515,10.990068036322672,-1.7234754782088946,12.902336730203913,-8.252258221244125,-37.23891920664627,3.389397560022884,-2.3336261507170333,4943.683512488886,0.28036967118935924,94.32286049366354,2.0019376912712685,1.111339446687382,89844.3053994377,281.6319565314962,-1.5431925594524727,10.810574252802013,0.47632178160025157,375.98,0.20178573776602185,0.88,nominal,14134.565295519744,1519.6676139632702,target_intercept,19.098469387900156,4.75766114342374,0.0
0.24,21.695688775703836,-118.97352931786457,1003.1564371085694,92.31018018617426,4.40645224543305,12.683962574001796,93.28166536878466,17.954249305049984,3.073597611312737,11.185789771284131,-3.0100950002877767,14.596763704010252,-8.52203134818362,-41.73014347153323,3.7399913083045733,-1.1321420893993075,4998.4628489888755,0.2819252406555422,94.84577365898761,2.033512809540641,1.1112979094597544,89840.15838549218,281.6294831587943,-1.5246469553806015,10.882473555826179,0.4853091944782724,381.92,0.20497369266343707,0.88,nominal,14188.338620957711,1516.9249922546965,target_intercept,19.119129617069813,4.761576888422611,0.0
0.27,24.48188911577452,-118.8416394874837,1003.5341818179468,92.87334466902283,4.396327679362244,12.591490312578475,93.82607033957672,17.94810009427008,3.835615073313491,11.34659156907519,-4.424372832025996,16.1900909764022,-8.136482672281886,-45.8298295855247,4.0799667197563405,0.1838915190862891,5054.80527322178,0.2835162074505235,95.3805936578145,2.0655595115721472,1.1112566762334892,89836.04175860468,281.6270278181833,-1.510328592692133,10.937480538323786,0.4921850672904733,387.86,0.20816164756085226,0.88,nominal,14242.974221808567,1514.16760246618,target_intercept,19.140172347723034,4.765576145841482,0.0
0.3,27.28512406577797,-118.7107357399692,1003.9095223922833,93.44116500011505,4.363458250483622,12.511352477883202,94.37597695021903,17.941855244843257,4.667133502231966,11.459303310579,-5.950733013702221,17.65772138016033,-7.444303462092106,-49.46194776605768,4.404458049478935,1.5987333996746529,5112.6728794684195,0.28514093285398207,95.92676867987855,2.0980316552889455,1.111215706593068,89831.95148304605,281.62458810445014,-1.5002967490428538,10.975355869474885,0.49691948368436056,393.8,0.21134960245826748,0.88,nominal,14298.401830422421,1511.3952557016664,target_intercept,19.161588063405613,4.769687301740485,0.0
0.32999999999999996,30.105512977066354,-118.58157814939865,1004.2827909976843,94.01296370961282,4.305253019018248,12.44228684670027,94.9304116234535,17.93551475676951,5.559517497725137,11.528024445969313,-7.572101393354628,18.976491819764004,-7.002235656981779,-52.550861839795196,4.725390373529779,3.09460058972324,5172.013205067365,0.28679739872038224,96.48361931408405,2.1311784930476785,1.1111749642607813,89827.88393633188,281.622161858515,-1.4945921242899574,10.995934756854064,0.49949184460675794,399.74,0.21453755735568267,0.88,nominal,14354.541357836597,1508.6078006743726,target_intercept,19.183368233155207,4.773942020642211,0.0
0.36,32.94314454204936,-118.4549984769225,1004.6542969943309,94.5877188327668,4.219322415871952,12.383533221556075,95.4881727267048,17.92907863004884,6.50311973349953,11.562498847935931,-9.26980131668774,20.126764054719185,-6.968999835503127,-55.021912559930016,5.0586984518826,4.651599666607415,5232.741258140956,0.2884827251889831,97.050176284978,2.165348292221784,1.1111344154522762,89823.83574502925,281.6197470695368,-1.4932366386513456,10.999127663428633,0.4998909579285791,405.68,0.21772551225309789,0.88,nominal,14411.28862696196,1505.8051280795678,target_intercept,19.205504653077373,4.778375004032308,0.0
0.39,35.798064894099724,-118.33189291681154,1005.024346706176,95.16401173501214,4.10351867036527,12.334990394835533,96.04780051110097,17.922546864681244,7.487355919949497,11.568081619180028,-11.022863048999472,21.091822233418156,-7.15749818506514,-56.805193609535934,5.413672155219086,6.247893269622705,5294.734299508328,0.290193055389583,97.62514165022465,2.200804801075634,1.1110940267184377,89819.8035692918,281.6173417464098,-1.4962333056590293,10.984920697126826,0.4981150871408533,411.62,0.2209134671505131,0.88,nominal,14468.512001136245,1502.9871747597172,target_intercept,19.227988592256885,4.783023692251652,0.0
0.42,38.6702700119063,-118.21321275656429,1005.3932514378353,95.74017059355235,3.9560053415750454,12.296824388644193,96.607671194322,17.91591946066673,8.500664860359512,11.54483933710905,-12.80781675054119,21.856744904703117,-7.340210289947253,-57.838920105165364,5.791788037264157,7.860064163765315,5357.840200884904,0.2919238147652212,98.20697603764587,2.2156261843358847,1.1110537640703437,89815.7840154985,281.614943865654,-1.5035662050229839,10.953375671281055,0.49417195891013177,413.57684210526315,0.22196369010892084,0.88,nominal,14526.060796007963,1500.1539274826869,target_intercept,19.250810408427306,4.7879278934438965,0.0
0.44999999999999996,41.559512087283416,-118.09990930561361,1005.761284979419,96.30806917923736,3.776781698355862,12.267784719458652,97.15969746223374,17.90926054996346,9.530640198056394,11.491605041035402,-14.599200110710944,22.408412002325147,-7.417090370944808,-58.070875607170805,6.190947802345683,9.464044424208408,5421.16852111221,0.29365053489528214,98.78744760972326,2.2212095600231696,1.111013597617081,89811.77409925775,281.6125516476338,-1.5152006136100669,10.904629835683219,0.4880787294604023,413.5421052631579,0.22194504709782484,0.88,nominal,14583.152310819813,1497.3056147610616,target_intercept,19.273958689803585,4.793126930615592,0.0
0.48,44.465399565858306,-117.992927269479,1006.1286990643587,96.86291595249632,3.5660678711538822,12.247136164654968,97.69919995126695,17.902602198550525,10.564331072549196,11.408929796639313,-16.37024499753772,22.736297286681975,-7.381809756631511,-57.45860895251963,6.607626509986328,11.034961209755014,5484.177265272686,0.29535869678093984,99.36167177361361,2.2287935413354067,1.1109734998781862,89807.77107691814,281.61016345608164,-1.531083131547899,10.838895279422252,0.4798619099277814,413.5073684210526,0.2219264040867288,0.88,nominal,14639.318842238314,1494.4426070582456,target_intercept,19.29742092847423,4.798659708195199,0.0
0.51,47.38749730396746,-117.89320926464843,1006.4957410707357,97.40325793697167,3.3239334943521825,12.234733545900836,98.22490466042868,17.895944406427923,11.588584641948332,11.299221317305474,-18.093333804148298,22.83366059972343,-7.230724419152646,-55.970736912185046,7.036718755171865,12.547313480342128,5546.687961068732,0.297043844661714,99.92814937891491,2.2384690512985723,1.1109334438515492,89803.77225267586,281.6077776830402,-1.5511418863683786,10.75645800810207,0.46955725101275875,413.47263157894736,0.22190776107563284,0.88,nominal,14694.417406946483,1491.5653170717226,target_intercept,19.321184118328222,4.804565233140422,0.0
0.54,50.325332999663175,-117.80168128055261,1006.8626528271707,97.92785652319061,3.05093280319386,12.23039188116725,98.73578763428756,17.889287173595655,12.590353391302482,11.165674576622294,-19.740263172573403,22.698338560079552,-6.925508029034495,-53.58859618806234,7.470583039303734,13.97560700485976,5608.537482757473,0.29870202655223477,100.48555077399803,2.250443342496848,1.1108934031436395,89799.77499157282,281.60539275662336,-1.575286845895516,10.657676699454912,0.457209587431864,413.4378947368421,0.22188911806453684,0.88,nominal,14748.327514229139,1488.6741929420568,target_intercept,19.345234884720277,4.810882049297732,0.0
0.57,53.27840084784821,-117.71925784519121,1007.2296634356695,98.43559493950121,2.747447845380313,12.233686949963321,99.23093225978654,17.88263050005372,13.556162171648616,11.012706848704202,-21.278206279065863,22.333197916263178,-6.413423659310304,-50.16075068356462,7.8984482728384675,15.29004686055168,5669.571228130002,0.3003295960894652,101.03264915139702,2.2643799881909668,1.1108533527526245,89795.77679767163,281.60300718766814,-1.60341021915543,10.542981142764262,0.4428726428455327,413.40315789473686,0.22187047505344087,0.88,nominal,14800.93773750458,1485.769717622314,target_intercept,19.36955977737132,4.817648457429503,0.0
0.6,56.24617873248297,-117.64681193579496,1007.5969875599684,98.92592948782513,2.414863646541627,12.244137476630724,99.71002955574815,17.875974385802117,14.473026714688823,10.844955076267905,-22.672988384314067,21.747420891759766,-5.630247508766377,-45.647715055151096,8.306215349766417,16.460573378480643,5729.6861766402735,0.3019243351530682,101.5686982028183,2.2795870563088623,1.110813269254955,89791.775332676,281.6006195808602,-1.63538692643822,10.41287036888731,0.4266087961109138,413.3684210526316,0.22185183204234488,0.88,nominal,14852.19599505905,1482.852390940002,target_intercept,19.394145578533152,4.824901345192112,0.0
0.63,59.22815039991718,-117.58514696345574,1007.9648215709399,99.39905558114043,2.0554990779740248,12.261133699047928,100.17351309836411,17.869318830840847,15.3292896146764,10.667065839851398,-23.89215779389308,20.957686722872374,-4.537025221359447,-40.10919408540209,8.67765162046822,17.459709763919612,5788.849832820674,0.3034859100744881,102.09358558436509,2.2951287957887136,1.110773131225759,89787.76845789085,281.59822865978884,-1.6710751478903207,10.267910479013079,0.4084888098766347,413.3336842105263,0.22183318903124885,0.88,nominal,14902.12458069272,1479.9227078594915,target_intercept,19.41897975672649,4.832675104336509,0.0
0.6599999999999999,62.22382930310745,-117.53497590526933,1008.3333370493857,99.85596343967565,1.672368606213637,12.283849281527804,100.62257800509873,17.862663835169908,16.115210656852895,10.48417421904871,-24.906962841475952,19.989042447548023,-3.142480913309158,-33.66141648686057,8.996447975492933,18.263962202424366,5847.108407616272,0.3050160356801253,102.60788809600015,2.309918814731959,1.1107329199475189,89783.75430495873,281.59583330917894,-1.7103169490251533,10.108732181603072,0.38859152270038405,413.298947368421,0.22181454602015285,0.88,nominal,14950.823721971448,1476.9811366338351,target_intercept,19.444051038858724,4.841000833040935,0.0
0.69,65.23278241729936,-117.4969050647354,1008.7026741550688,100.29843713973027,1.2690280177976496,12.311236856105692,101.05915830695166,17.856009398789304,16.823397918027638,10.302117990228476,-25.693702042200776,18.875353755313622,-1.4933238412412386,-26.457241293202472,9.248094819447196,18.85461710145736,5904.589117133773,0.3065184848322063,103.11287488528141,2.3228450669794856,1.1106926201332248,89779.73134803728,281.59343261799205,-1.7529389767096273,9.936028048231078,0.36700350602888476,413.26421052631576,0.22179590300905686,0.88,nominal,14998.470818357564,1474.0280974167033,target_intercept,19.469349991400332,4.849905718347929,0.0
0.72,68.25465205146037,-117.47142150967352,1009.072936459727,100.72898780536705,0.8494518353961197,12.342076821936077,101.48584833853937,17.84935552169903,17.44909209994736,10.127139267600974,-26.2345998988563,17.65921609679895,0.34543191266717815,-18.675333916723943,9.421191191720068,19.218207580808695,5961.495441209722,0.307998918662463,103.61045033062167,2.3328916514424094,1.1106522204896745,89775.69846001615,281.5910259130118,-1.7987532202449965,9.750549500261652,0.3438186875327065,413.2294736842105,0.22177725999796086,0.88,nominal,15045.313818829287,1471.063942582106,target_intercept,19.494869527640528,4.859412555507906,0.0
0.75,71.28917395194964,-117.45888369607752,1009.444187755998,101.15073001630893,0.41792711986640235,12.375043209034027,101.90577285088024,17.842702203899094,17.990329293021396,9.965376625274263,-26.518356799733514,16.39135332368931,2.3016106410814143,-10.512937710628735,9.508338683001435,19.346785800558347,6018.095906343231,0.3094645570530057,104.10304318321353,2.3396853819218704,1.1106117140650933,89771.654947201,281.588612779586,-1.847557833496484,9.553103539478077,0.3191379424347595,413.19473684210527,0.2217586169868649,0.88,nominal,15091.659114024955,1468.0889401353036,target_intercept,19.520605299484135,4.869539380136331,0.0
0.78,74.33618251932803,-117.45953305768785,1009.8164446651565,101.56695224594668,-0.02164538701098656,12.408563638618482,102.32213205669065,17.836049445389488,18.44731194718098,9.823773926493855,-26.536374694270837,15.129630185504212,4.298523269484531,-2.037741453965823,9.50649260645272,19.233510303299006,6074.681012506487,0.31092304351136285,104.59322471433642,2.342898070284544,1.1105710990550575,89767.60062974432,281.58619310967646,-1.899138023781137,9.344549236884514,0.2930686546105642,413.16,0.2217399739757689,0.88,nominal,15137.825791388976,1465.1032723164376,target_intercept,19.546556060065303,4.880299917676205,0.0
0.8099999999999999,77.39561583652574,-117.47349487104317,1010.1896763391647,101.98111057325661,-0.4653937785107971,12.441055800275842,102.73822742557634,17.829397246170213,18.822184194306406,9.70927496574164,-26.28117742531318,13.938808693603274,6.295339717600543,6.724312710414077,9.415992922430508,18.871537149653097,6131.562729663134,0.3123824251283088,105.08370197165094,2.3421001555513437,1.1105303788342815,89763.53584479676,281.5837671037954,-1.95326698675143,9.125793994959292,0.26572424936991146,413.1252631578947,0.2217213309646729,0.88,nominal,15184.148276746193,1462.1070311665762,target_intercept,19.572723779129824,4.891703593998099,0.0
0.84,80.46752283553117,-117.50076494705064,1010.5638111752353,102.39689996684767,-0.9090025335820819,12.471161202350693,103.15755556507571,17.822745606241273,19.119362961623814,9.627096088896847,-25.748008810330283,12.89074343740594,8.28605686833689,15.677967261366422,9.239658897814577,18.256326484264136,6189.081450910505,0.3138513204680333,105.57737424621037,2.3371596382728415,1.1104895612233516,89759.46137328926,281.58133522736097,-2.0097068833316563,8.897789599621962,0.23722369995274525,413.0905263157895,0.2217026879535769,0.88,nominal,15230.986233942462,1459.1002085883954,target_intercept,19.599113545683338,4.903754965580775,0.0
0.87,83.55206460635041,-117.54120098256742,1010.9387417475991,102.81805902730807,-1.3478678505591701,12.497685745461025,103.58359985479302,17.816094525602665,19.345796405356893,9.580743733710335,-24.93587103296876,12.064361578943897,10.251428073302082,24.693728101807825,8.98306628107963,17.386593745116624,6247.584796691205,0.31533837015965327,106.07714824679778,2.328242207523557,1.1104486579500683,89755.37838614521,281.5788981786406,-2.0682098676056815,8.66152807909168,0.20769100988646,413.05578947368423,0.2216840449424809,0.88,nominal,15278.70349119803,1456.0826928417953,target_intercept,19.625733455201676,4.916453315749443,0.0
0.8999999999999999,86.64951005856686,-117.5945163893276,1011.3143296198899,103.2481817405482,-1.7771802253393323,12.519595743026919,104.0196408369661,17.80944400425439,19.511220268026232,9.572595565964868,-23.848304349313796,11.545522398305918,12.147078375437328,33.62225435433723,8.65486040058607,16.264945866502657,6307.407093226338,0.31685171727003186,106.58576329723567,2.3158269777754072,1.1104076841239083,89751.28839180418,281.5764568574707,-2.1285191586564967,8.418037387654675,0.17725467345683427,413.021052631579,0.22166540193138493,0.88,nominal,15327.648510492605,1453.0542705429978,target_intercept,19.65259442382639,4.929792328862292,0.0
0.9299999999999999,89.7602256714321,-117.66027620717666,1011.6904115437799,103.69052042884098,-2.1919939283023298,12.536064129664828,104.46856832583029,17.80279404219645,19.628395967957164,9.60407721889642,-22.493819529272873,11.426693651284834,13.923744869845649,42.30064810297103,8.266169590587602,14.898401528084863,6368.848178339078,0.3183984835403825,107.10561514510617,2.3006531042328975,1.1103666575593358,89747.19316866141,281.5740123249654,-2.1903701494042327,8.16837693312039,0.1460471166400488,412.9863157894737,0.2216467589202889,0.88,nominal,15378.134658390143,1450.0146338712811,target_intercept,19.67970986868792,4.943759825801235,0.0
0.96,92.88465976447745,-117.73789522903175,1012.066806872861,104.14780310151184,-2.587300728502917,12.546510969371333,104.9327115509532,17.796144639428842,19.713352078604146,9.675496849020735,-20.886082960849237,11.806513703010728,15.544452529748307,50.555926975127825,7.829308843385966,13.29884244696395,6432.153587627936,0.3199842940851128,107.63859607555786,2.2836227075652316,1.1103255979666793,89743.09468429103,281.5715657553264,-2.2534915478342255,7.913632967425933,0.1142041209282416,412.95157894736843,0.22162811590919293,0.88,nominal,15430.421928337513,1446.963392636727,target_intercept,19.707095263644128,4.958337568045461,0.0
0.99,96.02332237081505,-117.82663863078953,1012.4433250014487,104.62208687792031,-2.958113391926279,12.550604286256231,105.41370482760196,17.789495795951566,19.785666377427603,9.785994893234784,-19.044042218663005,12.78935085606357,16.984734611805326,58.20789130312079,7.356388333243535,11.483379742896696,6497.498215991025,0.32161290263084075,108.18596884940762,2.2657104617073984,1.1102845261404117,89738.99501441457,281.56911838749056,-2.317606547386833,7.654913860443975,0.08186423255549694,412.91684210526313,0.2216094728980969,0.88,nominal,15484.701915865851,1443.9000906123802,target_intercept,19.734767626421707,4.973501147022298,0.0
1.02,99.17676201135671,-117.92562555862821,1012.8197717843946,105.11465468472198,-3.2995642612894627,12.548226098197448,105.91239649830518,17.782847511764622,19.868795094050867,9.933787523880493,-16.992062780815896,14.48491287561763,18.225471683412714,65.07213603659278,6.8581319094596935,9.474607341911636,6564.974429866848,0.32328593978107995,108.74828202954606,2.247895947248201,1.1102434632587344,89734.89627298363,281.5666714834014,-2.3824340229340746,7.393345277557336,0.04916815969466701,412.8821052631579,0.2215908298870009,0.88,nominal,15541.086880976536,1440.8242253022142,target_intercept,19.762744991340117,4.98921998325719,0.0
1.05,102.34554072936416,-118.03383623883134,1013.195954399031,105.62595726691477,-3.607022673437733,12.539420487884431,106.42880496975795,17.776199786868013,19.990426076206816,10.116564681595452,-14.760025017323725,17.007920955285577,19.249158391680982,70.9633938873451,6.342867923009023,7.300723017941057,6634.585173107323,0.32500279483750244,109.32533023746518,2.2311102914150984,1.1102024303532037,89730.8005592389,281.5642262964063,-2.4476897479058985,7.130065281982219,0.016258160247777338,412.84736842105264,0.22157218687590494,0.88,nominal,15599.603369852644,1437.735270104603,target_intercept,19.79104590452468,5.005457465361544,0.0
1.08,105.53020890390768,-118.15012312235362,1013.5716843235887,106.15560581811745,-3.876229450742469,12.524330818585579,106.96212724053176,17.769552621261735,20.182829917707867,10.331873257511212,-12.383318777685066,20.477873176997967,20.04014111111033,75.69929150008936,5.815627913369771,4.995510689295572,6706.242827166779,0.32676064576412367,109.91616424552555,2.216192200890477,1.1101614479838868,89726.709925287,281.56178405189667,-2.5130876277272307,6.866219383149544,-0.016722577106306955,412.8126315789474,0.22155354386480894,0.88,nominal,15660.191089981774,1434.6326976113392,target_intercept,19.81968897343591,5.0221712579470275,0.0
1.1099999999999999,108.7312815711665,-118.2732263381301,1013.946778074573,106.7024222419608,-4.103440525882647,12.503125032811592,107.51080537340081,17.76290601494579,20.48319539674372,10.577439006589216,-9.902720841720566,25.018930281079964,20.583902912480518,79.10459396719992,5.277426263834315,2.598191753947162,6779.774648331187,0.3285546517659518,110.51915577185734,2.203858366537497,1.1101205361590114,89722.62636808255,281.5593459425153,-2.578340944716044,6.602955552688385,-0.04963055591395179,412.77789473684214,0.22153490085371297,0.88,nominal,15722.707807223645,1431.5160025819634,target_intercept,19.848692507560383,5.0393137989927,0.0
1.14,111.94921807640826,-118.40179336379565,1014.3210553866537,107.26455017472489,-4.285567522184961,12.47591040268959,108.07265220003264,17.75625996792018,20.933944851851635,10.85144441536944,-7.364170013579552,30.75993856652379,20.862604944698887,81.01597807617378,4.724871225048453,0.1531673726553577,6854.935176178924,0.3303783110104747,111.13211782718561,2.194694008364447,1.1100797145335621,89718.55184925332,281.5569131399867,-2.643163609495874,6.341419229696583,-0.0823225962879272,412.74315789473684,0.22151625784261694,0.88,nominal,15786.940654582137,1428.3847230066667,target_intercept,19.878074288113908,5.056832992686869,0.0
1.17,115.18440676550075,-118.53440238544886,1014.6943347679122,107.83962296974964,-4.420300721773509,12.442646041950153,108.64503109325305,17.749614480184903,21.583029464202966,11.15274726512189,-4.818452399447234,37.834588937491255,20.847588920827498,81.28735454002286,4.150245667870229,-2.290316995504528,6931.42528366847,0.3322239678027247,111.75247533457608,2.189165247069029,1.1100390028941045,89714.48834349295,281.55448682400856,-2.7072714135905755,6.0827483370302255,-0.1146564578712218,412.7084210526316,0.22149761483152094,0.88,nominal,15852.623588678707,1425.238457661455,target_intercept,19.90785149508575,5.074673085168069,0.0
1.2,118.4371560952575,-118.66958834790623,1015.0664267633496,108.42497765855857,-4.5061987485792105,12.403066514579418,109.22507801043544,17.742969551739957,22.48421075582782,11.480976379388668,-2.320803951559529,46.381722659989464,20.490261999384643,79.79579667881603,3.5421843148802097,-4.678555306552799,7008.916745429459,0.33408343496611537,112.37747450016037,2.187653297872298,1.1099984218934549,89710.43791188874,281.5520682260382,-2.7703832772810673,5.828068330295633,-0.14649145871304595,412.67368421052635,0.22147897182042497,0.88,nominal,15919.460007211655,1422.076878694824,target_intercept,19.938040801682334,5.09277568937108,0.0
1.23,121.70769299889872,-118.80587026174344,1015.4371257672948,109.01789678804037,-4.542730461240328,12.356633464841764,109.80994768560703,17.736325182585343,23.697345323474412,11.836427126266285,0.06955400818741692,56.54583194868553,19.7117803997886,76.448212981203,2.887108612603343,-6.9538031952918695,7087.080388602981,0.33594867962983194,113.00441350880772,2.1905092562740753,1.1099579939435027,89706.40279103062,281.5496586825126,-2.832222486077721,5.578487301085346,-0.17768908736433178,412.63894736842104,0.22146032880932895,0.88,nominal,15987.148794763716,1418.8997380828635,target_intercept,19.968658620565318,5.1110809041511684,0.0
1.26,124.99616858294844,-118.94177806987271,1015.8062018981351,109.61585280165758,-4.530260270975673,12.302537694677348,110.39706009349344,17.729681372721064,25.28870087550034,12.219682387085383,2.2899143904207095,68.4778614397599,18.39155802625331,71.18899233281935,2.1716248738538773,-9.054774789659309,7165.615101100687,0.33781250492356013,113.63087183735703,2.198119346096722,1.1099177441010681,89702.38548142108,281.5472596876621,-2.8925179082119272,5.335091155763481,-0.20811360552956487,412.6042105263158,0.22144168579823295,0.88,nominal,16055.411328487546,1415.7068672435685,target_intercept,19.999721450610714,5.12952845780162,0.0
1.29,128.30267029555105,-119.07587749045032,1016.1733953595284,110.2167237534208,-4.469980685920356,12.239782046441574,110.98431955377644,17.723038122147116,27.33133806984852,12.630875515748965,4.27457500813157,82.33650163932772,16.355215064994926,64.00892768637009,1.3860883560474306,-10.91733001700646,7244.274400505267,0.3396691504688996,114.25491224451999,2.210947563019029,1.1098777006824878,89698.38880880506,281.544872930163,-2.9510051842664162,5.0989388907771644,-0.23763263865285444,412.5694736842105,0.22142304278713695,0.88,nominal,16124.016421009903,1412.4981696646262,target_intercept,20.031246224481713,5.148058806098133,0.0
1.3199999999999998,131.62723872508744,-119.2067920030242,1016.5384168299744,110.81894765121322,-4.363817085796003,12.167382348200286,111.57027942641318,17.716395430863503,29.905591347531303,13.068489780847843,5.955270318342122,98.29028645932014,13.3630336084296,54.95574946182474,0.5294510172154663,-12.47558703330238,7322.8872345831705,0.34151473787998937,114.87523061366238,2.229487015705482,1.1098378952207155,89694.41591987574,281.5425002906051,-3.0074278784923334,4.87105798505082,-0.26611775186864745,412.53473684210525,0.22140439977604096,0.88,nominal,16192.800091049627,1409.2736069807586,target_intercept,20.06325049843071,5.1666141420810785,0.0
1.3499999999999999,134.96988638785817,-119.33322282476287,1016.90095853246,111.42158875902432,-4.214360724622075,12.084723416184863,112.1542322783588,17.709753298870222,33.0920343810814,13.527487209287541,7.261521618274233,116.26641733144524,9.099483506211579,44.14651954702115,-0.38290251960281174,-13.663879368526612,7401.3704857160365,0.34334750959071364,115.49123625920964,2.242425058078574,1.109798361257831,89690.4701617471,281.540143769539,-3.0615385798236754,4.652439929510539,-0.29344500881118263,412.5,0.22138575676494499,0.88,nominal,16261.677693966376,1406.0331794247827,target_intercept,20.09575226711461,5.185139343167304,0.0
1.38,138.33049978792886,-119.45398848718969,1017.2607471700068,112.02044666902314,-4.025522080894181,11.992954584891375,112.73249868439221,17.703111726167272,36.944897570265574,13.989683769187836,8.125966107655625,135.3386125257239,3.4457173877948435,31.78271750986567,-1.3144572837765485,-14.420927831074575,7479.256818475244,0.3451568787410649,116.09936858465225,2.2436501170897816,1.1097591285726183,89686.5545058274,281.53780514339496,-3.1130999009476676,4.444035913189289,-0.3194955108513388,412.46526315789475,0.221367113753849,0.88,nominal,16330.228236047991,1402.777002725288,target_intercept,20.128766513147117,5.203583322899411,0.0
1.41,141.70880362860066,-119.56807030530113,1017.617587207487,112.6101280223935,-3.802727270381256,11.894667916007695,113.30041832555101,17.696470712754657,41.505040414566416,14.42632930201322,8.483121598261336,155.01184599098744,-3.9802847686026386,18.159542207118662,-2.1972687225423866,-14.696865718052162,7555.941835399336,0.34692932866964016,116.69508147001001,2.2488045766453992,1.1097202184617128,89682.67107687311,281.5354856831513,-3.1618854480181966,4.246752684682293,-0.3441559144147134,412.4305263157895,0.221348470742753,0.88,nominal,16397.91190796073,1399.5053305046636,target_intercept,20.16230293291795,5.221900898031487,0.0
1.44,145.10454991973165,-119.67464358910267,1017.9713766566708,113.19154303769999,-3.5524427933846945,11.792981639460345,113.85964904655384,17.689830258632373,46.80712917392354,14.809881713329128,8.256730140169593,174.95395129618117,-14.27436242514292,3.6712711878373936,-2.909651732997988,-14.462720085527819,7631.626627700898,0.3486700085247335,117.2801072568514,2.256011920788229,1.1096816420196531,89678.8209813677,281.5331860517316,-3.2076807832752285,4.061448606959062,-0.36731892413011724,412.3957894736842,0.221329827731657,0.88,nominal,16464.898841392343,1396.2183746393791,target_intercept,20.196367874894335,5.24005495942291,0.0
1.47,148.51755229158564,-119.77319200177853,1018.3221994001359,113.76674572846593,-3.284947089195146,11.694091448835193,114.41335186873057,17.683190363800424,52.87884874082357,15.097704498337759,7.366029882686756,194.89814836399373,-28.147135379569082,-11.180553854455436,-3.293630829327764,-13.721888727999728,7706.721959267235,0.3503887266364305,117.85774518156997,2.2612456160486274,1.1096433900738674,89675.00330304484,281.53090570389907,-3.250284220225469,3.8889299226973084,-0.38888375966283645,412.36105263157896,0.221311184720561,0.88,nominal,16531.53693966632,1392.916251181708,target_intercept,20.230961074192336,5.258021701428562,0.0
1.5,151.94772783869018,-119.86368155361451,1018.6703995821769,114.33918490348502,-3.0163183945330485,11.606672734697511,114.9663526124966,17.676551028258807,59.738956868777905,15.221974023871368,5.728287948207995,214.61843474954006,-46.21482512112757,-25.824757927044015,-3.1654331387943313,-12.520740411632872,7781.880295189071,0.35210056953603314,118.4330694508685,2.260190953408726,1.109605425076462,89671.21429375223,281.52864240271583,-3.2895075890297627,3.7299472463878893,-0.40875659420151383,412.32631578947365,0.22129254170946497,0.88,nominal,16598.375190573006,1389.5989305037285,target_intercept,20.26607306759255,5.275798577439716,0.0
1.53,155.39513763116193,-119.94679375048185,1019.0165952977338,114.9136597490584,-2.770406562244271,11.539857185231387,115.52485729615954,17.669912252007524,67.39579165041503,15.084341638667748,3.2513142509320407,233.93379170846515,-69.46132731858626,-39.663084945418895,-2.314130720848934,-10.958546697349865,7857.968439728513,0.3538251644332369,119.01268110674825,2.2517918462056166,1.1095676796154086,89667.44722497818,281.5263921305647,-3.325177032435051,3.5851922984733933,-0.42685096269082584,412.2915789473684,0.221273898698369,0.88,nominal,16666.135420925533,1386.2662149093308,target_intercept,20.30168482962769,5.293414976249464,0.0
1.56,158.86001097317728,-120.02423350491136,1019.3615727821276,115.4957780671783,-2.5813251476505603,11.499249479791937,116.09552415773527,17.663274035046573,75.84439715615574,14.549028030429302,-0.18034656303030383,252.72719628794738,-99.56418499941101,-51.925504078409894,-0.49241369587247347,-9.204241588053485,7935.955360958187,0.35558405292039386,119.60382475665232,2.2456269773149553,1.10953006795431,89663.693539645,281.52414977691615,-3.3571339168943437,3.4552948957298595,-0.44308813803376756,412.25684210526316,0.221255255687273,0.88,nominal,16735.607532453498,1382.9177797725702,target_intercept,20.337771709864985,5.3109462970019345,0.0
1.5899999999999999,162.34270648712473,-120.09912729693609,1019.706016593408,116.08985046491485,-2.4964597341576624,11.481460376012816,116.68294487428963,17.656636377375953,85.00950142206277,13.393861594431481,-4.524607859842483,270.9767639453851,-132.564184999411,-61.504580499286256,2.4002329095593704,-7.507924640158845,8016.586263425635,0.35739335969237584,120.21192299917453,2.197585973911076,1.1094925154508006,89659.94578813261,281.52191089214284,-3.3852359223633384,3.3408202109861977,-0.4573974736267253,412.2221052631579,0.22123661267617703,0.88,nominal,16807.354819894,1379.5533394584495,target_intercept,20.37431276719568,5.328531977422178,0.0
1.6199999999999999,165.8427167407955,-120.17660891711476,1020.0499860440268,116.66700845569265,-2.5827206726222443,11.465648353959162,117.25750466494713,17.64999927899567,94.74414958128602,11.374826833245626,-9.595977899010563,288.75324567610863,-165.56418499941097,-67.85321304877085,6.3311163986956975,-6.168579958879143,8096.091155162674,0.3591687165215117,120.8085977903492,2.2267048286796727,1.1094550156341352,89656.20332452627,281.5196750907138,-3.409358442407942,3.242266314104071,-0.4697167107369911,412.1873684210526,0.221217969665081,0.88,nominal,16877.934395763703,1376.1738121962705,target_intercept,20.41129602355527,5.3463981548919595,0.0
1.65,169.3585329166393,-120.26353276204769,1020.3920063691926,117.19387252812571,-2.89746149776412,11.400677505525294,117.78274274635734,17.643362739905715,104.86206722118267,8.286715286705425,-15.15910855453658,306.2203569290454,-198.41227462388372,-70.53642268000439,11.212984193372709,-5.516758503419292,8169.65060962019,0.36080418190843383,121.35821741126964,2.3875801017432954,1.1094177292740677,89652.48219325466,281.51745195860025,-3.4293964892169044,3.160062004917228,-0.4799922493853465,412.15263157894736,0.221199326653985,0.88,nominal,16943.01451368774,1372.7817423321158,target_intercept,20.44875233129522,5.364845510277744,0.0
1.68,172.8871117569352,-120.3669224225394,1020.7283740224242,117.61929467653057,-3.4463220163906283,11.212255107719775,118.20275073045372,17.636726760106097,115.14886590012927,4.080246252281348,-20.722929416028038,323.6590893803952,-222.29065937194974,-68.88831370364079,16.64488229592853,-5.8822570588979035,8229.561362417302,0.3621321045976975,121.8043975817087,2.4900349616850703,1.1093810600918368,89648.82268420579,281.5152655688542,-3.4452662020766183,3.0945649475589807,-0.4881793815551274,412.1178947368421,0.22118068364288904,0.88,nominal,16995.871049229892,1369.3819104972893,target_intercept,20.48677721977863,5.384179002246731,0.0
1.71,176.42345535649997,-120.49079500350582,1021.0541444036313,117.87811998549157,-4.129086032213827,10.859012706904316,118.44922405716332,17.63009133959681,125.49492275222563,-1.2755442914234658,-26.07212440039213,341.4016567606994,-245.31868188062404,-64.31577007643075,22.445436760477996,-7.506349937059997,8266.048232572006,0.3629411716931126,122.07607100392201,2.538629618305448,1.109345547057063,89645.2785833896,281.5131480613764,-3.4569037548207495,3.046060114295215,-0.49424248571309815,412.08315789473687,0.22116204063179304,0.88,nominal,17028.22996508791,1365.9811050448654,target_intercept,20.52549081218872,5.40456444860141,0.0
1.74,179.96362760937015,-120.63590509912852,1021.3650638612352,118.00574176233904,-4.837003187423289,10.36398192012687,118.55869352331658,17.623456478377857,135.86914939860412,-7.799856281322636,-31.018057283403657,359.93979064333047,-268.0096721810092,-57.98278133437312,28.408864189826975,-10.554463558653607,8283.561905649867,0.3633323132465506,122.20719367240865,2.474620362503106,1.109311653769339,89641.8961536279,281.51112708490194,-3.4642627677997253,3.014758545633688,-0.498155181795789,412.0484210526316,0.22114339762069707,0.88,nominal,17044.251608492636,1362.5846068728342,target_intercept,20.56500654512449,5.42602782484551,0.0
1.77,183.50560131854792,-120.80107367364256,1021.6587079619845,118.06579030592583,-5.505619150468135,9.788136691643636,118.59869435490069,17.616822176449237,146.33801164587757,-15.561799252743286,-35.401340019040305,379.8701556296982,-293.19979115278875,-51.29049129505879,34.37862588046199,-15.109741097249946,8291.032257332632,0.363502584819081,122.26405020309038,2.4846681262701282,1.1092796443933242,89638.7017538608,281.50921839824707,-3.467312830030953,3.00079643210428,-0.499900445986965,412.0136842105263,0.22112475460960104,0.88,nominal,17051.87451977897,1359.1951121751417,target_intercept,20.605397077869153,5.448516612848972,0.0
1.7999999999999998,187.04668921746193,-120.98544685772396,1021.9329786732928,118.03626329713427,-6.145772802713077,9.142357043611865,118.54919935961547,17.610188433810947,157.15150761555387,-24.518467576694274,-38.88820721838357,401.88499754689207,-317.10789072733763,-45.36592946712593,35.0,-21.17949802286932,8285.816994998526,0.36339428853796496,122.22723773602424,2.7237985093702997,1.1092497474980862,89635.7181902644,281.5074356386236,-3.466041901563738,3.0042345217052913,-0.4994706847868386,411.978947368421,0.22110611159850502,0.88,nominal,17048.695379709374,1355.815850493026,target_intercept,20.64671230649212,5.471989354040744,0.0
1.8299999999999998,190.5834548084011,-121.1886816119132,1022.184161235018,117.89218636463885,-6.774491806308201,8.372752057503664,118.38312515762078,17.603555250462993,168.90388915724643,-34.51026065931265,-40.899979467952846,426.6721350275679,-338.5449677168641,-41.69265145324035,35.0,-28.68502093973996,8264.353282786731,0.3629288437224596,122.07033193138103,3.022328820528422,1.1092223678687592,89632.98585404214,281.5058029519724,-3.460459294248989,3.025057855593936,-0.496867768050758,411.94421052631577,0.22108746858740905,0.88,nominal,17031.48446581784,1352.4513694132813,target_intercept,20.68905438634253,5.496423703819573,0.0
1.8599999999999999,194.11186800019414,-121.40933070080771,1022.4081213142636,117.61377305976823,-7.354969629817123,7.465335974851504,118.07974607369212,17.59692262640537,-177.116157513234,-45.189470902881446,-40.283108729910076,454.89750367970464,-357.46226523838493,-41.66993094968209,35.0,-29.999999999999996,8223.837407534531,0.3620430439908221,121.77208024780829,3.1787529140658983,1.1091979560051553,89630.54969785872,281.5043472114573,-3.450593859735848,3.063175833171029,-0.4921030208536214,411.9094736842105,0.22106882557631305,0.88,nominal,16997.811819300325,1349.1068261133923,target_intercept,20.732535244860404,5.521744279716267,0.0
1.89,197.6290833539832,-121.64249750716813,1022.6007853010191,117.2405117929681,-7.772226878680667,6.422132891850701,117.67322935575181,17.59029056163808,-158.63376091037154,-55.83004445162268,-34.940456040580386,480.51964054236157,-374.3671427972503,-36.836988279124675,35.0,-29.999999999999996,8168.676209943498,0.3608310218345818,121.3641503154605,3.2457211245676727,1.109176955774552,89628.4540120729,281.50309489554337,-3.4364931704793014,3.11842260627668,-0.485197174215415,411.8747368421053,0.22105018256521705,0.88,nominal,16951.782444677923,1345.7859488996642,target_intercept,20.77728762971761,5.547723392933102,0.0
1.92,201.13347063547556,-121.88121043991028,1022.7596198693195,116.8129093830791,-7.957097758071479,5.294485610013254,117.20325414059796,17.583659056161125,-130.88929085572477,-64.91051527755795,-20.338654287481987,502.7251250433988,-388.70004759060873,-23.279628896974884,35.0,-29.999999999999996,8104.127923507181,0.359406028049403,120.88463736663454,3.268828786755623,1.109159643154033,89626.7263326875,281.5020624708494,-3.418221120000549,3.190557800781887,-0.4761802749022641,411.84,0.22103153955412105,0.88,nominal,16898.14701676426,1342.4906025937637,target_intercept,20.823405081352625,5.57404168468552,0.0
1.95,204.624403703299,-122.11775091699748,1022.8842024964488,116.3644355941147,-7.884682569573519,4.1527542376407585,116.70516465914457,17.577028109974503,-88.85892512747184,-69.00915461081124,8.377150587049485,520.0,-399.37696665531723,-1.6044324268657408,34.98918528079877,-29.999999999999996,8034.9235650976925,0.35787088811620427,120.36812666976269,3.2436906802527217,1.1091460640648465,89625.37123825397,281.50125268377303,-3.3958568056462175,3.279267562436437,-0.4650915546954454,411.80526315789473,0.22101289654302506,0.88,nominal,16841.115093470824,1339.2208948369343,target_intercept,20.870913816002947,5.600346598362332,0.0
1.98,208.10237987329873,-122.34453276133299,1022.9763718514099,115.9325389999906,-7.5593948111833,3.0723118320378537,116.21934928784005,17.570397723078212,-46.120157472068904,-65.027069515303,37.8437227936314,520.0,-405.44400994871955,27.03762733272607,5.040635579244491,-29.999999999999996,7966.456637328031,0.3563448802018999,119.85473381557343,2.707838690095813,1.1091360179956429,89624.36871605214,281.5006535829658,-3.3694939616172017,3.3841659224227327,-0.4519792596971584,411.7705263157895,0.22099425353192909,0.88,nominal,16785.43981146111,1335.975084118337,target_intercept,20.919766693852885,5.626292788048204,0.0
2.01,211.57597475104083,-122.5610775834824,1023.0385712818877,115.78649592473668,-7.218160738313914,2.073314349258209,116.02979408481272,17.563767895472253,-16.324866034303323,-54.7453309130221,54.270004548502,520.0,-438.4440099487195,59.449465043439645,-31.338852570637666,-29.999999999999996,7937.053425053568,0.3556880021805612,119.63371042388324,3.166451350895962,1.109129238560576,89623.6921805914,281.5002492866677,-3.339243023908642,3.504796476674106,-0.4369004404157367,411.73578947368424,0.2209756105208331,0.88,nominal,16764.037762743545,1332.744344777753,target_intercept,20.970005075147647,5.651893487841094,0.0
2.04,215.0393232512842,-122.77363776856772,1023.0662537523607,115.44495000811258,-7.085339502843973,0.9227490157654163,115.66585487511979,17.55713862715663,3.893009656123346,-41.16363714818974,60.56944459646554,520.0,-471.4440099487195,92.44946504343964,-35.0,-29.999999999999996,7885.031956617814,0.3545210465977798,119.24117319860223,3.086759107021511,1.1091262213162767,89623.39108313655,281.50006935060964,-3.3052420264586884,3.640634371651082,-0.41992070354361477,411.701052631579,0.2209569675097371,0.88,nominal,16722.147669356724,1329.5363994853174,target_intercept,21.02172070043462,5.677406064421938,0.0
2.07,218.4924008657453,-122.97270895566865,1023.0637876364565,115.10258714870332,-6.635706236697544,-0.08220386347383579,115.29373323411711,17.550509918131336,19.777686960328236,-25.814939496347385,61.25193311562761,520.0,-504.4440099487195,125.44946504343964,-35.0,-29.999999999999996,7830.615236275963,0.35329555338157603,118.82898878586352,3.025053985346868,1.1091264901097397,89623.4179066205,281.50008538036303,-3.2676321715614165,3.791088587935594,-0.4011139265080508,411.6663157894737,0.2209383244986411,0.88,nominal,16679.150954554934,1326.3489000021807,target_intercept,21.074759938867636,5.702391233331347,0.0
2.1,221.9367108212627,-123.15163334311443,1023.0373301342374,114.81033185057944,-5.964146248192577,-0.8819167406353846,114.96852228870048,17.54388176839638,34.364261819436585,-10.007985449952587,58.29561009082235,520.0,-520.0,158.44946504343963,-35.0,-29.999999999999996,7781.29705666273,0.3521806812248628,118.45404393732977,2.9303825683997635,1.1091293738393162,89623.70568035936,281.5002573541274,-3.226567876871772,3.9555045117074887,-0.3805619360365639,411.6315789473684,0.22091968148754507,0.88,nominal,16641.44959218463,1323.1776734320497,target_intercept,21.1289152267754,5.726543499796171,0.0
2.13,225.37476867297076,-123.3064843321522,1022.9949569579667,114.60192839026863,-5.16169963459228,-1.4124392090249613,114.7268064508256,17.537254177951752,49.61232939691472,5.198526338240838,52.2389482232817,520.0,-520.0,191.4494650434396,-35.0,-29.999999999999996,7742.09370515645,0.3512914879551373,118.1550264520119,2.847882050107894,1.1091339923062,89624.16656772899,281.5005327797732,-3.1822158688343123,4.1331667829149525,-0.35835415213563093,411.59684210526314,0.22090103847644907,0.88,nominal,16613.273553854444,1320.0171428313602,target_intercept,21.18391162340067,5.749685402704102,0.0
2.16,228.8092593034813,-123.43654970268129,1022.9459365467494,114.48302101701762,-4.335512350970029,-1.6340137072425538,114.57673747023769,17.530627146797457,67.18253943776419,18.917421317538963,42.44501919996855,520.0,-520.0,224.44946504343957,-35.0,-29.782780569027075,7714.399554828184,0.35066158172323175,117.94322758638444,2.751341806103049,1.1091393353072099,89624.69975857816,281.5008514124461,-3.134755493243172,4.323302407746816,-0.334587199031648,411.5621052631579,0.2208823954653531,0.88,nominal,16595.587153298064,1316.8614150405779,target_intercept,21.23942169868911,5.771787835390634,0.0
2.19,232.24305432515888,-123.54497956952746,1022.8990975277346,114.45983405591952,-3.61432889487201,-1.5613006338243076,114.52752789237232,17.524000674933497,88.68613848299474,29.572948050861136,27.96380154317373,520.0,-513.0426070574614,257.44946504343955,-35.0,-26.11085770192492,7699.9356556690445,0.35033170017723464,117.83233733739088,2.6045261430684814,1.1091444405648259,89625.20922500936,281.5011558660697,-3.0843803232422724,4.525084121864502,-0.30936448476693723,411.52736842105264,0.2208637524542571,0.88,nominal,16589.490757339416,1313.7049181060422,target_intercept,21.295130487876154,5.793002332205659,0.0
2.2199999999999998,235.6790606843055,-123.6381634961131,1022.8604969240122,114.53354530488768,-3.106130886188085,-1.2866867907471693,114.58288097305974,17.517374762359868,114.21603373256103,35.20174307925254,9.386703110204813,520.0,-482.962260962654,290.44946504343955,-29.172982623292157,-25.117571082134265,7699.724040966167,0.3503260655512179,117.83049467028691,2.661826990920623,1.1091486478830652,89625.62908423756,281.5014067699939,-3.031300757173833,4.737633989760596,-0.2827957512799255,411.4926315789474,0.22084510944316113,0.88,nominal,16595.45319820305,1310.5433394317192,target_intercept,21.350829034875268,5.813633742275551,0.0
2.25,239.11885670068298,-123.72288156479591,1022.8346578990327,114.65986721258203,-2.823935622760835,-0.861300832651982,114.69787095117663,17.510749409076574,141.22915602749893,34.6203045938533,-10.585175850114494,520.0,-449.96226096265406,323.44946504343955,-24.37937894517899,-26.629488849322357,7708.100258995088,0.3505160169449854,117.89441908199748,2.8028417014975417,1.109151464244831,89625.9101365112,281.5015747236563,-2.9757412070055933,4.960027224583431,-0.25499659692707105,411.4578947368421,0.2208264664320651,0.88,nominal,16608.382298251934,1307.3741845098866,target_intercept,21.406347744028277,5.834002404316351,0.0
2.28,242.5622605445367,-123.8077808280813,1022.824468395422,114.78012812845728,-2.8299754428465977,-0.33965012035883224,114.81551261217469,17.50412461508361,165.9107189452907,28.223613140946895,-28.061254076605127,520.0,-416.96226096265406,356.44946504343955,-21.696635343535366,-29.999999999999996,7718.142873269233,0.35074406328462804,117.9711352773954,2.9709019524023668,1.1091525748659643,89626.02096841083,281.5016409554297,-2.9179392444548666,5.191296211808001,-0.2260879735239999,411.42315789473685,0.2208078234209691,0.88,nominal,16621.782541188186,1304.1973582311095,target_intercept,21.461551282579993,5.854511508167019,0.0
2.31,246.00740481926493,-123.90309608634692,1022.8294562864975,114.83814249094071,-3.177175275520511,0.16626303584939306,114.88220513594815,17.497500380380984,-173.4443378127849,17.298501335775075,-41.237546432289484,520.0,-394.54815965659,386.9274092827851,-21.573340401410945,-29.999999999999996,7723.379921874646,0.3508631457827562,118.01118132626318,3.051991947598762,1.1091520312027467,89625.96671477835,281.50160853413774,-2.858147135758621,5.430434719246531,-0.19619566009418363,411.3884210526316,0.22078918040987314,0.88,nominal,16629.491015941017,1301.0157086898157,target_intercept,21.51641075743624,5.875635322343932,0.0
2.34,249.45185900882106,-124.01771150851498,1022.8443992254628,114.81513965187115,-3.820514072268675,0.49809796551155044,114.87976637614791,17.490876704968688,-156.36666019435452,3.014887557079678,-50.071529827041495,520.0,-389.38931131457343,410.9504006283287,-24.160163337620016,-29.999999999999996,7721.439670642069,0.35081938956709935,117.99644377066474,3.0755963546735963,1.1091504024742758,89625.80417956783,281.5015114050345,-2.7966328323914826,5.676402275081294,-0.16544971561483818,411.35368421052635,0.22077053739877714,0.88,nominal,16629.357388983546,1297.8342340051347,target_intercept,21.571084438497596,5.897786760286957,0.0
2.37,252.89270264285005,-124.15750657135193,1022.8599958166132,114.69478780096657,-4.659835427898314,0.519886371678722,114.79058627240869,17.484253588846723,-141.31483733592535,-13.699343968315272,-54.88111822331554,520.0,-400.3017454960863,432.4278094685612,-29.404931681718484,-29.999999999999996,7709.679915620634,0.3505524705178737,117.90664557885665,3.040621148078402,1.1091487025019364,89625.63453479922,281.501410027192,-2.7336778325572726,5.928128694871233,-0.13398391314109595,411.31894736842105,0.22075189438768114,0.88,nominal,16619.26932635664,1294.6596276303196,target_intercept,21.625895991032007,5.921238480416286,0.0
2.4,256.3270916741042,-124.3232444676347,1022.8644232073507,114.47963437513819,-5.524596542758567,0.14757969125253145,114.61295578332691,17.477631032015093,-125.88220944377935,-32.06425110739376,-55.06406409124065,520.0,-425.56818995437044,455.2427858097417,-35.0,-29.999999999999996,7687.008630021914,0.35003676321996147,117.733183879615,3.01359307492581,1.1091482199326335,89625.58637793399,281.5013812491522,-2.669573680730049,6.184518737835698,-0.1019351577705377,411.2842105263158,0.22073325137658514,0.88,nominal,16598.93821254179,1291.4989894798277,target_intercept,21.68128482600531,5.946023364414348,0.0
2.4299999999999997,259.75263858714203,-124.5100912136593,1022.84647447733,114.18489710126086,-6.228224867486562,-0.5982910006873251,114.35619556083094,17.471009034473795,-105.07500348107342,-50.729998113047294,-46.994633110711064,516.2625682217991,-458.56818995437044,482.40658715118497,-35.0,-29.999999999999996,7653.506078887254,0.3492727613118168,117.47623985144718,3.062594088833994,1.1091501762791713,89625.78160695224,281.50149791589735,-2.6046160702449273,6.444456872156311,-0.06944289098046108,411.2494736842105,0.22071460836548912,0.88,nominal,16569.367110506613,1288.3582696917103,target_intercept,21.737684999527257,5.9719101254322,0.0
2.46,263.1678308507256,-124.71054696695138,1022.7987689163396,113.83974211945251,-6.681858443069485,-1.5901853663488934,114.04675711117795,17.46438759622283,-64.34832556060726,-64.92653166015725,-17.16706955581617,507.21135662649243,-491.56818995437044,515.4065871511849,-35.0,-29.999999999999996,7611.969519889556,0.3483226895320161,117.15675223241463,3.0968673383443015,1.1091553760252966,89626.30050382506,281.5018080020438,-2.539098814484646,6.706812128563379,-0.036648483929577653,411.21473684210525,0.22069596535439315,0.88,nominal,16533.56095098143,1285.2409630882955,target_intercept,21.795394455245958,5.998541722478435,0.0
2.4899999999999998,266.57200401017354,-124.91429462812229,1022.7174444367336,113.47243864826602,-6.791588705696909,-2.7108159868669706,113.7078208974497,17.4577667172622,-6.251664777620487,-60.9632060373078,30.788336402887722,498.0257006692558,-520.0,520.0,-35.0,-29.999999999999996,7564.577408206295,0.34723495467465293,116.79100721681,3.0834850680750403,1.109164240163773,89627.18508174035,281.5023366111612,-2.4733130780725436,6.970443021089426,-0.0036946223638218215,411.18,0.22067732234329715,0.88,nominal,16494.16629310874,1282.1482131719174,target_intercept,21.854586516586952,6.025426338420096,0.0
2.52,269.96589141912045,-125.10996320058817,1022.6034310070376,113.12958029823095,-6.522285748862632,-3.800447656534815,113.38115166214251,17.451146397591902,24.8129489721354,-43.15739748898356,51.30751745251544,490.03231375648346,-520.0,520.0,-35.0,-29.999999999999996,7516.188659958781,0.3461201898799302,116.41621403595668,3.039832084285101,1.1091766673966896,89628.42523391156,281.5030776984542,-2.407544225094443,7.234202513580002,0.02927531419750026,411.14526315789476,0.22065867933220115,0.88,nominal,16455.956712802046,1279.0779821389217,target_intercept,21.915262088559373,6.052023105010111,0.0
2.55,273.35113645442607,-125.28784807289497,1022.4624595995977,112.84150117685412,-5.929495743560152,-4.699046914662697,113.09484669747366,17.444526637211936,42.076757584180115,-21.953730032813358,56.41819604786662,484.7306328189192,-520.0,520.0,-35.0,-29.999999999999996,7470.515460868979,0.3450640111808716,116.06116122708907,2.9777714566446787,1.1091920331418574,89629.95863386132,281.5039940126026,-2.3420705580123875,7.4969430103528625,0.062117876294107824,411.1105263157895,0.22064003632110518,0.88,nominal,16422.153654194928,1276.0257424713238,target_intercept,21.977235002184692,6.077870097466405,0.0
2.58,276.729889047897,-125.44188161796066,1022.3037379172437,112.62508644903077,-5.134451502189641,-5.290722745132833,112.86613503193001,17.437907436122302,56.15293451179882,-0.3805081287296694,54.84566442751231,482.07629305400076,-520.0,520.0,-35.0,-29.999999999999996,7430.445141122736,0.3441340260040586,115.74857583283935,2.9021563951856284,1.1092093338444804,89631.6851357675,281.5050257035379,-2.277164055801222,7.757521349291653,0.0946901686614566,411.0757894736842,0.22062139331000916,0.88,nominal,16394.757169969067,1272.9855214122633,target_intercept,22.04017527882342,6.102678622444227,0.0
2.61,280.1044334416034,-125.57071643079331,1022.138040210857,112.48481312354588,-4.294493761088497,-5.523256879555755,112.70218377059349,17.431288794323002,71.69743711307981,20.00532251065035,47.97302587541641,480.9538028443327,-512.1185400905047,520.0,-35.0,-29.20582863317565,7398.020928438303,0.34337890424655876,115.49481355321306,2.8375821448537133,1.1092273951556983,89633.48754840477,281.5061027386294,-2.2130919957713475,8.014803775649469,0.12685047195618362,411.04105263157896,0.22060275029891319,0.88,nominal,16374.641125364113,1269.9510597229546,target_intercept,22.10367928661011,6.126386203207402,0.0
2.6399999999999997,283.47660216361857,-125.67784765967922,1021.9757886471224,112.40562406717146,-3.571040962863508,-5.40838545781964,112.59230563741502,17.424670711814034,92.72027070038219,37.20338387900416,34.21580246598204,480.4084134807185,-486.65483731064336,520.0,-35.0,-27.982752973588738,7373.242474554737,0.342800001375803,115.30031670063771,2.7792577183754728,1.109245081049955,89635.2525033196,281.5071573737937,-2.150118598298875,8.267670874921768,0.1584588593652209,411.00631578947366,0.22058410728781716,0.88,nominal,16360.672512110841,1266.9170871575009,target_intercept,22.16733900087601,6.149162619860671,0.0
2.67,286.84748672321825,-125.7708460362275,1021.8247219078365,112.36281865332215,-3.0999458849428367,-5.035557976195774,112.51830750744772,17.4180531885954,123.27923395189333,47.827051203058566,10.5106840962185,480.7089636457649,-453.6548373106434,520.0,-35.0,-27.75013762921614,7355.132546703498,0.34237561679746625,115.15777636402099,2.7491664900924815,1.1092615479596197,89636.89581622498,281.50813930759904,-2.0885073063067288,8.515022443326066,0.18937780541575827,410.9715789473684,0.22056546427672116,0.88,nominal,16350.862171267767,1263.8804023456019,target_intercept,22.230835879833794,6.171374248005217,0.0
2.6999999999999997,290.2171568854398,-125.85979349132681,1021.6887247374455,112.32233874071848,-2.964915169977073,-4.533239013036237,112.45287349863133,17.4114362246671,159.72416717831595,47.65966441944889,-18.97961319488025,482.5106378822379,-420.6548373106434,520.0,-35.0,-28.147586873888944,7341.236634883405,0.34204921937616545,115.04817347608589,2.744455563192952,1.1092763723828847,89638.37522233686,281.5090232892066,-2.028521344219492,8.755782274697358,0.21947278433716985,410.93684210526317,0.2205468212656252,0.88,nominal,16342.16811149606,1260.8404367103171,target_intercept,22.293988603972583,6.1935088834727825,0.0
2.73,293.58480740652,-125.9553607844328,1021.5671171185697,112.25501736933913,-3.185576436866377,-4.053587295856239,112.37334377774329,17.40481982002913,-170.55210592663266,37.57165960402821,-41.221571218970496,486.03287871081466,-387.6548373106434,520.0,-35.0,-28.72957731230195,7329.175434492333,0.34176559906152465,114.95293923871016,2.786653991531847,1.1092896283959737,89639.69811259417,281.5098137387293,-1.9704236135791633,8.988902842971928,0.24861285537149103,410.90210526315786,0.22052817825452917,0.88,nominal,16332.035364986259,1257.799218473914,target_intercept,22.356790068181457,6.216084013867046,0.0
2.76,296.94878200224724,-126.06662057095657,1021.4552644451879,112.1324865242411,-3.708659550792676,-3.7284224460614483,112.25573403487722,17.398203974681493,-149.6410485278028,22.445786966630298,-53.73361759225382,488.62997958631684,-354.6548373106435,520.0,-35.0,-29.09693112262267,7315.695183479834,0.34144883926476854,114.84654531107317,2.8325762364159868,1.109301821164221,89640.91489909621,281.5105407811063,-1.9144746383606248,9.213369859886374,0.2766712324857966,410.8673684210526,0.22050953524343317,0.88,nominal,16317.729180925948,1254.7609206838997,target_intercept,22.41938761544535,6.239539884701232,0.0
2.79,300.30726568072276,-126.19978575431351,1021.3453132291507,111.94945594918465,-4.438839445231078,-3.6650405345746564,112.09735280129969,17.39158868862419,-133.5162484510152,5.317313651319498,-59.90339322782006,490.21582589508574,-327.72402289988815,520.0,-35.0,-28.935599209665913,7299.755485355861,0.3410743804172214,114.72074145037264,2.8639604571159185,1.1093138067594883,89642.11101367741,281.5112554640105,-1.8609303581408354,9.428206688061755,0.3035258360077193,410.83263157894737,0.2204908922323372,0.88,nominal,16298.884268508176,1251.7308330622325,target_intercept,22.48206775930544,6.264179902640193,0.0
