time_s,x_m,y_m,altitude_m,vx_mps,vy_mps,vz_mps,speed_mps,mass_kg,roll_deg,pitch_deg,yaw_deg,p_dps,q_dps,r_dps,alpha_deg,beta_deg,qbar_pa,mach,airspeed_mps,load_factor_g,density_kgpm3,pressure_pa,temperature_k,wind_x_mps,wind_y_mps,wind_z_mps,thrust_n,mass_flow_kgps,propulsion_throttle_actual,propulsion_health,energy_j_per_kg,target_distance_m,guidance_mode,pitch_command_deg,heading_command_deg,roll_command_deg,elevator_command_deg,aileron_command_deg,rudder_command_deg,elevator_deg,aileron_deg,rudder_deg,throttle,elevator_saturated,aileron_saturated,rudder_saturated,elevator_failed,aileron_failed,rudder_failed,elevator_raw_rad,aileron_raw_rad,rudder_raw_rad,elevator_effective_rad,aileron_effective_rad,rudder_effective_rad,imu_ax_mps2,imu_ay_mps2,imu_az_mps2,gyro_p_rps,gyro_q_rps,gyro_r_rps,gps_valid,gps_x_m,gps_y_m,gps_z_m,gps_vx_mps,gps_vy_mps,gps_vz_mps,baro_alt_m,pitot_airspeed_mps,pitot_qbar_pa,mag_heading_deg
0.0,0.0,0.0,20.0,85.0,0.0,8.0,85.37564055396598,18.12411269131197,0.0,6.000000000000002,0.0,0.0,0.0,0.0,0.623294571949261,0.0,4455.946741876431,0.2509445034436674,85.37564055396597,1.7340624951603545,1.2226496753673843,101084.96761777384,288.02,0.0,0.0,0.0,326.8,0.17539118863220368,0.86,nominal,3840.633,nan,pitch_program,13.0,0.0,0.0,-20.05352282957881,-0.0,0.0,-2.6999999999999997,0.0,0.0,0.86,0.0,0.0,0.0,0.0,0.0,0.0,-0.047123889803846894,0.0,0.0,-0.047123889803846894,0.0,0.0,16.931657535182712,0.022024517404778402,0.16026656456092625,0.0013528804218600414,0.0011207878798742005,-0.0009408597679219447,1.0,0.014177748091778592,0.959559098682006,20.298513598499525,84.72605135808944,0.0014014213368002645,7.932967654246499,19.83703216578759,85.60208093292403,4421.034419297517,1.77945320925965
0.03,2.5652027365126124,0.0,20.232938723064954,85.50675788375375,0.0,7.764624102165165,85.85857575827127,18.118850955653006,0.0,6.265582975204377,0.0,0.0,-8.852781691043555,0.0,1.0769476187613485,0.0,4506.399445930753,0.25236465756164245,85.85857575827129,1.7619458695990786,1.2226223214156637,101082.17469103004,288.01848589830007,0.0,0.0,0.0,332.605,0.1785066900092231,0.86,nominal,3884.264864147949,nan,pitch_program,12.985,0.0,0.0,-1.430813724064029,-0.0,0.0,-1.9384882344384171,0.0,0.0,0.86,0.0,0.0,0.0,0.0,0.0,0.0,-0.03383300220212211,0.0,0.0,-0.03383300220212211,0.0,0.0,17.28033022270034,0.009255070193872107,0.6260256622035142,0.0006059783211637919,-0.15280785555253237,0.0010502197445601319,1.0,0.014177748091778592,0.959559098682006,20.298513598499525,84.72605135808944,0.0014014213368002645,7.932967654246499,19.83703216578759,85.84658404300706,4481.6050056239765,1.77945320925965
0.06,5.145792787662764,0.0,20.459301246663074,86.01966837167171,0.0,7.54541745327061,86.34996624965466,18.11349575495273,0.0,6.64129325531538,0.0,0.0,-12.523720879617182,0.0,1.6282902108384274,0.0,4558.030499796872,0.25380965305720915,86.34996624965467,1.7903987661736351,1.222595740154394,101079.46067254088,288.0170145418967,0.0,0.0,0.0,338.40999999999997,0.18162219138624247,0.86,nominal,3928.795542228838,nan,pitch_program,12.97,0.0,0.0,-0.2980856503600584,-0.0,0.0,-0.9542466839914019,0.0,0.0,0.86,0.0,0.0,0.0,0.0,0.0,0.0,-0.01665474651188783,0.0,0.0,-0.01665474651188783,0.0,0.0,17.501654067835588,0.011654998785298068,1.1788216607667434,-0.00355103673346968,-0.21511740278688019,0.002885982941208869,1.0,0.014177748091778592,0.959559098682006,20.298513598499525,84.72605135808944,0.0014014213368002645,7.932967654246499,21.17150655141952,86.4587674558702,4541.1262095020165,0.104542233232074
0.09,7.741922878562175,0.0,20.679703396225907,86.53766969664703,0.0,7.346738318761122,86.84896568440142,18.108047089211144,0.0,6.946376998063816,0.0,0.0,-10.169482119229464,0.0,2.093806278847697,0.0,4610.765026335361,0.25527700389687097,86.84896568440142,1.8199375599537282,1.2225698592317586,101076.81817383748,288.01558192792453,0.0,0.0,0.0,344.215,0.18473769276326188,0.86,nominal,3974.170033535766,nan,pitch_program,12.955,0.0,0.0,-0.710998406243364,-0.0,0.0,-0.8082977173425792,0.0,0.0,0.86,0.0,0.0,0.0,0.0,0.0,0.0,-0.014107456503982476,0.0,0.0,-0.014107456503982476,0.0,0.0,17.769554929410745,-0.009868933513229079,1.559523137576146,-0.0012853250716384184,-0.17429997186241883,-0.00047961412161949915,1.0,0.014177748091778592,0.959559098682006,20.298513598499525,84.72605135808944,0.0014014213368002645,7.932967654246499,21.17150655141952,86.46458940655343,4593.522769500673,0.104542233232074
0.12,10.353765900027504,0.0,20.894613606951097,87.06143404884432,0.0,7.163673690839625,87.35566106091864,18.102504958428245,0.0,7.12459414361882,0.0,0.0,-5.9405763081205665,0.0,2.420723756518781,0.0,4664.626052862953,0.25676696702537577,87.35566106091864,1.84990189739752,1.2225446236086328,101074.24157427937,288.0141850115548,0.0,0.0,0.0,350.02,0.1878531941402813,0.86,nominal,4020.411922223655,nan,pitch_program,12.94,0.0,0.0,-1.6635076915252065,-0.0,0.0,-1.3214237018521555,0.0,0.0,0.86,0.0,0.0,0.0,0.0,0.0,0.0,-0.023063194411212004,0.0,0.0,-0.023063194411212004,0.0,0.0,18.033257246564588,0.021507034713826353,1.7467948259071342,-0.00012012966482635465,-0.10279477217244001,0.005256667001741732,1.0,0.014177748091778592,0.959559098682006,20.298513598499525,84.72605135808944,0.0014014213368002645,7.932967654246499,20.87337027452325,87.1815961722325,4761.34951617387,0.06940123313241257
0.15,12.981531007981484,0.0,21.104312421180136,87.59217026513265,0.0,6.989960474301332,87.87063126658579,18.096869362604036,0.0,7.2193058625501365,0.0,0.0,-3.1570580166023112,0.0,2.6567026325988206,0.0,4719.6899553899,0.2582812446918577,87.87063126658579,1.8802048545941557,1.2225200003128172,101071.72750641515,288.0128219692623,0.0,0.0,0.0,355.825,0.1909686955173007,0.86,nominal,4067.5865249993076,nan,pitch_program,12.925,0.0,0.0,-2.3013711006033275,-0.0,0.0,-1.9093921411028587,0.0,0.0,0.86,0.0,0.0,0.0,0.0,0.0,0.0,-0.03332517957394904,0.0,0.0,-0.03332517957394904,0.0,0.0,18.334290429453198,-0.04385014530182666,1.861529019689657,0.0006368873860925675,-0.0550382459468905,-0.0007483374336010434,1.0,0.014177748091778592,0.959559098682006,20.298513598499525,84.72605135808944,0.0014014213368002645,7.932967654246499,20.87337027452325,88.20072566216243,4654.393461044339,0.06940123313241257
0.18,15.62544854905831,0.0,21.308990783955238,88.13058470256085,0.0,6.8226120925034,88.39427580890082,18.091140301738516,0.0,7.288937142656261,0.0,0.0,-2.32104295587473,0.0,2.8622245877856844,0.0,4776.015455992135,0.2598210116507065,88.39427580890082,1.9109574014303803,1.2224959668953423,101069.27367730686,288.01149155990424,0.0,0.0,0.0,361.63,0.19408419689432013,0.86,nominal,4115.743812361488,nan,pitch_program,12.91,0.0,0.0,-2.466353878335056,-0.0,0.0,-2.243569183442177,0.0,0.0,0.86,0.0,0.0,0.0,0.0,0.0,0.0,-0.039157669247346635,0.0,0.0,-0.039157669247346635,0.0,0.0,18.5735332704197,0.009140766548147465,2.115649523272235,0.0028815938269745123,-0.043590894315378534,-0.0030423420317583503,1.0,0.014177748091778592,0.959559098682006,20.298513598499525,84.72605135808944,0.0014014213368002645,7.932967654246499,21.41742758590016,89.04248926716308,4800.821681212016,0.7764278674358552
0.21,18.28575159912735,0.0,21.50884069454603,88.67676833563476,0.0,6.661663686359802,88.92663833476446,18.085317775831687,0.0,7.358095778505192,0.0,0.0,-2.3052881415237843,0.0,3.061935311897625,0.0,4833.623875959744,0.26138639667654,88.92663833476446,1.9421009393327002,1.2224725007854749,101066.87778164774,288.01019253548543,0.0,0.0,0.0,367.435,0.19719969827133954,0.86,nominal,4164.90317535817,nan,pitch_program,12.895,0.0,0.0,-2.4264858869357613,-0.0,0.0,-2.353319205538328,0.0,0.0,0.86,0.0,0.0,0.0,0.0,0.0,0.0,-0.041073168487060996,0.0,0.0,-0.041073168487060996,0.0,0.0,18.95044555604906,-0.03779845928384171,2.27599112528127,-0.0012431366404637057,-0.040142692421997264,-0.002030792928796958,1.0,20.72034741408155,0.9456929146913363,20.502645641714913,88.6239933731583,-0.23034692373563193,6.834926972474845,21.41742758590016,89.23058688144334,4857.547276889272,0.7764278674358552
0.24,20.9626698881545,0.0,21.704077295456976,89.2306096342383,0.0,6.507886697031554,89.4676158448364,18.079401784883547,0.0,7.42102936087426,0.0,0.0,-2.0977862898800352,0.0,3.249642382373123,0.0,4892.520876169582,0.2629770975735329,89.46761584483639,1.9734539209335717,1.222449576697035,101064.53723694614,288.00892349757953,0.0,0.0,0.0,373.24,0.20031519964835895,0.86,nominal,4215.071432089105,nan,pitch_program,12.88,0.0,0.0,-2.437993908858104,-0.0,0.0,-2.4041240275301936,0.0,0.0,0.86,0.0,0.0,0.0,0.0,0.0,0.0,-0.04195987990670868,0.0,0.0,-0.04195987990670868,0.0,0.0,19.239078590706015,-0.01438510951309998,2.4527079698864,0.00142428374222012,-0.04250278043123847,-0.0007159696916969775,1.0,20.72034741408155,0.9456929146913363,20.502645641714913,88.6239933731583,-0.23034692373563193,6.834926972474845,21.134848004079632,89.04199629175885,4905.965360957038,0.3343602438312637
0.27,23.656433604799204,0.0,21.894915946398697,89.79212388815675,0.0,6.361288364723998,90.01717337266963,18.073392328894098,0.0,7.4658375965562875,0.0,0.0,-1.4936079321922702,0.0,3.413510646510918,0.0,4952.719603770075,0.26459301212450165,90.01717337266965,2.0048564944881013,1.2224271693203588,101062.24945837606,288.0076830463484,0.0,0.0,0.0,379.045,0.20343070102537836,0.86,nominal,4266.2615284683825,nan,pitch_program,12.865,0.0,0.0,-2.558785350043565,-0.0,0.0,-2.4969208210382163,0.0,0.0,0.86,0.0,0.0,0.0,0.0,0.0,0.0,-0.043579489488716976,0.0,0.0,-0.043579489488716976,0.0,0.0,19.5294259530915,-0.05415535490984337,2.6260244944003817,0.003583131456927908,-0.029123345756411054,0.005055779991715078,1.0,20.72034741408155,0.9456929146913363,20.502645641714913,88.6239933731583,-0.23034692373563193,6.834926972474845,21.134848004079632,89.80826122517827,4960.56837482517,0.3343602438312637
0.3,26.367278325463,0.0,22.08154889271187,90.36149068879322,0.0,6.221098210439046,90.57538883408004,18.067289407863335,0.0,7.489469925070722,0.0,0.0,-0.7877442949823675,0.0,3.5510543486515456,0.0,5014.245889471114,0.2662343698524868,90.57538883408006,2.036264714586345,1.2224052560616447,101060.01213845819,288.0064699321974,0.0,0.0,0.0,384.84999999999997,0.20654620240239774,0.86,nominal,4318.496552671109,nan,pitch_program,12.850000000000001,0.0,0.0,-2.716833457183694,-0.0,0.0,-2.628868402725503,0.0,0.0,0.86,0.0,0.0,0.0,0.0,0.0,0.0,-0.0458824092292043,0.0,0.0,-0.0458824092292043,0.0,0.0,19.820592739003,-0.012828207606542543,2.7662448578361367,0.0017037988751839792,-0.013039378688026888,-0.0002204210427518699,1.0,20.72034741408155,0.9456929146913363,20.502645641714913,88.6239933731583,-0.23034692373563193,6.834926972474845,22.327113038510277,90.957221501653,5042.22185704109,0.9049849265012095
0.32999999999999996,29.095446157535143,0.0,22.264141738005794,90.93892773573802,0.0,6.086428176464173,91.14237864831617,18.06109302179126,0.0,7.497053252106832,0.0,0.0,-0.2527775682393017,0.0,3.6680292188119195,0.0,5077.130349430951,0.26790151338481505,91.14237864831615,2.067715917630162,1.2223838174568384,101057.82328930874,288.0052830787029,0.0,0.0,0.0,390.655,0.20966170377941715,0.86,nominal,4371.803238411534,nan,pitch_program,12.835,0.0,0.0,-2.8411312410784406,-0.0,0.0,-2.756226105737266,0.0,0.0,0.86,0.0,0.0,0.0,0.0,0.0,0.0,-0.04810522047453666,0.0,0.0,-0.04810522047453666,0.0,0.0,20.113050513486495,0.03333257656601206,2.905676511435902,-0.002222514845427537,-0.0024752602679229125,0.001188448241246856,1.0,20.72034741408155,0.9456929146913363,20.502645641714913,88.6239933731583,-0.23034692373563193,6.834926972474845,22.327113038510277,91.37649194981277,5009.857365292468,0.9049849265012095
0.36,31.841183853130424,0.0,22.4428431184521,91.524589853176,0.0,5.956712681543542,91.71822596279623,18.05480317067788,0.0,7.494825475469918,0.0,0.0,0.07425922123985677,0.0,3.7710848895794262,0.0,5141.400477599917,0.26959468750682586,91.71822596279623,2.0992410325525475,1.2223628360355119,101055.6811266353,288.00412151973006,0.0,0.0,0.0,396.46,0.21277720515643656,0.86,nominal,4426.205594348842,nan,pitch_program,12.82,0.0,0.0,-2.9189330979847754,-0.0,0.0,-2.853850301085772,0.0,0.0,0.86,0.0,0.0,0.0,0.0,0.0,0.0,-0.04980908411297822,0.0,0.0,-0.04980908411297822,0.0,0.0,20.36931272296228,-0.011097732479107024,3.028692067823959,-0.0022947715372473357,0.0034177987381190916,-5.0962296014193264e-05,1.0,20.72034741408155,0.9456929146913363,20.502645641714913,88.6239933731583,-0.23034692373563193,6.834926972474845,22.333721428990593,91.77118008602706,5132.294997919743,0.6753535057895963
0.39,34.604740722395114,0.0,22.617793909849773,92.1185623088231,0.0,5.831693046589172,92.30296943020934,18.048419854523186,0.0,7.485897811601818,0.0,0.0,0.29758879620537326,0.0,3.863543152971563,0.0,5207.079269225947,0.2713140061993537,92.30296943020936,2.1308284196236826,1.2223422952396807,101053.583959345,288.00298433958596,0.0,0.0,0.0,402.265,0.21589270653345596,0.86,nominal,4481.7238714631085,nan,pitch_program,12.805,0.0,0.0,-2.974556444657275,-0.0,0.0,-2.926273987228674,0.0,0.0,0.86,0.0,0.0,0.0,0.0,0.0,0.0,-0.051073115892602855,0.0,0.0,-0.051073115892602855,0.0,0.0,20.6540491796221,-0.0600003257637548,3.1514621999246137,-0.002701698858082838,0.001885230925211878,0.000461079023761724,1.0,20.72034741408155,0.9456929146913363,20.502645641714913,88.6239933731583,-0.23034692373563193,6.834926972474845,22.333721428990593,93.09236647243578,5172.777032606476,0.6753535057895963
0.42,37.38636783854294,0.0,22.789129980978185,92.72090387159416,0.0,5.711202370947081,92.8966299027436,18.041943073327182,0.0,7.470735150310189,0.0,0.0,0.5054220460040314,0.0,3.946018702911618,0.0,5274.188098691038,0.2730595311102939,92.8966299027436,2.1407051612785377,1.2223221791004477,101051.53015652747,288.00187065512364,0.0,0.0,0.0,404.1773684210526,0.21691906078826353,0.86,nominal,4538.376945171618,nan,pitch_program,12.79,0.0,0.0,-3.0297974057530572,-0.0,0.0,-2.9883880383433037,0.0,0.0,0.86,0.0,0.0,0.0,0.0,0.0,0.0,-0.0521572105963052,0.0,0.0,-0.0521572105963052,0.0,0.0,20.756142523355027,-0.04109362265743187,3.292918867698174,0.0006476332619760433,0.011639622679938316,2.4021522528680222e-05,1.0,37.76700774684922,-1.849412346929378,22.566471515633385,92.86205772148101,-0.08806662844192831,5.65992999511608,23.417068260717073,92.28138305287922,5284.012730973494,-1.9305596063448158
0.44999999999999996,40.18612565155698,0.0,22.95695564591373,93.3252604338012,0.0,5.594188831184817,93.49277610444442,18.035435501503535,0.0,7.44937092534741,0.0,0.0,0.7121408403438446,0.0,4.01899915665574,0.0,5342.011354541077,0.2748123584301445,93.49277610444442,2.139743369781039,1.2223024753547558,101049.51846566232,288.00077978830154,0.0,0.0,0.0,404.14342105263154,0.21690084148196515,0.86,nominal,4595.580420942887,nan,pitch_program,12.775,0.0,0.0,-3.088236446436788,-0.0,0.0,-3.0482970831993943,0.0,0.0,0.86,0.0,0.0,0.0,0.0,0.0,0.0,-0.05320282068076895,0.0,0.0,-0.05320282068076895,0.0,0.0,20.739782509916836,0.011768100447968164,3.2752761322453585,-0.0014838600832847797,0.012532149127155263,-0.0014436669654361873,1.0,37.76700774684922,-1.849412346929378,22.566471515633385,92.86205772148101,-0.08806662844192831,5.65992999511608,23.417068260717073,93.15560176502909,5368.511204216101,-1.9305596063448158
0.48,43.003980377530716,0.0,23.121355196745405,93.92849086579123,0.0,5.47998502772254,94.08821197274976,18.028928476259075,0.0,7.4225516670329865,0.0,0.0,0.893975293470115,0.0,4.083580764454747,0.0,5410.186899586789,0.276563093741916,94.08821197274976,2.138814277738633,1.222283174091133,101047.5478743467,287.99971119122114,0.0,0.0,0.0,404.1094736842105,0.2168826221756668,0.86,nominal,4653.038854054708,nan,pitch_program,12.76,0.0,0.0,-3.143516311356135,-0.0,0.0,-3.1054286200934387,0.0,0.0,0.86,0.0,0.0,0.0,0.0,0.0,0.0,-0.05419995410629464,0.0,0.0,-0.05419995410629464,0.0,0.0,20.677808344188723,-0.03549476079228268,3.4369729513981793,-0.0023780732918815607,0.01689004694433888,0.0012782140894706947,1.0,37.76700774684922,-1.849412346929378,22.566471515633385,92.86205772148101,-0.08806662844192831,5.65992999511608,22.540354484629827,93.7472971444011,5482.180375400606,1.324258880176689
0.51,45.839900099294596,0.0,23.282406275537355,94.53065739212931,0.0,5.368369293064977,94.68296877398203,18.022421997593806,0.0,7.391489806900071,0.0,0.0,1.0353953631229462,0.0,4.14116986774177,0.0,5478.716811103493,0.27831182897917084,94.68296877398204,2.137919637961386,1.2222642661796286,101045.61744999237,287.998664359209,0.0,0.0,0.0,404.0755263157895,0.21686440286936848,0.86,nominal,4710.754697429426,nan,pitch_program,12.745,0.0,0.0,-3.191078074300647,-0.0,0.0,-3.1568182926177637,0.0,0.0,0.86,0.0,0.0,0.0,0.0,0.0,0.0,-0.05509687309336578,0.0,0.0,-0.05509687309336578,0.0,0.0,20.672895497622765,0.03522245083677711,3.521074588889976,-0.0002369828673559562,0.018431532386299253,0.004524654236368735,1.0,37.76700774684922,-1.849412346929378,22.566471515633385,92.86205772148101,-0.08806662844192831,5.65992999511608,22.540354484629827,94.04665227215811,5445.724503183188,1.324258880176689
0.54,48.69385436520717,0.0,23.440181540890983,95.13180886375257,0.0,5.259175511787567,95.27706956426262,18.015916065507724,0.0,7.357239218778358,0.0,0.0,1.1416863047220949,0.0,4.192975331385848,0.0,5547.60230410071,0.28005863193381475,95.27706956426262,2.1370590206884406,1.2222457430760796,101043.72631984037,287.99763881998416,0.0,0.0,0.0,404.0415789473684,0.2168461835630701,0.86,nominal,4768.729648684648,nan,pitch_program,12.73,0.0,0.0,-3.2316547933575444,-0.0,0.0,-3.2017201930616324,0.0,0.0,0.86,0.0,0.0,0.0,0.0,0.0,0.0,-0.05588055909651399,0.0,0.0,-0.05588055909651399,0.0,0.0,20.68879028230979,0.015450913964850698,3.6138436005848793,-0.0014117327759784087,0.016564728415372165,-0.001530990298810903,1.0,37.76700774684922,-1.849412346929378,22.566471515633385,92.86205772148101,-0.08806662844192831,5.65992999511608,23.870227183931842,95.18349193700013,5610.888167205523,0.37908865046794354
0.57,51.56581385962741,0.0,23.59474992714069,95.73198314734124,0.0,5.152279541656948,95.87053030936151,18.009410680000833,0.0,7.320457612022455,0.0,0.0,1.2260536006360647,0.0,4.23978038622457,0.0,5616.843832041479,0.2818035495510544,95.87053030936151,2.1362273125388196,1.2222275966742315,101041.87365586124,287.9966341254736,0.0,0.0,0.0,404.0076315789474,0.21682796425677175,0.86,nominal,4826.964745272096,nan,pitch_program,12.715,0.0,0.0,-3.2681810405250045,-0.0,0.0,-3.241596701539655,0.0,0.0,0.86,0.0,0.0,0.0,0.0,0.0,0.0,-0.056576535463654924,0.0,0.0,-0.056576535463654924,0.0,0.0,20.66544681132002,0.03528685397412782,3.765453045795765,-0.0001095346037014998,0.020541716409319177,-0.0038078677225800764,1.0,37.76700774684922,-1.849412346929378,22.566471515633385,92.86205772148101,-0.08806662844192831,5.65992999511608,23.870227183931842,95.95592912183244,5612.0056693781335,0.37908865046794354
0.6,54.45575022865701,0.0,23.74617719760389,96.33121230098665,0.0,5.047575682106572,96.46336342697343,18.00290584107313,0.0,7.281564929508865,0.0,0.0,1.2964228002331721,0.0,4.282116102551798,0.0,5686.441478458704,0.28354661834283057,96.46336342697344,2.135418645859313,1.2222098192407373,101040.05866811762,287.9956498482156,0.0,0.0,0.0,403.9736842105263,0.21680974495047337,0.86,nominal,4885.460690437059,nan,pitch_program,12.7,0.0,0.0,-3.3024043017558236,-0.0,0.0,-3.2780812616693566,0.0,0.0,0.86,0.0,0.0,0.0,0.0,0.0,0.0,-0.05721331116406006,0.0,0.0,-0.05721331116406006,0.0,0.0,20.638370529557353,0.07152135577434662,3.7864328955005817,0.00248404993183038,0.02202271885656955,-0.0009244109924386722,1.0,37.76700774684922,-1.849412346929378,22.566471515633385,92.86205772148101,-0.08806662844192831,5.65992999511608,25.162851589437352,95.91262016369637,5741.207591562713,0.2711867465971375
0.63,57.36363598166689,0.0,23.894526204394033,96.9295251003294,0.0,4.944966893004873,97.05557961162408,17.996401548724617,0.0,7.240948551464462,0.0,0.0,1.353879324843165,0.0,4.3204729064038725,0.0,5756.3951604297645,0.285287869752404,97.05557961162408,2.1346297533259047,1.2221924033846219,101038.28060164524,287.9946855796714,0.0,0.0,0.0,403.9397368421053,0.21679152564417503,0.86,nominal,4944.218022276472,nan,pitch_program,12.685,0.0,0.0,-3.3343800337532805,-0.0,0.0,-3.311860524919711,0.0,0.0,0.86,0.0,0.0,0.0,0.0,0.0,0.0,-0.05780287052667667,0.0,0.0,-0.05780287052667667,0.0,0.0,20.583732801886466,0.06281456163013123,3.8810064446084445,0.001060077771823052,0.022298468919491034,0.000802342826417928,1.0,54.75913801579877,0.09072433708907218,23.37157127180247,97.00984335596597,0.03557044229006951,4.762163248900498,25.162851589437352,97.2986181673415,5899.309218269888,0.2711867465971375
0.6599999999999999,60.289444384086046,0.0,24.039857231749476,97.52694674730517,0.0,4.844367578514742,97.64718756363372,17.98989780295529,0.0,7.199014685058557,0.0,0.0,1.3977956092581332,0.0,4.355350594193983,0.0,5826.704589802045,0.287027329358421,97.64718756363372,2.1338597637578007,1.22217534201694,101036.53873233323,287.9937409279936,0.0,0.0,0.0,403.9057894736842,0.21677330633787664,0.86,nominal,5003.237085465468,nan,pitch_program,12.67,0.0,0.0,-3.3637246598086445,-0.0,0.0,-3.342979005853071,0.0,0.0,0.86,0.0,0.0,0.0,0.0,0.0,0.0,-0.05834599047718288,0.0,0.0,-0.05834599047718288,0.0,0.0,20.537413660773964,-0.020769777850218846,4.026677821541474,0.0025543026798296353,0.023515986398744596,-6.986332219162133e-05,1.0,54.75913801579877,0.09072433708907218,23.37157127180247,97.00984335596597,0.03557044229006951,4.762163248900498,24.384230826978254,96.37983771090106,5835.963971413252,0.5413022908320322
0.69,63.23314932926563,0.0,24.18222845117105,98.1234981726528,0.0,4.745707314052453,98.23819334428565,17.983394603765156,0.0,7.1561346506521915,0.0,0.0,1.4293345469262753,0.0,4.3872027319963145,0.0,5897.369188312298,0.2887650149806319,98.23819334428563,2.1331083062868954,1.2221586282973098,101034.83236146462,287.9928155150674,0.0,0.0,0.0,403.8718421052631,0.21675508703157828,0.86,nominal,5062.517966415301,nan,pitch_program,12.655,0.0,0.0,-3.3905215316229884,-0.0,0.0,-3.371504521315021,0.0,0.0,0.86,0.0,0.0,0.0,0.0,0.0,0.0,-0.05884385464282246,0.0,0.0,-0.05884385464282246,0.0,0.0,20.522438570738057,0.011334495882827934,4.1402263400971675,0.00011253206504021338,0.023007637715848364,0.0007539506412993855,1.0,54.75913801579877,0.09072433708907218,23.37157127180247,97.00984335596597,0.03557044229006951,4.762163248900498,24.384230826978254,97.9162793594313,5865.305493440918,0.5413022908320322
0.72,66.19472521897497,0.0,24.321696341609467,98.71919632364445,0.0,4.648929681280622,98.8286004654915,17.976891951154208,0.0,7.112603524931995,0.0,0.0,1.4510375938059894,0.0,4.416396339917633,0.0,5968.388088660456,0.2905009369445458,98.82860046549152,2.1323744887605534,1.2221422555845605,101033.16081067664,287.9919089737795,0.0,0.0,0.0,403.8378947368421,0.21673686772527995,0.86,nominal,5122.060498412318,nan,pitch_program,12.64,0.0,0.0,-3.4152411608599276,-0.0,0.0,-3.3977465050419653,0.0,0.0,0.86,0.0,0.0,0.0,0.0,0.0,0.0,-0.059301863661112404,0.0,0.0,-0.059301863661112404,0.0,0.0,20.517463464806315,-0.03004583130347108,4.107060520276918,-0.0006888858372041728,0.023859830137749054,0.0005275444591532537,1.0,54.75913801579877,0.09072433708907218,23.37157127180247,97.00984335596597,0.03557044229006951,4.762163248900498,24.34534399385445,98.99739777395415,6021.3564023318695,-0.5622760626020261
0.75,69.17414687129818,0.0,24.458315993609958,99.31405507744027,0.0,4.553988400016364,99.4184104996269,17.97038984512245,0.0,7.068650722519794,0.0,0.0,1.4650934855875808,0.0,4.443225047791797,0.0,6039.760199252165,0.2922350998747716,99.41841049962689,2.131657205737059,1.2221262174010015,101031.5234183123,287.9910209460415,0.0,0.0,0.0,403.80394736842106,0.21671864841898159,0.86,nominal,5181.864317674897,nan,pitch_program,12.625,0.0,0.0,-3.4383025122108073,-0.0,0.0,-3.4220801093432702,0.0,0.0,0.86,0.0,0.0,0.0,0.0,0.0,0.0,-0.05972656517504763,0.0,0.0,-0.05972656517504763,0.0,0.0,20.446208557432204,0.015338797779971458,4.202767867501604,-0.000591153639210095,0.027533011248368433,0.002121102894188002,1.0,54.75913801579877,0.09072433708907218,23.37157127180247,97.00984335596597,0.03557044229006951,4.762163248900498,24.34534399385445,99.09390016780104,6041.794978329646,-0.5622760626020261
0.78,72.17138945031364,0.0,24.592141329408264,99.90808596718189,0.0,4.460844526610261,100.00762358698658,17.96388828566988,0.0,7.024469724474467,0.0,0.0,1.4727000078167045,0.0,4.467940686953625,0.0,6111.484259122844,0.2939675041871951,100.00762358698658,2.1309557259207623,1.2221105074065666,101029.91953677987,287.9901510813588,0.0,0.0,0.0,403.77,0.21670042911268322,0.86,nominal,5241.92891052624,nan,pitch_program,12.61,0.0,0.0,-3.45989681955738,-0.0,0.0,-3.444770135471736,0.0,0.0,0.86,0.0,0.0,0.0,0.0,0.0,0.0,-0.0601225808383529,0.0,0.0,-0.0601225808383529,0.0,0.0,20.515967157335968,0.03611252959553778,4.233216375630794,-0.0021107073467671357,0.023205246934827055,-0.0012230130526563814,1.0,54.75913801579877,0.09072433708907218,23.37157127180247,97.00984335596597,0.03557044229006951,4.762163248900498,24.302735226582556,99.9052506873657,6127.155303162185,-2.046721214377946
0.8099999999999999,75.1864284048207,0.0,24.72322529704024,100.50129848356879,0.0,4.369465587732501,100.59623862951221,17.957387272796502,0.0,6.980232977134014,0.0,0.0,1.4745583179307509,0.0,4.490768871553471,0.0,6183.55885650607,0.2956981466589225,100.59623862951221,2.130269782579738,1.222095119376003,101028.34853022348,287.9892990355692,0.0,0.0,0.0,403.73605263157896,0.21668220980638486,0.86,nominal,5302.253630562102,nan,pitch_program,12.595,0.0,0.0,-3.4801028357409973,-0.0,0.0,-3.4659697556332927,0.0,0.0,0.86,0.0,0.0,0.0,0.0,0.0,0.0,-0.06049258401034424,0.0,0.0,-0.06049258401034424,0.0,0.0,20.37144531644842,0.03563853628455486,4.338078072271136,0.0036965681278584767,0.02690941987265087,0.00015536917554248418,1.0,54.75913801579877,0.09072433708907218,23.37157127180247,97.00984335596597,0.03557044229006951,4.762163248900498,24.302735226582556,100.13760406320627,6265.034764258852,-2.046721214377946
0.84,78.21923941117274,0.0,24.851620056900433,101.09370021173432,0.0,4.2798253286730406,101.18425335665606,17.95088680650231,0.0,6.936090509352537,0.0,0.0,1.4714156654976136,0.0,4.511907920975559,0.0,6255.982432437052,0.29742702062237847,101.18425335665606,2.1295992930754357,1.2220800471769537,101026.80977228486,287.9884644696301,0.0,0.0,0.0,403.7021052631579,0.2166639905000865,0.86,nominal,5362.8377035029835,nan,pitch_program,12.58,0.0,0.0,-3.499023300401854,-0.0,0.0,-3.4858018824944295,0.0,0.0,0.86,0.0,0.0,0.0,0.0,0.0,0.0,-0.060838719921744285,0.0,0.0,-0.060838719921744285,0.0,0.0,20.366493675553457,-0.028437644186855373,4.432875719191414,-0.003959198633539236,0.022903415076077384,-0.0008859482049486593,1.0,77.70207572343998,-1.411698079695105,24.896416664352646,100.92982104313518,0.0002733253637893132,4.332891948816139,25.642726214595424,100.81092928909862,6248.030207361428,-0.5005293370252881
0.87,81.26979832237325,0.0,24.97737714771911,101.68529704001705,0.0,4.1919030272892455,101.77166445090056,17.94438688678731,0.0,6.892167008330069,0.0,0.0,1.4641167724528916,0.0,4.531526475060174,0.0,6328.75329207738,0.29915411633471567,101.77166445090057,2.1289441508673455,1.2220652847504614,101025.30264411255,287.9876470485398,0.0,0.0,0.0,403.66815789473685,0.21664577119378817,0.86,nominal,5423.680238159028,nan,pitch_program,12.565,0.0,0.0,-3.516799437777506,-0.0,0.0,-3.5044004156642754,0.0,0.0,0.86,0.0,0.0,0.0,0.0,0.0,0.0,-0.06116332556159947,0.0,0.0,-0.06116332556159947,0.0,0.0,20.43631244023773,-0.12858403338120836,4.555600882417937,-0.0005359727584250632,0.02345886371272041,-0.002222148459248925,1.0,77.70207572343998,-1.411698079695105,24.896416664352646,100.92982104313518,0.0002733253637893132,4.332891948816139,25.642726214595424,101.62209122177767,6337.493922092606,-0.5005293370252881
0.8999999999999999,84.33808112549033,0.0,25.100547621772538,102.27609343723609,0.0,4.105682468447544,102.35846773625504,17.937887513651496,0.0,6.8485648122124205,0.0,0.0,1.453406607396808,0.0,4.549767197633549,0.0,6401.869624481519,0.30087942153226355,102.35846773625504,2.1283042374252368,1.2220508260950746,101023.82653273866,287.98684644045846,0.0,0.0,0.0,403.6342105263158,0.2166275518874898,0.86,nominal,5484.780243992037,nan,pitch_program,12.55,0.0,0.0,-3.5335599878426205,-0.0,0.0,-3.5218961589712823,0.0,0.0,0.86,0.0,0.0,0.0,0.0,0.0,0.0,-0.061468683887390504,0.0,0.0,-0.061468683887390504,0.0,0.0,20.356266358085904,-0.03471853097752479,4.530942816987738,-0.004617807805731897,0.023272539630219854,-0.0020056020189177202,1.0,77.70207572343998,-1.411698079695105,24.896416664352646,100.92982104313518,0.0002733253637893132,4.332891948816139,25.176802818375787,102.0554018626731,6241.179008037751,-0.41751267922852897
0.9299999999999999,87.42406390633323,0.0,25.22118215416644,102.8660926947635,0.0,4.021151079796622,102.94465834755209,17.93138868709487,0.0,6.80536958082031,0.0,0.0,1.4398411145997447,0.0,4.5667530419669955,0.0,6475.329520778912,0.30260292192847194,102.94465834755209,2.1276795036440888,1.2220366652540133,101022.38082976814,287.9860623159979,0.0,0.0,0.0,403.6002631578947,0.21660933258119142,0.86,nominal,5546.13664711927,nan,pitch_program,12.535000000000002,0.0,0.0,-3.54939572296085,-0.0,0.0,-3.538395897365023,0.0,0.0,0.86,0.0,0.0,0.0,0.0,0.0,0.0,-0.061756658648079,0.0,0.0,-0.061756658648079,0.0,0.0,20.358085554765573,-0.0896684742044235,4.691467445388149,-0.00028786678574019883,0.02690993909224783,0.0030370859826545967,1.0,77.70207572343998,-1.411698079695105,24.896416664352646,100.92982104313518,0.0002733253637893132,4.332891948816139,25.176802818375787,103.0292345491804,6413.840101261981,-0.41751267922852897
0.96,90.52772281916054,0.0,25.33933113580442,103.45529709424402,0.0,3.938299387932732,103.53023084552302,17.924890407117434,0.0,6.762653998347404,0.0,0.0,1.4238528150463357,0.0,4.582591348082786,0.0,6549.130986237188,0.30432460155243424,103.53023084552301,2.1270699805012456,1.222022796304234,101020.96493026211,287.98529434761724,0.0,0.0,0.0,403.56631578947366,0.21659111327489305,0.86,nominal,5607.748301146579,nan,pitch_program,12.520000000000001,0.0,0.0,-3.5643737824200583,-0.0,0.0,-3.553982628398044,0.0,0.0,0.86,0.0,0.0,0.0,0.0,0.0,0.0,-0.06202869842422799,0.0,0.0,-0.06202869842422799,0.0,0.0,20.321277929155055,3.1120686388362407e-06,4.796606826387652,-0.0010345882843554042,0.023292713906532436,-0.0018702234367756019,1.0,77.70207572343998,-1.411698079695105,24.896416664352646,100.92982104313518,0.0002733253637893132,4.332891948816139,25.334094668230243,103.55623511188558,6602.012634226895,0.634740639093458
0.99,93.64903406021152,0.0,25.45504475444738,104.04370803503235,0.0,3.8571206214319336,104.11517930238286,17.918392673719186,0.0,6.720479107177726,0.0,0.0,1.4058297691325625,0.0,4.597375475415156,0.0,6623.271949077865,0.30604444300069833,104.11517930238284,2.126475730463347,1.2220092133469083,101019.57823176538,287.98454220909605,0.0,0.0,0.0,403.53236842105264,0.21657289396859472,0.86,nominal,5669.613995224868,nan,pitch_program,12.505,0.0,0.0,-3.578556673150327,-0.0,0.0,-3.568727055249414,0.0,0.0,0.86,0.0,0.0,0.0,0.0,0.0,0.0,-0.062286037219103856,0.0,0.0,-0.062286037219103856,0.0,0.0,20.25475727723185,0.0147681331078705,4.832075761407673,0.0019451232353480876,0.025064232747184764,-0.0013755099066442107,1.0,77.70207572343998,-1.411698079695105,24.896416664352646,100.92982104313518,0.0002733253637893132,4.332891948816139,25.334094668230243,103.94189708040862,6630.697099783826,0.634740639093458
1.02,96.78797384489519,0.0,25.568373063633818,104.63132615612217,0.0,3.7776103062146036,104.69949738568201,17.91189548690013,0.0,6.6788952476272945,0.0,0.0,1.3861287125263628,0.0,4.611186034786036,0.0,6697.7502694475725,0.30776242768395157,104.69949738568201,2.125896811600021,1.2219959104993208,101018.22013347888,287.98380557508636,0.0,0.0,0.0,403.49842105263156,0.21655467466229633,0.86,nominal,5731.732462111702,nan,pitch_program,12.49,0.0,0.0,-3.592005033856559,-0.0,0.0,-3.582693842413701,0.0,0.0,0.86,0.0,0.0,0.0,0.0,0.0,0.0,-0.06252980364104595,0.0,0.0,-0.06252980364104595,0.0,0.0,20.219531080063327,0.016811845040896133,4.847093238475739,-0.0007207514540145911,0.02481712339484679,0.002495420991178831,1.0,77.70207572343998,-1.411698079695105,24.896416664352646,100.92982104313518,0.0002733253637893132,4.332891948816139,25.121214940969384,105.36591918054953,6707.888988448275,1.1006054227131294
1.05,99.94451838851134,0.0,25.679366039442588,105.2181514538716,0.0,3.6997658602923575,105.28317844171902,17.90539884666026,0.0,6.637943593048427,0.0,0.0,1.365055210740949,0.0,4.624092705665118,0.0,6772.563748702082,0.30947853607238324,105.283178441719,2.1253332772388513,1.2219828818881906,101016.89003557753,287.9830841207436,0.0,0.0,0.0,403.46447368421053,0.216536455355998,0.86,nominal,5794.102386366123,nan,pitch_program,12.475,0.0,0.0,-3.604771819501643,-0.0,0.0,-3.5959406286664666,0.0,0.0,0.86,0.0,0.0,0.0,0.0,0.0,0.0,-0.06276100367646463,0.0,0.0,-0.06276100367646463,0.0,0.0,20.170193410938534,-0.07776643709756266,4.887619340408462,-0.0033527613407305736,0.02520293060217497,0.0011632919707110327,1.0,99.11246816103767,-0.5572559302485525,24.71073620600543,105.36666812714066,-0.041462002564202814,3.8648169986775205,25.121214940969384,104.84517945061499,6703.518739575001,1.1006054227131294
1.08,103.118643890004,0.0,25.78807362697089,105.80418338308853,0.0,3.62358625094338,105.8662155679528,17.89890275299958,0.0,6.597657811336346,0.0,0.0,1.3428594457260097,0.0,4.636156135886124,0.0,6847.710137632853,0.31119274790868484,105.86621556795279,2.124785184944782,1.221970121644209,101015.58733865229,287.98237752142467,0.0,0.0,0.0,403.43052631578945,0.21651823604969964,0.86,nominal,5856.72241157406,nan,pitch_program,12.46,0.0,0.0,-3.6169003220171123,-0.0,0.0,-3.6085164446768543,0.0,0.0,0.86,0.0,0.0,0.0,0.0,0.0,0.0,-0.06298049307197091,0.0,0.0,-0.06298049307197091,0.0,0.0,20.20737953030999,0.03199816188255714,5.006663614054249,0.0025632580446125343,0.020336277252070472,-0.004026081329411265,1.0,99.11246816103767,-0.5572559302485525,24.71073620600543,105.36666812714066,-0.041462002564202814,3.8648169986775205,25.55291640191248,105.46583859802571,6734.079736141428,0.09832916532146876
1.1099999999999999,106.31032651816574,0.0,25.894545778751727,106.38942093872487,0.0,3.5490717260279356,106.44860167138731,17.892407205918087,0.0,6.558065283731185,0.0,0.0,1.3197509726880476,0.0,4.647429350152438,0.0,6923.187143185269,0.3129050423797932,106.4486016713873,2.1242525937153487,1.2219576238975205,101014.31144324852,287.9816854524381,0.0,0.0,0.0,403.3965789473684,0.21650001674340127,0.86,nominal,5919.591146258036,nan,pitch_program,12.445,0.0,0.0,-3.628427180748074,-0.0,0.0,-3.6204628863195865,0.0,0.0,0.86,0.0,0.0,0.0,0.0,0.0,0.0,-0.06318899781253395,0.0,0.0,-0.06318899781253395,0.0,0.0,20.14245224358764,0.07083766185221817,5.096642414036082,0.002340935354681888,0.02520800801715361,0.0011084044553675257,1.0,99.11246816103767,-0.5572559302485525,24.71073620600543,105.36666812714066,-0.041462002564202814,3.8648169986775205,25.55291640191248,105.80192763463792,6847.251126941412,0.09832916532146876
1.14,109.51954239991115,0.0,25.998832486396296,106.97386272484681,0.0,3.476223588152328,107.03032951789505,17.885912205415785,0.0,6.519187927431244,0.0,0.0,1.2959119263859509,0.0,4.657958732655406,0.0,6998.992434246927,0.314615398261982,107.03032951789505,2.1237355540441376,1.2219453827739961,101013.06174948506,287.9810075888384,0.0,0.0,0.0,403.3626315789474,0.21648179743710294,0.86,nominal,5982.707168957317,nan,pitch_program,12.43,0.0,0.0,-3.6393852266428155,-0.0,0.0,-3.6318162905135236,0.0,0.0,0.86,0.0,0.0,0.0,0.0,0.0,0.0,-0.06338715209702789,0.0,0.0,-0.06338715209702789,0.0,0.0,20.17569796957505,4.7198844412179815e-06,5.191807484976085,0.0011094844998875385,0.020863049900768812,0.003267930520883794,1.0,99.11246816103767,-0.5572559302485525,24.71073620600543,105.36666812714066,-0.041462002564202814,3.8648169986775205,27.793336446136124,107.13622807342395,7110.477844290504,0.29836051769505395
1.17,112.74626761039603,0.0,26.100983806088145,107.55750701616309,0.0,3.4050439897282723,107.61139177663281,17.87941775149267,0.0,6.481042918163685,0.0,0.0,1.2715003558826927,0.0,4.667784892919936,0.0,7075.12364700613,0.31632379405150785,107.61139177663283,2.1232341022435555,1.2219333923922335,101011.83765674797,287.98034360526043,0.0,0.0,0.0,403.3286842105263,0.21646357813080455,0.86,nominal,6046.069032893953,nan,pitch_program,12.415,0.0,0.0,-3.649803914145289,-0.0,0.0,-3.642608864692583,0.0,0.0,0.86,0.0,0.0,0.0,0.0,0.0,0.0,-0.0635755180512182,0.0,0.0,-0.0635755180512182,0.0,0.0,20.097722604742216,0.0744477292609092,5.260974890129947,-0.0011443796456575013,0.0218539208671981,0.0010816236950760172,1.0,99.11246816103767,-0.5572559302485525,24.71073620600543,105.36666812714066,-0.041462002564202814,3.8648169986775205,27.793336446136124,107.27824113900637,7166.757122306698,0.29836051769505395
1.2,115.99047816476921,0.0,26.20104987860191,108.14035181243942,0.0,3.335535750458846,108.19178105965702,17.872923844148747,0.0,6.443643409642462,0.0,0.0,1.2466503283046975,0.0,4.6769435116831755,0.0,7151.5783898695245,0.31803020808113064,108.19178105965702,2.122748260339566,1.2219216468611962,101010.63856344893,287.97969317578907,0.0,0.0,0.0,403.2947368421053,0.21644535882450622,0.86,nominal,6109.675270222371,nan,pitch_program,12.4,0.0,0.0,-3.659708946651846,-0.0,0.0,-3.6528689138681405,0.0,0.0,0.86,0.0,0.0,0.0,0.0,0.0,0.0,-0.06375458969074821,0.0,0.0,-0.06375458969074821,0.0,0.0,20.128222345534507,-0.06790555911870341,5.260427479096306,0.0003927907816828075,0.02370748328279411,-0.002431410593535196,1.0,99.11246816103767,-0.5572559302485525,24.71073620600543,105.36666812714066,-0.041462002564202814,3.8648169986775205,25.171076988632983,108.17792238880365,7198.159632334831,-0.01991592255410157
1.23,119.25215001131814,0.0,26.299080944685493,108.72239488496423,0.0,3.267702202786065,108.77148995581604,17.86643048338401,0.0,6.406999169328724,0.0,0.0,1.221474718760642,0.0,4.68546608397023,0.0,7228.354247791504,0.3197346186197975,108.77148995581605,2.122278036379793,1.221910140278404,101009.46386684036,287.97905597385954,0.0,0.0,0.0,403.26078947368416,0.2164271395182078,0.86,nominal,6173.524395750295,nan,pitch_program,12.385,0.0,0.0,-3.6691226199969225,-0.0,0.0,-3.66262113754541,0.0,0.0,0.86,0.0,0.0,0.0,0.0,0.0,0.0,-0.0639247981033075,0.0,0.0,-0.0639247981033075,0.0,0.0,20.114900304262633,-0.03089842739768407,5.41509714279951,-0.002670902451983151,0.026123230871508894,0.0021046112400922227,1.0,99.11246816103767,-0.5572559302485525,24.71073620600543,105.36666812714066,-0.041462002564202814,3.8648169986775205,25.171076988632983,107.97667522191668,7322.082252775617,-0.01991592255410157
1.26,122.53125902579568,0.0,26.395127356547842,109.30363381591812,0.0,3.2015470620783053,109.35051105941399,17.859937669198466,0.0,6.371117083251864,0.0,0.0,1.1960695749870864,0.0,4.693380514578948,0.0,7305.448786052088,0.3214370039569443,109.35051105941399,2.121823422857704,1.2218988667285695,101008.31296287602,287.9784316721824,0.0,0.0,0.0,403.22684210526313,0.21640892021190947,0.86,nominal,6237.6149101686005,nan,pitch_program,12.37,0.0,0.0,-3.6780646326426107,-0.0,0.0,-3.6718872346037306,0.0,0.0,0.86,0.0,0.0,0.0,0.0,0.0,0.0,-0.06408652200578456,0.0,0.0,-0.06408652200578456,0.0,0.0,20.08190638513629,-0.02147039242399692,5.493917675667909,-0.00021406315418098803,0.022806743446505188,0.0023343562743644722,1.0,123.87771007447132,0.35353095454534866,26.758816734644437,109.43733309396669,-0.12829517663242937,3.201514443753558,27.394617819315147,108.72254292858763,7294.304022747457,-1.2283413212379868
1.29,125.82778100676599,0.0,26.489239585984542,109.8840660323435,0.0,3.1370743145566142,109.92883699491902,17.853445401592108,0.0,6.336001568658155,0.0,0.0,1.1705171897631688,0.0,4.700711609065099,0.0,7382.859553627866,0.3231373424751603,109.92883699491902,2.1213843949180773,1.2218878202826415,101007.18524611303,287.9778199426911,0.0,0.0,0.0,403.1928947368421,0.21639070090561113,0.86,nominal,6301.945302913634,nan,pitch_program,12.355,0.0,0.0,-3.6865526241811084,-0.0,0.0,-3.680686468350157,0.0,0.0,0.86,0.0,0.0,0.0,0.0,0.0,0.0,-0.0642400976063123,0.0,0.0,-0.0642400976063123,0.0,0.0,20.040488649698098,-0.03609072556323869,5.591292422426093,0.0024602668319600824,0.01848801746452189,0.0002735018978006627,1.0,123.87771007447132,0.35353095454534866,26.758816734644437,109.43733309396669,-0.12829517663242937,3.201514443753558,27.394617819315147,110.30074835492368,7324.442059833705,-1.2283413212379868
1.3199999999999998,129.14169167183812,0.0,26.5814682295655,110.46368883573808,0.0,3.074288119365152,110.50646043847226,17.84695368056494,0.0,6.301654939037893,0.0,0.0,1.144887688293733,0.0,4.707481507138396,0.0,7460.584086237809,0.32483561271343814,110.50646043847226,2.1209609097728426,1.2218769949971835,101006.08010964816,287.9772204565078,0.0,0.0,0.0,403.158947368421,0.21637248159931274,0.86,nominal,6366.514054733287,nan,pitch_program,12.34,0.0,0.0,-3.6946023690260943,-0.0,0.0,-3.6890360087557195,0.0,0.0,0.86,0.0,0.0,0.0,0.0,0.0,0.0,-0.06438582457741766,0.0,0.0,-0.06438582457741766,0.0,0.0,19.987372841711775,-0.006390101419633482,5.605693998121457,-0.0008025486067626333,0.019547389345459187,-0.0030770634590288706,1.0,123.87771007447132,0.35353095454534866,26.758816734644437,109.43733309396669,-0.12829517663242937,3.201514443753558,27.135285159869227,110.38051441135185,7495.311488066531,-1.0904417465331504
1.3499999999999999,132.47296665466655,0.0,26.67186401129193,111.04249942761403,0.0,3.0131927242143615,111.08337413638876,17.84046250611696,0.0,6.268077727205702,0.0,0.0,1.1192404264385702,0.0,4.7137100648309005,0.0,7538.6199090736945,0.32653179342157346,111.08337413638876,2.1205529068282365,1.2218663849140605,101004.99694508559,287.9766328839266,0.0,0.0,0.0,403.125,0.2163542622930144,0.86,nominal,6431.319639968797,nan,pitch_program,12.325,0.0,0.0,-3.702227946115316,-0.0,0.0,-3.6969511711714773,0.0,0.0,0.86,0.0,0.0,0.0,0.0,0.0,0.0,-0.06452397022240275,0.0,0.0,-0.06452397022240275,0.0,0.0,20.08502289529008,0.020285480287443793,5.692106814706814,0.00019849473554877379,0.01804357307956127,-0.0018258754751571378,1.0,123.87771007447132,0.35353095454534866,26.758816734644437,109.43733309396669,-0.12829517663242937,3.201514443753558,27.135285159869227,110.85318589658226,7624.054123100209,-1.0904417465331504
1.38,135.82158150260813,0.0,26.76047778310044,111.62049493138544,0.0,2.953792393617051,111.65957092086657,17.83397187824817,0.0,6.235268958532589,0.0,0.0,1.0936256523199483,0.0,4.719415178401204,0.0,7616.964539229169,0.3282258636063495,111.65957092086657,2.120160307672528,1.2218559840603647,101003.93514252914,287.97605689440985,0.0,0.0,0.0,403.0910526315789,0.21633604298671602,0.86,nominal,6496.360528567658,nan,pitch_program,12.31,0.0,0.0,-3.709442002204994,-0.0,0.0,-3.7044456697915873,0.0,0.0,0.86,0.0,0.0,0.0,0.0,0.0,0.0,-0.06465477389910984,0.0,0.0,-0.06465477389910984,0.0,0.0,19.974649984672812,-0.06988482095318081,5.741231087375446,-0.002574906095528149,0.018970060334945152,-0.0016373979033753561,1.0,123.87771007447132,0.35353095454534866,26.758816734644437,109.43733309396669,-0.12829517663242937,3.201514443753558,26.925926929263845,111.68090610616413,7693.901478199065,1.5473215444240154
1.41,139.1875116749428,0.0,26.84736052352901,112.19767241115609,0.0,2.8960913476189662,112.23504372331688,17.82748179695857,0.0,6.203226379145637,0.0,0.0,1.0680860074028395,0.0,4.7246130561896145,0.0,7695.615487869991,0.3299178025707222,112.23504372331686,2.119783015915986,1.221845786448569,101002.89409059766,287.97549215659706,0.0,0.0,0.0,403.0571052631579,0.2163178236804177,0.86,nominal,6561.6351878654905,nan,pitch_program,12.295,0.0,0.0,-3.7162560001160005,-0.0,0.0,-3.7115318679862357,0.0,0.0,0.86,0.0,0.0,0.0,0.0,0.0,0.0,-0.06477845138905533,0.0,0.0,-0.06477845138905533,0.0,0.0,19.97503256518057,-0.04301413481786881,5.817770538266975,0.0001864100456754511,0.01936584646193941,-0.0006677469490047108,1.0,123.87771007447132,0.35353095454534866,26.758816734644437,109.43733309396669,-0.12829517663242937,3.201514443753558,26.925926929263845,112.41713527662239,7741.552975247695,1.5473215444240154
1.44,142.57073254158064,0.0,26.93256333480375,112.774028887928,0.0,2.8400937091580225,112.80978558570182,17.820992262248158,0.0,6.171946651268406,0.0,0.0,1.0426576218042045,0.0,4.729318451817437,0.0,7774.570262186628,0.331607589947143,112.80978558570183,2.1194209172339464,1.221835786076861,101001.873176459,287.97493833832374,0.0,0.0,0.0,403.02315789473687,0.21629960437411935,0.86,nominal,6627.1420841732615,nan,pitch_program,12.28,0.0,0.0,-3.7226803838222198,-0.0,0.0,-3.718220977487826,0.0,0.0,0.86,0.0,0.0,0.0,0.0,0.0,0.0,-0.06489519837388452,0.0,0.0,-0.06489519837388452,0.0,0.0,19.964331133766233,0.023846620017299418,5.85355304539977,0.00013849466278630657,0.018729596974279162,-0.0027036643101231816,1.0,123.87771007447132,0.35353095454534866,26.758816734644437,109.43733309396669,-0.12829517663242937,3.201514443753558,27.41227588727102,113.08181119413636,7755.895148924932,-1.3297386982273482
1.47,145.97121938218774,0.0,27.0161374385734,113.34956135357042,0.0,2.7858034589883194,113.38378967012409,17.814503274116934,0.0,6.141425522532389,0.0,0.0,1.017370981924948,0.0,4.733544866320783,0.0,7853.826367152843,0.3332952057257361,113.38378967012407,2.119073879648322,1.2218259769296373,101000.87178588012,287.97439510664924,0.0,0.0,0.0,402.9892105263158,0.21628138506782096,0.86,nominal,6692.8796841914545,nan,pitch_program,12.265,0.0,0.0,-3.728724701090594,-0.0,0.0,-3.724523211649487,0.0,0.0,0.86,0.0,0.0,0.0,0.0,0.0,0.0,-0.06500519311023717,0.0,0.0,-0.06500519311023717,0.0,0.0,19.957154902675704,0.02079957608319616,6.003968742114125,-0.0037951028304950194,0.013657358183550048,-0.0028408208112567193,1.0,145.85633811382425,0.5989177194224437,27.129641869666248,113.50826464897382,0.08599434452404224,2.9516361952703103,27.41227588727102,113.31400137697574,7821.613014588501,-1.3297386982273482
1.5,149.38894738567208,0.0,27.09813417049459,113.92426678281176,0.0,2.733224397373069,113.95704926685168,17.8080148325649,0.0,6.111657970902223,0.0,0.0,0.9922517433248131,0.0,4.737304721453112,0.0,7933.3813071070535,0.33498063027787217,113.9570492668517,2.1187417538620714,1.2218163529781318,100999.88930329098,287.9738621278918,0.0,0.0,0.0,402.9552631578947,0.2162631657615226,0.86,nominal,6758.846456266911,nan,pitch_program,12.25,0.0,0.0,-3.7343977260057835,-0.0,0.0,-3.730447920263265,0.0,0.0,0.86,0.0,0.0,0.0,0.0,0.0,0.0,-0.06510859878276887,0.0,0.0,-0.06510859878276887,0.0,0.0,19.900520095337974,0.004774346985410719,6.022563248275305,0.00499200240962,0.01555991583231881,6.137278930911459e-05,1.0,145.85633811382425,0.5989177194224437,27.129641869666248,113.50826464897382,0.08599434452404224,2.9516361952703103,27.541695988680587,113.92303840147272,8105.75215181326,-0.31744308357754386
1.53,152.8238916499778,0.0,27.178604973843594,114.49814214352422,0.0,2.6823601116334572,114.52955780097625,17.801526937592055,0.0,6.082638327520617,0.0,0.0,0.9673214667325499,0.0,4.740609507087068,0.0,8013.232587176084,0.3366638443757191,114.52955780097625,2.1184243735771493,1.2218069081811547,100998.92511186002,287.97333906767,0.0,0.0,0.0,402.9213157894737,0.21624494645522424,0.86,nominal,6825.040871510323,nan,pitch_program,12.235,0.0,0.0,-3.739707574564749,-0.0,0.0,-3.7360037128441554,0.0,0.0,0.86,0.0,0.0,0.0,0.0,0.0,0.0,-0.06520556565586327,0.0,0.0,-0.06520556565586327,0.0,0.0,19.839556523906346,-0.04808078669860127,6.126556208192122,0.0005183612040169198,0.018564413640563115,-0.0017006293198901167,1.0,145.85633811382425,0.5989177194224437,27.129641869666248,113.50826464897382,0.08599434452404224,2.9516361952703103,27.541695988680587,114.53511360355172,8123.592674417405,-0.31744308357754386
1.56,156.27602718214447,0.0,27.257601392303798,115.07118440555568,0.0,2.6332139486734842,115.10130883789677,17.7950395891984,0.0,6.054360381428073,0.0,0.0,0.9425982222183356,0.0,4.743469907252072,0.0,8093.377714561667,0.3383448292083376,115.10130883789677,2.118121555852019,1.2217976364859393,100997.97859358018,287.97282559095,0.0,0.0,0.0,402.8873684210526,0.21622672714892588,0.86,nominal,6891.461404792281,nan,pitch_program,12.220000000000002,0.0,0.0,-3.7446617974057532,-0.0,0.0,-3.741198563581114,0.0,0.0,0.86,0.0,0.0,0.0,0.0,0.0,0.0,-0.06529623290537286,0.0,0.0,-0.06529623290537286,0.0,0.0,19.864164333239525,0.040271620609345825,6.142305245916868,0.005188590697175478,0.018153945992781487,-0.0014536441770553027,1.0,145.85633811382425,0.5989177194224437,27.129641869666248,113.50826464897382,0.08599434452404224,2.9516361952703103,26.39738856471339,114.982199217727,8007.808987930999,0.29649397852849374
1.5899999999999999,159.7453288985938,0.0,27.335175062057996,115.64339054831166,0.0,2.5857889918066164,115.67229608778192,17.78855278738393,0.0,6.026817469406725,0.0,0.0,0.9180970850582023,0.0,4.745895908511399,0.0,8173.8141997051,0.34002356639476916,115.67229608778192,2.1178331015224443,1.2217885318290602,100997.04912936248,287.9723213620966,0.0,0.0,0.0,402.8534210526316,0.21620850784262752,0.86,nominal,6958.106535632074,nan,pitch_program,12.205000000000002,0.0,0.0,-3.749267453729165,-0.0,0.0,-3.7460398976699443,0.0,0.0,0.86,0.0,0.0,0.0,0.0,0.0,0.0,-0.06538073012541198,0.0,0.0,-0.06538073012541198,0.0,0.0,19.777884007753116,0.02128384586427397,6.331222338800437,-0.0011897095443289282,0.01585698013083843,-0.004729859264674482,1.0,145.85633811382425,0.5989177194224437,27.129641869666248,113.50826464897382,0.08599434452404224,2.9516361952703103,26.39738856471339,114.95151505755018,8226.367534444295,0.29649397852849374
1.6199999999999999,163.23177162561137,0.0,27.41137770329855,116.21475756725187,0.0,2.5400880413518694,116.24251340913506,17.782066532148654,0.0,6.000002552837828,0.0,0.0,0.8938305686114338,0.0,4.747896892933338,0.0,8254.539557342705,0.34170003799448384,116.24251340913507,2.11755879564961,1.2217795881374236,100996.13609913696,287.97182604492855,0.0,0.0,0.0,402.8194736842105,0.21619028853632916,0.86,nominal,7024.974748990525,nan,pitch_program,12.19,0.0,0.0,-3.75353117670588,-0.0,0.0,-3.750534665091506,0.0,0.0,0.86,0.0,0.0,0.0,0.0,0.0,0.0,-0.06545917861602961,0.0,0.0,-0.06545917861602961,0.0,0.0,19.713468952626943,0.05037195146535108,6.309540956440827,0.0001248069488889918,0.015295078989571925,0.0008438445362877015,1.0,145.85633811382425,0.5989177194224437,27.129641869666248,113.50826464897382,0.08599434452404224,2.9516361952703103,27.69292946883067,116.1442982893737,8181.81325153557,-1.415141353446962
1.65,166.73533009999485,0.0,27.48626111125371,116.78528247944924,0.0,2.4961135985053016,116.81195481157481,17.775580823492565,0.0,5.973908283159666,0.0,0.0,0.869809004306508,0.0,4.749481717573915,0.0,8335.551307463596,0.34337422651551835,116.81195481157481,2.117298407971199,1.2217707993293125,100995.23888195923,287.9713393027768,0.0,0.0,0.0,402.78552631578947,0.21617206923003082,0.86,nominal,7092.064535977374,nan,pitch_program,12.175,0.0,0.0,-3.757459231999511,-0.0,0.0,-3.7546894052363093,0.0,0.0,0.86,0.0,0.0,0.0,0.0,0.0,0.0,-0.06553169251112122,0.0,0.0,-0.06553169251112122,0.0,0.0,19.77266956685902,0.012654930126696813,6.330268300226759,-0.0006428091658538991,0.01750041935850123,-0.00013560996067521987,1.0,145.85633811382425,0.5989177194224437,27.129641869666248,113.50826464897382,0.08599434452404224,2.9516361952703103,27.69292946883067,117.54763593720926,8346.418459865701,-1.415141353446962
1.68,170.2559789698452,0.0,27.559877146814724,117.35496232834466,0.0,2.4538678520337984,117.38061445793525,17.769095661415662,0.0,5.94852705766852,0.0,0.0,0.846040863540277,0.0,4.750658782510806,0.0,8416.846976180821,0.34504611492061177,117.38061445793525,2.1170516933614936,1.2217621593154888,100994.35685612263,287.9708607985457,0.0,0.0,0.0,402.75157894736844,0.21615384992373246,0.86,nominal,7159.374394483029,nan,pitch_program,12.16,0.0,0.0,-3.7610575671479927,-0.0,0.0,-3.7585103023833195,0.0,0.0,0.86,0.0,0.0,0.0,0.0,0.0,0.0,-0.0655983797467166,0.0,0.0,-0.0655983797467166,0.0,0.0,19.677239262119354,-0.02543872763497057,6.484145412243293,-0.0013654694255427272,0.0160709532294564,-0.0021085455934631513,1.0,169.59650910987574,1.5352857409276603,28.065827575939373,117.28972889737435,-0.23008591551138793,2.8636050213938913,27.588911546406084,117.65181450416453,8242.98729295897,0.2898362819173648
1.71,173.7936927954795,0.0,27.63227772683707,117.92379418781013,0.0,2.413352667411503,117.94848666577417,17.76261104591795,0.0,5.923851067195532,0.0,0.0,0.8225330284800795,0.0,4.75143608921004,0.0,8498.424096524965,0.34671568663159824,117.94848666577415,2.116818392305627,1.2217536620003153,100993.48939927282,287.9703901947755,0.0,0.0,0.0,402.71763157894736,0.2161356306174341,0.86,nominal,7226.90282974304,nan,pitch_program,12.145,0.0,0.0,-3.764331852687996,-0.0,0.0,-3.7620032325661255,0.0,0.0,0.86,0.0,0.0,0.0,0.0,0.0,0.0,-0.06565934287894885,0.0,0.0,-0.06565934287894885,0.0,0.0,19.718835929328655,-0.00828980769023919,6.535675124510887,-0.003620675721321905,0.016374956229560807,0.0005504988134763345,1.0,169.59650910987574,1.5352857409276603,28.065827575939373,117.28972889737435,-0.23008591551138793,2.8636050213938913,27.588911546406084,117.40562986384992,8467.242349568634,0.2898362819173648
1.74,177.34844605044796,0.0,27.70351481417954,118.49177516561538,0.0,2.3745695780824225,118.51556590836455,17.756126976999425,0.0,5.899872336803308,0.0,0.0,0.7992910247403924,0.0,4.751821290577315,0.0,8580.280209168457,0.3483829255322786,118.51556590836454,2.1165982313802094,1.221745301282928,100992.63588852716,287.96992715370783,0.0,0.0,0.0,402.68368421052634,0.21611741131113574,0.86,nominal,7294.648354842424,nan,pitch_program,12.13,0.0,0.0,-3.767287517632578,-0.0,0.0,-3.7651738036059967,0.0,0.0,0.86,0.0,0.0,0.0,0.0,0.0,0.0,-0.06571467978276299,0.0,0.0,-0.06571467978276299,0.0,0.0,19.70232655174932,0.05702547876490865,6.553300733378811,-0.0018887314085621611,0.01161049221099918,0.0028925590757910794,1.0,169.59650910987574,1.5352857409276603,28.065827575939373,117.28972889737435,-0.23008591551138793,2.8636050213938913,27.47944417062316,118.49988038322566,8723.97173313083,-1.6237358163551443
1.77,180.92021312263938,0.0,27.773640407536647,119.05890240638023,0.0,2.3375197785701753,119.08184681523535,17.74964345466009,0.0,5.876582760455921,0.0,0.0,0.7763192222685167,0.0,4.751821733828873,0.0,8662.412863087287,0.3500478159699643,119.08184681523537,2.1163909237336376,1.2217370710584183,100991.7957005952,287.96947133735097,0.0,0.0,0.0,402.64973684210526,0.21609919200483738,0.86,nominal,7362.609491166158,nan,pitch_program,12.115,0.0,0.0,-3.769929780357312,-0.0,0.0,-3.768027389656786,0.0,0.0,0.86,0.0,0.0,0.0,0.0,0.0,0.0,-0.06576448425483825,0.0,0.0,-0.06576448425483825,0.0,0.0,19.649923588385068,0.04842285475219707,6.73763576004977,-0.0015370530484532794,0.009928302138652706,-0.003342556138409586,1.0,169.59650910987574,1.5352857409276603,28.065827575939373,117.28972889737435,-0.23008591551138793,2.8636050213938913,27.47944417062316,119.40632026645798,8678.402891907694,-1.6237358163551443
1.7999999999999998,184.50896831546194,0.0,27.842706531112277,119.62517309408554,0.0,2.3022041191877074,119.64732417232044,17.743160478899945,0.0,5.853974130550982,0.0,0.0,0.7536210066098615,0.0,4.751444497229337,0.0,8744.819616166691,0.35171034275586743,119.64732417232042,2.1161961695663543,1.2217289652190464,100990.96821190252,287.96902240754775,0.0,0.0,0.0,402.6157894736842,0.216080972698539,0.86,nominal,7430.784768801499,nan,pitch_program,12.1,0.0,0.0,-3.772263674938606,-0.0,0.0,-3.770569160825878,0.0,0.0,0.86,0.0,0.0,0.0,0.0,0.0,0.0,-0.06580884653057116,0.0,0.0,-0.06580884653057116,0.0,0.0,19.64320213371023,0.06400176465669502,6.691199778652615,0.001276484251528773,0.013933980782506262,-0.0006241665273894236,1.0,169.59650910987574,1.5352857409276603,28.065827575939373,117.28972889737435,-0.23008591551138793,2.8636050213938913,27.482756946384235,119.49993966293017,8748.481166067853,1.2372176207271912
1.8299999999999998,188.1146858490881,0.0,27.91076522417633,120.1905844542047,0.0,2.2686231021350567,120.21199292176655,17.73667804971899,0.0,5.832038163084647,0.0,0.0,0.7311989244759723,0.0,4.750696421602737,0.0,8827.498035756216,0.3533704911644879,120.21199292176657,2.1160136566115284,1.221720977655454,100990.15279871423,287.96858002604284,0.0,0.0,0.0,402.58184210526315,0.21606275339224065,0.86,nominal,7499.172726897095,nan,pitch_program,12.085,0.0,0.0,-3.7742940735001347,-0.0,0.0,-3.772804108430432,0.0,0.0,0.86,0.0,0.0,0.0,0.0,0.0,0.0,-0.0658478537248802,0.0,0.0,-0.0658478537248802,0.0,0.0,19.6269249342805,0.005610938014716955,6.79875527571438,-0.0010653656770718684,0.013284920414257925,0.0005785534192525758,1.0,169.59650910987574,1.5352857409276603,28.065827575939373,117.28972889737435,-0.23008591551138793,2.8636050213938913,27.482756946384235,120.13280924586408,8730.548910583797,1.2372176207271912
1.8599999999999999,191.73733986175336,0.0,27.977868530540448,120.75513375550867,0.0,2.236776878803967,120.77584816144469,17.73019616711722,0.0,5.8107665190780065,0.0,0.0,0.709054808365705,0.0,4.7495841373605705,0.0,8910.445699179016,0.35502824693212454,120.77584816144469,2.1158430606142042,1.2217131022579006,100989.34883726119,287.96814385455144,0.0,0.0,0.0,402.54789473684207,0.2160445340859423,0.86,nominal,7567.771913983195,nan,pitch_program,12.07,0.0,0.0,-3.7760257054016275,-0.0,0.0,-3.7747370666131492,0.0,0.0,0.86,0.0,0.0,0.0,0.0,0.0,0.0,-0.06588159020947197,0.0,0.0,-0.06588159020947197,0.0,0.0,19.54108786954777,-0.07081650347008815,6.846044995632574,0.0007101590599725055,0.013921496199731938,-0.004455539859314307,1.0,169.59650910987574,1.5352857409276603,28.065827575939373,117.28972889737435,-0.23008591551138793,2.8636050213938913,27.8477881151662,119.86785171612512,8939.32270247168,-0.9669007230682656
1.89,195.37690441110107,0.0,28.04406848798439,121.3188183115907,0.0,2.2066652481313955,121.3388851442029,17.723714831094643,0.0,5.790150822797839,0.0,0.0,0.6871898834194308,0.0,4.748114087679638,0.0,8993.660194199672,0.35668359625462737,121.33888514420292,2.1156840458072566,1.221705332917501,100988.55570386603,287.9677135548281,0.0,0.0,0.0,402.51394736842104,0.21602631477964393,0.86,nominal,7636.580888256725,nan,pitch_program,12.055,0.0,0.0,-3.7774631737709905,-0.0,0.0,-3.7763727309078536,0.0,0.0,0.86,0.0,0.0,0.0,0.0,0.0,0.0,-0.06591013793687188,0.0,0.0,-0.06591013793687188,0.0,0.0,19.579812280359562,-0.03173578077106321,6.92896085657372,0.001043262877255631,0.012737673754623069,0.0006659354825903377,1.0,195.00736117654196,-0.7855150347635557,27.19162993966134,121.51114833869518,0.04035060996916327,2.2453089293954234,27.8477881151662,120.57308708546064,8994.929515925784,-0.9669007230682656
1.92,199.03335347556558,0.0,28.10941711766031,121.8816354821503,0.0,2.178287655863966,121.90109927689515,17.717234041651253,0.0,5.77018267724172,0.0,0.0,0.6656048586076533,0.0,4.746292548386052,0.0,9077.139119454136,0.3583365257844869,121.90109927689515,2.115536265384076,1.2216976635274583,100987.77277506907,287.9672887887352,0.0,0.0,0.0,402.48,0.2160080954733456,0.86,nominal,7705.598217834628,nan,pitch_program,12.040000000000001,0.0,0.0,-3.778610969642336,-0.0,0.0,-3.777715674148543,0.0,0.0,0.86,0.0,0.0,0.0,0.0,0.0,0.0,-0.0659335767180893,0.0,0.0,-0.0659335767180893,0.0,0.0,19.51819229747291,0.09056087337156361,7.056937504351913,-0.0024822729104317506,0.01137367286845591,-0.00012534198171592714,1.0,195.00736117654196,-0.7855150347635557,27.19162993966134,121.51114833869518,0.04035060996916327,2.2453089293954234,27.83407550208404,122.15109560821989,9042.282215570773,-0.5911612524282585
