time_s,x_m,y_m,altitude_m,vx_mps,vy_mps,vz_mps,speed_mps,mass_kg,roll_deg,pitch_deg,yaw_deg,p_dps,q_dps,r_dps,alpha_deg,beta_deg,qbar_pa,mach,airspeed_mps,load_factor_g,density_kgpm3,pressure_pa,temperature_k,wind_x_mps,wind_y_mps,wind_z_mps,thrust_n,mass_flow_kgps,propulsion_throttle_actual,propulsion_health,energy_j_per_kg,target_distance_m,guidance_mode,pitch_command_deg,heading_command_deg,roll_command_deg
0.0,0.0,0.0,20.0,85.0,0.0,8.0,85.37564055396598,18.12411269131197,0.0,6.000000000000002,0.0,0.0,0.0,0.0,0.623294571949261,0.0,4455.946741876431,0.2509445034436674,85.37564055396597,1.7340624951603545,1.2226496753673843,101084.96761777384,288.02,0.0,0.0,0.0,326.8,0.17539118863220368,0.86,nominal,3840.633,nan,pitch_program,13.0,0.0,0.0
0.03,2.5652027365126124,0.0,20.232938723064954,85.50675788375375,0.0,7.764624102165165,85.85857575827127,18.118850955653006,0.0,6.265582975204377,0.0,0.0,-8.852781691043555,0.0,1.0769476187613485,0.0,4506.399445930753,0.25236465756164245,85.85857575827129,1.7619458695990786,1.2226223214156637,101082.17469103004,288.01848589830007,0.0,0.0,0.0,332.605,0.1785066900092231,0.86,nominal,3884.264864147949,nan,pitch_program,12.985,0.0,0.0
0.06,5.145792787662764,0.0,20.459301246663074,86.01966837167171,0.0,7.54541745327061,86.34996624965466,18.11349575495273,0.0,6.64129325531538,0.0,0.0,-12.523720879617182,0.0,1.6282902108384274,0.0,4558.030499796872,0.25380965305720915,86.34996624965467,1.7903987661736351,1.222595740154394,101079.46067254088,288.0170145418967,0.0,0.0,0.0,338.40999999999997,0.18162219138624247,0.86,nominal,3928.795542228838,nan,pitch_program,12.97,0.0,0.0
0.09,7.741922878562175,0.0,20.679703396225907,86.53766969664703,0.0,7.346738318761122,86.84896568440142,18.108047089211144,0.0,6.946376998063816,0.0,0.0,-10.169482119229464,0.0,2.093806278847697,0.0,4610.765026335361,0.25527700389687097,86.84896568440142,1.8199375599537282,1.2225698592317586,101076.81817383748,288.01558192792453,0.0,0.0,0.0,344.215,0.18473769276326188,0.86,nominal,3974.170033535766,nan,pitch_program,12.955,0.0,0.0
0.12,10.353765900027504,0.0,20.894613606951097,87.06143404884432,0.0,7.163673690839625,87.35566106091864,18.102504958428245,0.0,7.12459414361882,0.0,0.0,-5.9405763081205665,0.0,2.420723756518781,0.0,4664.626052862953,0.25676696702537577,87.35566106091864,1.84990189739752,1.2225446236086328,101074.24157427937,288.0141850115548,0.0,0.0,0.0,350.02,0.1878531941402813,0.86,nominal,4020.411922223655,nan,pitch_program,12.94,0.0,0.0
0.15,12.981531007981484,0.0,21.104312421180136,87.59217026513265,0.0,6.989960474301332,87.87063126658579,18.096869362604036,0.0,7.2193058625501365,0.0,0.0,-3.1570580166023112,0.0,2.6567026325988206,0.0,4719.6899553899,0.2582812446918577,87.87063126658579,1.8802048545941557,1.2225200003128172,101071.72750641515,288.0128219692623,0.0,0.0,0.0,355.825,0.1909686955173007,0.86,nominal,4067.5865249993076,nan,pitch_program,12.925,0.0,0.0
0.18,15.62544854905831,0.0,21.308990783955238,88.13058470256085,0.0,6.8226120925034,88.39427580890082,18.091140301738516,0.0,7.288937142656261,0.0,0.0,-2.32104295587473,0.0,2.8622245877856844,0.0,4776.015455992135,0.2598210116507065,88.39427580890082,1.9109574014303803,1.2224959668953423,101069.27367730686,288.01149155990424,0.0,0.0,0.0,361.63,0.19408419689432013,0.86,nominal,4115.743812361488,nan,pitch_program,12.91,0.0,0.0
0.21,18.28575159912735,0.0,21.50884069454603,88.67676833563476,0.0,6.661663686359802,88.92663833476446,18.085317775831687,0.0,7.358095778505192,0.0,0.0,-2.3052881415237843,0.0,3.061935311897625,0.0,4833.623875959744,0.26138639667654,88.92663833476446,1.9421009393327002,1.2224725007854749,101066.87778164774,288.01019253548543,0.0,0.0,0.0,367.435,0.19719969827133954,0.86,nominal,4164.90317535817,nan,pitch_program,12.895,0.0,0.0
0.24,20.9626698881545,0.0,21.704077295456976,89.2306096342383,0.0,6.507886697031554,89.4676158448364,18.079401784883547,0.0,7.42102936087426,0.0,0.0,-2.0977862898800352,0.0,3.249642382373123,0.0,4892.520876169582,0.2629770975735329,89.46761584483639,1.9734539209335717,1.222449576697035,101064.53723694614,288.00892349757953,0.0,0.0,0.0,373.24,0.20031519964835895,0.86,nominal,4215.071432089105,nan,pitch_program,12.88,0.0,0.0
0.27,23.656433604799204,0.0,21.894915946398697,89.79212388815675,0.0,6.361288364723998,90.01717337266963,18.073392328894098,0.0,7.4658375965562875,0.0,0.0,-1.4936079321922702,0.0,3.413510646510918,0.0,4952.719603770075,0.26459301212450165,90.01717337266965,2.0048564944881013,1.2224271693203588,101062.24945837606,288.0076830463484,0.0,0.0,0.0,379.045,0.20343070102537836,0.86,nominal,4266.2615284683825,nan,pitch_program,12.865,0.0,0.0
0.3,26.367278325463,0.0,22.08154889271187,90.36149068879322,0.0,6.221098210439046,90.57538883408004,18.067289407863335,0.0,7.489469925070722,0.0,0.0,-0.7877442949823675,0.0,3.5510543486515456,0.0,5014.245889471114,0.2662343698524868,90.57538883408006,2.036264714586345,1.2224052560616447,101060.01213845819,288.0064699321974,0.0,0.0,0.0,384.84999999999997,0.20654620240239774,0.86,nominal,4318.496552671109,nan,pitch_program,12.850000000000001,0.0,0.0
0.32999999999999996,29.095446157535143,0.0,22.264141738005794,90.93892773573802,0.0,6.086428176464173,91.14237864831617,18.06109302179126,0.0,7.497053252106832,0.0,0.0,-0.2527775682393017,0.0,3.6680292188119195,0.0,5077.130349430951,0.26790151338481505,91.14237864831615,2.067715917630162,1.2223838174568384,101057.82328930874,288.0052830787029,0.0,0.0,0.0,390.655,0.20966170377941715,0.86,nominal,4371.803238411534,nan,pitch_program,12.835,0.0,0.0
0.36,31.841183853130424,0.0,22.4428431184521,91.524589853176,0.0,5.956712681543542,91.71822596279623,18.05480317067788,0.0,7.494825475469918,0.0,0.0,0.07425922123985677,0.0,3.7710848895794262,0.0,5141.400477599917,0.26959468750682586,91.71822596279623,2.0992410325525475,1.2223628360355119,101055.6811266353,288.00412151973006,0.0,0.0,0.0,396.46,0.21277720515643656,0.86,nominal,4426.205594348842,nan,pitch_program,12.82,0.0,0.0
0.39,34.604740722395114,0.0,22.617793909849773,92.1185623088231,0.0,5.831693046589172,92.30296943020934,18.048419854523186,0.0,7.485897811601818,0.0,0.0,0.29758879620537326,0.0,3.863543152971563,0.0,5207.079269225947,0.2713140061993537,92.30296943020936,2.1308284196236826,1.2223422952396807,101053.583959345,288.00298433958596,0.0,0.0,0.0,402.265,0.21589270653345596,0.86,nominal,4481.7238714631085,nan,pitch_program,12.805,0.0,0.0
0.42,37.38636783854294,0.0,22.789129980978185,92.72090387159416,0.0,5.711202370947081,92.8966299027436,18.041943073327182,0.0,7.470735150310189,0.0,0.0,0.5054220460040314,0.0,3.946018702911618,0.0,5274.188098691038,0.2730595311102939,92.8966299027436,2.1407051612785377,1.2223221791004477,101051.53015652747,288.00187065512364,0.0,0.0,0.0,404.1773684210526,0.21691906078826353,0.86,nominal,4538.376945171618,nan,pitch_program,12.79,0.0,0.0
0.44999999999999996,40.18612565155698,0.0,22.95695564591373,93.3252604338012,0.0,5.594188831184817,93.49277610444442,18.035435501503535,0.0,7.44937092534741,0.0,0.0,0.7121408403438446,0.0,4.01899915665574,0.0,5342.011354541077,0.2748123584301445,93.49277610444442,2.139743369781039,1.2223024753547558,101049.51846566232,288.00077978830154,0.0,0.0,0.0,404.14342105263154,0.21690084148196515,0.86,nominal,4595.580420942887,nan,pitch_program,12.775,0.0,0.0
0.48,43.003980377530716,0.0,23.121355196745405,93.92849086579123,0.0,5.47998502772254,94.08821197274976,18.028928476259075,0.0,7.4225516670329865,0.0,0.0,0.893975293470115,0.0,4.083580764454747,0.0,5410.186899586789,0.276563093741916,94.08821197274976,2.138814277738633,1.222283174091133,101047.5478743467,287.99971119122114,0.0,0.0,0.0,404.1094736842105,0.2168826221756668,0.86,nominal,4653.038854054708,nan,pitch_program,12.76,0.0,0.0
0.51,45.839900099294596,0.0,23.282406275537355,94.53065739212931,0.0,5.368369293064977,94.68296877398203,18.022421997593806,0.0,7.391489806900071,0.0,0.0,1.0353953631229462,0.0,4.14116986774177,0.0,5478.716811103493,0.27831182897917084,94.68296877398204,2.137919637961386,1.2222642661796286,101045.61744999237,287.998664359209,0.0,0.0,0.0,404.0755263157895,0.21686440286936848,0.86,nominal,4710.754697429426,nan,pitch_program,12.745,0.0,0.0
0.54,48.69385436520717,0.0,23.440181540890983,95.13180886375257,0.0,5.259175511787567,95.27706956426262,18.015916065507724,0.0,7.357239218778358,0.0,0.0,1.1416863047220949,0.0,4.192975331385848,0.0,5547.60230410071,0.28005863193381475,95.27706956426262,2.1370590206884406,1.2222457430760796,101043.72631984037,287.99763881998416,0.0,0.0,0.0,404.0415789473684,0.2168461835630701,0.86,nominal,4768.729648684648,nan,pitch_program,12.73,0.0,0.0
0.57,51.56581385962741,0.0,23.59474992714069,95.73198314734124,0.0,5.152279541656948,95.87053030936151,18.009410680000833,0.0,7.320457612022455,0.0,0.0,1.2260536006360647,0.0,4.23978038622457,0.0,5616.843832041479,0.2818035495510544,95.87053030936151,2.1362273125388196,1.2222275966742315,101041.87365586124,287.9966341254736,0.0,0.0,0.0,404.0076315789474,0.21682796425677175,0.86,nominal,4826.964745272096,nan,pitch_program,12.715,0.0,0.0
0.6,54.45575022865701,0.0,23.74617719760389,96.33121230098665,0.0,5.047575682106572,96.46336342697343,18.00290584107313,0.0,7.281564929508865,0.0,0.0,1.2964228002331721,0.0,4.282116102551798,0.0,5686.441478458704,0.28354661834283057,96.46336342697344,2.135418645859313,1.2222098192407373,101040.05866811762,287.9956498482156,0.0,0.0,0.0,403.9736842105263,0.21680974495047337,0.86,nominal,4885.460690437059,nan,pitch_program,12.7,0.0,0.0
0.63,57.36363598166689,0.0,23.894526204394033,96.9295251003294,0.0,4.944966893004873,97.05557961162408,17.996401548724617,0.0,7.240948551464462,0.0,0.0,1.353879324843165,0.0,4.3204729064038725,0.0,5756.3951604297645,0.285287869752404,97.05557961162408,2.1346297533259047,1.2221924033846219,101038.28060164524,287.9946855796714,0.0,0.0,0.0,403.9397368421053,0.21679152564417503,0.86,nominal,4944.218022276472,nan,pitch_program,12.685,0.0,0.0
0.6599999999999999,60.289444384086046,0.0,24.039857231749476,97.52694674730517,0.0,4.844367578514742,97.64718756363372,17.98989780295529,0.0,7.199014685058557,0.0,0.0,1.3977956092581332,0.0,4.355350594193983,0.0,5826.704589802045,0.287027329358421,97.64718756363372,2.1338597637578007,1.22217534201694,101036.53873233323,287.9937409279936,0.0,0.0,0.0,403.9057894736842,0.21677330633787664,0.86,nominal,5003.237085465468,nan,pitch_program,12.67,0.0,0.0
0.69,63.23314932926563,0.0,24.18222845117105,98.1234981726528,0.0,4.745707314052453,98.23819334428565,17.983394603765156,0.0,7.1561346506521915,0.0,0.0,1.4293345469262753,0.0,4.3872027319963145,0.0,5897.369188312298,0.2887650149806319,98.23819334428563,2.1331083062868954,1.2221586282973098,101034.83236146462,287.9928155150674,0.0,0.0,0.0,403.8718421052631,0.21675508703157828,0.86,nominal,5062.517966415301,nan,pitch_program,12.655,0.0,0.0
0.72,66.19472521897497,0.0,24.321696341609467,98.71919632364445,0.0,4.648929681280622,98.8286004654915,17.976891951154208,0.0,7.112603524931995,0.0,0.0,1.4510375938059894,0.0,4.416396339917633,0.0,5968.388088660456,0.2905009369445458,98.82860046549152,2.1323744887605534,1.2221422555845605,101033.16081067664,287.9919089737795,0.0,0.0,0.0,403.8378947368421,0.21673686772527995,0.86,nominal,5122.060498412318,nan,pitch_program,12.64,0.0,0.0
0.75,69.17414687129818,0.0,24.458315993609958,99.31405507744027,0.0,4.553988400016364,99.4184104996269,17.97038984512245,0.0,7.068650722519794,0.0,0.0,1.4650934855875808,0.0,4.443225047791797,0.0,6039.760199252165,0.2922350998747716,99.41841049962689,2.131657205737059,1.2221262174010015,101031.5234183123,287.9910209460415,0.0,0.0,0.0,403.80394736842106,0.21671864841898159,0.86,nominal,5181.864317674897,nan,pitch_program,12.625,0.0,0.0
0.78,72.17138945031364,0.0,24.592141329408264,99.90808596718189,0.0,4.460844526610261,100.00762358698658,17.96388828566988,0.0,7.024469724474467,0.0,0.0,1.4727000078167045,0.0,4.467940686953625,0.0,6111.484259122844,0.2939675041871951,100.00762358698658,2.1309557259207623,1.2221105074065666,101029.91953677987,287.9901510813588,0.0,0.0,0.0,403.77,0.21670042911268322,0.86,nominal,5241.92891052624,nan,pitch_program,12.61,0.0,0.0
0.8099999999999999,75.1864284048207,0.0,24.72322529704024,100.50129848356879,0.0,4.369465587732501,100.59623862951221,17.957387272796502,0.0,6.980232977134014,0.0,0.0,1.4745583179307509,0.0,4.490768871553471,0.0,6183.55885650607,0.2956981466589225,100.59623862951221,2.130269782579738,1.222095119376003,101028.34853022348,287.9892990355692,0.0,0.0,0.0,403.73605263157896,0.21668220980638486,0.86,nominal,5302.253630562102,nan,pitch_program,12.595,0.0,0.0
0.84,78.21923941117274,0.0,24.851620056900433,101.09370021173432,0.0,4.2798253286730406,101.18425335665606,17.95088680650231,0.0,6.936090509352537,0.0,0.0,1.4714156654976136,0.0,4.511907920975559,0.0,6255.982432437052,0.29742702062237847,101.18425335665606,2.1295992930754357,1.2220800471769537,101026.80977228486,287.9884644696301,0.0,0.0,0.0,403.7021052631579,0.2166639905000865,0.86,nominal,5362.8377035029835,nan,pitch_program,12.58,0.0,0.0
0.87,81.26979832237325,0.0,24.97737714771911,101.68529704001705,0.0,4.1919030272892455,101.77166445090056,17.94438688678731,0.0,6.892167008330069,0.0,0.0,1.4641167724528916,0.0,4.531526475060174,0.0,6328.75329207738,0.29915411633471567,101.77166445090057,2.1289441508673455,1.2220652847504614,101025.30264411255,287.9876470485398,0.0,0.0,0.0,403.66815789473685,0.21664577119378817,0.86,nominal,5423.680238159028,nan,pitch_program,12.565,0.0,0.0
0.8999999999999999,84.33808112549033,0.0,25.100547621772538,102.27609343723609,0.0,4.105682468447544,102.35846773625504,17.937887513651496,0.0,6.8485648122124205,0.0,0.0,1.453406607396808,0.0,4.549767197633549,0.0,6401.869624481519,0.30087942153226355,102.35846773625504,2.1283042374252368,1.2220508260950746,101023.82653273866,287.98684644045846,0.0,0.0,0.0,403.6342105263158,0.2166275518874898,0.86,nominal,5484.780243992037,nan,pitch_program,12.55,0.0,0.0
0.9299999999999999,87.42406390633323,0.0,25.22118215416644,102.8660926947635,0.0,4.021151079796622,102.94465834755209,17.93138868709487,0.0,6.80536958082031,0.0,0.0,1.4398411145997447,0.0,4.5667530419669955,0.0,6475.329520778912,0.30260292192847194,102.94465834755209,2.1276795036440888,1.2220366652540133,101022.38082976814,287.9860623159979,0.0,0.0,0.0,403.6002631578947,0.21660933258119142,0.86,nominal,5546.13664711927,nan,pitch_program,12.535000000000002,0.0,0.0
0.96,90.52772281916054,0.0,25.33933113580442,103.45529709424402,0.0,3.938299387932732,103.53023084552302,17.924890407117434,0.0,6.762653998347404,0.0,0.0,1.4238528150463357,0.0,4.582591348082786,0.0,6549.130986237188,0.30432460155243424,103.53023084552301,2.1270699805012456,1.222022796304234,101020.96493026211,287.98529434761724,0.0,0.0,0.0,403.56631578947366,0.21659111327489305,0.86,nominal,5607.748301146579,nan,pitch_program,12.520000000000001,0.0,0.0
0.99,93.64903406021152,0.0,25.45504475444738,104.04370803503235,0.0,3.8571206214319336,104.11517930238286,17.918392673719186,0.0,6.720479107177726,0.0,0.0,1.4058297691325625,0.0,4.597375475415156,0.0,6623.271949077865,0.30604444300069833,104.11517930238284,2.126475730463347,1.2220092133469083,101019.57823176538,287.98454220909605,0.0,0.0,0.0,403.53236842105264,0.21657289396859472,0.86,nominal,5669.613995224868,nan,pitch_program,12.505,0.0,0.0
1.02,96.78797384489519,0.0,25.568373063633818,104.63132615612217,0.0,3.7776103062146036,104.69949738568201,17.91189548690013,0.0,6.6788952476272945,0.0,0.0,1.3861287125263628,0.0,4.611186034786036,0.0,6697.7502694475725,0.30776242768395157,104.69949738568201,2.125896811600021,1.2219959104993208,101018.22013347888,287.98380557508636,0.0,0.0,0.0,403.49842105263156,0.21655467466229633,0.86,nominal,5731.732462111702,nan,pitch_program,12.49,0.0,0.0
1.05,99.94451838851134,0.0,25.679366039442588,105.2181514538716,0.0,3.6997658602923575,105.28317844171902,17.90539884666026,0.0,6.637943593048427,0.0,0.0,1.365055210740949,0.0,4.624092705665118,0.0,6772.563748702082,0.30947853607238324,105.283178441719,2.1253332772388513,1.2219828818881906,101016.89003557753,287.9830841207436,0.0,0.0,0.0,403.46447368421053,0.216536455355998,0.86,nominal,5794.102386366123,nan,pitch_program,12.475,0.0,0.0
1.08,103.118643890004,0.0,25.78807362697089,105.80418338308853,0.0,3.62358625094338,105.8662155679528,17.89890275299958,0.0,6.597657811336346,0.0,0.0,1.3428594457260097,0.0,4.636156135886124,0.0,6847.710137632853,0.31119274790868484,105.86621556795279,2.124785184944782,1.221970121644209,101015.58733865229,287.98237752142467,0.0,0.0,0.0,403.43052631578945,0.21651823604969964,0.86,nominal,5856.72241157406,nan,pitch_program,12.46,0.0,0.0
1.1099999999999999,106.31032651816574,0.0,25.894545778751727,106.38942093872487,0.0,3.5490717260279356,106.44860167138731,17.892407205918087,0.0,6.558065283731185,0.0,0.0,1.3197509726880476,0.0,4.647429350152438,0.0,6923.187143185269,0.3129050423797932,106.4486016713873,2.1242525937153487,1.2219576238975205,101014.31144324852,287.9816854524381,0.0,0.0,0.0,403.3965789473684,0.21650001674340127,0.86,nominal,5919.591146258036,nan,pitch_program,12.445,0.0,0.0
1.14,109.51954239991115,0.0,25.998832486396296,106.97386272484681,0.0,3.476223588152328,107.03032951789505,17.885912205415785,0.0,6.519187927431244,0.0,0.0,1.2959119263859509,0.0,4.657958732655406,0.0,6998.992434246927,0.314615398261982,107.03032951789505,2.1237355540441376,1.2219453827739961,101013.06174948506,287.9810075888384,0.0,0.0,0.0,403.3626315789474,0.21648179743710294,0.86,nominal,5982.707168957317,nan,pitch_program,12.43,0.0,0.0
1.17,112.74626761039603,0.0,26.100983806088145,107.55750701616309,0.0,3.4050439897282723,107.61139177663281,17.87941775149267,0.0,6.481042918163685,0.0,0.0,1.2715003558826927,0.0,4.667784892919936,0.0,7075.12364700613,0.31632379405150785,107.61139177663283,2.1232341022435555,1.2219333923922335,101011.83765674797,287.98034360526043,0.0,0.0,0.0,403.3286842105263,0.21646357813080455,0.86,nominal,6046.069032893953,nan,pitch_program,12.415,0.0,0.0
1.2,115.99047816476921,0.0,26.20104987860191,108.14035181243942,0.0,3.335535750458846,108.19178105965702,17.872923844148747,0.0,6.443643409642462,0.0,0.0,1.2466503283046975,0.0,4.6769435116831755,0.0,7151.5783898695245,0.31803020808113064,108.19178105965702,2.122748260339566,1.2219216468611962,101010.63856344893,287.97969317578907,0.0,0.0,0.0,403.2947368421053,0.21644535882450622,0.86,nominal,6109.675270222371,nan,pitch_program,12.4,0.0,0.0
1.23,119.25215001131814,0.0,26.299080944685493,108.72239488496423,0.0,3.267702202786065,108.77148995581604,17.86643048338401,0.0,6.406999169328724,0.0,0.0,1.221474718760642,0.0,4.68546608397023,0.0,7228.354247791504,0.3197346186197975,108.77148995581605,2.122278036379793,1.221910140278404,101009.46386684036,287.97905597385954,0.0,0.0,0.0,403.26078947368416,0.2164271395182078,0.86,nominal,6173.524395750295,nan,pitch_program,12.385,0.0,0.0
1.26,122.53125902579568,0.0,26.395127356547842,109.30363381591812,0.0,3.2015470620783053,109.35051105941399,17.859937669198466,0.0,6.371117083251864,0.0,0.0,1.1960695749870864,0.0,4.693380514578948,0.0,7305.448786052088,0.3214370039569443,109.35051105941399,2.121823422857704,1.2218988667285695,101008.31296287602,287.9784316721824,0.0,0.0,0.0,403.22684210526313,0.21640892021190947,0.86,nominal,6237.6149101686005,nan,pitch_program,12.37,0.0,0.0
1.29,125.82778100676599,0.0,26.489239585984542,109.8840660323435,0.0,3.1370743145566142,109.92883699491902,17.853445401592108,0.0,6.336001568658155,0.0,0.0,1.1705171897631688,0.0,4.700711609065099,0.0,7382.859553627866,0.3231373424751603,109.92883699491902,2.1213843949180773,1.2218878202826415,101007.18524611303,287.9778199426911,0.0,0.0,0.0,403.1928947368421,0.21639070090561113,0.86,nominal,6301.945302913634,nan,pitch_program,12.355,0.0,0.0
1.3199999999999998,129.14169167183812,0.0,26.5814682295655,110.46368883573808,0.0,3.074288119365152,110.50646043847226,17.84695368056494,0.0,6.301654939037893,0.0,0.0,1.144887688293733,0.0,4.707481507138396,0.0,7460.584086237809,0.32483561271343814,110.50646043847226,2.1209609097728426,1.2218769949971835,101006.08010964816,287.9772204565078,0.0,0.0,0.0,403.158947368421,0.21637248159931274,0.86,nominal,6366.514054733287,nan,pitch_program,12.34,0.0,0.0
1.3499999999999999,132.47296665466655,0.0,26.67186401129193,111.04249942761403,0.0,3.0131927242143615,111.08337413638876,17.84046250611696,0.0,6.268077727205702,0.0,0.0,1.1192404264385702,0.0,4.7137100648309005,0.0,7538.6199090736945,0.32653179342157346,111.08337413638876,2.1205529068282365,1.2218663849140605,101004.99694508559,287.9766328839266,0.0,0.0,0.0,403.125,0.2163542622930144,0.86,nominal,6431.319639968797,nan,pitch_program,12.325,0.0,0.0
1.38,135.82158150260813,0.0,26.76047778310044,111.62049493138544,0.0,2.953792393617051,111.65957092086657,17.83397187824817,0.0,6.235268958532589,0.0,0.0,1.0936256523199483,0.0,4.719415178401204,0.0,7616.964539229169,0.3282258636063495,111.65957092086657,2.120160307672528,1.2218559840603647,101003.93514252914,287.97605689440985,0.0,0.0,0.0,403.0910526315789,0.21633604298671602,0.86,nominal,6496.360528567658,nan,pitch_program,12.31,0.0,0.0
1.41,139.1875116749428,0.0,26.84736052352901,112.19767241115609,0.0,2.8960913476189662,112.23504372331688,17.82748179695857,0.0,6.203226379145637,0.0,0.0,1.0680860074028395,0.0,4.7246130561896145,0.0,7695.615487869991,0.3299178025707222,112.23504372331686,2.119783015915986,1.221845786448569,101002.89409059766,287.97549215659706,0.0,0.0,0.0,403.0571052631579,0.2163178236804177,0.86,nominal,6561.6351878654905,nan,pitch_program,12.295,0.0,0.0
1.44,142.57073254158064,0.0,26.93256333480375,112.774028887928,0.0,2.8400937091580225,112.80978558570182,17.820992262248158,0.0,6.171946651268406,0.0,0.0,1.0426576218042045,0.0,4.729318451817437,0.0,7774.570262186628,0.331607589947143,112.80978558570183,2.1194209172339464,1.221835786076861,101001.873176459,287.97493833832374,0.0,0.0,0.0,403.02315789473687,0.21629960437411935,0.86,nominal,6627.1420841732615,nan,pitch_program,12.28,0.0,0.0
1.47,145.97121938218774,0.0,27.0161374385734,113.34956135357042,0.0,2.7858034589883194,113.38378967012409,17.814503274116934,0.0,6.141425522532389,0.0,0.0,1.017370981924948,0.0,4.733544866320783,0.0,7853.826367152843,0.3332952057257361,113.38378967012407,2.119073879648322,1.2218259769296373,101000.87178588012,287.97439510664924,0.0,0.0,0.0,402.9892105263158,0.21628138506782096,0.86,nominal,6692.8796841914545,nan,pitch_program,12.265,0.0,0.0
1.5,149.38894738567208,0.0,27.09813417049459,113.92426678281176,0.0,2.733224397373069,113.95704926685168,17.8080148325649,0.0,6.111657970902223,0.0,0.0,0.9922517433248131,0.0,4.737304721453112,0.0,7933.3813071070535,0.33498063027787217,113.9570492668517,2.1187417538620714,1.2218163529781318,100999.88930329098,287.9738621278918,0.0,0.0,0.0,402.9552631578947,0.2162631657615226,0.86,nominal,6758.846456266911,nan,pitch_program,12.25,0.0,0.0
1.53,152.8238916499778,0.0,27.178604973843594,114.49814214352422,0.0,2.6823601116334572,114.52955780097625,17.801526937592055,0.0,6.082638327520617,0.0,0.0,0.9673214667325499,0.0,4.740609507087068,0.0,8013.232587176084,0.3366638443757191,114.52955780097625,2.1184243735771493,1.2218069081811547,100998.92511186002,287.97333906767,0.0,0.0,0.0,402.9213157894737,0.21624494645522424,0.86,nominal,6825.040871510323,nan,pitch_program,12.235,0.0,0.0
1.56,156.27602718214447,0.0,27.257601392303798,115.07118440555568,0.0,2.6332139486734842,115.10130883789677,17.7950395891984,0.0,6.054360381428073,0.0,0.0,0.9425982222183356,0.0,4.743469907252072,0.0,8093.377714561667,0.3383448292083376,115.10130883789677,2.118121555852019,1.2217976364859393,100997.97859358018,287.97282559095,0.0,0.0,0.0,402.8873684210526,0.21622672714892588,0.86,nominal,6891.461404792281,nan,pitch_program,12.220000000000002,0.0,0.0
1.5899999999999999,159.7453288985938,0.0,27.335175062057996,115.64339054831166,0.0,2.5857889918066164,115.67229608778192,17.78855278738393,0.0,6.026817469406725,0.0,0.0,0.9180970850582023,0.0,4.745895908511399,0.0,8173.8141997051,0.34002356639476916,115.67229608778192,2.1178331015224443,1.2217885318290602,100997.04912936248,287.9723213620966,0.0,0.0,0.0,402.8534210526316,0.21620850784262752,0.86,nominal,6958.106535632074,nan,pitch_program,12.205000000000002,0.0,0.0
1.6199999999999999,163.23177162561137,0.0,27.41137770329855,116.21475756725187,0.0,2.5400880413518694,116.24251340913506,17.782066532148654,0.0,6.000002552837828,0.0,0.0,0.8938305686114338,0.0,4.747896892933338,0.0,8254.539557342705,0.34170003799448384,116.24251340913507,2.11755879564961,1.2217795881374236,100996.13609913696,287.97182604492855,0.0,0.0,0.0,402.8194736842105,0.21619028853632916,0.86,nominal,7024.974748990525,nan,pitch_program,12.19,0.0,0.0
1.65,166.73533009999485,0.0,27.48626111125371,116.78528247944924,0.0,2.4961135985053016,116.81195481157481,17.775580823492565,0.0,5.973908283159666,0.0,0.0,0.869809004306508,0.0,4.749481717573915,0.0,8335.551307463596,0.34337422651551835,116.81195481157481,2.117298407971199,1.2217707993293125,100995.23888195923,287.9713393027768,0.0,0.0,0.0,402.78552631578947,0.21617206923003082,0.86,nominal,7092.064535977374,nan,pitch_program,12.175,0.0,0.0
1.68,170.2559789698452,0.0,27.559877146814724,117.35496232834466,0.0,2.4538678520337984,117.38061445793525,17.769095661415662,0.0,5.94852705766852,0.0,0.0,0.846040863540277,0.0,4.750658782510806,0.0,8416.846976180821,0.34504611492061177,117.38061445793525,2.1170516933614936,1.2217621593154888,100994.35685612263,287.9708607985457,0.0,0.0,0.0,402.75157894736844,0.21615384992373246,0.86,nominal,7159.374394483029,nan,pitch_program,12.16,0.0,0.0
1.71,173.7936927954795,0.0,27.63227772683707,117.92379418781013,0.0,2.413352667411503,117.94848666577417,17.76261104591795,0.0,5.923851067195532,0.0,0.0,0.8225330284800795,0.0,4.75143608921004,0.0,8498.424096524965,0.34671568663159824,117.94848666577415,2.116818392305627,1.2217536620003153,100993.48939927282,287.9703901947755,0.0,0.0,0.0,402.71763157894736,0.2161356306174341,0.86,nominal,7226.90282974304,nan,pitch_program,12.145,0.0,0.0
1.74,177.34844605044796,0.0,27.70351481417954,118.49177516561538,0.0,2.3745695780824225,118.51556590836455,17.756126976999425,0.0,5.899872336803308,0.0,0.0,0.7992910247403924,0.0,4.751821290577315,0.0,8580.280209168457,0.3483829255322786,118.51556590836454,2.1165982313802094,1.221745301282928,100992.63588852716,287.96992715370783,0.0,0.0,0.0,402.68368421052634,0.21611741131113574,0.86,nominal,7294.648354842424,nan,pitch_program,12.13,0.0,0.0
1.77,180.92021312263938,0.0,27.773640407536647,119.05890240638023,0.0,2.3375197785701753,119.08184681523535,17.74964345466009,0.0,5.876582760455921,0.0,0.0,0.7763192222685167,0.0,4.751821733828873,0.0,8662.412863087287,0.3500478159699643,119.08184681523537,2.1163909237336376,1.2217370710584183,100991.7957005952,287.96947133735097,0.0,0.0,0.0,402.64973684210526,0.21609919200483738,0.86,nominal,7362.609491166158,nan,pitch_program,12.115,0.0,0.0
1.7999999999999998,184.50896831546194,0.0,27.842706531112277,119.62517309408554,0.0,2.3022041191877074,119.64732417232044,17.743160478899945,0.0,5.853974130550982,0.0,0.0,0.7536210066098615,0.0,4.751444497229337,0.0,8744.819616166691,0.35171034275586743,119.64732417232042,2.1161961695663543,1.2217289652190464,100990.96821190252,287.96902240754775,0.0,0.0,0.0,402.6157894736842,0.216080972698539,0.86,nominal,7430.784768801499,nan,pitch_program,12.1,0.0,0.0
1.8299999999999998,188.1146858490881,0.0,27.91076522417633,120.1905844542047,0.0,2.2686231021350567,120.21199292176655,17.73667804971899,0.0,5.832038163084647,0.0,0.0,0.7311989244759723,0.0,4.750696421602737,0.0,8827.498035756216,0.3533704911644879,120.21199292176657,2.1160136566115284,1.221720977655454,100990.15279871423,287.96858002604284,0.0,0.0,0.0,402.58184210526315,0.21606275339224065,0.86,nominal,7499.172726897095,nan,pitch_program,12.085,0.0,0.0
1.8599999999999999,191.73733986175336,0.0,27.977868530540448,120.75513375550867,0.0,2.236776878803967,120.77584816144469,17.73019616711722,0.0,5.8107665190780065,0.0,0.0,0.709054808365705,0.0,4.7495841373605705,0.0,8910.445699179016,0.35502824693212454,120.77584816144469,2.1158430606142042,1.2217131022579006,100989.34883726119,287.96814385455144,0.0,0.0,0.0,402.54789473684207,0.2160445340859423,0.86,nominal,7567.771913983195,nan,pitch_program,12.07,0.0,0.0
1.89,195.37690441110107,0.0,28.04406848798439,121.3188183115907,0.0,2.2066652481313955,121.3388851442029,17.723714831094643,0.0,5.790150822797839,0.0,0.0,0.6871898834194308,0.0,4.748114087679638,0.0,8993.660194199672,0.35668359625462737,121.33888514420292,2.1156840458072566,1.221705332917501,100988.55570386603,287.9677135548281,0.0,0.0,0.0,402.51394736842104,0.21602631477964393,0.86,nominal,7636.580888256725,nan,pitch_program,12.055,0.0,0.0
1.92,199.03335347556558,0.0,28.10941711766031,121.8816354821503,0.0,2.178287655863966,121.90109927689515,17.717234041651253,0.0,5.77018267724172,0.0,0.0,0.6656048586076533,0.0,4.746292548386052,0.0,9077.139119454136,0.3583365257844869,121.90109927689515,2.115536265384076,1.2216976635274583,100987.77277506907,287.9672887887352,0.0,0.0,0.0,402.48,0.2160080954733456,0.86,nominal,7705.598217834628,nan,pitch_program,12.040000000000001,0.0,0.0
1.95,202.7066609557877,0.0,28.17396641349874,122.44358267407075,0.0,2.151643194614236,122.46248611921501,17.710753798787053,0.0,5.750853677290448,0.0,0.0,0.6443000044862718,0.0,4.744125645022531,0.0,9160.88008484536,0.3599870226273514,122.462486119215,2.115399361967902,1.2216900879843116,100986.99942775535,287.96686921831224,0.0,0.0,0.0,402.44605263157894,0.2159898761670472,0.86,nominal,7774.822480978402,nan,pitch_program,12.025,0.0,0.0
1.98,206.39680067605727,0.0,28.237768331636914,123.0046573423194,0.0,2.1267306046058825,123.02304138236047,17.70427410250204,0.0,5.732155420866627,0.0,0.0,0.6232752196589973,0.0,4.741619367501544,0.0,9244.880711907257,0.3616350743380443,123.02304138236049,2.1152729680773024,1.2216826001891647,100986.23503928023,287.96645450584435,0.0,0.0,0.0,402.4121052631579,0.21597165686074887,0.86,nominal,7844.252266292436,nan,pitch_program,12.01,0.0,0.0
2.01,210.10374638577815,0.0,28.300874779887465,123.56485699069616,0.0,2.103548275018301,123.58276092755221,17.69779495279622,0.0,5.714079518388916,0.0,0.0,0.6025300875879005,0.0,4.738779582688837,0.0,9329.138634139776,0.36328066891615013,123.58276092755221,2.1151567065874497,1.221675194048922,100985.47898759518,287.9660443139307,0.0,0.0,0.0,402.37815789473683,0.2159534375544505,0.86,nominal,7913.886172898447,nan,pitch_program,11.995000000000001,0.0,0.0
2.04,213.8274717609517,0.0,28.36333760726305,124.12417917245168,0.0,2.082094245852753,124.1416407644248,17.691316349669584,0.0,5.696617600772268,0.0,0.0,0.5820639250602209,0.0,4.735612045215143,0.0,9413.65149731731,0.36492379480122616,124.14164076442479,2.115050191187153,1.2216678634775195,100984.73065137345,287.9656383055528,0.0,0.0,0.0,402.3442105263158,0.21593521824815215,0.86,nominal,7983.722810588016,nan,pitch_program,11.98,0.0,0.0
2.07,217.56795040567553,0.0,28.425208593570623,124.68262149079432,0.0,2.0623662102525477,124.69967704930866,17.68483829312214,0.0,5.679761326188221,0.0,0.0,0.5618758235208813,0.0,4.732122406771128,0.0,9498.416959772356,0.3665644408676917,124.69967704930866,2.1149530268316457,1.2216606023971337,100983.98941013336,287.9652361441418,0.0,0.0,0.0,402.3102631578947,0.2159169989418538,0.86,nominal,8053.760799955077,nan,pitch_program,11.965,0.0,0.0
2.1,221.32515585365456,0.0,28.486539439087185,125.2401815993015,0.0,2.0443615172186838,125.25686608341717,17.678360783153884,0.0,5.66350238576665,0.0,0.0,0.5419646843558762,0.0,4.728316224102223,0.0,9583.432692656314,0.36820259641943726,125.25686608341717,2.114864810190949,1.221653404739395,100983.25464436217,287.9648374936459,0.0,0.0,0.0,402.27631578947364,0.2158987796355554,0.86,nominal,8123.9987725098745,nan,pitch_program,11.95,0.0,0.0
2.13,225.09906156972204,0.0,28.547381754327283,125.79685720224943,0.0,2.028077174669906,125.8132043109528,17.67188381976482,0.0,5.647832508395058,0.0,0.0,0.5223292489754502,0.0,4.7241989658899906,0.0,9668.69638017908,0.36983825118419505,125.8132043109528,2.1147851300938054,1.221646264446588,100982.52573563832,287.96444201859686,0.0,0.0,0.0,402.2423684210526,0.21588056032925707,0.86,nominal,8194.43537077585,nan,pitch_program,11.935,0.0,0.0
2.16,228.88964095136822,0.0,28.607787049911366,126.35264605487296,0.0,2.0135098528028164,126.36868831714341,17.66540740295494,0.0,5.632743464748284,0.0,0.0,0.5029681244661398,0.0,4.719776018679227,0.0,9754.205719828617,0.3714713953077033,126.36868831714342,2.114713567967084,1.2216391754728329,100981.80206675219,287.96404938417555,0.0,0.0,0.0,402.2084210526316,0.2158623410229587,0.86,nominal,8265.069248370683,nan,pitch_program,11.92,0.0,0.0
2.19,232.69686733027518,0.0,28.667806726542764,126.9075459635657,0.0,2.0006558877133327,126.92331482621931,17.658931532724253,0.0,5.618227070663419,0.0,0.0,0.48387980541720216,0.0,4.715052691988452,0.0,9839.958422572014,0.37310201934769543,126.9233148262193,2.114649698270729,1.2216321317852634,100981.08302182614,287.9636592562774,0.0,0.0,0.0,402.1744736842105,0.21584412171666034,0.86,nominal,8335.89907007264,nan,pitch_program,11.905,0.0,0.0
2.2199999999999998,236.52071397385603,0.0,28.72749206510014,127.46155478602876,0.0,1.9895112852458792,127.47708069933957,17.652456209072753,0.0,5.604275189956278,0.0,0.0,0.4650626925360561,0.0,4.710034222719795,0.0,9925.952213039014,0.37473011426774,127.47708069933955,2.1145930889280717,1.2216251273651866,100980.36798643277,287.9632713015768,0.0,0.0,0.0,402.1405263157895,0.215825902410362,0.86,nominal,8406.92351187318,nan,pitch_program,11.890000000000002,0.0,0.0
2.25,240.3611540867973,0.0,28.786894216851366,128.01467043137595,0.0,1.980071725040845,128.02998293247603,17.645981432000443,0.0,5.590879736763145,0.0,0.0,0.4465151084716826,0.0,4.704725778969145,0.0,10012.184829689042,0.3763556714309547,128.02998293247603,2.11454330175153,1.221618156209227,100979.65634771185,287.9628851875904,0.0,0.0,0.0,402.1065789473684,0.21580768310406362,0.86,nominal,8478.141261016739,nan,pitch_program,11.875,0.0,0.0
2.28,244.21816081260334,0.0,28.846064193794003,128.56689086020117,0.0,1.972332564754642,128.58201865426156,17.63950720150732,0.0,5.578032677478864,0.0,0.0,0.42823531127019343,0.0,4.699132463322436,0.0,10098.65402496269,0.3779786825936148,128.5820186542616,2.1144998928636207,1.2216112123304623,100978.94749448607,287.9625005827403,0.0,0.0,0.0,402.0726315789474,0.21578946379776529,0.86,nominal,8549.551016028505,nan,pitch_program,11.86,0.0,0.0
2.31,248.09170723514177,0.0,28.9050528591269,129.11821408461378,0.0,1.9662888444298954,129.13318512380886,17.63303351759339,0.0,5.565726032351795,0.0,0.0,0.4102215058127175,0.0,4.69325931571146,0.0,10185.357565418424,0.37959913989867466,129.13318512380886,2.1144624131131966,1.2216042897595363,100978.24081737462,287.9621171564157,0.0,0.0,0.0,402.03868421052636,0.21577124449146692,0.86,nominal,8621.1514867309,nan,pitch_program,11.845,0.0,0.0
2.34,251.98176638018916,0.0,28.963910917856783,129.66863816824613,0.0,1.961935290996079,129.6834797285051,17.626560380258645,0.0,5.553951876787474,0.0,0.0,0.3924718535251934,0.0,4.687111315892217,0.0,10272.293231855312,0.381217035869219,129.6834797285051,2.1144304084868217,1.221597382545762,100977.53570890577,287.96173457903393,0.0,0.0,0.0,402.0047368421053,0.21575302518516856,0.86,nominal,8692.941394249397,nan,pitch_program,11.83,0.0,0.0
2.37,255.88831121697626,0.0,29.022688907543284,130.21816122623727,0.0,1.9592663228833067,130.23289998178768,17.620087789503092,0.0,5.542702342405233,0.0,0.0,0.3749844806127316,0.0,4.680693385599792,0.0,10359.45881942241,0.3828323634018548,130.23289998178768,2.1144034205151834,1.2215904847582064,100976.83156362762,287.9613525221009,0.0,0.0,0.0,401.9707894736842,0.21573480587887017,0.86,nominal,8764.919471008314,nan,pitch_program,11.815,0.0,0.0
2.4,259.81131465973215,0.0,29.081437189185305,130.7667814251961,0.0,1.9582760547340852,130.7814435209046,17.613615745326726,0.0,5.531969617885959,0.0,0.0,0.35775748502189625,0.0,4.6740103904264405,0.0,10446.852137715441,0.3844451157600606,130.7814435209046,2.114380986674508,1.2215835904867625,100976.12777821741,287.9609706582703,0.0,0.0,0.0,401.9368421052631,0.2157165865725718,0.86,nominal,8837.0844607171,nan,pitch_program,11.8,0.0,0.0
2.4299999999999997,263.7507495692265,0.0,29.140205938251295,131.31449698314637,0.0,1.958958302199703,131.32910810466396,17.607144247729547,0.0,5.52174594964226,0.0,0.0,0.3407889423608767,0.0,4.667067141461476,0.0,10534.471010861247,0.3860552865675028,131.32910810466396,2.1142910472864456,1.221576693843191,100975.42375158794,287.96058866140135,0.0,0.0,0.0,401.9028947368421,0.21569836726627348,0.86,nominal,8909.435118347608,nan,pitch_program,11.785,0.0,0.0
2.46,267.70658891025596,0.0,29.199043522714433,131.86131136764882,0.0,1.96125281543788,131.87589600909672,17.60067329671156,0.0,5.514015822222211,0.0,0.0,0.2576709143924704,0.0,4.661883969524028,0.0,10622.31398772269,0.38766288272241506,131.87589600909675,2.1142814015149356,1.2215697891514727,100974.71890431907,287.9602062171023,0.0,0.0,0.0,401.86894736842106,0.21568014795997512,0.86,nominal,8981.970774263074,nan,pitch_program,11.77,0.0,0.0
2.4899999999999998,271.6788045136443,0.0,29.25800152195732,132.40718677961075,0.0,1.965266641429564,132.42177080775897,17.594202892272758,0.0,5.510839505577717,0.0,0.0,0.10587722151023149,0.0,4.660483726568672,0.0,10710.373360580612,0.38926779737064227,132.42177080775897,2.114611808602232,1.221562870358821,100974.01261853255,287.9598229901072,0.0,0.0,0.0,401.835,0.21566192865367675,0.86,nominal,9054.685672556625,nan,pitch_program,11.755,0.0,0.0
2.52,275.6673655753208,0.0,29.317142136964918,132.95203538921584,0.0,1.971353833586607,132.96664976629478,17.587733034413148,0.0,5.5099324720473986,0.0,0.0,0.03023445101123661,0.0,4.66043830868905,0.0,10798.633793309245,0.3908697875812271,132.96664976629478,2.114979082327185,1.2215559301661087,100973.30414912442,287.95943857610973,0.0,0.0,0.0,401.80105263157895,0.2156437093473784,0.86,nominal,9127.567926973716,nan,pitch_program,11.74,0.0,0.0
2.55,279.6722403849763,0.0,29.376529337874977,133.49582698851722,0.0,1.9795733636685986,133.51050345965396,17.581263723132725,0.0,5.510857357113324,0.0,0.0,-0.030829502198189897,0.0,4.661296069774608,0.0,10887.088423513367,0.39246876714341816,133.51050345965396,2.115384229602955,1.2215489610667198,100972.59272981391,287.9590525593038,0.0,0.0,0.0,401.7671052631579,0.21562549004108003,0.86,nominal,9200.612608456406,nan,pitch_program,11.725000000000001,0.0,0.0
2.58,283.69339651926003,0.0,29.436228491675216,134.03853780945698,0.0,1.989971793341277,134.05330882091468,17.574794958431493,0.0,5.514218760408721,0.0,0.0,-0.11204677654535053,0.0,4.663652862047844,0.0,10975.73135202077,0.394064668547447,134.0533088209147,2.1159355904026507,1.2215419553902567,100971.87757760525,287.95866451480407,0.0,0.0,0.0,401.73315789473685,0.2156072707347817,0.86,nominal,9273.815593055648,nan,pitch_program,11.71,0.0,0.0
2.61,287.7308003263069,0.0,29.496309174772147,134.5801269015616,0.0,2.002689436564419,134.59502710657537,17.56832674030945,0.0,5.519474700962223,0.0,0.0,-0.17519801857294245,0.0,4.666918040351173,0.0,11064.554038423836,0.3956573782237227,134.59502710657537,2.1165666978594135,1.221534904972488,100971.15785909562,287.958273990364,0.0,0.0,0.0,401.6992105263158,0.21558905142848334,0.86,nominal,9347.170641278657,nan,pitch_program,11.695,0.0,0.0
2.6399999999999997,291.7844173254965,0.0,29.556843187685484,135.12056663965387,0.0,2.017800430444518,135.13563204276747,17.561859068766594,0.0,5.526250247063179,0.0,0.0,-0.22585153696169527,0.0,4.670696879922514,0.0,11153.549897779974,0.3972468192731739,135.13563204276747,2.1172494465081573,1.2215278013883295,100970.43271425857,287.95788051928,0.0,0.0,0.0,401.6652631578947,0.21557083212218495,0.86,nominal,9420.673140045637,nan,pitch_program,11.68,0.0,0.0
2.67,295.8542124419681,0.0,29.6179035946409,135.6598372157205,0.0,2.035346898513864,135.67510482912138,17.555391943802928,0.0,5.534603768841003,0.0,0.0,-0.2784507264207099,0.0,4.675041789535734,0.0,11242.713515086929,0.3988329367764958,135.6751048291214,2.118012021865469,1.2215206360645614,100969.70126795073,287.9574836266348,0.0,0.0,0.0,401.63131578947366,0.21555261281588659,0.86,nominal,9494.319449482922,nan,pitch_program,11.665,0.0,0.0
2.6999999999999997,299.94014991732803,0.0,29.67956533462601,136.19791584533021,0.0,2.055391332836929,136.21342413338985,17.54892536541845,0.0,5.544354275725013,0.0,0.0,-0.3250168969180289,0.0,4.679757273809532,0.0,11332.039004692811,0.40041566838506715,136.21342413338985,2.11883925679914,1.2215134002081267,100968.96262259233,287.9570828253249,0.0,0.0,0.0,401.59736842105264,0.21553439350958825,0.86,nominal,9568.105566460188,nan,pitch_program,11.65,0.0,0.0
2.73,304.04219342708683,0.0,29.741904708393935,136.73478365862624,0.0,2.0779791255976052,136.75057242811724,17.542459333613163,0.0,5.55530699178695,0.0,0.0,-0.3650905365096653,0.0,4.684641414449643,0.0,11421.521061227324,0.4019949629461452,136.75057242811727,2.119715966207675,1.2215060848663364,100968.21586431359,287.9566776193954,0.0,0.0,0.0,401.56342105263155,0.21551617420328986,0.86,nominal,9642.027979517441,nan,pitch_program,11.635,0.0,0.0
2.76,308.160306203761,0.0,29.80499887262169,137.27042588914006,0.0,2.103138807591912,137.28653618119256,17.535993848387065,0.0,5.567404152131843,0.0,0.0,-0.4032386796611089,0.0,4.689636422737146,0.0,11511.155004789405,0.4035707810608414,137.28653618119253,2.120646106692883,1.2214986809862367,100967.46006901513,287.95626750732794,0.0,0.0,0.0,401.52947368421053,0.21549795489699153,0.86,nominal,9716.083700509142,nan,pitch_program,11.620000000000001,0.0,0.0
2.79,312.2944510539919,0.0,29.86892585464432,137.8048283410285,0.0,2.130899400754243,137.82130258547284,17.529528909740154,0.0,5.580547148308249,0.0,0.0,-0.4380998744679138,0.0,4.694643410327442,0.0,11600.936243608723,0.4051430854705913,137.82130258547284,2.12162377764381,1.2214911794128884,100966.6943021924,287.95585198194476,0.0,0.0,0.0,401.49552631578945,0.21547973559069317,0.86,nominal,9790.26982491068,nan,pitch_program,11.605,0.0,0.0
2.82,316.4445904162903,0.0,29.933764332839747,138.33797874327874,0.0,2.161282606514186,138.35486079383355,17.523064517672434,0.0,5.594630364887518,0.0,0.0,-0.46944055500579024,0.0,4.699559473297001,0.0,11690.86048552474,0.40671184468678473,138.35486079383355,2.1226414204629753,1.2214835709151455,100965.91762156764,287.9554305318365,0.0,0.0,0.0,401.4615789473684,0.2154615162843948,0.86,nominal,9864.583702635175,nan,pitch_program,11.59,0.0,0.0
2.85,320.6106864254469,0.0,29.99959338584223,138.8698669718873,0.0,2.1943017667493865,138.88720212112142,17.516600672183902,0.0,5.60959055790388,0.0,0.0,-0.4986731033785579,0.0,4.704327442992937,0.0,11780.923779047145,0.4082770335833217,138.88720212112142,2.123697222443938,1.2214758462150876,100965.12908009448,287.955002642992,0.0,0.0,0.0,401.4276315789474,0.21544329697809647,0.86,nominal,9939.022968993886,nan,pitch_program,11.575,0.0,0.0
2.88,324.79270094433207,0.0,30.066492398965295,139.40048396284024,0.0,2.229967104102238,139.41831903433444,17.51013737327456,0.0,5.62536083054945,0.0,0.0,-0.5256757581710458,0.0,4.708887637467534,0.0,11871.122348633613,0.4098386304277043,139.41831903433444,2.1247871188056635,1.2214679959990147,100964.32772708042,287.9545677994067,0.0,0.0,0.0,401.3936842105263,0.21542507767179808,0.86,nominal,10013.585408864043,nan,pitch_program,11.56,0.0,0.0
2.9099999999999997,328.99059560221497,0.0,30.134540926260314,139.92982192942898,0.0,2.2682842431673262,139.94820534258204,17.503674620944405,0.0,5.6418760275472,0.0,0.0,-0.5505065704031789,0.0,4.713183841425568,0.0,11961.452631152531,0.41139661743881445,139.94820534258204,2.125906553302314,1.221460010933634,100963.51260983977,287.9541254839793,0.0,0.0,0.0,401.3597368421053,0.21540685836549975,0.86,nominal,10088.268985079263,nan,pitch_program,11.545,0.0,0.0
2.94,333.2043318332058,0.0,30.203818549095608,140.45787436636158,0.0,2.3092540945097975,140.47685619343005,17.49721241519344,0.0,5.659085738741795,0.0,0.0,-0.5736570441328048,0.0,4.717176325345299,0.0,12051.911279844984,0.4129509807755062,140.47685619343002,2.1270526749421617,1.2214518816826683,100962.6827753889,287.95367517943083,0.0,0.0,0.0,401.3257894736842,0.21538863905920136,0.86,nominal,10163.071840169301,nan,pitch_program,11.53,0.0,0.0
2.9699999999999998,337.43387090389535,0.0,30.27440478433812,140.98463568965246,0.0,2.352874508083773,141.00426773326691,17.490750756021665,0.0,5.676941734875582,0.0,0.0,-0.5951998759435198,0.0,4.720828575459442,0.0,12142.495110326998,0.41450170953775817,141.00426773326694,2.1282221054456008,1.2214435989176395,100961.83727154745,287.9532163689018,0.0,0.0,0.0,401.29184210526313,0.215370419752903,0.86,nominal,10237.992251175738,nan,pitch_program,11.515,0.0,0.0
3.0,341.6791739410151,0.0,30.34637898713022,141.51010123732607,0.0,2.399140093069957,141.53043709882496,17.48428964342908,0.0,5.69539929873592,0.0,0.0,-0.6152521339987065,0.0,4.724108679664939,0.0,12233.201102512226,0.41604879574126413,141.53043709882496,2.129411471932317,1.2214351533292773,100960.9751481033,287.9527485365836,0.0,0.0,0.0,401.2578947368421,0.21535220044660466,0.86,nominal,10313.028630186365,nan,pitch_program,11.5,0.0,0.0
3.03,345.940201957337,0.0,30.419820259741325,142.0342672107302,0.0,2.4480424203701605,142.05536235489683,17.47782907741568,0.0,5.71441990946662,0.0,0.0,-0.6340203635126789,0.0,4.726991910891657,0.0,12324.026393142125,0.41759223413387647,142.05536235489683,2.130617939032574,1.2214265356382334,100960.09545790635,287.95227116831165,0.0,0.0,0.0,401.223947368421,0.21533398114030627,0.86,nominal,10388.179517240713,nan,pitch_program,11.485,0.0,0.0
3.06,350.2169158733804,0.0,30.4948073784022,142.55713053477913,0.0,2.499570622029182,142.5790423575799,17.471369057981473,0.0,5.733967529301634,0.0,0.0,-0.6515873341540539,0.0,4.729456755267241,0.0,12414.968255068907,0.4191320217932019,142.5790423575799,2.1318385729917337,1.2214177366036683,100959.1972577454,287.95178375204034,0.0,0.0,0.0,401.19,0.21531576183400794,0.86,nominal,10463.443562579692,nan,pitch_program,11.47,0.0,0.0
3.09,354.5092765380892,0.0,30.571418722524587,143.07868882362612,0.0,2.5537114707461965,143.10147671412707,17.464909585126453,0.0,5.754009049154283,0.0,0.0,-0.6680506685664593,0.0,4.731485313807746,0.0,12506.02409288138,0.4206681580081896,143.10147671412707,2.1330705499836267,1.2214087470315709,100958.2796091978,287.95128577830354,0.0,0.0,0.0,401.156052631579,0.21529754252770958,0.86,nominal,10538.819522297174,nan,pitch_program,11.455,0.0,0.0
3.12,358.8172447478226,0.0,30.649732210428727,143.59894032444657,0.0,2.610449596804688,143.62266572307252,17.458450658850623,0.0,5.774514485865348,0.0,0.0,-0.6835145643310334,0.0,4.733063401895381,0.0,12597.191434895309,0.4222006441027576,143.6226657230725,2.1343112408611047,1.2213995577823054,100957.34157939996,287.9507767406322,0.0,0.0,0.0,401.1221052631579,0.21527932322141122,0.86,nominal,10614.306251082115,nan,pitch_program,11.44,0.0,0.0
3.15,363.14078126338524,0.0,30.72982524301558,144.1178838520886,0.0,2.6697677528951047,144.14261030610794,17.45199227915398,0.0,5.795455807805821,0.0,0.0,-0.698044072453232,0.0,4.734179260238752,0.0,12688.467923440392,0.42372948323520127,144.14261030610797,2.135558035688235,1.221390159777232,100956.38224172361,287.95025613592037,0.0,0.0,0.0,401.08815789473687,0.21526110391511288,0.86,nominal,10689.902693648668,nan,pitch_program,11.425,0.0,0.0
3.1799999999999997,367.47984682605005,0.0,30.81177465092181,144.63551875549342,0.0,2.731646930207614,144.6613119691025,17.44553444603653,0.0,5.81680702675458,0.0,0.0,-0.7117073065280224,0.0,4.734823593791437,0.0,12779.851310021018,0.42525468028328206,144.66131196910248,2.136808424796997,1.2213805440049204,100955.40067641027,287.94972346476897,0.0,0.0,0.0,401.0542105263158,0.2152428846088145,0.86,nominal,10765.607880191465,nan,pitch_program,11.410000000000002,0.0,0.0
3.21,371.83440217236006,0.0,30.895656646548606,145.15184487699995,0.0,2.7960665208931927,145.17877275685282,17.439077159498265,0.0,5.8385439658902785,0.0,0.0,-0.7245646465471824,0.0,4.734989269649794,0.0,12871.339449200485,0.42677624171090683,145.17877275685285,2.1380599895021777,1.2213707015267832,100954.39597114676,287.9491782317974,0.0,0.0,0.0,401.0202631578947,0.21522466530251613,0.86,nominal,10841.420920845832,nan,pitch_program,11.395000000000001,0.0,0.0
3.2399999999999998,376.20440804784687,0.0,30.981546780408436,145.66686251622616,0.0,2.863004461994315,145.69499521215727,17.432620419539187,0.0,5.860643861872752,0.0,0.0,-0.736663208548962,0.0,4.734670857914548,0.0,12962.930293067653,0.4282941754475317,145.69499521215727,2.139310360350703,1.221360623482212,100953.36722158967,287.9486199459273,0.0,0.0,0.0,400.9863157894737,0.21520644599621777,0.86,nominal,10917.34100066936,nan,pitch_program,11.38,0.0,0.0
3.27,380.58982521995466,0.0,31.069519900550986,146.1805724035936,0.0,2.9324373380849815,146.20998234383336,17.4261642261593,0.0,5.8830853127532325,0.0,0.0,-0.7480483722458968,0.0,4.73386453597858,0.0,13054.621887133038,0.42980849079386924,146.20998234383336,2.1405572425409733,1.2213503010933489,100952.31353185273,287.9480481206464,0.0,0.0,0.0,400.9523684210526,0.2151882266899194,0.86,nominal,10993.367375824771,nan,pitch_program,11.365,0.0,0.0
3.3,384.99061449014533,0.0,31.159650115345826,146.69297567302195,0.0,3.004340493161389,146.72373759417613,17.419708579358602,0.0,5.9058480732821454,0.0,0.0,-0.7587586942770077,0.0,4.732567837554974,0.0,13146.412365991098,0.4313191983259632,146.72373759417613,2.1417984001974055,1.2213397256694611,100951.23401495395,287.94746227425026,0.0,0.0,0.0,400.9184210526316,0.21517000738362105,0.86,nominal,11069.499369605985,nan,pitch_program,11.35,0.0,0.0
3.33,389.4067367053222,0.0,31.252010759043905,147.2040738392288,0.0,3.0786881232692838,147.23626481076423,17.413253479137094,0.0,5.928912898981252,0.0,0.0,-0.7688275336860266,0.0,4.73077945900074,0.0,13238.299949630595,0.43282630981205505,147.23626481076423,2.14303164979063,1.2213288886109934,100950.12779322921,287.9468619300662,0.0,0.0,0.0,400.8844736842105,0.2151517880773227,0.86,nominal,11145.736369022923,nan,pitch_program,11.335,0.0,0.0
3.36,393.8381527686678,0.0,31.346674359763995,147.71386877818597,0.0,3.1554533573363694,147.74756822130598,17.406798925494773,0.0,5.952261460917736,0.0,0.0,-0.7782854086532708,0.0,4.728499141751407,0.0,13330.282940177274,0.43432983813839604,147.747568221306,2.1442548643558035,1.2213177814133394,100948.99399871792,287.9462466166615,0.0,0.0,0.0,400.85052631578947,0.21513356877102435,0.86,nominal,11222.077821764915,nan,pitch_program,11.32,0.0,0.0
3.3899999999999997,398.2848236499312,0.0,31.44371260980843,148.22236270878054,0.0,3.23460833481448,148.2576524097591,17.400344918431642,0.0,5.975876222189393,0.0,0.0,-0.7871587201982323,0.0,4.7257275183967895,0.0,13422.359718763024,0.4358297972388118,148.25765240975912,2.1454659655727264,1.2213063956703287,100947.8317735192,287.9456158680362,0.0,0.0,0.0,400.81657894736844,0.215115349464726,0.86,nominal,11298.523233291451,nan,pitch_program,11.305,0.0,0.0
3.42,402.7467103952465,0.0,31.54319633797832,148.72955817717815,0.0,3.316124272329657,148.76652229506527,17.3938914579477,0.0,5.999740358762238,0.0,0.0,-0.795471230594606,0.0,4.722466008001832,0.0,13514.528742772203,0.43732620203196226,148.76652229506527,2.146662923742065,1.221294723077491,100946.6402701253,287.9449692238031,0.0,0.0,0.0,400.78263157894736,0.21509713015842763,0.86,nominal,11375.072164251913,nan,pitch_program,11.29,0.0,0.0
3.4499999999999997,407.22377413652396,0.0,31.645195483742892,149.23545804258248,0.0,3.3999715254857263,149.2741831113254,17.387438544042947,0.0,6.023837687857819,0.0,0.0,-0.8032443150262837,0.0,4.718716721377901,0.0,13606.788543262937,0.43881906836284273,149.2741831113254,2.147843756541206,1.2212827554350956,100945.4186517324,287.9443062293557,0.0,0.0,0.0,400.74868421052633,0.21507891085212927,0.86,nominal,11451.7242280674,nan,pitch_program,11.275,0.0,0.0
3.48,411.71597610045427,0.0,31.749779073109504,149.7400654643436,0.0,3.4861196455537486,149.78064038936748,17.380986176717382,0.0,6.04815259981261,0.0,0.0,-0.810497077323501,0.0,4.7144823722661116,0.0,13699.137722561825,0.44030841294838574,149.78064038936745,2.1490065266187393,1.2212704846509943,100944.16609253101,287.9436264360248,0.0,0.0,0.0,400.71473684210525,0.2150606915458309,0.86,nominal,11528.479088671818,nan,pitch_program,11.26,0.0,0.0
3.51,416.2232776171673,0.0,31.857015196031217,150.24338389043484,0.0,3.5745374307237157,150.2858999397223,17.374534355971008,0.0,6.072670008165365,0.0,0.0,-0.8172469575621002,0.0,4.709766209249453,0.0,13791.574952041705,0.44179425332720856,150.2858999397223,2.150149341675973,1.2212579027432855,100942.88177797837,287.9429294012258,0.0,0.0,0.0,400.6807894736842,0.21504247223953252,0.86,nominal,11605.33645841827,nan,pitch_program,11.245000000000001,0.0,0.0
3.54,420.74564012857155,0.0,31.96697098525216,150.7454170468077,0.0,3.6651929740314793,150.78996783656686,17.36808308180382,0.0,6.097375301693279,0.0,0.0,-0.8235097970229471,0.0,4.704571951244436,0.0,13884.098970007804,0.443276607812209,150.78996783656686,2.151270353294597,1.2212450018428018,100941.56490505261,287.9422146885958,0.0,0.0,0.0,400.64684210526315,0.21502425293323418,0.86,nominal,11682.296096088956,nan,pitch_program,11.23,0.0,0.0
3.57,425.2830251964018,0.0,32.07971259647648,151.2461689276747,0.0,3.7580537074773432,151.29285040267763,17.361632354215825,0.0,6.122254305415568,0.0,0.0,-0.8293001371065419,0.0,4.698903733732097,0.0,13976.70857970541,0.4447554954461378,151.2928504026776,2.152367756626821,1.2212317741954557,100940.21468249263,287.9414818681229,0.0,0.0,0.0,400.61289473684207,0.21500603362693582,0.86,nominal,11759.357805017733,nan,pitch_program,11.215,0.0,0.0
3.5999999999999996,429.83539450999683,0.0,32.19530518977325,151.74564378650146,0.0,3.8530864432255822,151.79455419519752,17.355182173207016,0.0,6.147293247416218,0.0,0.0,-0.8346314133047646,0.0,4.692766062197762,0.0,14069.402647417073,0.44623093595956637,151.7945541951975,2.153439790254534,1.221218212164425,100938.8303310215,287.94073051626646,0.0,0.0,0.0,400.57894736842104,0.21498781432063746,0.86,nominal,11836.521431298668,nan,pitch_program,11.2,0.0,0.0
3.63,434.4027098938245,0.0,32.31381291214141,152.24384612759061,0.0,3.950257412271992,152.2950859921117,17.348732538777398,0.0,6.172478729546337,0.0,0.0,-0.839516084521718,0.0,4.686163770657802,0.0,14162.180100634227,0.44770294973094416,152.2950859921117,2.154484735964774,1.2212043082322144,100937.4110835571,287.9399602160711,0.0,0.0,0.0,400.545,0.21496959501433913,0.86,nominal,11913.7868620672,nan,pitch_program,11.185,0.0,0.0
3.6599999999999997,438.9849333147703,0.0,32.43529888116426,152.74078069819217,0.0,4.0495323007615305,152.79445277937333,17.342283450926967,0.0,6.197797703309975,0.0,0.0,-0.8439658058550565,0.0,4.679101986477447,0.0,14255.03992629553,0.44917155774857037,152.79445277937333,2.155500918920364,1.2211900550025778,100935.95618540903,287.9391705572724,0.0,0.0,0.0,400.51105263157893,0.21495137570804074,0.86,nominal,11991.15402384704,nan,pitch_program,11.17,0.0,0.0
3.69,443.5820268892008,0.0,32.559825169696964,153.2364524810181,0.0,4.150876284423534,153.29266173857084,17.335834909655727,0.0,6.223237448600811,0.0,0.0,-0.8479915236257551,0.0,4.671586098943121,0.0,14347.981169075201,0.45063678157416315,153.29266173857087,2.156486707743841,1.2211754452023362,100934.46489446406,287.93836113639696,0.0,0.0,0.0,400.4771052631579,0.2149331564017424,0.86,nominal,12068.62288094836,nan,pitch_program,11.155,0.0,0.0
3.7199999999999998,448.19395288981417,0.0,32.687452791534504,153.73086668711326,0.0,4.254254061251324,153.7897202350946,17.329386914963674,0.0,6.248785555794728,0.0,0.0,-0.8516035872406212,0.0,4.663621732023345,0.0,14441.00292971565,0.45209864330790034,153.7897202350946,2.157440514779843,1.2211604716830575,100932.93648135834,287.937531556855,0.0,0.0,0.0,400.4431578947368,0.21491493709544401,0.86,nominal,12146.193433912433,nan,pitch_program,11.14,0.0,0.0
3.75,452.8206737522844,0.0,32.81824168801558,154.2240287490077,0.0,4.359629882702734,154.2856358067364,17.322939466850812,0.0,6.274429910300384,0.0,0.0,-0.8548118311252968,0.0,4.655214720295699,0.0,14534.104363395074,0.4535571655547382,154.2856358067364,2.1583607963845677,1.2211451274226486,100931.37022963993,287.9366814290279,0.0,0.0,0.0,400.4092105263158,0.21489671778914568,0.86,nominal,12223.86571799423,nan,pitch_program,11.125,0.0,0.0
3.78,457.4621520817074,0.0,32.95225071552304,154.715944314101,0.0,4.466967583582108,154.78041615267992,17.316492565317137,0.0,6.300158679260938,0.0,0.0,-0.8576256464299501,0.0,4.646371087654845,0.0,14627.284678123679,0.4550123713918816,154.78041615267992,2.1592460532534488,1.2211294055268265,100929.76543591941,287.9358103703491,0.0,0.0,0.0,400.3752631578947,0.21487849848284732,0.86,nominal,12301.639801677771,nan,pitch_program,11.11,0.0,0.0
3.81,462.11835065885447,0.0,33.0895376338457,155.20661923823528,0.0,4.5762306107552835,155.27406912284277,17.310046210362653,0.0,6.325960300164838,0.0,0.0,-0.8600540446642718,0.0,4.637097028487068,0.0,14720.543133163548,0.4564642843372939,155.27406912284277,2.1600948307925973,1.2211132992304943,100928.1214100107,287.93491800538,0.0,0.0,0.0,400.34131578947364,0.21486027917654893,0.86,nominal,12379.515785219632,nan,pitch_program,11.095,0.0,0.0
3.84,466.78923244623695,0.0,33.23015909537087,155.6960595794161,0.0,4.687382050839089,155.7666027075368,17.303600401987357,0.0,6.351823470950389,0.0,0.0,-0.862105707490213,0.0,4.6273988908291335,0.0,14813.8790374675,0.4579129283191451,155.7666027075368,2.1609057194841643,1.2210968018990223,100926.437475062,287.9340039658801,0.0,0.0,0.0,400.3073684210526,0.2148420598702506,0.86,nominal,12457.493799216427,nan,pitch_program,11.080000000000002,0.0,0.0
3.8699999999999997,471.4747605939865,0.0,33.374170635079786,156.1842715916526,0.0,4.800384656963764,156.2580250274203,17.29715514019125,0.0,6.377737141483597,0.0,0.0,-0.8637890324979883,0.0,4.617283161342046,0.0,14907.2917481335,0.4593583276461226,156.2580250274203,2.1616773552680577,1.2210799070294247,100924.71296767636,287.93306789087194,0.0,0.0,0.0,400.2734210526316,0.21482384056395223,0.86,nominal,12535.57400319346,nan,pitch_program,11.065000000000001,0.0,0.0
3.9,476.17489844555314,0.0,33.521626661321115,156.67126171888808,0.0,4.9152008747108615,156.74834432371873,17.290710424974332,0.0,6.403690506115933,0.0,0.0,-0.8651121692034851,0.0,4.606756451757083,0.0,15000.780668871943,0.4608005069785355,156.74834432371873,2.162408419904008,1.221062608251461,100922.94723802424,287.9321094267014,0.0,0.0,0.0,400.2394736842105,0.21480562125765387,0.86,nominal,12613.756584211786,nan,pitch_program,11.05,0.0,0.0
3.9299999999999997,480.8896095432232,0.0,33.67258044734006,157.15703658900114,0.0,5.031792867298259,157.23756894869635,17.284266256336604,0.0,6.4296729972067395,0.0,0.0,-0.8660830512022984,0.0,4.595825486642436,0.0,15094.345248483492,0.46223949130015973,157.23756894869635,2.1630976413231116,1.221044899328628,100921.13964994508,287.93112822709224,0.0,0.0,0.0,400.2055263157895,0.21478740195135554,0.86,nominal,12692.041755491926,nan,pitch_program,11.035,0.0,0.0
3.96,485.6188576334589,0.0,33.82708412354253,157.6416030078579,0.0,5.1501225400822435,157.7257073563626,17.277822634278063,0.0,6.45567427942402,0.0,0.0,-0.8667094221169526,0.0,4.584497092269397,0.0,15187.984979346169,0.46367530589077793,157.72570735636262,2.16374379395005,1.2210267741590848,100919.2895810421,287.9301239531969,0.0,0.0,0.0,400.1715789473684,0.21476918264505715,0.86,nominal,12770.429755052606,nan,pitch_program,11.02,0.0,0.0
