time_s,x_m,y_m,altitude_m,vx_mps,vy_mps,vz_mps,speed_mps,mass_kg,roll_deg,pitch_deg,yaw_deg,p_dps,q_dps,r_dps,alpha_deg,beta_deg,qbar_pa,mach,airspeed_mps,load_factor_g,density_kgpm3,pressure_pa,temperature_k,wind_x_mps,wind_y_mps,wind_z_mps,thrust_n,mass_flow_kgps,propulsion_throttle_actual,propulsion_health,energy_j_per_kg,target_distance_m,guidance_mode,pitch_command_deg,heading_command_deg,roll_command_deg,elevator_command_deg,aileron_command_deg,rudder_command_deg,elevator_deg,aileron_deg,rudder_deg,throttle,elevator_saturated,aileron_saturated,rudder_saturated,elevator_failed,aileron_failed,rudder_failed,elevator_raw_rad,aileron_raw_rad,rudder_raw_rad,elevator_effective_rad,aileron_effective_rad,rudder_effective_rad,sensor_time_s,imu_valid,imu_ax_mps2,imu_ay_mps2,imu_az_mps2,gyro_p_rps,gyro_q_rps,gyro_r_rps,imu_accel_norm_mps2,imu_gyro_norm_rps,gps_valid,gps_latency_s,gps_x_m,gps_y_m,gps_z_m,gps_vx_mps,gps_vy_mps,gps_vz_mps,baro_valid,baro_alt_m,baro_bias_m,pitot_valid,pitot_airspeed_mps,pitot_qbar_pa,pitot_compressibility_factor,mag_valid,mag_heading_deg,mag_x_ut,mag_y_ut,mag_z_ut,radar_valid,radar_agl_m,optical_flow_valid,horizon_valid,horizon_roll_deg,horizon_pitch_deg,optical_flow_x_radps,optical_flow_y_radps,optical_flow_quality
0.0,0.0,0.0,1000.0,84.0,2.0,15.0,85.35221145348257,19.0,-2.5157817934715475e-17,9.0,2.0,0.0,0.0,0.0,-0.7222147929914944,-7.13853957585605,4243.671980701213,0.2597188600228231,87.37824754723981,1.6251479458370872,1.1116425003060326,89874.56291621955,281.65,-1.7826439091004773,9.86942436359809,0.3586780454497614,319.2,0.17131232378029196,0.84,nominal,13449.15,nan,heading_hold,18.0,-5.0,0.0,-20.05352282957881,-0.0,-14.32394487827058,-2.6999999999999997,0.0,-2.6999999999999997,0.84,0.0,0.0,0.0,0.0,0.0,0.0,-0.047123889803846894,0.0,-0.047123889803846894,-0.047123889803846894,0.0,-0.047123889803846894,0.0,1.0,15.863658976337863,1.058966646731392,-0.6930371942163254,-0.001279898773872129,0.002068087163747687,0.0005281361201269382,15.914062555771283,0.0024887854768139554,1.0,0.0,0.5354505256823202,1.4183609496089247,1000.3550402325627,83.88261463530795,2.0393493499509656,15.053550255708195,1.0,1000.7418586383787,0.0,1.0,87.66706131630349,4205.12851111079,1.0,1.0,1.5022286437970536,17.21259347713176,-0.9087001158528836,-44.77701689197725,1.0,999.8945560890289,0.0,1.0,0.5051689769872049,8.977430989260586,,,
0.03,2.5341750666266845,0.06149453241160598,1000.4427801476453,84.47250222088948,2.049817747053533,14.759338254844302,85.77670691962489,18.994860630286592,0.0625806098799806,9.331007279175314,1.9069286083283399,1.5918500267886655,-11.035278524387659,-3.0567571876345423,-0.1796335364748719,-7.108609057614929,4281.236709253624,0.2608728406142633,87.76603739383036,1.657684587861955,1.1115941567030745,89869.73605830262,281.6471219290403,-1.7376095109045648,10.04690527549587,0.38086315943698384,324.87,0.17435537163691558,0.84,nominal,13489.813914922517,nan,heading_hold,18.0,-5.0,0.0,-2.104143326166681,0.1262042299246268,-2.6527196377068534,-2.342485995700008,0.07572253795477607,-2.671631782624112,0.84,0.0,0.0,0.0,0.0,0.0,0.0,-0.040884093306822876,0.0013216076052772155,-0.04662877100771618,-0.040884093306822876,0.0013216076052772155,-0.04662877100771618,0.03,1.0,16.26062405098693,1.1337864606221544,-0.3297938859810175,0.029777496839869723,-0.1910417237957281,-0.05549231635105134,16.303439216099623,0.20115426101103817,1.0,0.0,0.5354505256823202,1.4183609496089247,1000.3550402325627,83.88261463530795,2.0393493499509656,15.053550255708195,1.0,1000.7418586383787,0.0,1.0,87.968860584111,4283.4731383245935,1.0,1.0,1.5022286437970536,17.21259347713176,-0.9087001158528836,-44.77701689197725,1.0,999.8945560890289,0.0,1.0,0.5051689769872049,8.977430989260586,,,
0.06,5.0827587281244035,0.12447038443673039,1000.8787999615308,84.95278871659063,2.0991950675041466,14.533993796185685,86.21264354098352,18.989629969137486,0.19067211054732056,9.894443853713325,1.719295569685746,3.2252900499515014,-18.794959311341092,-6.125175208085628,0.5778448913143169,-6.977777591328825,4320.319735811621,0.262067807908967,88.16761932726394,1.6830269014919665,1.1115465527783457,89864.98310161752,281.64428780025,-1.695899461264263,10.211129355173762,0.40139116939672026,330.53999999999996,0.17739841949353916,0.84,nominal,13531.57803680509,nan,heading_hold,18.0,-5.0,0.0,0.14342861657592612,0.28022107313714223,-2.3217493695543774,-0.8509372283344477,0.1984216590641958,-2.461702334782271,0.84,0.0,0.0,0.0,0.0,0.0,0.0,-0.014851656362230896,0.003463111257939867,-0.042964810945982354,-0.014851656362230896,0.003463111257939867,-0.042964810945982354,0.06,1.0,16.41984636010121,1.1581761611636952,0.27392587877828284,0.05594665665763285,-0.3297888827267608,-0.1059146724737689,16.462920819122022,0.3508684274860849,1.0,0.0,0.5354505256823202,1.4183609496089247,1000.3550402325627,83.88261463530795,2.0393493499509656,15.053550255708195,1.0,1001.128656765309,0.0,1.0,87.30170689219467,4350.617605288289,1.0,1.0,1.1099073732589775,16.573495389331764,-0.8330221361940959,-45.030349689990594,1.0,1001.3172281602725,0.0,1.0,0.21415119878309366,9.439327392274048,,,
0.09,7.645852066835786,0.18888826332798223,1001.3088324356719,85.43644462371276,2.1472626297083943,14.334415804701084,86.65721137449407,18.984308016552678,0.38798835622292044,10.455522820740015,1.435535505503022,4.906266402636398,-18.74957023014398,-9.215485137652323,1.3087874827357981,-6.74725757426572,4360.672158626469,0.263295706386034,88.58028233344871,1.707667033399041,1.11149960406916,89860.29561098694,281.64149258916814,-1.6576912320270654,10.361382077277707,0.42017275965971335,336.21,0.18044146735016278,0.84,nominal,13574.221403207153,nan,heading_hold,18.0,-5.0,0.0,0.4334594225423222,0.4646563341373498,-1.9462314078240193,-0.08029923780838583,0.3581624641080882,-2.15241977860732,0.84,0.0,0.0,0.0,0.0,0.0,0.0,-0.001401486086598248,0.006251114255742155,-0.03756681202174514,-0.001401486086598248,0.006251114255742155,-0.03756681202174514,0.09,1.0,16.663988249972572,1.0785112324864445,0.9366351632465766,0.08629847138961205,-0.3246397872916837,-0.15736275242818948,16.725100188126028,0.37094669901314525,1.0,0.0,0.5354505256823202,1.4183609496089247,1000.3550402325627,83.88261463530795,2.0393493499509656,15.053550255708195,1.0,1001.128656765309,0.0,1.0,88.46327569493083,4407.5003500379835,1.0,1.0,1.1099073732589775,16.573495389331764,-0.8330221361940959,-45.030349689990594,1.0,1001.3172281602725,0.0,1.0,0.21415119878309366,9.439327392274048,,,
0.12,10.223529165574298,0.2546722977317616,1001.7335924838441,85.92256995795042,2.1928011467926454,14.158668272404752,87.10892200168855,18.978894772532172,0.6571681599372972,10.870903595210553,1.0557061379764001,6.62991013423329,-13.959011594118936,-12.315688237100794,1.8724810752459615,-6.418489817255516,4402.184603960572,0.2645528058714283,89.00277066670762,1.7340552521706858,1.1114532324652968,89855.66578583649,281.638731648855,-1.6231471851062294,10.497009704672017,0.4371262130840022,341.88,0.18348451520678638,0.84,nominal,13617.632880879819,nan,heading_hold,18.0,-5.0,0.0,-0.5523564062316516,0.6786418621686916,-1.5305182645457769,-0.3635335388623453,0.5504501029444503,-1.779278870170394,0.84,0.0,0.0,0.0,0.0,0.0,0.0,-0.006344857194574686,0.00960716666432239,-0.031054274595638098,-0.006344857194574686,0.00960716666432239,-0.031054274595638098,0.12,1.0,16.943457583982912,1.0299909216416343,1.2808247578295564,0.11705101084272503,-0.2399409411659845,-0.2177291460101187,17.022988816866484,0.34449756952584987,1.0,0.0,0.5354505256823202,1.4183609496089247,1000.3550402325627,83.88261463530795,2.0393493499509656,15.053550255708195,1.0,1003.1250575477313,0.0,1.0,89.11005701791656,4499.53361005359,1.0,1.0,0.7721913433295448,15.705342753493118,-0.9486408035558926,-45.384304922719714,1.0,1001.7204037674416,0.0,1.0,1.1107229382211135,10.99020547001048,,,
0.15,12.815914042610805,0.3217039979939629,1002.1535740563116,86.41282923455022,2.234390008740042,13.99938574891786,87.56798705221959,18.973390237075968,0.9993574754299144,11.133589279575748,0.5809910664572799,8.386360198348093,-8.979846355831883,-15.404953373909889,2.269129197953865,-5.993078804648435,4444.92097323157,0.2658406139544353,89.43559094168678,1.7611729974770813,1.1114073839889818,89851.08823531267,281.63600176863395,-1.5924141057166699,10.61742213279545,0.45217776659943126,347.55,0.18652756306341,0.84,nominal,13661.845525208177,nan,heading_hold,18.0,-5.0,0.0,-1.6818313536304619,0.9200906422214887,-1.078109390527765,-1.1545122277232154,0.7722344265106734,-1.3585771823848165,0.84,0.0,0.0,0.0,0.0,0.0,0.0,-0.020150039628304663,0.013478033339861436,-0.023711644975082557,-0.020150039628304663,0.013478033339861436,-0.023711644975082557,0.15,1.0,17.129470046044975,1.1275020164973235,1.5027144641319798,0.14540106509714584,-0.16087280929877465,-0.26576085188841103,17.232183715834424,0.3430019838128029,1.0,0.0,0.5354505256823202,1.4183609496089247,1000.3550402325627,83.88261463530795,2.0393493499509656,15.053550255708195,1.0,1003.1250575477313,0.0,1.0,89.28575672532395,4517.7713626919,1.0,1.0,0.7721913433295448,15.705342753493118,-0.9486408035558926,-45.384304922719714,1.0,1001.7204037674416,0.0,1.0,1.1107229382211135,10.99020547001048,,,
0.18,15.42317994223689,0.3898203176461541,1002.5690910256736,86.90886332086951,2.2705439884063736,13.850565645399332,88.03490252409202,18.967794410184066,1.4148997636709062,11.306090027517914,0.01285431891711871,10.166578841512795,-6.140111676634865,-18.450920212853816,2.5682423683686015,-5.473382106816214,4488.974434761182,0.2671614674643622,89.87952891980338,1.7887599168646082,1.1113620243276143,89846.55953214859,281.6333009083331,-1.565622499172184,10.722095457157224,0.46526193214465283,353.21999999999997,0.18957061092003358,0.84,nominal,13706.916207720114,nan,heading_hold,18.0,-5.0,0.0,-2.34078841762501,1.1877853976864454,-0.5903674871714139,-1.8662779416642923,1.0215650092161366,-0.8976513652567751,0.84,0.0,0.0,0.0,0.0,0.0,0.0,-0.03257269483938456,0.0178296729339878,-0.01566697185875296,-0.03257269483938456,0.0178296729339878,-0.01566697185875296,0.18,1.0,17.37332667551236,1.0171373020780758,1.743662930395931,0.18076800425272274,-0.10799011184931848,-0.31958312436302144,17.49020893186199,0.38271700902412364,1.0,0.0,0.5354505256823202,1.4183609496089247,1000.3550402325627,83.88261463530795,2.0393493499509656,15.053550255708195,1.0,1003.0699288941952,0.0,1.0,89.87649530206477,4447.328970210463,1.0,1.0,0.05421760343074176,15.529662970507447,-1.1665818258578318,-45.46079025062465,1.0,1002.9075896667571,0.0,1.0,2.0372343202926384,11.767825445995577,,,
0.21,18.045522920905764,0.45881170569661234,1002.9803851468921,87.4114326222958,2.299712935015274,13.709804040616191,88.50992011914671,18.962107291856466,1.9039359012143893,11.446175775834917,-0.6467471145901614,11.964337393664177,-5.291786872707547,-21.410835158670825,2.8327907636658676,-4.863149593947809,4534.413139120716,0.2685169043162401,90.33510164690233,1.8167806950449792,1.1113171270457016,89842.07703566283,281.6306274965452,-1.542885859079159,10.810574252802013,0.47632178160025157,358.89,0.1926136587766572,0.84,nominal,13752.880573749635,nan,heading_hold,18.0,-5.0,0.0,-2.536397689978527,1.4814377946641932,-0.06942905585266768,-2.268349790652833,1.2974886804849706,-0.4007179796143107,0.84,0.0,0.0,0.0,0.0,0.0,0.0,-0.03959017243381603,0.022645449481819433,-0.006993848116209239,-0.03959017243381603,0.022645449481819433,-0.006993848116209239,0.21,1.0,17.661020080924967,0.9865004803022962,1.8252542804243135,0.20532606830140868,-0.09582832408085869,-0.3764501245110567,17.78247358172307,0.43938201859503867,1.0,0.0,17.799191065992062,3.8870385253044066,1002.4450171062562,87.28266856172489,2.398629102080168,13.670335621470404,1.0,1003.0699288941952,0.0,1.0,90.36429544240309,4551.418509203064,1.0,1.0,0.05421760343074176,15.529662970507447,-1.1665818258578318,-45.46079025062465,1.0,1002.9075896667571,0.0,1.0,2.0372343202926384,11.767825445995577,,,
0.24,20.68313914946821,0.5284202460670466,1003.3877000649711,87.92054095208158,2.320284679014478,13.577163935968441,88.99294703987775,18.956328882093167,2.466385840251328,11.576120208784578,-1.394397435405652,13.774985169790664,-5.259502370710279,-24.237986106809164,3.0891265443282294,-4.167724651197389,4581.270083254426,0.2699073835454206,90.80246319775834,1.8451543061567466,1.1112726655051637,89837.63808506232,281.62797994957765,-1.5243000609459982,10.882473555826179,0.4853091944782724,364.56,0.19565670663328083,0.84,nominal,13799.744300263392,nan,heading_hold,18.0,-5.0,0.0,-2.5519940967957013,1.8006516091495388,0.4793811117116439,-2.438536374338554,1.5993864376837115,0.12734147518126201,0.84,0.0,0.0,0.0,0.0,0.0,0.0,-0.042560488661852726,0.027914559349323874,0.002222528016259665,-0.042560488661852726,0.027914559349323874,0.002222528016259665,0.24,1.0,17.969180651367054,0.8724960160281782,2.0602554582376715,0.24176829154982715,-0.0918626823158248,-0.42635001534080796,18.10793624719966,0.49866320776881823,1.0,0.0,17.799191065992062,3.8870385253044066,1002.4450171062562,87.28266856172489,2.398629102080168,13.670335621470404,1.0,1003.9516420710755,0.0,1.0,90.44748609758969,4720.484514554963,1.0,1.0,-1.1235829480212394,15.150674815263095,-1.3413076082195077,-45.46067056409893,1.0,1003.4600044626316,0.0,1.0,2.836040683721936,11.818070489287336,,,
0.27,23.336216854935795,0.598338754262323,1003.7912964663981,88.43592351558614,2.330616939842544,13.453213380899708,89.48370406753904,18.950459180894168,3.1016105632622852,11.691134333576292,-2.2245990164362714,15.593731648579892,-5.145848480812802,-26.887374342898354,3.336616702968069,-3.393872160253021,4629.559105041079,0.2713327803877481,91.28157122292959,1.8737557400602953,1.11122861121146,89833.23983432383,281.62535657296837,-1.5099429207194563,10.937480538323786,0.4921850672904733,370.22999999999996,0.1986997544899044,0.84,nominal,13847.496564315652,nan,heading_hold,18.0,-5.0,0.0,-2.615790740961915,2.144271568826712,1.0482024696515835,-2.5448889943125708,1.9263175163695119,0.6798580718634549,0.84,0.0,0.0,0.0,0.0,0.0,0.0,-0.044416692048521604,0.03362058309948775,0.011865761800277508,-0.044416692048521604,0.03362058309948775,0.011865761800277508,0.27,1.0,18.226367889105287,0.74550095421864,2.2358666638456643,0.2700016948766937,-0.09154845451025274,-0.472775523000436,18.37812171687427,0.5520857994078808,1.0,0.0,17.799191065992062,3.8870385253044066,1002.4450171062562,87.28266856172489,2.398629102080168,13.670335621470404,1.0,1003.9516420710755,0.0,1.0,90.36909357369413,4676.764865341217,1.0,1.0,-1.1235829480212394,15.150674815263095,-1.3413076082195077,-45.46067056409893,1.0,1003.4600044626316,0.0,1.0,2.836040683721936,11.818070489287336,,,
0.3,26.004937960695145,0.6682113108290187,1004.1914342536099,88.9573701919783,2.329085218889858,13.337926240395028,89.98187943038164,18.94449818825947,3.808220498845529,11.780065247646434,-3.1299821069930607,17.415293909848053,-4.73974723469756,-29.317128112220267,3.5689123738219997,-2.5495541430533875,4679.290023820077,0.2727928422403187,91.77234036469164,1.9024859817669746,1.111184935759439,89828.87944646519,281.6227556773515,-1.499873881250864,10.975355869474885,0.49691948368436056,375.9,0.20174280234652803,0.84,nominal,13896.123241635032,nan,heading_hold,18.0,-5.0,0.0,-2.7870814792802867,2.51056040056801,1.628947393088517,-2.6902044852932003,2.276863246888611,1.2493116645984923,0.84,0.0,0.0,0.0,0.0,0.0,0.0,-0.046952925820285714,0.039738760275854795,0.021804601930814772,-0.046952925820285714,0.039738760275854795,0.021804601930814772,0.3,1.0,18.526707382330024,0.6293351343787204,2.407484357770155,0.30529015918102553,-0.07863286709005755,-0.511702618993697,18.69307171319773,0.6010197828396227,1.0,0.0,17.799191065992062,3.8870385253044066,1002.4450171062562,87.28266856172489,2.398629102080168,13.670335621470404,1.0,1004.141329081777,0.0,1.0,91.77074009394435,4684.455649506935,1.0,1.0,-1.8948918791539746,15.02635174662414,-1.8091595811162524,-45.52252791711975,1.0,1004.6043906175454,0.0,1.0,3.9640671972537724,12.111728027665793,,,
0.32999999999999996,28.689480672604144,0.7376349379529727,1004.5883545037349,89.48475706363334,2.3141209041317987,13.230675004164189,90.48716850118713,18.938445904189074,4.584177821524226,11.838219759738948,-4.101936454816694,19.234832193062605,-4.253877948233536,-31.487016413479388,3.78658648032541,-1.6438543978056577,4730.471796962637,0.2742872834994309,92.2746741819061,1.9313343619733996,1.1111416128023823,89824.55429012174,281.6201756957257,-1.4941337790308817,10.995934756854064,0.49949184460675794,381.57,0.20478585020315163,0.84,nominal,13945.610218375166,nan,heading_hold,18.0,-5.0,0.0,-3.014682037133038,2.8977244419979638,2.2146915718860405,-2.884891016397103,2.6493799639542224,1.8285396089710213,0.84,0.0,0.0,0.0,0.0,0.0,0.0,-0.05035084679733517,0.04624040350736987,0.03191403667967396,-0.05035084679733517,0.04624040350736987,0.03191403667967396,0.32999999999999996,1.0,18.757422282374385,0.5261118397211265,2.609742398405672,0.3353098539310347,-0.07818349028621528,-0.5497312993533695,18.945406824168387,0.6486523396900149,1.0,0.0,17.799191065992062,3.8870385253044066,1002.4450171062562,87.28266856172489,2.398629102080168,13.670335621470404,1.0,1004.141329081777,0.0,1.0,92.14334694597544,4732.157351727331,1.0,1.0,-1.8948918791539746,15.02635174662414,-1.8091595811162524,-45.52252791711975,1.0,1004.6043906175454,0.0,1.0,3.9640671972537724,12.111728027665793,,,
0.36,31.390018277972196,0.8061618243973682,1004.9822758950753,90.0179201789351,2.2842295481465125,13.130713044682688,90.99922682655912,18.93230232868298,5.42702941501457,11.868294757194517,-5.131017916849542,21.049106615215656,-3.9280085684955313,-33.357118103256866,3.997545309539237,-0.6870274001619812,4783.10671927682,0.2758156194759835,92.78840928098757,1.9603699403792427,1.1110986184416516,89820.26197843459,281.617615206682,-1.4927446703002292,10.999127663428633,0.4998909579285791,387.24,0.20782889805977525,0.84,nominal,13995.93907742222,nan,heading_hold,18.0,-5.0,0.0,-3.235515017011416,3.3042129510723655,2.7992447571643635,-3.095265416765691,3.042279756225108,2.4109626978870264,0.84,0.0,0.0,0.0,0.0,0.0,0.0,-0.0540225727456758,0.05309779851289859,0.04207923722089395,-0.0540225727456758,0.05309779851289859,0.04207923722089395,0.36,1.0,18.971731061589484,0.3805176506317213,2.905232061768648,0.3632817084545066,-0.06552338868214848,-0.5845787327011681,19.196659774253696,0.6913748685687966,1.0,0.0,17.799191065992062,3.8870385253044066,1002.4450171062562,87.28266856172489,2.398629102080168,13.670335621470404,1.0,1004.271883439198,0.0,1.0,92.78178026842976,4882.224638913486,1.0,1.0,-6.960550161708979,14.816017620593064,-2.174674751372919,-45.568742093423026,1.0,1005.0853339234036,0.0,1.0,5.057428442900642,12.13311034165513,,,
0.39,34.10671456519581,0.8733018097977261,1005.3734023152381,90.55654290745368,2.237999513345265,13.037547338760383,91.51761440171859,18.926067461741187,6.334075259376469,11.875438782656419,-6.206901973507761,22.8570985251287,-3.832774793895502,-34.88820233835103,4.211636830133573,0.30945889499495893,4837.183763841116,0.27737698149903256,93.31325310795991,1.9896857909079817,1.1110559303959227,89816.00028610001,281.6150728849509,-1.4957097222454365,10.984920697126826,0.4981150871408533,392.90999999999997,0.21087194591639885,0.84,nominal,14047.081948705552,nan,heading_hold,18.0,-5.0,0.0,-3.4262805327637826,3.7286694147182478,3.3759229799618327,-3.2938744863645457,3.454113551320992,2.9899388671319103,0.84,0.0,0.0,0.0,0.0,0.0,0.0,-0.05748895493449839,0.06028565420830544,0.0521842776648011,-0.05748895493449839,0.06028565420830544,0.0521842776648011,0.39,1.0,19.214828437873262,0.15530107574434618,2.989815453756408,0.40230231356372903,-0.06716928797471047,-0.6102195201170318,19.44666415528769,0.7339800593187932,1.0,0.0,17.799191065992062,3.8870385253044066,1002.4450171062562,87.28266856172489,2.398629102080168,13.670335621470404,1.0,1004.271883439198,0.0,1.0,92.94261445942087,4836.510745681889,1.0,1.0,-6.960550161708979,14.816017620593064,-2.174674751372919,-45.568742093423026,1.0,1005.0853339234036,0.0,1.0,5.057428442900642,12.13311034165513,,,
0.42,36.83971855949107,0.9385252888425519,1005.7619322742175,91.10013314317533,2.1741159681608595,12.950998632648957,92.04178075488413,18.919741303363697,7.302432292456114,11.86310109562292,-7.318132449619046,24.66010985666296,-3.895360048514262,-36.04332765275977,4.436241715924975,1.3329730919174925,4892.676171300537,0.2789700598096004,93.84876473008984,1.999141303191243,1.111013526973584,89811.76704677295,281.61254744021755,-1.5030131837684102,10.953375671281055,0.49417195891013177,394.7778947368421,0.21187443146760623,0.84,nominal,14098.999955402034,nan,heading_hold,18.0,-5.0,0.0,-3.5992193809735005,4.169779690825744,3.936896898470093,-3.4770814231299183,3.883513235023843,3.55811368593482,0.84,0.0,0.0,0.0,0.0,0.0,0.0,-0.06068651919354719,0.06778009249594243,0.06210079897983406,-0.06068651919354719,0.06778009249594243,0.06210079897983406,0.42,1.0,19.406742571594023,0.0016594963175651856,3.145633153396176,0.4267805278785839,-0.0698349575337173,-0.6287698768194157,19.660027159945457,0.763131769922837,1.0,0.0,35.867808541854295,4.557226282882253,1000.9017344340022,90.9391091536512,2.533788418158694,12.99531991648301,1.0,1005.1387456132492,0.0,1.0,93.38931247043374,4931.643909187299,1.0,1.0,-6.628737583456688,14.784113175054308,-2.8160380124744298,-45.588849912221775,1.0,1005.8695929317555,0.0,1.0,6.725887136687618,12.067347870986595,,,
0.44999999999999996,39.588985063828986,1.0012894018152505,1006.148027062397,91.64221681126396,2.0921370990899546,12.869826272646788,92.56514121424009,18.913385070419668,8.329076126050547,11.832152470679567,-8.452011081101123,26.461767054994827,-4.008517659362993,-36.78945548475612,4.6755527750784855,2.3699400730027826,4948.913180169919,0.2805753075940502,94.38836813073681,1.9989795800899164,1.110971390547629,89807.56049996574,281.6100378240944,-1.5146205004856,10.904629835683219,0.4880787294604023,394.7447368421052,0.2118566358661055,0.84,nominal,14151.09423359756,nan,heading_hold,18.0,-5.0,0.0,-3.775342468708123,4.626249700108394,4.473521004681352,-3.656038050476841,4.329155114074574,4.10735807718274,0.84,0.0,0.0,0.0,0.0,0.0,0.0,-0.06380990155901552,0.07555801057015202,0.07168692200522218,-0.06380990155901552,0.07555801057015202,0.07168692200522218,0.44999999999999996,1.0,19.305118091375117,-0.21271967579888706,3.445641333170069,0.45919335381050047,-0.06984558080176888,-0.6442424596206818,19.611355852649783,0.7942199242775125,1.0,0.0,35.867808541854295,4.557226282882253,1000.9017344340022,90.9391091536512,2.533788418158694,12.99531991648301,1.0,1005.1387456132492,0.0,1.0,93.79851969299118,5023.637112985028,1.0,1.0,-6.628737583456688,14.784113175054308,-2.8160380124744298,-45.588849912221775,1.0,1005.8695929317555,0.0,1.0,6.725887136687618,12.067347870986595,,,
0.48,42.354361497516116,1.0610400131773088,1006.5318303627519,92.17921445623769,1.9916870454019453,12.793443345163585,93.08408342827356,18.907029371343686,9.410930595936964,11.782134538322202,-9.594738993336525,28.26798986555707,-4.102060172990037,-37.09834073320544,4.931322724837299,3.406053723048791,5005.517251631837,0.2821818796659682,94.92841472917091,1.999402409268393,1.1109295054147497,89803.37907730126,281.60754310264207,-1.5304784346003095,10.838895279422252,0.4798619099277814,394.7115789473684,0.2118388402646048,0.84,nominal,14203.028668067776,nan,heading_hold,18.0,-5.0,0.0,-3.965994125221921,5.096916491721948,4.977064809829058,-3.8420116953238885,4.789811940662998,4.629182116770531,0.84,0.0,0.0,0.0,0.0,0.0,0.0,-0.06705575398353109,0.08359798891590858,0.08079446961208638,-0.06705575398353109,0.08359798891590858,0.08079446961208638,0.48,1.0,19.230993099380466,-0.430353220297231,3.623145310133504,0.4955917484435307,-0.07458241126420326,-0.6523704020596413,19.5740512265852,0.8226547627521259,1.0,0.0,35.867808541854295,4.557226282882253,1000.9017344340022,90.9391091536512,2.533788418158694,12.99531991648301,1.0,1007.54541137253,0.0,1.0,95.0849719596921,5005.4556516577495,1.0,1.0,-9.885327642878206,14.70705598353455,-3.481961784866421,-45.57178694972268,1.0,1006.8043343056936,0.0,1.0,9.926378828401274,11.948376473089512,,,
0.51,45.13567544822578,1.1172076543563279,1006.9134860805976,92.71046502365552,1.8722547059673007,12.72185726152618,93.59797708694947,18.900674206135747,10.545029308450463,11.712683786922506,-10.731704781912217,30.087556221943956,-4.149504397878199,-36.947220675552934,5.204123628535776,4.426332284225366,5062.416122067848,0.283787730670242,95.46821633175136,2.0004949509172274,1.1108878558493185,89799.22120823408,281.6050623404761,-1.550515268853586,10.75645800810207,0.46955725101275875,394.67842105263156,0.21182104466310406,0.84,nominal,14254.73879565685,nan,heading_hold,18.0,-5.0,0.0,-4.17059909441974,5.580924778813513,5.439224777938329,-4.0391641347814,5.264479643553306,5.115207713471209,0.84,0.0,0.0,0.0,0.0,0.0,0.0,-0.07049671318040343,0.09188250318422267,0.0892772165234833,-0.07049671318040343,0.09188250318422267,0.0892772165234833,0.51,1.0,19.194437500937234,-0.5524694252867295,3.841332879118378,0.5232773443098837,-0.07516325168478251,-0.6503964432445141,19.582836662022643,0.8381433211909219,1.0,0.0,35.867808541854295,4.557226282882253,1000.9017344340022,90.9391091536512,2.533788418158694,12.99531991648301,1.0,1007.54541137253,0.0,1.0,95.91144044727052,5045.408020219241,1.0,1.0,-9.885327642878206,14.70705598353455,-3.481961784866421,-45.57178694972268,1.0,1006.8043343056936,0.0,1.0,9.926378828401274,11.948376473089512,,,
0.54,47.93273499375289,1.1692133619952623,1007.2931377612804,93.23531818423696,1.7335235879644841,12.655056022758355,94.10621713725979,18.894319574795855,11.728715528440041,11.62410492549951,-11.84775425049341,31.932795069649885,-4.140466017475416,-36.31942621896912,5.493904567730504,5.41531595575743,5119.533679720426,0.2853907537371495,96.00706405990499,2.00234672783135,1.1108464261669084,89795.08532639072,281.60259460455165,-1.5746411184943514,10.657676699454912,0.457209587431864,394.6452631578947,0.21180324906160333,0.84,nominal,14306.161301369204,nan,heading_hold,18.0,-5.0,0.0,-4.383429710722246,6.0778608016033076,5.852188701423783,-4.245723480345908,5.752508338383308,5.557396306242754,0.84,0.0,0.0,0.0,0.0,0.0,0.0,-0.07410185386126884,0.10040021075321681,0.09699486338210715,-0.07410185386126884,0.10040021075321681,0.09699486338210715,0.54,1.0,19.226250246364888,-0.7671382588388022,4.258625023341157,0.557839445859081,-0.0744064889534568,-0.6379419978946061,19.707183632712404,0.8507003971037683,1.0,0.0,35.867808541854295,4.557226282882253,1000.9017344340022,90.9391091536512,2.533788418158694,12.99531991648301,1.0,1006.2782660634545,0.0,1.0,95.80366415680439,5174.444923012335,1.0,1.0,-11.2002615690019,14.644152246581257,-4.35174931787237,-45.58029600336048,1.0,1007.0034507556047,0.0,1.0,11.75386497774482,11.03358735645765,,,
0.57,50.74532970897119,1.2164746684788836,1007.6709284984656,93.75315717394349,1.575376882787377,12.593024572842745,94.60824784498017,18.887965477324006,12.959846248882137,11.517217189759817,-12.92737840779591,33.82013259787218,-4.057073583740662,-35.20509098300658,5.799708942039038,6.357271377676909,5176.792575794782,0.28698885442732935,96.54425322593363,2.0050368981672864,1.110805200734276,89790.96987056517,281.60013896475994,-1.602748321561236,10.542981142764262,0.4428726428455327,394.6121052631579,0.21178545346010264,0.84,nominal,14357.236391108076,nan,heading_hold,18.0,-5.0,0.0,-4.599750465061762,6.5878307211788885,6.208496684080946,-4.45813967117542,6.253701768060656,5.948056532945669,0.84,0.0,0.0,0.0,0.0,0.0,0.0,-0.07780921577578842,0.10914768629044921,0.1038131705946605,-0.07780921577578842,0.10914768629044921,0.1038131705946605,0.57,1.0,19.131127767160567,-1.0241492533074152,4.490434702144949,0.5899500570599592,-0.06943128508578181,-0.6107725440190727,19.677726879665236,0.8520005127353164,1.0,0.0,35.867808541854295,4.557226282882253,1000.9017344340022,90.9391091536512,2.533788418158694,12.99531991648301,1.0,1006.2782660634545,0.0,1.0,97.11117057401158,5226.540083703049,1.0,1.0,-11.2002615690019,14.644152246581257,-4.35174931787237,-45.58029600336048,1.0,1007.0034507556047,0.0,1.0,11.75386497774482,11.03358735645765,,,
0.6,53.57323257996917,1.2584116854351353,1008.0470006794889,94.26342903326604,1.3979005652083911,12.535739367439342,95.10359057673986,18.881611913720203,14.236998804064104,11.393051086201492,-13.954871377248464,35.77059652164063,-3.8697722053193626,-33.60197144073901,6.119290608038465,7.23642244121004,5234.117434599093,0.2885800385934483,97.079112889991,2.008615981362869,1.1107641639971124,89786.87328748856,281.5976944955833,-1.6347119067589393,10.41287036888731,0.4266087961109138,394.57894736842104,0.2117676578586019,0.84,nominal,14407.910589507588,nan,heading_hold,18.0,-5.0,0.0,-4.817234050891281,7.111537173392414,6.501027230317826,-4.673596299004937,6.7684030112597116,6.279838951368963,0.84,0.0,0.0,0.0,0.0,0.0,0.0,-0.08156964332665753,0.1181309176483808,0.10960386619637646,-0.08156964332665753,0.1181309176483808,0.10960386619637646,0.6,1.0,19.092532001511398,-1.1381719394304923,4.809363435443923,0.6258350982073378,-0.06892496429981494,-0.5821910200786605,19.72182015551883,0.857535191529858,1.0,0.0,35.867808541854295,4.557226282882253,1000.9017344340022,90.9391091536512,2.533788418158694,12.99531991648301,1.0,1008.2038565720876,0.0,1.0,96.95818498137078,5270.6164468771,1.0,1.0,-14.08709345259977,14.636513481493381,-5.479184425309463,-45.41472309476543,1.0,1008.0098783758891,0.0,1.0,14.26616091193173,12.07889759551022,,,
0.63,56.416203052891746,1.294453267508446,1008.4214949289791,94.76568243075236,1.2013860691103562,12.483141649674208,95.59187580803659,18.875258883984444,15.55969354980018,11.252754974189134,-14.914530495555447,37.810325173508204,-3.545389981633714,-31.516196722631165,6.4489985735684074,8.03720397696148,5291.4387085540075,0.29016251491016815,97.61104035166495,2.0130911930805717,1.1107233005952795,89782.79404333142,281.5952602829616,-1.6703901378532617,10.267910479013079,0.4084888098766347,394.54578947368424,0.2117498622571012,0.84,nominal,14458.140013494818,nan,heading_hold,18.0,-5.0,0.0,-5.034264957750608,7.650383985323508,6.723193790285242,-4.88999749425234,7.297591595697989,6.54585185471873,0.84,0.0,0.0,0.0,0.0,0.0,0.0,-0.08534655668897581,0.12736700081079677,0.11424666721261936,-0.08534655668897581,0.12736700081079677,0.11424666721261936,0.63,1.0,19.017920073594627,-1.3927145931078229,5.172922570309611,0.6595799169908367,-0.06173186315747857,-0.5514135482158687,19.75803800436439,0.8619242373796823,1.0,0.0,57.61113940470964,3.070468029090274,1008.4746686438734,94.78773548504859,1.179899705808111,12.627206958536918,1.0,1008.2038565720876,0.0,1.0,97.4593077600116,5278.895853871519,1.0,1.0,-14.08709345259977,14.636513481493381,-5.479184425309463,-45.41472309476543,1.0,1008.0098783758891,0.0,1.0,14.26616091193173,12.07889759551022,,,
0.6599999999999999,59.27399126398523,1.324043218328231,1008.7945481063341,95.25960703644951,0.9863316939928335,12.435105911832306,96.07287568293063,18.86890638811673,16.928640408066485,11.0977083189573,-15.790921865897632,39.97112095376733,-3.0552838838308642,-28.962847189241455,6.7839248263931005,8.744527921914887,5348.696786143006,0.29173480090288395,98.13953681879622,2.0184170445494933,1.1106825955812654,89778.73064550983,281.5928354373088,-1.7096251324397307,10.108732181603072,0.38859152270038405,394.5126315789473,0.21173206665560043,0.84,nominal,14507.893776180903,nan,heading_hold,18.0,-5.0,0.0,-5.2481536531847395,8.206602239933801,6.869230837922832,-5.10489118961178,7.842997982239477,6.739879244641192,0.84,0.0,0.0,0.0,0.0,0.0,0.0,-0.0890971592147757,0.1368861380173506,0.11763308400581718,-0.0890971592147757,0.1368861380173506,0.11763308400581718,0.6599999999999999,1.0,19.010109704509965,-1.5271128662200284,5.5111957721140215,0.7014516578037323,-0.05528294391211989,-0.5035300321131694,19.851690696820917,0.8652358784534333,1.0,0.0,57.61113940470964,3.070468029090274,1008.4746686438734,94.78773548504859,1.179899705808111,12.627206958536918,1.0,1009.9905541507937,0.0,1.0,97.8716048033575,5425.36912430079,1.0,1.0,-15.045355274365267,14.630198657988444,-6.901374850080185,-45.23526697258897,1.0,1008.4320999989427,0.0,1.0,17.04328988321019,10.986085686469226,,,
0.69,62.14634332362589,1.3466464598809267,1009.166290574321,95.74506865468881,0.7534413850898595,12.391415599562734,96.54653295780707,18.86255442611706,18.346004792476727,10.929676766209914,-16.569185977443382,42.29104996031918,-2.377954981086922,-25.966371332957046,7.118143031817544,9.344052894903962,5405.845896662123,0.2932958200844998,98.664240085076,2.0244892443056486,1.1106420347181245,89774.68167242457,281.5904191112669,-1.7522435520807487,9.936028048231078,0.36700350602888476,394.4794736842105,0.21171427105409973,0.84,nominal,14557.157116547129,nan,heading_hold,18.0,-5.0,0.0,-5.4547009959595965,8.78337565138391,6.9344290746482224,-5.31477707342047,8.407224583726137,6.85660914264541,0.84,0.0,0.0,0.0,0.0,0.0,0.0,-0.0927603589406956,0.14673374994063076,0.11967040506150795,-0.0927603589406956,0.14673374994063076,0.11967040506150795,0.69,1.0,18.859133919679792,-1.7271541461349447,5.87880782508465,0.7390845294570164,-0.04596474048496826,-0.4492050690772813,19.82953290143781,0.8661084765404821,1.0,0.0,57.61113940470964,3.070468029090274,1008.4746686438734,94.78773548504859,1.179899705808111,12.627206958536918,1.0,1009.9905541507937,0.0,1.0,98.3343593167426,5497.801194977273,1.0,1.0,-15.045355274365267,14.630198657988444,-6.901374850080185,-45.23526697258897,1.0,1008.4320999989427,0.0,1.0,17.04328988321019,10.986085686469226,,,
0.72,65.03300744707036,1.3617550781989318,1009.5368430017123,96.22213744814881,0.503620610600169,12.351747579711333,97.01298385825872,18.856202997985438,19.815683146311414,10.750894039079688,-17.235348819908722,44.815066483699546,-1.4976463001096498,-22.56088915830875,7.444914759543467,9.82245281202906,5462.8575157326395,0.29484498267156184,99.18495168362091,2.031140336131298,1.1106016048282146,89770.64580826987,281.58801052048887,-1.7980573604320185,9.750549500261652,0.3438186875327065,394.44631578947366,0.211696475452599,0.84,nominal,14605.933999964127,nan,heading_hold,18.0,-5.0,0.0,-5.648761906586231,9.384953024266798,6.9152807509358505,-5.515167973319927,8.993861648050533,6.891812107619675,0.84,0.0,0.0,0.0,0.0,0.0,0.0,-0.0962578399349755,0.15697249822732526,0.1202848127067731,-0.0962578399349755,0.15697249822732526,0.1202848127067731,0.72,1.0,18.811864769505554,-1.8756625820010882,6.160118929863593,0.7806621207139957,-0.026487919650180013,-0.3929086017463857,19.88344616654133,0.8743638407044103,1.0,0.0,57.61113940470964,3.070468029090274,1008.4746686438734,94.78773548504859,1.179899705808111,12.627206958536918,1.0,1007.943355329773,0.0,1.0,99.09238471483026,5409.933848375569,1.0,1.0,-17.330202046020005,14.791336479639364,-8.66243438236344,-44.87089315018407,1.0,1009.7992164553842,0.0,1.0,19.63183029897474,11.064458416557441,,,
0.75,67.9337407114759,1.3688941856456311,1009.9063128433047,96.69110881351813,0.23797024822331064,12.315661386412122,97.47257393139571,18.84985210372186,21.343581219365447,10.56406388059993,-17.776623192520404,47.59564242523122,-0.40252266267363584,-18.79040499627433,7.756847336183582,10.167683593502023,5519.723125605331,0.296382246682123,99.70165744087677,2.038137882185193,1.1105612941770762,89766.62188134815,281.5856089665185,-1.8468646458655238,9.553103539478077,0.3191379424347595,394.4131578947368,0.21167867985109828,0.84,nominal,14654.249077250497,nan,heading_hold,18.0,-5.0,0.0,-5.824910284919331,10.016750215201274,6.809580067823079,-5.7010133602795685,9.607594788340979,6.842472883741717,0.84,0.0,0.0,0.0,0.0,0.0,0.0,-0.09950145383706419,0.1676841622539978,0.11942368079972414,-0.09950145383706419,0.1676841622539978,0.11942368079972414,0.75,1.0,18.819600935614446,-2.021912436256142,6.448281686563509,0.8320759287128876,-0.007568662092556824,-0.32996942866889023,19.996145778247808,0.8951466134915328,1.0,0.0,57.61113940470964,3.070468029090274,1008.4746686438734,94.78773548504859,1.179899705808111,12.627206958536918,1.0,1007.943355329773,0.0,1.0,99.84121873551716,5558.8340054729,1.0,1.0,-17.330202046020005,14.791336479639364,-8.66243438236344,-44.87089315018407,1.0,1009.7992164553842,0.0,1.0,19.63183029897474,11.064458416557441,,,
0.78,70.84831621388422,1.3676275786924674,1010.2747905457303,97.15251674694356,-0.04222023177212714,12.282590080852463,97.92586640876544,18.84350174332633,22.93789301052734,10.372328315683845,-18.18170328757084,50.69339283578497,0.9157381678121721,-14.708919163865502,8.046037539926026,10.369248332085661,5576.456225131601,0.29790815740415805,100.21454075445212,2.0451873305609767,1.110521092887167,89762.60890536329,281.58321386145275,-1.898450504960276,9.344549236884514,0.2930686546105642,394.38,0.21166088424959756,0.84,nominal,14702.148930658974,nan,heading_hold,18.0,-5.0,0.0,-5.977737191252261,10.685448872287752,6.616528967580894,-5.867047658863185,10.254307238709043,6.706906534045223,0.84,0.0,0.0,0.0,0.0,0.0,0.0,-0.10239929901858764,0.17897142382656092,0.11705760164261031,-0.10239929901858764,0.17897142382656092,0.11705760164261031,0.78,1.0,18.778661181492865,-2.1373066042053863,6.786446790025851,0.8843368692272964,0.014975673690585353,-0.2529185135184825,20.081385791910357,0.9199150741006595,1.0,0.0,57.61113940470964,3.070468029090274,1008.4746686438734,94.78773548504859,1.179899705808111,12.627206958536918,1.0,1009.4203104812186,0.0,1.0,100.20212510445364,5585.208071860476,1.0,1.0,-18.285877090958486,14.99217635189278,-10.66315085022996,-44.377425038715266,1.0,1010.4933901209024,0.0,1.0,23.029329280992922,10.469086524047649,,,
0.8099999999999999,73.77653038194241,1.3575632002156295,1010.6423455193199,97.60713893527301,-0.3354792825612634,12.25183245298616,98.37364238420147,18.83715191679884,24.609380466113624,10.17923723800247,-18.441058497908514,54.177695551367606,2.4612745833456637,-10.380418422370804,8.30421950405067,10.418462142528664,5633.093463069923,0.29942386268812216,100.72398773846315,2.0519409093288297,1.1104809933770485,89758.60612325245,281.5808247541244,-1.9525879829811972,9.125793994959292,0.26572424936991146,394.34684210526314,0.21164308864809683,0.84,nominal,14749.702515654419,nan,heading_hold,18.0,-5.0,0.0,-6.101856592121864,11.399095589116923,6.3368584633554255,-6.007933018818392,10.941180248953772,6.484877691631344,0.84,0.0,0.0,0.0,0.0,0.0,0.0,-0.10485821241766338,0.19095961939841619,0.11318246730809649,-0.10485821241766338,0.19095961939841619,0.11318246730809649,0.8099999999999999,1.0,18.653682934509842,-2.1340249673417735,7.2330167051139105,0.9426335125346585,0.03961807219364667,-0.18055929477721366,20.12039960435475,0.9605879395079943,1.0,0.0,57.61113940470964,3.070468029090274,1008.4746686438734,94.78773548504859,1.179899705808111,12.627206958536918,1.0,1009.4203104812186,0.0,1.0,101.29907245588579,5637.684607303729,1.0,1.0,-18.285877090958486,14.99217635189278,-10.66315085022996,-44.377425038715266,1.0,1010.4933901209024,0.0,1.0,23.029329280992922,10.469086524047649,,,
0.84,76.71821016035823,1.3383584358854574,1011.009021950917,98.05599261386075,-0.6401588110057362,12.222547719905053,98.81689209623109,18.830802624139398,26.37165389332702,9.988723959810292,-18.547225288688136,58.12730297758593,4.233284317866916,-5.878733847255028,8.522901135944364,10.308719688709107,5689.694770066831,0.3009311015998477,101.23058340774469,2.0580120841683454,1.11044099081786,89754.61305274129,281.57844135731904,-2.0090390671681337,8.897789599621962,0.23722369995274525,394.31368421052633,0.21162529304659614,0.84,nominal,14797.000706894049,nan,heading_hold,18.0,-5.0,0.0,-6.191869131123623,12.16720124135341,5.9729460633279565,-6.11829468620153,11.676792844393557,6.177718714649312,0.84,0.0,0.0,0.0,0.0,0.0,0.0,-0.10678438688148997,0.20379848120798144,0.10782153183270254,-0.10678438688148997,0.20379848120798144,0.10782153183270254,0.84,1.0,18.675066677020602,-2.073548627848266,7.359529996816084,1.0164887024136355,0.07683902116191037,-0.09946327619771474,20.179702700417877,1.0242296913386468,1.0,0.0,77.64134379358137,0.23098280334117471,1009.8515846184696,97.91962167185444,-0.5452093370162931,12.253709818749693,1.0,1012.0305387542344,0.0,1.0,100.29523453562723,5640.413619467395,1.0,1.0,-18.208337937708716,15.270691133318568,-13.127178639072921,-43.677995665188,1.0,1010.9964952614461,0.0,1.0,26.663793165644424,10.390815045491413,,,
0.87,79.67321978490095,1.3097252952302492,1011.3748345528252,98.50032081809107,-0.954438021840275,12.193753396939355,99.25679712296669,18.824453865348,28.24145306399092,9.805076568115272,-18.495090429212272,62.630942060718056,6.225629551131383,-1.2872614520976289,8.693458515460517,10.03577114012969,5746.342423899079,0.30243216556092706,101.73509860746402,2.062993889723814,1.1104010835966855,89750.62953258512,281.57606357540664,-2.0675557283978425,8.66152807909168,0.20769100988646,394.2805263157895,0.2116074974450954,0.84,nominal,14844.154908822347,nan,heading_hold,18.0,-5.0,0.0,-6.242412903722188,13.000840523503344,5.528911688333528,-6.192765616713925,12.471221451859428,5.788434498859841,0.84,0.0,0.0,0.0,0.0,0.0,0.0,-0.10808414981595517,0.21766387608029453,0.10102724054113218,-0.10808414981595517,0.21766387608029453,0.10102724054113218,0.87,1.0,18.578140426151037,-2.147282688591141,7.696653012084088,1.0910054091655794,0.10831891279314158,-0.022723942150149407,20.223664164214497,1.0966048364128642,1.0,0.0,77.64134379358137,0.23098280334117471,1009.8515846184696,97.91962167185444,-0.5452093370162931,12.253709818749693,1.0,1012.0305387542344,0.0,1.0,102.65190349730842,5796.197763291079,1.0,1.0,-18.208337937708716,15.270691133318568,-13.127178639072921,-43.677995665188,1.0,1010.9964952614461,0.0,1.0,26.663793165644424,10.390815045491413,,,
0.8999999999999999,82.64146687342767,1.27143555794848,1011.7397643330559,98.94156961755762,-1.2763245760589728,12.16432600768754,99.69470412228904,18.818105640424648,30.238930385096758,9.632898539179443,-18.282159946337195,67.78789792780248,8.426564180981382,3.301465309811178,8.807166449003608,9.598015294544064,5803.13907629836,0.30392983353607705,102.23846821290793,2.066479409653992,1.1103612737775166,89746.65576856794,281.5736915318351,-2.1278810065867475,8.418037387654675,0.17725467345683427,394.2473684210526,0.21158970184359466,0.84,nominal,14891.294774912141,nan,heading_hold,18.0,-5.0,0.0,-6.248274837809503,13.91275450329362,5.010692556461455,-6.226071149371272,13.336141282719943,5.32178933342081,0.84,0.0,0.0,0.0,0.0,0.0,0.0,-0.10866544101995637,0.23275957489460297,0.09288274596570743,-0.10866544101995637,0.23275957489460297,0.09288274596570743,0.8999999999999999,1.0,18.55953311413329,-2.1512427214342544,7.879966874766585,1.1854077570524861,0.14823711282028432,0.05826654531715561,20.27752432148838,1.1960605262279564,1.0,0.0,77.64134379358137,0.23098280334117471,1009.8515846184696,97.91962167185444,-0.5452093370162931,12.253709818749693,1.0,1010.6571717438952,0.0,1.0,102.59030285238325,5684.596744106461,1.0,1.0,-18.75605927482068,15.596044996467889,-16.108897075618604,-42.56230423689506,1.0,1011.8511892093784,0.0,1.0,30.23633190459216,10.000021962312472,,,
0.9299999999999999,85.62290760528539,1.2233260069115324,1012.1037544518398,99.38135772859074,-1.6036517012315827,12.133003959462838,100.13209149836693,18.81175794936934,32.38793976351529,9.477060363782613,-17.908813369174947,73.70857751941355,10.818106518099714,7.7863799748285,8.85516207722245,8.996821152444802,5860.204857580695,0.30542728502196764,102.74176186258457,2.068083490106565,1.11032156755275,89742.692378554,281.57132559606305,-2.189750135042143,8.16837693312039,0.1460471166400488,394.21421052631575,0.21157190624209393,0.84,nominal,14938.565157513798,nan,heading_hold,18.0,-5.0,0.0,-6.20449253365536,14.32394487827058,4.42611074262079,-6.213123979941725,13.928823440050326,4.784382178940798,0.84,0.0,0.0,0.0,0.0,0.0,0.0,-0.10843947028459722,0.2431038299578412,0.08350322169625743,-0.10843947028459722,0.2431038299578412,0.08350322169625743,0.9299999999999999,1.0,18.561157508488634,-1.9334785585839667,7.934686732172452,1.2856057212763063,0.1894521990601992,0.13321702322614928,20.278416134628007,1.3063004943673389,1.0,0.0,77.64134379358137,0.23098280334117471,1009.8515846184696,97.91962167185444,-0.5452093370162931,12.253709818749693,1.0,1010.6571717438952,0.0,1.0,103.29304414519109,5935.6883418448215,1.0,1.0,-18.75605927482068,15.596044996467889,-16.108897075618604,-42.56230423689506,1.0,1011.8511892093784,0.0,1.0,30.23633190459216,10.000021962312472,,,
0.96,88.61755081424349,1.1653039187736127,1012.4667062275454,99.82144029860304,-1.9340696045973202,12.098392523519799,100.57053082377638,18.805410792182077,34.708862468209624,9.342612141016058,-17.378556164430833,80.26574257108764,13.374711493746256,12.058718196580612,8.827263969163031,8.238064172463949,5917.6737325877,0.3069279959277023,103.24614893705407,2.0674362331581957,1.1102819756782922,89738.74043590155,281.56896640952095,-2.2528916988021983,7.913632967425933,0.1142041209282416,394.1810526315789,0.2115541106405932,0.84,nominal,14986.122459714436,nan,heading_hold,18.0,-5.0,0.0,-6.106728365867579,14.32394487827058,3.784974376410015,-6.149286611497237,14.165896302982478,4.184737497422328,0.84,0.0,0.0,0.0,0.0,0.0,0.0,-0.10732529801943218,0.24724153198313648,0.07303744766168735,-0.10732529801943218,0.24724153198313648,0.07303744766168735,0.96,1.0,18.526985894329798,-1.871806144042716,8.074507232966253,1.3979109903309919,0.23183095099094328,0.21111619753996277,20.296564527643483,1.432644678763465,1.0,0.0,77.64134379358137,0.23098280334117471,1009.8515846184696,97.91962167185444,-0.5452093370162931,12.253709818749693,1.0,1013.398680112105,0.0,1.0,102.64883094901069,5942.707208277347,1.0,1.0,-16.567481774397205,15.853866304178283,-19.572739633114786,-40.86955297129385,1.0,1012.4004253950591,0.0,1.0,34.229784429667035,9.839729105183386,,,
0.99,91.62546135325357,1.097353953013181,1012.8284751229468,100.26368463366931,-2.264998858681059,12.058963180046497,101.01165907521488,18.79906416886286,37.21665077735968,9.234766800996463,-16.698324648764427,87.26801598024659,16.05514583979563,16.005256836911204,8.712258380392456,7.332857945184506,5975.690668767514,0.3084356580673409,103.75287148156025,2.064220943160335,1.1102425139107666,89734.80151308392,281.5666149117008,-2.317028822204586,7.654913860443975,0.08186423255549694,394.1478947368421,0.2115363150390925,0.84,nominal,15034.132000128166,nan,heading_hold,18.0,-5.0,0.0,-5.950690206639866,14.32394487827058,3.0993456440372857,-6.030128768582814,14.26072544815534,3.533502385391303,0.84,0.0,0.0,0.0,0.0,0.0,0.0,-0.1052456013310013,0.2488966127932546,0.06167125075215182,-0.1052456013310013,0.2488966127932546,0.06167125075215182,0.99,1.0,18.476345389552925,-1.6411756730496834,8.116403089474144,1.5279538183042543,0.283966638005866,0.28400543925541316,20.24709351128426,1.5798541109537818,1.0,0.0,77.64134379358137,0.23098280334117471,1009.8515846184696,97.91962167185444,-0.5452093370162931,12.253709818749693,1.0,1013.398680112105,0.0,1.0,103.52836225112844,5900.264251806463,1.0,1.0,-16.567481774397205,15.853866304178283,-19.572739633114786,-40.86955297129385,1.0,1012.4004253950591,0.0,1.0,34.229784429667035,9.839729105183386,,,
1.02,94.646762448957,1.0195467812092116,1013.1888674912293,100.71003652344797,-2.5935723934656467,12.013078942752783,101.45714435168763,18.792718079411685,39.925124547494946,9.158895131040383,-15.878807643721533,94.66792876540674,18.79623138283323,19.5126032131454,8.499421550039997,6.2971715274975555,6034.4079374340345,0.3099540782728354,104.26321027328423,2.058256351666922,1.1102032033617728,89730.87771702949,281.56427236130696,-2.3818803793738224,7.393345277557336,0.04916815969466701,394.11473684210523,0.21151851943759178,0.84,nominal,15082.764677382454,nan,heading_hold,18.0,-5.0,0.0,-5.732035754207501,14.32394487827058,2.3837205302486963,-5.851272959957626,14.298657106224484,2.843633272305739,0.84,0.0,0.0,0.0,0.0,0.0,0.0,-0.10212397858417491,0.24955864511730183,0.04963076332099563,-0.10212397858417491,0.24955864511730183,0.04963076332099563,1.02,1.0,18.431201351846756,-1.397599001484009,7.929928582568097,1.6559397704672456,0.33079145720359115,0.3387294225722354,20.113334720177487,1.722294148306296,1.0,0.0,77.64134379358137,0.23098280334117471,1009.8515846184696,97.91962167185444,-0.5452093370162931,12.253709818749693,1.0,1014.1027195675856,0.0,1.0,104.07503852604484,6095.3348873633095,1.0,1.0,-15.167173468139065,16.19627058371922,-23.661965432815602,-38.508951827033954,1.0,1012.6272612588652,0.0,1.0,40.31206597399479,9.17907504694374,,,
1.05,97.68163620911218,0.9320487104112272,1013.5476393179351,101.16245867183943,-2.9166023599328135,11.959060890196314,101.90862942475975,18.786372523828557,42.848608445459405,9.120351366983199,-14.93468792524132,102.47297365619335,21.514469052005975,22.47065839389565,8.179477257626989,5.15171699458854,6093.979009452043,0.31148701847656945,104.77843103050158,2.0495660698476232,1.1101640706343963,89726.97170272557,281.5619403444334,-2.4471622205275425,7.130065281982219,0.016258160247777338,394.0815789473684,0.21150072383609106,0.84,nominal,15132.191332733732,nan,heading_hold,18.0,-5.0,0.0,-5.447882168768457,14.32394487827058,1.654916345987426,-5.609238485244124,14.313829769452143,2.1304031165147514,0.84,0.0,0.0,0.0,0.0,0.0,0.0,-0.09789968009708934,0.24982345804692074,0.03718254877793079,-0.09789968009708934,0.24982345804692074,0.03718254877793079,1.05,1.0,18.589040510086463,-1.2811222686926302,7.732705954136288,1.7881786137707358,0.3734072717725909,0.38738460504907346,20.173954563399576,1.8673731757709027,1.0,0.0,94.5041147172428,0.2480591520447668,1016.3931923201415,101.38025246945446,-2.8557567878978225,11.734299230014665,1.0,1014.1027195675856,0.0,1.0,104.77228253846347,6105.214502649551,1.0,1.0,-15.167173468139065,16.19627058371922,-23.661965432815602,-38.508951827033954,1.0,1012.6272612588652,0.0,1.0,40.31206597399479,9.17907504694374,,,
1.08,100.73032176359575,0.8351316888020629,1013.9044977868116,101.62285181611912,-3.2305673869721407,11.895282295881998,102.36766246125481,18.780027502113473,46.002479261564616,9.1241450433697,-13.88480134250369,110.70851491242152,24.107350754400663,24.776402601067446,7.745358691948079,3.921879680786904,6154.5509554437085,0.3130380019881093,105.29971924819695,2.038439361383593,1.1101251476517082,89723.08665607849,281.5596207643857,-2.5125884075323963,6.866219383149544,-0.016722577106306955,394.04842105263157,0.21148292823459033,0.84,nominal,15182.575702111735,nan,heading_hold,18.0,-5.0,0.0,-5.098271219268509,14.32394487827058,0.9319190098845246,-5.3026581256587555,14.319898834743205,1.4113126525366153,0.84,0.0,0.0,0.0,0.0,0.0,0.0,-0.09254884340037649,0.2499293832187683,0.024632052561818638,-0.09254884340037649,0.2499293832187683,0.024632052561818638,1.08,1.0,18.51481292636981,-1.020955106411688,7.436935716909845,1.9325890226879328,0.42214409654345436,0.43372357938465567,19.978705160375835,2.025147429738049,1.0,0.0,94.5041147172428,0.2480591520447668,1016.3931923201415,101.38025246945446,-2.8557567878978225,11.734299230014665,1.0,1014.3617502098317,0.0,1.0,106.00870649072196,6213.204799181519,1.0,1.0,-13.47859507869722,16.422915571169305,-28.117037463019976,-35.28991501855174,1.0,1013.8016331950769,0.0,1.0,46.21136874915545,9.067807793744139,,,
1.1099999999999999,103.79311070936282,0.7291829855912293,1014.2591063363552,102.09296485890223,-3.531623440361122,11.82028498478606,102.83562113843195,18.773683014266435,49.403274724012725,9.174527159465889,-12.752268999212545,119.40164065328054,26.45147195171865,26.338159002590416,7.193059958559117,2.6375609014535115,6216.255987613193,0.31461010345996465,105.82810954440588,2.025484668567251,1.1100864711045932,89719.22623877932,281.55731580881366,-2.577872452323371,6.602955552688385,-0.04963055591395179,394.0152631578947,0.2114651326330896,0.84,nominal,15234.066552616974,nan,heading_hold,18.0,-5.0,0.0,-4.687115520378417,14.32394487827058,0.23586673089286006,-4.933332562490552,14.32232646085963,0.7060450995503622,0.84,0.0,0.0,0.0,0.0,0.0,0.0,-0.08610289631130905,0.24997175328750731,0.012322811654724956,-0.08610289631130905,0.24997175328750731,0.012322811654724956,1.1099999999999999,1.0,18.520085530916692,-0.65712365842723,6.860358428677928,2.084337972469337,0.46477019308258855,0.4570981751956359,19.760817223608615,2.1838990035307937,1.0,0.0,94.5041147172428,0.2480591520447668,1016.3931923201415,101.38025246945446,-2.8557567878978225,11.734299230014665,1.0,1014.3617502098317,0.0,1.0,105.77327363421166,6289.4363424154,1.0,1.0,-13.47859507869722,16.422915571169305,-28.117037463019976,-35.28991501855174,1.0,1013.8016331950769,0.0,1.0,46.21136874915545,9.067807793744139,,,
1.14,106.87033961384185,0.6147134914621987,1014.6110939075778,102.5742968159676,-3.8156498043010196,11.732919040755009,103.31363385311832,18.767339060287444,53.06863788561389,9.27450764364504,-11.564650129541732,128.57350707996625,28.398754084654996,27.080416536356037,6.5227474295201455,1.3328263788050336,6279.202551524876,0.3162057337467296,106.36441328530215,2.0116652534095367,1.1100480814425695,89715.39448755808,281.5550278896007,-2.642728551714488,6.341419229696583,-0.0823225962879272,393.9821052631579,0.2114473370315889,0.84,nominal,15286.789354036846,nan,heading_hold,18.0,-5.0,0.0,-4.223042010627042,14.32394487827058,-0.4098305980479217,-4.507158231372446,14.323297511306201,0.036519680991391815,0.84,0.0,0.0,0.0,0.0,0.0,0.0,-0.07866475104581357,0.24998870131500292,0.0006373886750777741,-0.07866475104581357,0.24998870131500292,0.0006373886750777741,1.14,1.0,18.727717987064235,-0.4026534911255622,6.31458138210393,2.242404283183346,0.49749607779130306,0.4743216678952542,19.767738587611344,2.3453913023825432,1.0,0.0,94.5041147172428,0.2480591520447668,1016.3931923201415,101.38025246945446,-2.8557567878978225,11.734299230014665,1.0,1014.1936714864671,0.0,1.0,106.37300217511408,6376.442472397984,1.0,1.0,-11.409250142921241,16.486842329399263,-32.873556881558265,-30.800688787766845,1.0,1014.3089348194491,0.0,1.0,52.7618559249131,9.080003875098754,,,
1.17,109.96237940292805,0.49236302126298653,1014.9600691073047,103.06799296954024,-4.078349006640405,11.632506657561668,103.80250149455637,18.760995640176496,57.01721386698044,9.425261867477705,-10.354134200508813,138.23521142285247,29.77265271088167,26.949169213892812,5.740200521677104,0.045248988551475765,6343.4663839612795,0.3178264307313892,106.90914821290193,1.9982924806554114,1.1100100213286932,89711.59565995341,281.5527595508025,-2.706872812081487,6.0827483370302255,-0.1146564578712218,393.94894736842105,0.21142954143008816,0.84,nominal,15340.837819974837,nan,heading_hold,18.0,-5.0,0.0,-3.7206499910478814,14.32394487827058,-0.9793061132074314,-4.035253287177707,14.32368593148483,-0.5729757955279022,0.84,0.0,0.0,0.0,0.0,0.0,0.0,-0.07042845601317527,0.24999548052600118,-0.010000314166195694,-0.07042845601317527,0.24999548052600118,-0.010000314166195694,1.17,1.0,18.74005365662479,-0.06096205870564689,5.592221024535914,2.4130049485143026,0.525881451878535,0.47110224926378297,19.556744703887695,2.51417611003004,1.0,0.0,94.5041147172428,0.2480591520447668,1016.3931923201415,101.38025246945446,-2.8557567878978225,11.734299230014665,1.0,1014.1936714864671,0.0,1.0,107.47578062558729,6412.575205043035,1.0,1.0,-11.409250142921241,16.486842329399263,-32.873556881558265,-30.800688787766845,1.0,1014.3089348194491,0.0,1.0,52.7618559249131,9.080003875098754,,,
1.2,113.0696216113441,0.36290027731668867,1015.3056398325376,103.57474028053534,-4.3154247982099285,11.519024174431667,104.30262524644571,18.754652753933595,61.26855139629145,9.625356373322752,-9.157780058520858,148.3852890584777,30.364815541616753,25.91758426689073,4.858592190848812,-1.1851766294510873,6409.082201841892,0.31947267300207455,107.46247575345066,1.986941870602384,1.1099723334991605,89707.83402067312,281.5505133410885,-2.7700244576772857,5.828068330295633,-0.14649145871304595,393.91578947368424,0.21141174582858746,0.84,nominal,15396.265869514002,nan,heading_hold,18.0,-5.0,0.0,-3.202452837180773,14.32394487827058,-1.4440100873891433,-3.5355730171795465,14.32384129955628,-1.0955963706446468,0.84,0.0,0.0,0.0,0.0,0.0,0.0,-0.06170739009445313,0.24999819221040048,-0.019121763940649236,-0.06170739009445313,0.24999819221040048,-0.019121763940649236,1.2,1.0,18.89867958003611,0.20602761837824934,4.7669702483947765,2.5877724121767454,0.5303260379030166,0.4530024271686108,19.491704455934308,2.680116221868301,1.0,0.0,94.5041147172428,0.2480591520447668,1016.3931923201415,101.38025246945446,-2.8557567878978225,11.734299230014665,1.0,1015.0829922814386,0.0,1.0,108.0442056963524,6521.041201422123,1.0,1.0,-8.078867355942826,16.379287543163482,-37.59616649707214,-25.00974439649617,1.0,1015.1965609257596,0.0,1.0,61.085685031441564,9.398626894356745,,,
1.23,116.19246175642651,0.22721432039214448,1015.6474383825056,104.09467150274695,-4.52286523081814,11.393284998930637,104.81394892011177,18.748310401558737,65.84303606691756,9.86971197927549,-8.017827504755878,159.00819836927943,29.931182625558186,23.991665136454696,3.900586026026336,-2.3176760192650865,6476.037055798329,0.3211437416700513,108.02415451301731,1.979254534979335,1.1099350580247933,89704.11356826793,281.5482916505137,-2.8319070171549052,5.578487301085346,-0.17768908736433178,393.8826315789473,0.2113939502270867,0.84,nominal,15453.080895727697,nan,heading_hold,18.0,-5.0,0.0,-2.7016493697621256,14.32394487827058,-1.7723859247091158,-3.035218828729094,14.32390344678486,-1.5016701030833282,0.84,0.0,0.0,0.0,0.0,0.0,0.0,-0.05297456207984855,0.24999927688416018,-0.02620908757756673,-0.05297456207984855,0.24999927688416018,-0.02620908757756673,1.23,1.0,19.065824911879663,0.4702451219098272,3.9203154040728236,2.778654229748647,0.5238412564785097,0.4246684060572758,19.470379629389402,2.859313247196302,1.0,0.0,94.5041147172428,0.2480591520447668,1016.3931923201415,101.38025246945446,-2.8557567878978225,11.734299230014665,1.0,1015.0829922814386,0.0,1.0,107.68090822059607,6498.134753917777,1.0,1.0,-8.078867355942826,16.379287543163482,-37.59616649707214,-25.00974439649617,1.0,1015.1965609257596,0.0,1.0,61.085685031441564,9.398626894356745,,,
1.26,119.33128052163562,0.08629359793321256,1015.9851511057227,104.62729217363703,-4.697357415297731,11.257090773904157,105.33592704754906,18.741968583051925,70.76187082441986,10.148194438090005,-6.98214827006411,170.07369749888377,28.18538186882022,21.215431751466955,2.900704872019522,-3.3130146091761343,6544.266720170045,0.3228376627504679,108.59352086633737,1.9765998322681473,1.1098982290784034,89700.43771250096,281.54609651781277,-2.8922494844005455,5.335091155763481,-0.20811360552956487,393.8494736842105,0.211376154625586,0.84,nominal,15511.239545574226,nan,heading_hold,18.0,-5.0,0.0,-2.2660198356483856,14.32394487827058,-1.9293090190844933,-2.573699432880669,14.323928305676292,-1.7582534526840272,0.84,0.0,0.0,0.0,0.0,0.0,0.0,-0.04491952906047848,0.24999971075366406,-0.030687311833894605,-0.04491952906047848,0.24999971075366406,-0.030687311833894605,1.26,1.0,19.136856258208166,0.9303567772994505,2.8259668312742625,2.966666668169904,0.4914442210693106,0.3733281742137624,19.36674778355546,3.0301819199702384,1.0,0.0,119.0087926446203,0.0007893008887110142,1014.9865078049241,104.59215440732726,-4.486479048057014,11.227322160587107,1.0,1015.9281284836223,0.0,1.0,107.4409972774942,6591.1880223326125,1.0,1.0,-5.724680451998403,16.097100283372434,-41.61493955447093,-17.665032600915076,1.0,1016.0782075847669,0.0,1.0,69.98315675376718,10.533585570504794,,,
