time_s,sensor_time_s,imu_valid,imu_ax_mps2,imu_ay_mps2,imu_az_mps2,gyro_p_rps,gyro_q_rps,gyro_r_rps,imu_accel_norm_mps2,imu_gyro_norm_rps,gps_valid,gps_latency_s,gps_x_m,gps_y_m,gps_z_m,gps_vx_mps,gps_vy_mps,gps_vz_mps,baro_valid,baro_alt_m,baro_bias_m,pitot_valid,pitot_airspeed_mps,pitot_qbar_pa,pitot_compressibility_factor,mag_valid,mag_heading_deg,mag_x_ut,mag_y_ut,mag_z_ut,radar_valid,radar_agl_m,optical_flow_valid,horizon_valid,horizon_roll_deg,horizon_pitch_deg,optical_flow_x_radps,optical_flow_y_radps,optical_flow_quality
0.0,0.0,1.0,15.863658976337863,1.058966646731392,-0.6930371942163254,-0.001279898773872129,0.002068087163747687,0.0005281361201269382,15.914062555771283,0.0024887854768139554,1.0,0.0,0.5354505256823202,1.4183609496089247,1000.3550402325627,83.88261463530795,2.0393493499509656,15.053550255708195,1.0,1000.7418586383787,0.0,1.0,87.66706131630349,4205.12851111079,1.0,1.0,1.5022286437970536,17.21259347713176,-0.9087001158528836,-44.77701689197725,1.0,999.8945560890289,0.0,1.0,0.5051689769872049,8.977430989260586,,,
0.03,0.03,1.0,16.26062405098693,1.1337864606221544,-0.3297938859810175,0.029777496839869723,-0.1910417237957281,-0.05549231635105134,16.303439216099623,0.20115426101103817,1.0,0.0,0.5354505256823202,1.4183609496089247,1000.3550402325627,83.88261463530795,2.0393493499509656,15.053550255708195,1.0,1000.7418586383787,0.0,1.0,87.968860584111,4283.4731383245935,1.0,1.0,1.5022286437970536,17.21259347713176,-0.9087001158528836,-44.77701689197725,1.0,999.8945560890289,0.0,1.0,0.5051689769872049,8.977430989260586,,,
0.06,0.06,1.0,16.41984636010121,1.1581761611636952,0.27392587877828284,0.05594665665763285,-0.3297888827267608,-0.1059146724737689,16.462920819122022,0.3508684274860849,1.0,0.0,0.5354505256823202,1.4183609496089247,1000.3550402325627,83.88261463530795,2.0393493499509656,15.053550255708195,1.0,1001.128656765309,0.0,1.0,87.30170689219467,4350.617605288289,1.0,1.0,1.1099073732589775,16.573495389331764,-0.8330221361940959,-45.030349689990594,1.0,1001.3172281602725,0.0,1.0,0.21415119878309366,9.439327392274048,,,
0.09,0.09,1.0,16.663988249972572,1.0785112324864445,0.9366351632465766,0.08629847138961205,-0.3246397872916837,-0.15736275242818948,16.725100188126028,0.37094669901314525,1.0,0.0,0.5354505256823202,1.4183609496089247,1000.3550402325627,83.88261463530795,2.0393493499509656,15.053550255708195,1.0,1001.128656765309,0.0,1.0,88.46327569493083,4407.5003500379835,1.0,1.0,1.1099073732589775,16.573495389331764,-0.8330221361940959,-45.030349689990594,1.0,1001.3172281602725,0.0,1.0,0.21415119878309366,9.439327392274048,,,
0.12,0.12,1.0,16.943457583982912,1.0299909216416343,1.2808247578295564,0.11705101084272503,-0.2399409411659845,-0.2177291460101187,17.022988816866484,0.34449756952584987,1.0,0.0,0.5354505256823202,1.4183609496089247,1000.3550402325627,83.88261463530795,2.0393493499509656,15.053550255708195,1.0,1003.1250575477313,0.0,1.0,89.11005701791656,4499.53361005359,1.0,1.0,0.7721913433295448,15.705342753493118,-0.9486408035558926,-45.384304922719714,1.0,1001.7204037674416,0.0,1.0,1.1107229382211135,10.99020547001048,,,
0.15,0.15,1.0,17.129470046044975,1.1275020164973235,1.5027144641319798,0.14540106509714584,-0.16087280929877465,-0.26576085188841103,17.232183715834424,0.3430019838128029,1.0,0.0,0.5354505256823202,1.4183609496089247,1000.3550402325627,83.88261463530795,2.0393493499509656,15.053550255708195,1.0,1003.1250575477313,0.0,1.0,89.28575672532395,4517.7713626919,1.0,1.0,0.7721913433295448,15.705342753493118,-0.9486408035558926,-45.384304922719714,1.0,1001.7204037674416,0.0,1.0,1.1107229382211135,10.99020547001048,,,
0.18,0.18,1.0,17.37332667551236,1.0171373020780758,1.743662930395931,0.18076800425272274,-0.10799011184931848,-0.31958312436302144,17.49020893186199,0.38271700902412364,1.0,0.0,0.5354505256823202,1.4183609496089247,1000.3550402325627,83.88261463530795,2.0393493499509656,15.053550255708195,1.0,1003.0699288941952,0.0,1.0,89.87649530206477,4447.328970210463,1.0,1.0,0.05421760343074176,15.529662970507447,-1.1665818258578318,-45.46079025062465,1.0,1002.9075896667571,0.0,1.0,2.0372343202926384,11.767825445995577,,,
0.21,0.21,1.0,17.661020080924967,0.9865004803022962,1.8252542804243135,0.20532606830140868,-0.09582832408085869,-0.3764501245110567,17.78247358172307,0.43938201859503867,1.0,0.0,17.799191065992062,3.8870385253044066,1002.4450171062562,87.28266856172489,2.398629102080168,13.670335621470404,1.0,1003.0699288941952,0.0,1.0,90.36429544240309,4551.418509203064,1.0,1.0,0.05421760343074176,15.529662970507447,-1.1665818258578318,-45.46079025062465,1.0,1002.9075896667571,0.0,1.0,2.0372343202926384,11.767825445995577,,,
0.24,0.24,1.0,17.969180651367054,0.8724960160281782,2.0602554582376715,0.24176829154982715,-0.0918626823158248,-0.42635001534080796,18.10793624719966,0.49866320776881823,1.0,0.0,17.799191065992062,3.8870385253044066,1002.4450171062562,87.28266856172489,2.398629102080168,13.670335621470404,1.0,1003.9516420710755,0.0,1.0,90.44748609758969,4720.484514554963,1.0,1.0,-1.1235829480212394,15.150674815263095,-1.3413076082195077,-45.46067056409893,1.0,1003.4600044626316,0.0,1.0,2.836040683721936,11.818070489287336,,,
0.27,0.27,1.0,18.226367889105287,0.74550095421864,2.2358666638456643,0.2700016948766937,-0.09154845451025274,-0.472775523000436,18.37812171687427,0.5520857994078808,1.0,0.0,17.799191065992062,3.8870385253044066,1002.4450171062562,87.28266856172489,2.398629102080168,13.670335621470404,1.0,1003.9516420710755,0.0,1.0,90.36909357369413,4676.764865341217,1.0,1.0,-1.1235829480212394,15.150674815263095,-1.3413076082195077,-45.46067056409893,1.0,1003.4600044626316,0.0,1.0,2.836040683721936,11.818070489287336,,,
0.3,0.3,1.0,18.526707382330024,0.6293351343787204,2.407484357770155,0.30529015918102553,-0.07863286709005755,-0.511702618993697,18.69307171319773,0.6010197828396227,1.0,0.0,17.799191065992062,3.8870385253044066,1002.4450171062562,87.28266856172489,2.398629102080168,13.670335621470404,1.0,1004.141329081777,0.0,1.0,91.77074009394435,4684.455649506935,1.0,1.0,-1.8948918791539746,15.02635174662414,-1.8091595811162524,-45.52252791711975,1.0,1004.6043906175454,0.0,1.0,3.9640671972537724,12.111728027665793,,,
0.32999999999999996,0.32999999999999996,1.0,18.757422282374385,0.5261118397211265,2.609742398405672,0.3353098539310347,-0.07818349028621528,-0.5497312993533695,18.945406824168387,0.6486523396900149,1.0,0.0,17.799191065992062,3.8870385253044066,1002.4450171062562,87.28266856172489,2.398629102080168,13.670335621470404,1.0,1004.141329081777,0.0,1.0,92.14334694597544,4732.157351727331,1.0,1.0,-1.8948918791539746,15.02635174662414,-1.8091595811162524,-45.52252791711975,1.0,1004.6043906175454,0.0,1.0,3.9640671972537724,12.111728027665793,,,
0.36,0.36,1.0,18.971731061589484,0.3805176506317213,2.905232061768648,0.3632817084545066,-0.06552338868214848,-0.5845787327011681,19.196659774253696,0.6913748685687966,1.0,0.0,17.799191065992062,3.8870385253044066,1002.4450171062562,87.28266856172489,2.398629102080168,13.670335621470404,1.0,1004.271883439198,0.0,1.0,92.78178026842976,4882.224638913486,1.0,1.0,-6.960550161708979,14.816017620593064,-2.174674751372919,-45.568742093423026,1.0,1005.0853339234036,0.0,1.0,5.057428442900642,12.13311034165513,,,
0.39,0.39,1.0,19.214828437873262,0.15530107574434618,2.989815453756408,0.40230231356372903,-0.06716928797471047,-0.6102195201170318,19.44666415528769,0.7339800593187932,1.0,0.0,17.799191065992062,3.8870385253044066,1002.4450171062562,87.28266856172489,2.398629102080168,13.670335621470404,1.0,1004.271883439198,0.0,1.0,92.94261445942087,4836.510745681889,1.0,1.0,-6.960550161708979,14.816017620593064,-2.174674751372919,-45.568742093423026,1.0,1005.0853339234036,0.0,1.0,5.057428442900642,12.13311034165513,,,
0.42,0.42,1.0,19.406742571594023,0.0016594963175651856,3.145633153396176,0.4267805278785839,-0.0698349575337173,-0.6287698768194157,19.660027159945457,0.763131769922837,1.0,0.0,35.867808541854295,4.557226282882253,1000.9017344340022,90.9391091536512,2.533788418158694,12.99531991648301,1.0,1005.1387456132492,0.0,1.0,93.38931247043374,4931.643909187299,1.0,1.0,-6.628737583456688,14.784113175054308,-2.8160380124744298,-45.588849912221775,1.0,1005.8695929317555,0.0,1.0,6.725887136687618,12.067347870986595,,,
0.44999999999999996,0.44999999999999996,1.0,19.305118091375117,-0.21271967579888706,3.445641333170069,0.45919335381050047,-0.06984558080176888,-0.6442424596206818,19.611355852649783,0.7942199242775125,1.0,0.0,35.867808541854295,4.557226282882253,1000.9017344340022,90.9391091536512,2.533788418158694,12.99531991648301,1.0,1005.1387456132492,0.0,1.0,93.79851969299118,5023.637112985028,1.0,1.0,-6.628737583456688,14.784113175054308,-2.8160380124744298,-45.588849912221775,1.0,1005.8695929317555,0.0,1.0,6.725887136687618,12.067347870986595,,,
0.48,0.48,1.0,19.230993099380466,-0.430353220297231,3.623145310133504,0.4955917484435307,-0.07458241126420326,-0.6523704020596413,19.5740512265852,0.8226547627521259,1.0,0.0,35.867808541854295,4.557226282882253,1000.9017344340022,90.9391091536512,2.533788418158694,12.99531991648301,1.0,1007.54541137253,0.0,1.0,95.0849719596921,5005.4556516577495,1.0,1.0,-9.885327642878206,14.70705598353455,-3.481961784866421,-45.57178694972268,1.0,1006.8043343056936,0.0,1.0,9.926378828401274,11.948376473089512,,,
0.51,0.51,1.0,19.194437500937234,-0.5524694252867295,3.841332879118378,0.5232773443098837,-0.07516325168478251,-0.6503964432445141,19.582836662022643,0.8381433211909219,1.0,0.0,35.867808541854295,4.557226282882253,1000.9017344340022,90.9391091536512,2.533788418158694,12.99531991648301,1.0,1007.54541137253,0.0,1.0,95.91144044727052,5045.408020219241,1.0,1.0,-9.885327642878206,14.70705598353455,-3.481961784866421,-45.57178694972268,1.0,1006.8043343056936,0.0,1.0,9.926378828401274,11.948376473089512,,,
0.54,0.54,1.0,19.226250246364888,-0.7671382588388022,4.258625023341157,0.557839445859081,-0.0744064889534568,-0.6379419978946061,19.707183632712404,0.8507003971037683,1.0,0.0,35.867808541854295,4.557226282882253,1000.9017344340022,90.9391091536512,2.533788418158694,12.99531991648301,1.0,1006.2782660634545,0.0,1.0,95.80366415680439,5174.444923012335,1.0,1.0,-11.2002615690019,14.644152246581257,-4.35174931787237,-45.58029600336048,1.0,1007.0034507556047,0.0,1.0,11.75386497774482,11.03358735645765,,,
0.57,0.57,1.0,19.131127767160567,-1.0241492533074152,4.490434702144949,0.5899500570599592,-0.06943128508578181,-0.6107725440190727,19.677726879665236,0.8520005127353164,1.0,0.0,35.867808541854295,4.557226282882253,1000.9017344340022,90.9391091536512,2.533788418158694,12.99531991648301,1.0,1006.2782660634545,0.0,1.0,97.11117057401158,5226.540083703049,1.0,1.0,-11.2002615690019,14.644152246581257,-4.35174931787237,-45.58029600336048,1.0,1007.0034507556047,0.0,1.0,11.75386497774482,11.03358735645765,,,
0.6,0.6,1.0,19.092532001511398,-1.1381719394304923,4.809363435443923,0.6258350982073378,-0.06892496429981494,-0.5821910200786605,19.72182015551883,0.857535191529858,1.0,0.0,35.867808541854295,4.557226282882253,1000.9017344340022,90.9391091536512,2.533788418158694,12.99531991648301,1.0,1008.2038565720876,0.0,1.0,96.95818498137078,5270.6164468771,1.0,1.0,-14.08709345259977,14.636513481493381,-5.479184425309463,-45.41472309476543,1.0,1008.0098783758891,0.0,1.0,14.26616091193173,12.07889759551022,,,
0.63,0.63,1.0,19.017920073594627,-1.3927145931078229,5.172922570309611,0.6595799169908367,-0.06173186315747857,-0.5514135482158687,19.75803800436439,0.8619242373796823,1.0,0.0,57.61113940470964,3.070468029090274,1008.4746686438734,94.78773548504859,1.179899705808111,12.627206958536918,1.0,1008.2038565720876,0.0,1.0,97.4593077600116,5278.895853871519,1.0,1.0,-14.08709345259977,14.636513481493381,-5.479184425309463,-45.41472309476543,1.0,1008.0098783758891,0.0,1.0,14.26616091193173,12.07889759551022,,,
0.6599999999999999,0.6599999999999999,1.0,19.010109704509965,-1.5271128662200284,5.5111957721140215,0.7014516578037323,-0.05528294391211989,-0.5035300321131694,19.851690696820917,0.8652358784534333,1.0,0.0,57.61113940470964,3.070468029090274,1008.4746686438734,94.78773548504859,1.179899705808111,12.627206958536918,1.0,1009.9905541507937,0.0,1.0,97.8716048033575,5425.36912430079,1.0,1.0,-15.045355274365267,14.630198657988444,-6.901374850080185,-45.23526697258897,1.0,1008.4320999989427,0.0,1.0,17.04328988321019,10.986085686469226,,,
0.69,0.69,1.0,18.859133919679792,-1.7271541461349447,5.87880782508465,0.7390845294570164,-0.04596474048496826,-0.4492050690772813,19.82953290143781,0.8661084765404821,1.0,0.0,57.61113940470964,3.070468029090274,1008.4746686438734,94.78773548504859,1.179899705808111,12.627206958536918,1.0,1009.9905541507937,0.0,1.0,98.3343593167426,5497.801194977273,1.0,1.0,-15.045355274365267,14.630198657988444,-6.901374850080185,-45.23526697258897,1.0,1008.4320999989427,0.0,1.0,17.04328988321019,10.986085686469226,,,
0.72,0.72,1.0,18.811864769505554,-1.8756625820010882,6.160118929863593,0.7806621207139957,-0.026487919650180013,-0.3929086017463857,19.88344616654133,0.8743638407044103,1.0,0.0,57.61113940470964,3.070468029090274,1008.4746686438734,94.78773548504859,1.179899705808111,12.627206958536918,1.0,1007.943355329773,0.0,1.0,99.09238471483026,5409.933848375569,1.0,1.0,-17.330202046020005,14.791336479639364,-8.66243438236344,-44.87089315018407,1.0,1009.7992164553842,0.0,1.0,19.63183029897474,11.064458416557441,,,
0.75,0.75,1.0,18.819600935614446,-2.021912436256142,6.448281686563509,0.8320759287128876,-0.007568662092556824,-0.32996942866889023,19.996145778247808,0.8951466134915328,1.0,0.0,57.61113940470964,3.070468029090274,1008.4746686438734,94.78773548504859,1.179899705808111,12.627206958536918,1.0,1007.943355329773,0.0,1.0,99.84121873551716,5558.8340054729,1.0,1.0,-17.330202046020005,14.791336479639364,-8.66243438236344,-44.87089315018407,1.0,1009.7992164553842,0.0,1.0,19.63183029897474,11.064458416557441,,,
0.78,0.78,1.0,18.778661181492865,-2.1373066042053863,6.786446790025851,0.8843368692272964,0.014975673690585353,-0.2529185135184825,20.081385791910357,0.9199150741006595,1.0,0.0,57.61113940470964,3.070468029090274,1008.4746686438734,94.78773548504859,1.179899705808111,12.627206958536918,1.0,1009.4203104812186,0.0,1.0,100.20212510445364,5585.208071860476,1.0,1.0,-18.285877090958486,14.99217635189278,-10.66315085022996,-44.377425038715266,1.0,1010.4933901209024,0.0,1.0,23.029329280992922,10.469086524047649,,,
0.8099999999999999,0.8099999999999999,1.0,18.653682934509842,-2.1340249673417735,7.2330167051139105,0.9426335125346585,0.03961807219364667,-0.18055929477721366,20.12039960435475,0.9605879395079943,1.0,0.0,57.61113940470964,3.070468029090274,1008.4746686438734,94.78773548504859,1.179899705808111,12.627206958536918,1.0,1009.4203104812186,0.0,1.0,101.29907245588579,5637.684607303729,1.0,1.0,-18.285877090958486,14.99217635189278,-10.66315085022996,-44.377425038715266,1.0,1010.4933901209024,0.0,1.0,23.029329280992922,10.469086524047649,,,
0.84,0.84,1.0,18.675066677020602,-2.073548627848266,7.359529996816084,1.0164887024136355,0.07683902116191037,-0.09946327619771474,20.179702700417877,1.0242296913386468,1.0,0.0,77.64134379358137,0.23098280334117471,1009.8515846184696,97.91962167185444,-0.5452093370162931,12.253709818749693,1.0,1012.0305387542344,0.0,1.0,100.29523453562723,5640.413619467395,1.0,1.0,-18.208337937708716,15.270691133318568,-13.127178639072921,-43.677995665188,1.0,1010.9964952614461,0.0,1.0,26.663793165644424,10.390815045491413,,,
0.87,0.87,1.0,18.578140426151037,-2.147282688591141,7.696653012084088,1.0910054091655794,0.10831891279314158,-0.022723942150149407,20.223664164214497,1.0966048364128642,1.0,0.0,77.64134379358137,0.23098280334117471,1009.8515846184696,97.91962167185444,-0.5452093370162931,12.253709818749693,1.0,1012.0305387542344,0.0,1.0,102.65190349730842,5796.197763291079,1.0,1.0,-18.208337937708716,15.270691133318568,-13.127178639072921,-43.677995665188,1.0,1010.9964952614461,0.0,1.0,26.663793165644424,10.390815045491413,,,
0.8999999999999999,0.8999999999999999,1.0,18.55953311413329,-2.1512427214342544,7.879966874766585,1.1854077570524861,0.14823711282028432,0.05826654531715561,20.27752432148838,1.1960605262279564,1.0,0.0,77.64134379358137,0.23098280334117471,1009.8515846184696,97.91962167185444,-0.5452093370162931,12.253709818749693,1.0,1010.6571717438952,0.0,1.0,102.59030285238325,5684.596744106461,1.0,1.0,-18.75605927482068,15.596044996467889,-16.108897075618604,-42.56230423689506,1.0,1011.8511892093784,0.0,1.0,30.23633190459216,10.000021962312472,,,
0.9299999999999999,0.9299999999999999,1.0,18.561157508488634,-1.9334785585839667,7.934686732172452,1.2856057212763063,0.1894521990601992,0.13321702322614928,20.278416134628007,1.3063004943673389,1.0,0.0,77.64134379358137,0.23098280334117471,1009.8515846184696,97.91962167185444,-0.5452093370162931,12.253709818749693,1.0,1010.6571717438952,0.0,1.0,103.29304414519109,5935.6883418448215,1.0,1.0,-18.75605927482068,15.596044996467889,-16.108897075618604,-42.56230423689506,1.0,1011.8511892093784,0.0,1.0,30.23633190459216,10.000021962312472,,,
0.96,0.96,1.0,18.526985894329798,-1.871806144042716,8.074507232966253,1.3979109903309919,0.23183095099094328,0.21111619753996277,20.296564527643483,1.432644678763465,1.0,0.0,77.64134379358137,0.23098280334117471,1009.8515846184696,97.91962167185444,-0.5452093370162931,12.253709818749693,1.0,1013.398680112105,0.0,1.0,102.64883094901069,5942.707208277347,1.0,1.0,-16.567481774397205,15.853866304178283,-19.572739633114786,-40.86955297129385,1.0,1012.4004253950591,0.0,1.0,34.229784429667035,9.839729105183386,,,
0.99,0.99,1.0,18.476345389552925,-1.6411756730496834,8.116403089474144,1.5279538183042543,0.283966638005866,0.28400543925541316,20.24709351128426,1.5798541109537818,1.0,0.0,77.64134379358137,0.23098280334117471,1009.8515846184696,97.91962167185444,-0.5452093370162931,12.253709818749693,1.0,1013.398680112105,0.0,1.0,103.52836225112844,5900.264251806463,1.0,1.0,-16.567481774397205,15.853866304178283,-19.572739633114786,-40.86955297129385,1.0,1012.4004253950591,0.0,1.0,34.229784429667035,9.839729105183386,,,
1.02,1.02,1.0,18.431201351846756,-1.397599001484009,7.929928582568097,1.6559397704672456,0.33079145720359115,0.3387294225722354,20.113334720177487,1.722294148306296,1.0,0.0,77.64134379358137,0.23098280334117471,1009.8515846184696,97.91962167185444,-0.5452093370162931,12.253709818749693,1.0,1014.1027195675856,0.0,1.0,104.07503852604484,6095.3348873633095,1.0,1.0,-15.167173468139065,16.19627058371922,-23.661965432815602,-38.508951827033954,1.0,1012.6272612588652,0.0,1.0,40.31206597399479,9.17907504694374,,,
1.05,1.05,1.0,18.589040510086463,-1.2811222686926302,7.732705954136288,1.7881786137707358,0.3734072717725909,0.38738460504907346,20.173954563399576,1.8673731757709027,1.0,0.0,94.5041147172428,0.2480591520447668,1016.3931923201415,101.38025246945446,-2.8557567878978225,11.734299230014665,1.0,1014.1027195675856,0.0,1.0,104.77228253846347,6105.214502649551,1.0,1.0,-15.167173468139065,16.19627058371922,-23.661965432815602,-38.508951827033954,1.0,1012.6272612588652,0.0,1.0,40.31206597399479,9.17907504694374,,,
1.08,1.08,1.0,18.51481292636981,-1.020955106411688,7.436935716909845,1.9325890226879328,0.42214409654345436,0.43372357938465567,19.978705160375835,2.025147429738049,1.0,0.0,94.5041147172428,0.2480591520447668,1016.3931923201415,101.38025246945446,-2.8557567878978225,11.734299230014665,1.0,1014.3617502098317,0.0,1.0,106.00870649072196,6213.204799181519,1.0,1.0,-13.47859507869722,16.422915571169305,-28.117037463019976,-35.28991501855174,1.0,1013.8016331950769,0.0,1.0,46.21136874915545,9.067807793744139,,,
1.1099999999999999,1.1099999999999999,1.0,18.520085530916692,-0.65712365842723,6.860358428677928,2.084337972469337,0.46477019308258855,0.4570981751956359,19.760817223608615,2.1838990035307937,1.0,0.0,94.5041147172428,0.2480591520447668,1016.3931923201415,101.38025246945446,-2.8557567878978225,11.734299230014665,1.0,1014.3617502098317,0.0,1.0,105.77327363421166,6289.4363424154,1.0,1.0,-13.47859507869722,16.422915571169305,-28.117037463019976,-35.28991501855174,1.0,1013.8016331950769,0.0,1.0,46.21136874915545,9.067807793744139,,,
1.14,1.14,1.0,18.727717987064235,-0.4026534911255622,6.31458138210393,2.242404283183346,0.49749607779130306,0.4743216678952542,19.767738587611344,2.3453913023825432,1.0,0.0,94.5041147172428,0.2480591520447668,1016.3931923201415,101.38025246945446,-2.8557567878978225,11.734299230014665,1.0,1014.1936714864671,0.0,1.0,106.37300217511408,6376.442472397984,1.0,1.0,-11.409250142921241,16.486842329399263,-32.873556881558265,-30.800688787766845,1.0,1014.3089348194491,0.0,1.0,52.7618559249131,9.080003875098754,,,
1.17,1.17,1.0,18.74005365662479,-0.06096205870564689,5.592221024535914,2.4130049485143026,0.525881451878535,0.47110224926378297,19.556744703887695,2.51417611003004,1.0,0.0,94.5041147172428,0.2480591520447668,1016.3931923201415,101.38025246945446,-2.8557567878978225,11.734299230014665,1.0,1014.1936714864671,0.0,1.0,107.47578062558729,6412.575205043035,1.0,1.0,-11.409250142921241,16.486842329399263,-32.873556881558265,-30.800688787766845,1.0,1014.3089348194491,0.0,1.0,52.7618559249131,9.080003875098754,,,
1.2,1.2,1.0,18.89867958003611,0.20602761837824934,4.7669702483947765,2.5877724121767454,0.5303260379030166,0.4530024271686108,19.491704455934308,2.680116221868301,1.0,0.0,94.5041147172428,0.2480591520447668,1016.3931923201415,101.38025246945446,-2.8557567878978225,11.734299230014665,1.0,1015.0829922814386,0.0,1.0,108.0442056963524,6521.041201422123,1.0,1.0,-8.078867355942826,16.379287543163482,-37.59616649707214,-25.00974439649617,1.0,1015.1965609257596,0.0,1.0,61.085685031441564,9.398626894356745,,,
1.23,1.23,1.0,19.065824911879663,0.4702451219098272,3.9203154040728236,2.778654229748647,0.5238412564785097,0.4246684060572758,19.470379629389402,2.859313247196302,1.0,0.0,94.5041147172428,0.2480591520447668,1016.3931923201415,101.38025246945446,-2.8557567878978225,11.734299230014665,1.0,1015.0829922814386,0.0,1.0,107.68090822059607,6498.134753917777,1.0,1.0,-8.078867355942826,16.379287543163482,-37.59616649707214,-25.00974439649617,1.0,1015.1965609257596,0.0,1.0,61.085685031441564,9.398626894356745,,,
1.26,1.26,1.0,19.136856258208166,0.9303567772994505,2.8259668312742625,2.966666668169904,0.4914442210693106,0.3733281742137624,19.36674778355546,3.0301819199702384,1.0,0.0,119.0087926446203,0.0007893008887110142,1014.9865078049241,104.59215440732726,-4.486479048057014,11.227322160587107,1.0,1015.9281284836223,0.0,1.0,107.4409972774942,6591.1880223326125,1.0,1.0,-5.724680451998403,16.097100283372434,-41.61493955447093,-17.665032600915076,1.0,1016.0782075847669,0.0,1.0,69.98315675376718,10.533585570504794,,,
1.29,1.29,1.0,19.3018807753879,0.9999700750845758,1.8445723229595052,3.1701137493298757,0.4328829896296014,0.3068247366254774,19.415586230474265,3.2142106784413302,1.0,0.0,119.0087926446203,0.0007893008887110142,1014.9865078049241,104.59215440732726,-4.486479048057014,11.227322160587107,1.0,1015.9281284836223,0.0,1.0,108.87619855239696,6570.629504588553,1.0,1.0,-5.724680451998403,16.097100283372434,-41.61493955447093,-17.665032600915076,1.0,1016.0782075847669,0.0,1.0,69.98315675376718,10.533585570504794,,,
1.3199999999999998,1.3199999999999998,1.0,19.49241371144523,1.1909842641891197,0.835605290669862,3.375804694767956,0.33547266826239347,0.2369762154585595,19.546633265539096,3.400699483203643,1.0,0.0,119.0087926446203,0.0007893008887110142,1014.9865078049241,104.59215440732726,-4.486479048057014,11.227322160587107,1.0,1015.3432876459257,0.0,1.0,109.48872718233353,6787.485009539173,1.0,1.0,-6.344079335548172,15.75514992715495,-44.48764769726131,-8.807386598752023,1.0,1016.6261983895565,0.0,0.0,69.98315675376718,10.533585570504794,,,
1.3499999999999999,1.3499999999999999,1.0,19.61041104704907,1.416841800160908,-0.058529000898677,3.586542845571395,0.19352329684883057,0.15093825946748365,19.661614576754715,3.5949302090184823,1.0,0.0,119.0087926446203,0.0007893008887110142,1014.9865078049241,104.59215440732726,-4.486479048057014,11.227322160587107,1.0,1015.3432876459257,0.0,1.0,109.608847344602,6775.292223183559,1.0,1.0,-6.344079335548172,15.75514992715495,-44.48764769726131,-8.807386598752023,1.0,1016.6261983895565,0.0,0.0,69.98315675376718,10.533585570504794,,,
1.38,1.38,1.0,19.550669703641436,1.5799137754527655,-0.754201636723652,3.8035596743840974,-0.009602129044189566,0.06967464663901231,19.628897918823284,3.8042098987657496,1.0,0.0,119.0087926446203,0.0007893008887110142,1014.9865078049241,104.59215440732726,-4.486479048057014,11.227322160587107,1.0,1016.8840569827078,0.0,1.0,111.34101676696358,6748.275012839341,1.0,1.0,-5.519581720254734,15.45532234985605,-45.42351267450609,1.3065968046012872,1.0,1017.5311417901985,0.0,0.0,69.98315675376718,10.533585570504794,,,
1.41,1.41,1.0,19.54448717640985,1.7638906065897026,-1.0099753622612175,4.017025141786305,-0.28681585478259575,-0.019302342152330076,19.649894129313754,4.027297717416794,1.0,0.0,119.0087926446203,0.0007893008887110142,1014.9865078049241,104.59215440732726,-4.486479048057014,11.227322160587107,1.0,1016.8840569827078,0.0,1.0,111.23149101964957,6911.384996588938,1.0,1.0,-5.519581720254734,15.45532234985605,-45.42351267450609,1.3065968046012872,1.0,1017.5311417901985,0.0,0.0,69.98315675376718,10.533585570504794,,,
1.44,1.44,1.0,19.447053612751287,1.9578302419866789,-0.6921392659273131,4.238063152559956,-0.6808075074639192,-0.09088540738435341,19.557608499944436,4.293359792118649,1.0,0.0,119.0087926446203,0.0007893008887110142,1014.9865078049241,104.59215440732726,-4.486479048057014,11.227322160587107,1.0,1017.72941465855,0.0,1.0,111.96639222274705,7005.921611133186,1.0,1.0,-6.225392681279207,15.812736981983043,-43.72051900810243,11.974445159002368,1.0,1017.9694445388777,0.0,0.0,69.98315675376718,10.533585570504794,,,
1.47,1.47,1.0,19.217289938379967,2.1888165525008216,0.5916697653399993,4.4529406947704055,-1.2583493898964926,-0.16513510288223773,19.35058716389451,4.630269281629217,1.0,0.0,139.90402995070616,-1.5409473020953115,1017.595614552458,108.55050575375337,-4.944932920691118,10.130002313844633,1.0,1017.72941465855,0.0,1.0,112.64605553214058,7005.358716071467,1.0,1.0,-6.225392681279207,15.812736981983043,-43.72051900810243,11.974445159002368,1.0,1017.9694445388777,0.0,0.0,69.98315675376718,10.533585570504794,,,
1.5,1.5,1.0,18.83907064903119,2.669100343357205,3.01704709044149,4.675418298117039,-1.8367607129964456,-0.20421420847429395,19.26492285756783,5.027417788698053,1.0,0.0,139.90402995070616,-1.5409473020953115,1017.595614552458,108.55050575375337,-4.944932920691118,10.130002313844633,1.0,1018.7677063595347,0.0,1.0,113.55341896824982,7136.59800284532,1.0,1.0,-12.258243924846575,17.88083079448981,-38.87382255740953,21.67924350335241,1.0,1018.2659085738666,0.0,0.0,69.98315675376718,10.533585570504794,,,
1.53,1.53,1.0,18.346660553606544,3.346132488651217,6.694848038884912,4.893155884934296,-2.4084769330914004,-0.2345483250796107,19.81457913670211,5.458823002103855,1.0,0.0,139.90402995070616,-1.5409473020953115,1017.595614552458,108.55050575375337,-4.944932920691118,10.130002313844633,1.0,1018.7677063595347,0.0,1.0,113.81573962402159,7163.359552296003,1.0,1.0,-12.258243924846575,17.88083079448981,-38.87382255740953,21.67924350335241,1.0,1018.2659085738666,0.0,0.0,69.98315675376718,10.533585570504794,,,
1.56,1.56,1.0,17.219298080326503,4.0498412517659474,10.528412298642365,5.130913998387833,-2.9893862381028726,-0.23594094524693018,20.58525943664167,5.942926608082509,1.0,0.0,139.90402995070616,-1.5409473020953115,1017.595614552458,108.55050575375337,-4.944932920691118,10.130002313844633,1.0,1018.8895441501527,0.0,1.0,113.81155841076993,7187.969219001586,1.0,1.0,-16.97303452952607,22.59894681850698,-30.898508823411362,28.992836469252516,1.0,1019.0327239469415,0.0,0.0,69.98315675376718,10.533585570504794,,,
1.5899999999999999,1.5899999999999999,1.0,15.354749461076818,5.209384283737708,13.901446410236412,5.3667611493120155,-3.561447065721873,-0.22360989532840617,21.357814212244826,6.444845368276305,1.0,0.0,139.90402995070616,-1.5409473020953115,1017.595614552458,108.55050575375337,-4.944932920691118,10.130002313844633,1.0,1018.8895441501527,0.0,1.0,114.53475410129363,7363.651269303912,1.0,1.0,-16.97303452952607,22.59894681850698,-30.898508823411362,28.992836469252516,1.0,1019.0327239469415,0.0,0.0,69.98315675376718,10.533585570504794,,,
1.6199999999999999,1.6199999999999999,1.0,13.57848350444594,6.768916457862383,16.387913871680595,5.617793844202182,-4.095931632672898,-0.18546034180516371,22.33287185651796,6.954901807636747,1.0,0.0,139.90402995070616,-1.5409473020953115,1017.595614552458,108.55050575375337,-4.944932920691118,10.130002313844633,1.0,1018.2432590787341,0.0,1.0,115.27030036704906,7305.452508646459,1.0,1.0,-23.248585764236765,29.93490304945837,-20.455286553861477,31.430411845140625,1.0,1019.7290328297275,0.0,0.0,69.98315675376718,10.533585570504794,,,
1.65,1.65,1.0,13.735733657593508,8.392928257602653,15.353971314503939,5.884642931599181,-4.439175751664881,-0.1287592248720494,22.245360392140697,7.372372937160689,1.0,0.0,139.90402995070616,-1.5409473020953115,1017.595614552458,108.55050575375337,-4.944932920691118,10.130002313844633,1.0,1018.2432590787341,0.0,1.0,115.79509513283544,7343.602178569694,1.0,1.0,-23.248585764236765,29.93490304945837,-20.455286553861477,31.430411845140625,1.0,1019.7290328297275,0.0,0.0,69.98315675376718,10.533585570504794,,,
1.68,1.68,1.0,13.814803640773187,10.447551220483724,14.434435958304228,6.18011476520683,-4.7648843741793945,-0.07242526981627824,22.546686398939805,7.804049399519098,1.0,0.0,165.297677983947,-3.3489171995460243,1018.8845320515388,111.23747197128753,-7.751500372147317,6.936153844617927,1.0,1020.0510019138621,0.0,1.0,115.3479928057494,7511.116878060337,1.0,1.0,-25.7143789662326,38.24935568701746,-9.436224359488723,27.40184977872523,1.0,1019.9695421781014,0.0,0.0,69.98315675376718,10.533585570504794,,,
1.71,1.71,1.0,14.026054774776386,12.807685296796404,13.596358351651647,6.4568640253790335,-5.073308711843211,-0.012681859874777114,23.358680948061465,8.211559849228893,1.0,0.0,165.297677983947,-3.3489171995460243,1018.8845320515388,111.23747197128753,-7.751500372147317,6.936153844617927,1.0,1020.0510019138621,0.0,1.0,114.98465978281045,7403.115975054684,1.0,1.0,-25.7143789662326,38.24935568701746,-9.436224359488723,27.40184977872523,1.0,1019.9695421781014,0.0,0.0,69.98315675376718,10.533585570504794,,,
1.74,1.74,1.0,14.689217286494369,14.659914317515408,13.520600085856312,6.737483555831915,-5.337910639564897,0.04253660451269401,24.768787192117337,8.59585853907619,1.0,0.0,165.297677983947,-3.3489171995460243,1018.8845320515388,111.23747197128753,-7.751500372147317,6.936153844617927,1.0,1019.6447220079522,0.0,1.0,114.94383399009337,7434.534818940721,1.0,1.0,-18.3705324287695,45.1366324878673,-0.7023402545627245,16.213200984209315,1.0,1020.3545309906349,0.0,0.0,69.98315675376718,10.533585570504794,,,
1.77,1.77,1.0,15.54917824775932,15.402118189254166,13.313888902759293,6.999111246008248,-5.570082892693955,0.12239425246367651,25.617607745676853,8.945857254535035,1.0,0.0,165.297677983947,-3.3489171995460243,1018.8845320515388,111.23747197128753,-7.751500372147317,6.936153844617927,1.0,1019.6447220079522,0.0,1.0,115.4712853921958,7172.338958854587,1.0,1.0,-18.3705324287695,45.1366324878673,-0.7023402545627245,16.213200984209315,1.0,1020.3545309906349,0.0,0.0,69.98315675376718,10.533585570504794,,,
1.7999999999999998,1.7999999999999998,1.0,16.315327817533973,15.876258027212375,12.705069637130707,7.2120170188292665,-5.773310468746729,0.29256295706684743,26.070371789151068,9.242829454894819,1.0,0.0,165.297677983947,-3.3489171995460243,1018.8845320515388,111.23747197128753,-7.751500372147317,6.936153844617927,1.0,1020.9703421377914,0.0,1.0,114.59791881681716,7206.42834004653,1.0,1.0,1.0473209604301372,47.94618953775575,2.0860587698485116,-0.25417233493594477,1.0,1021.3374204815177,0.0,0.0,69.98315675376718,10.533585570504794,,,
1.8299999999999998,1.8299999999999998,1.0,16.97962195228061,16.39791540414074,11.766467853123725,7.394150474718105,-5.926520052126403,0.5555607836059395,26.375157951798503,9.49240480359488,1.0,0.0,165.297677983947,-3.3489171995460243,1018.8845320515388,111.23747197128753,-7.751500372147317,6.936153844617927,1.0,1020.9703421377914,0.0,1.0,114.80682713551484,7273.410073053453,1.0,1.0,1.0473209604301372,47.94618953775575,2.0860587698485116,-0.25417233493594477,1.0,1021.3374204815177,0.0,0.0,69.98315675376718,10.533585570504794,,,
1.8599999999999999,1.8599999999999999,1.0,17.90348277078069,16.07758936913723,11.625713569180963,7.60270766278913,-6.031839566454296,0.8969908404614295,26.72416118868605,9.746222084949009,1.0,0.0,165.297677983947,-3.3489171995460243,1018.8845320515388,111.23747197128753,-7.751500372147317,6.936153844617927,1.0,1019.953258246816,0.0,1.0,114.22141511193654,7242.675195860975,1.0,1.0,41.78358098214142,44.77351444666373,-3.9128523739379255,-16.89189855305691,1.0,1020.8444044780307,0.0,1.0,-52.652937545006004,-56.936979097582224,,,
1.89,1.89,1.0,19.97415776902205,11.172781686802285,9.795114013574363,7.845236437523495,-6.079406689661219,1.3149940142951086,24.894623671420486,10.011799524390003,1.0,0.0,188.55161515228383,-3.6650706882273143,1020.2716526573228,109.71012081591496,-7.157518475051315,0.5860280012517434,1.0,1019.953258246816,0.0,1.0,113.94166468164302,7138.188037203332,1.0,1.0,41.78358098214142,44.77351444666373,-3.9128523739379255,-16.89189855305691,1.0,1020.8444044780307,0.0,1.0,-52.652937545006004,-56.936979097582224,,,
1.92,1.92,1.0,19.67800829860138,12.162885055626841,-15.384484453604125,8.117306346657644,-6.210310576885868,1.8020780615218401,27.782047177618185,10.378155188986492,1.0,0.0,188.55161515228383,-3.6650706882273143,1020.2716526573228,109.71012081591496,-7.157518475051315,0.5860280012517434,1.0,1021.2171806135995,0.0,1.0,114.10643521601558,7215.847129959019,1.0,1.0,63.36125584365549,35.45705645005722,-18.350105163497176,-26.662026795601566,1.0,1020.5814623116211,0.0,1.0,-6.992630114829727,-41.1382422615264,,,
1.95,1.95,1.0,19.560951495020742,12.860986966897167,-11.545942772835502,8.404640476086342,-6.786281559158447,2.3805461447227727,26.102578486939663,11.061582114670456,1.0,0.0,188.55161515228383,-3.6650706882273143,1020.2716526573228,109.71012081591496,-7.157518475051315,0.5860280012517434,1.0,1021.2171806135995,0.0,1.0,113.41933455985892,7149.139269535023,1.0,1.0,63.36125584365549,35.45705645005722,-18.350105163497176,-26.662026795601566,1.0,1020.5814623116211,0.0,1.0,-6.992630114829727,-41.1382422615264,,,
1.98,1.98,1.0,19.461935290691653,12.255712770126898,-12.365740304978127,8.678853974706294,-7.364774986776173,2.95271695216421,26.11285036247635,11.759292254201233,1.0,0.0,188.55161515228383,-3.6650706882273143,1020.2716526573228,109.71012081591496,-7.157518475051315,0.5860280012517434,1.0,1020.8396213289286,0.0,1.0,113.52729452344643,7017.924405424929,1.0,1.0,67.82898060533115,19.76020180199592,-36.340173259799315,-24.372234390858928,1.0,1020.5062024336039,0.0,1.0,25.513211176719842,-16.55489085007838,,,
2.01,2.01,1.0,19.136662791148954,11.320093889956523,-12.989661786807822,8.934063138343824,-7.936300444932174,3.5309737221026958,25.750489350597423,12.460743330087666,1.0,0.0,188.55161515228383,-3.6650706882273143,1020.2716526573228,109.71012081591496,-7.157518475051315,0.5860280012517434,1.0,1020.8396213289286,0.0,1.0,111.78298954743268,7092.769895401256,1.0,1.0,67.82898060533115,19.76020180199592,-36.340173259799315,-24.372234390858928,1.0,1020.5062024336039,0.0,1.0,25.513211176719842,-16.55489085007838,,,
2.04,2.04,1.0,18.698972724352213,10.686243549928562,-13.144549665748306,9.074573197595582,-8.42160742719652,4.1051280983093426,25.231459887802405,13.043137164036134,1.0,0.0,188.55161515228383,-3.6650706882273143,1020.2716526573228,109.71012081591496,-7.157518475051315,0.5860280012517434,1.0,1022.0450608816136,0.0,1.0,112.51082238833366,7133.622054337569,1.0,1.0,63.160052453135044,1.9449661526502688,-47.523520093193135,-6.480289368154144,1.0,1020.2409683789349,0.0,1.0,55.780676268128445,13.82842641035725,,,
2.07,2.07,1.0,18.03638590244049,9.692688567451304,-12.972973227807234,9.074330217084162,-8.48341359891265,4.681783278395431,24.239584618073767,13.275197544472393,1.0,0.0,188.55161515228383,-3.6650706882273143,1020.2716526573228,109.71012081591496,-7.157518475051315,0.5860280012517434,1.0,1022.0450608816136,0.0,1.0,112.15121817243416,7048.424502898393,1.0,1.0,63.160052453135044,1.9449661526502688,-47.523520093193135,-6.480289368154144,1.0,1020.2409683789349,0.0,1.0,55.780676268128445,13.82842641035725,,,
2.1,2.1,1.0,17.373357280614364,7.568556142927972,-12.613170605324054,9.081311082121148,-8.175101817418927,5.257245777007439,22.764196845211554,13.301922186484372,1.0,0.0,208.6033211611323,-7.082702025546019,1020.1925430571669,108.25283736273683,-3.3340787632890296,-3.251161107069603,1.0,1019.1612558549169,0.0,1.0,111.67256863446435,6854.117966009782,1.0,1.0,35.070677031394986,-8.386810930397917,-42.57893993299829,20.56129644958443,1.0,1020.2911049711228,0.0,0.0,55.780676268128445,13.82842641035725,,,
2.13,2.13,1.0,16.79985863072507,6.234191814957972,-11.915082026393243,9.07747519604973,-7.5983067331125955,5.832071296077722,21.51905149614443,13.196510021513111,1.0,0.0,208.6033211611323,-7.082702025546019,1020.1925430571669,108.25283736273683,-3.3340787632890296,-3.251161107069603,1.0,1019.1612558549169,0.0,1.0,112.27299626797881,6913.635821260877,1.0,1.0,35.070677031394986,-8.386810930397917,-42.57893993299829,20.56129644958443,1.0,1020.2911049711228,0.0,0.0,55.780676268128445,13.82842641035725,,,
2.16,2.16,1.0,16.392562531622538,6.074380274201556,-11.825208945548983,9.073966564410155,-7.021368567044079,6.406440447094811,21.10568095737865,13.140736850286608,1.0,0.0,208.6033211611323,-7.082702025546019,1020.1925430571669,108.25283736273683,-3.3340787632890296,-3.251161107069603,1.0,1020.7571455645675,0.0,1.0,112.01584090103638,7017.094638014302,1.0,1.0,-3.7278209528386657,-6.438047414956319,-21.95264816666451,42.225163327760754,1.0,1019.8241592536654,0.0,0.0,55.780676268128445,13.82842641035725,,,
2.19,2.19,1.0,16.59450916749422,6.81659773238177,-12.814296054119708,9.07299245320178,-6.4489729633950095,6.984378136638349,22.04653992167002,13.14115604861338,1.0,0.0,208.6033211611323,-7.082702025546019,1020.1925430571669,108.25283736273683,-3.3340787632890296,-3.251161107069603,1.0,1020.7571455645675,0.0,1.0,111.91362812501012,6931.998946435002,1.0,1.0,-3.7278209528386657,-6.438047414956319,-21.95264816666451,42.225163327760754,1.0,1019.8241592536654,0.0,0.0,55.780676268128445,13.82842641035725,,,
2.2199999999999998,2.2199999999999998,1.0,16.869902620888297,8.386445668949488,-13.853386546096534,9.076603802494631,-6.005470094485057,7.561891038710291,23.384661729263133,13.252645159534808,1.0,0.0,208.6033211611323,-7.082702025546019,1020.1925430571669,108.25283736273683,-3.3340787632890296,-3.251161107069603,1.0,1020.2013458815895,0.0,1.0,111.96278163305124,6984.910699780697,1.0,1.0,-33.602682968826485,6.815307498845659,3.0411981238326575,47.35143748105877,1.0,1020.0926963290109,0.0,0.0,55.780676268128445,13.82842641035725,,,
2.25,2.25,1.0,17.143157347936178,10.572357125242709,-14.525161291999439,9.07638884973641,-5.806323505118696,8.136153468126556,24.8322952946031,13.50152659718971,1.0,0.0,208.6033211611323,-7.082702025546019,1020.1925430571669,108.25283736273683,-3.3340787632890296,-3.251161107069603,1.0,1020.2013458815895,0.0,1.0,112.33894161973514,7014.448113749132,1.0,1.0,-33.602682968826485,6.815307498845659,3.0411981238326575,47.35143748105877,1.0,1020.0926963290109,0.0,0.0,55.780676268128445,13.82842641035725,,,
2.28,2.28,1.0,17.215982580228385,12.314085802548425,-14.501913739744415,9.07535632283799,-5.825218248297313,8.594495082659384,25.65798642665164,13.789873304444383,1.0,0.0,208.6033211611323,-7.082702025546019,1020.1925430571669,108.25283736273683,-3.3340787632890296,-3.251161107069603,1.0,1020.067238143841,0.0,1.0,112.69369565033689,6991.433362865362,1.0,1.0,-42.601381601735895,27.297328320514747,17.540813416577773,35.281169746932434,1.0,1019.7328077319406,0.0,0.0,55.780676268128445,13.82842641035725,,,
2.31,2.31,1.0,17.290015378704883,13.338972012628519,-13.510819205845257,9.07656996544132,-6.047902766934549,8.97241496526736,25.6790778993829,14.123224862785401,1.0,0.0,236.61115133615138,-6.075923105863159,1021.2871434375983,109.23328654628871,-4.7231971162976985,-2.6654725871452847,1.0,1020.067238143841,0.0,1.0,113.23379523119274,6945.370015226535,1.0,1.0,-42.601381601735895,27.297328320514747,17.540813416577773,35.281169746932434,1.0,1019.7328077319406,0.0,0.0,55.780676268128445,13.82842641035725,,,
2.34,2.34,1.0,17.559548222440075,13.525557205046999,-12.716313190345689,9.012146758963896,-6.4733952601182025,9.076129173797613,25.553533075450776,14.335262682570013,1.0,0.0,236.61115133615138,-6.075923105863159,1021.2871434375983,109.23328654628871,-4.7231971162976985,-2.6654725871452847,1.0,1019.7669307857642,0.0,1.0,112.65434914951146,7054.741102820614,1.0,1.0,-33.51115839449086,44.88838210583449,10.908202115118542,12.824277718024742,1.0,1019.5456585258477,0.0,0.0,55.780676268128445,13.82842641035725,,,
2.37,2.37,1.0,17.978809876200224,13.472191959829926,-13.367194215058223,8.959171599795658,-7.050216806398435,9.076987727182372,26.142292209179875,14.572714879912645,1.0,0.0,236.61115133615138,-6.075923105863159,1021.2871434375983,109.23328654628871,-4.7231971162976985,-2.6654725871452847,1.0,1019.7669307857642,0.0,1.0,111.82382058879547,6983.265654065199,1.0,1.0,-33.51115839449086,44.88838210583449,10.908202115118542,12.824277718024742,1.0,1019.5456585258477,0.0,0.0,55.780676268128445,13.82842641035725,,,
2.4,2.4,1.0,18.304906979120723,12.861998388664803,-13.433986752917638,8.914373910582732,-7.621735963238635,9.083597202620657,26.0954521352255,14.834711303239477,1.0,0.0,236.61115133615138,-6.075923105863159,1021.2871434375983,109.23328654628871,-4.7231971162976985,-2.6654725871452847,1.0,1020.7806313301935,0.0,1.0,111.74513349676803,6931.47395679826,1.0,1.0,32.78435599295255,45.53940248241358,-13.288674388765312,-7.326882231574436,1.0,1019.383120457208,0.0,1.0,-2.202328200274189,-55.643405672057,,,
2.4299999999999997,2.4299999999999997,1.0,18.521946171944503,12.296830502816935,-13.476132989766159,8.882626406982942,-8.153407823770348,9.073153995070262,25.997705490471315,15.089772511373711,1.0,0.0,236.61115133615138,-6.075923105863159,1021.2871434375983,109.23328654628871,-4.7231971162976985,-2.6654725871452847,1.0,1020.7806313301935,0.0,1.0,110.91511528408132,6819.254623869505,1.0,1.0,32.78435599295255,45.53940248241358,-13.288674388765312,-7.326882231574436,1.0,1019.383120457208,0.0,1.0,-2.202328200274189,-55.643405672057,,,
2.46,2.46,1.0,18.47535840857363,11.641763259850556,-13.453311750033215,8.862860330176543,-8.345256303406273,9.075499266169356,25.648803425642306,15.184145775512027,1.0,0.0,236.61115133615138,-6.075923105863159,1021.2871434375983,109.23328654628871,-4.7231971162976985,-2.6654725871452847,1.0,1018.7427610122871,0.0,1.0,112.53087701764447,6929.993201323278,1.0,1.0,58.118417242229796,25.717213257640292,-38.97133708535518,-11.250669236438444,1.0,1018.9732489879019,0.0,1.0,43.728682317364196,-18.734572073366696,,,
2.4899999999999998,2.4899999999999998,1.0,18.286624502269188,10.84226083100126,-13.348162076633592,8.857527715973863,-8.236302250225126,9.069851184023797,25.102364160344244,15.118024755127454,1.0,0.0,236.61115133615138,-6.075923105863159,1021.2871434375983,109.23328654628871,-4.7231971162976985,-2.6654725871452847,1.0,1018.7427610122871,0.0,1.0,110.95053511818455,6864.257026977098,1.0,1.0,58.118417242229796,25.717213257640292,-38.97133708535518,-11.250669236438444,1.0,1018.9732489879019,0.0,1.0,43.728682317364196,-18.734572073366696,,,
2.52,2.52,1.0,18.15440751358232,9.926018666982074,-13.127598296043296,8.845761122656514,-7.863006917581015,9.076195413186113,24.503922048700073,14.914814474319451,1.0,0.0,258.3878344596795,-8.199300697555586,1019.5294635030513,107.62316806961583,-3.9116055110274717,-7.92499253327704,1.0,1017.8489555068409,0.0,1.0,110.66993387111079,6893.601135242642,1.0,1.0,49.455653527741816,-0.459067803502402,-47.58975985122503,6.446004394832841,1.0,1018.5294742999141,0.0,1.0,75.3608375312408,21.170384218972988,,,
2.55,2.55,1.0,17.925709270544804,9.033557361840746,-12.796902420797116,8.84505925276568,-7.290403525547553,9.076232951523732,23.80539693072069,14.620638198812566,1.0,0.0,258.3878344596795,-8.199300697555586,1019.5294635030513,107.62316806961583,-3.9116055110274717,-7.92499253327704,1.0,1017.8489555068409,0.0,1.0,110.48619030231242,6775.0514494462595,1.0,1.0,49.455653527741816,-0.459067803502402,-47.58975985122503,6.446004394832841,1.0,1018.5294742999141,0.0,1.0,75.3608375312408,21.170384218972988,,,
2.58,2.58,1.0,17.6601755134737,8.451097268526071,-12.517675646657478,8.845646126602162,-6.711087969215666,9.074074585203022,23.237793522701473,14.339560199164076,1.0,0.0,258.3878344596795,-8.199300697555586,1019.5294635030513,107.62316806961583,-3.9116055110274717,-7.92499253327704,1.0,1017.784532555427,0.0,1.0,110.69577877049699,6948.094195234358,1.0,1.0,14.208257494936301,-14.930643239810584,-32.53010632451733,32.006764397068906,1.0,1017.8836543003067,0.0,0.0,75.3608375312408,21.170384218972988,,,
2.61,2.61,1.0,17.517092194595715,8.068002793170326,-12.109703400134142,8.863944607949136,-6.136728396489482,9.073009592931554,22.77248568917743,14.090722213516912,1.0,0.0,258.3878344596795,-8.199300697555586,1019.5294635030513,107.62316806961583,-3.9116055110274717,-7.92499253327704,1.0,1017.784532555427,0.0,1.0,110.88166704032956,6869.496962456175,1.0,1.0,14.208257494936301,-14.930643239810584,-32.53010632451733,32.006764397068906,1.0,1017.8836543003067,0.0,0.0,75.3608375312408,21.170384218972988,,,
2.6399999999999997,2.6399999999999997,1.0,17.354057776100746,8.018984444254263,-12.27402469696647,8.886974439908188,-5.556622154629605,9.076077437138483,22.718255106305534,13.86468701809876,1.0,0.0,258.3878344596795,-8.199300697555586,1019.5294635030513,107.62316806961583,-3.9116055110274717,-7.92499253327704,1.0,1018.4834098005798,0.0,1.0,110.7298984906622,6843.670262449877,1.0,1.0,-34.26865006380303,-10.716403349242796,-3.321268594540382,46.653471439702116,1.0,1017.4348423320765,0.0,0.0,75.3608375312408,21.170384218972988,,,
2.67,2.67,1.0,17.415536369861083,8.105095900753332,-12.479640250258562,8.890259511023704,-4.983119701158664,9.073164155418734,22.907092949264346,13.645164122156917,1.0,0.0,258.3878344596795,-8.199300697555586,1019.5294635030513,107.62316806961583,-3.9116055110274717,-7.92499253327704,1.0,1018.4834098005798,0.0,1.0,110.82436059902255,6701.2439078350835,1.0,1.0,-34.26865006380303,-10.716403349242796,-3.321268594540382,46.653471439702116,1.0,1017.4348423320765,0.0,0.0,75.3608375312408,21.170384218972988,,,
2.6999999999999997,2.6999999999999997,1.0,17.331787302590318,8.34158767753538,-12.752321719420722,8.87401147940516,-4.407500513186456,9.076941910234762,23.07801216135936,13.437448230677196,1.0,0.0,258.3878344596795,-8.199300697555586,1019.5294635030513,107.62316806961583,-3.9116055110274717,-7.92499253327704,1.0,1017.9139264111567,0.0,1.0,110.56027319420836,6729.247391537745,1.0,1.0,-52.41655721997281,7.629503971276128,22.021388959731357,41.94329864497463,1.0,1017.0715529253093,0.0,0.0,75.3608375312408,21.170384218972988,,,
2.73,2.73,1.0,17.245700170494136,8.46766903578267,-12.983831479669805,8.848379310352161,-4.146004708989922,9.07301188185396,23.18826153817053,13.334268486688647,1.0,0.0,276.3136670435411,-10.443744180248578,1018.6173294259311,107.72760836093009,-4.397558910168424,-6.297090120157369,1.0,1017.9139264111567,0.0,1.0,111.1053146429127,6823.593618812726,1.0,1.0,-52.41655721997281,7.629503971276128,22.021388959731357,41.94329864497463,1.0,1017.0715529253093,0.0,0.0,75.3608375312408,21.170384218972988,,,
2.76,2.76,1.0,17.21985705789398,8.579112156871046,-13.249970392752525,8.785607323174291,-4.189876266689844,9.075234037206775,23.359930605703696,13.307961226170631,1.0,0.0,276.3136670435411,-10.443744180248578,1018.6173294259311,107.72760836093009,-4.397558910168424,-6.297090120157369,1.0,1016.2308200933898,0.0,1.0,111.10806979842904,6724.719918362418,1.0,1.0,-52.732390512714204,30.539626124946913,29.075708134382566,22.90726933117469,1.0,1016.956772889114,0.0,0.0,75.3608375312408,21.170384218972988,,,
2.79,2.79,1.0,17.138901637934794,8.374039801641898,-13.426277824346666,8.685064645306994,-4.507255460888927,9.076247854279856,23.32662487739771,13.346309407292875,1.0,0.0,276.3136670435411,-10.443744180248578,1018.6173294259311,107.72760836093009,-4.397558910168424,-6.297090120157369,1.0,1016.2308200933898,0.0,1.0,111.24838329437446,6826.342822611122,1.0,1.0,-52.732390512714204,30.539626124946913,29.075708134382566,22.90726933117469,1.0,1016.956772889114,0.0,0.0,75.3608375312408,21.170384218972988,,,
2.82,2.82,1.0,17.127297854727036,8.474980967809248,-13.414979245145114,8.61426376856356,-5.0690909207534025,9.072774224459053,23.34804707800934,13.498757541539147,1.0,0.0,276.3136670435411,-10.443744180248578,1018.6173294259311,107.72760836093009,-4.397558910168424,-6.297090120157369,1.0,1018.048489902539,0.0,1.0,110.67889025089266,6854.599596864621,1.0,1.0,-21.198077675075005,46.08323558608144,13.611541377150251,-0.18064268905472583,1.0,1016.2853125030209,0.0,1.0,-48.41152137172299,-49.24562933029934,,,
2.85,2.85,1.0,17.092590116311342,8.871926828040477,-13.590375495977478,8.570204550629116,-5.652213282686631,9.07471522131648,23.57044820634503,13.702057414147562,1.0,0.0,276.3136670435411,-10.443744180248578,1018.6173294259311,107.72760836093009,-4.397558910168424,-6.297090120157369,1.0,1018.048489902539,0.0,1.0,110.01965407318414,6712.590711231669,1.0,1.0,-21.198077675075005,46.08323558608144,13.611541377150251,-0.18064268905472583,1.0,1016.2853125030209,0.0,1.0,-48.41152137172299,-49.24562933029934,,,
2.88,2.88,1.0,16.94474201530237,9.603993893149015,-13.098040344920761,8.548420944886056,-6.223148689011023,9.07518685465204,23.47167743349352,13.93420599472232,1.0,0.0,276.3136670435411,-10.443744180248578,1018.6173294259311,107.72760836093009,-4.397558910168424,-6.297090120157369,1.0,1017.8111363557638,0.0,1.0,111.031293022333,6896.009820345874,1.0,1.0,27.65849226660155,42.31520031847346,-15.78507913316688,-15.958968898954177,1.0,1015.782481721013,0.0,1.0,16.10968848257511,-37.058012223000965,,,
2.9099999999999997,2.9099999999999997,1.0,17.049722002317484,10.56534281107396,-12.662758128754184,8.563657552788419,-6.797553276412307,9.074909780823914,23.720559278801822,14.209044610992935,1.0,0.0,276.3136670435411,-10.443744180248578,1018.6173294259311,107.72760836093009,-4.397558910168424,-6.297090120157369,1.0,1017.8111363557638,0.0,1.0,111.05430139501766,6744.723902278983,1.0,1.0,27.65849226660155,42.31520031847346,-15.78507913316688,-15.958968898954177,1.0,1015.782481721013,0.0,1.0,16.10968848257511,-37.058012223000965,,,
2.94,2.94,1.0,17.142439513268428,11.090121664000053,-12.23525594248403,8.598572307906448,-7.151751837232218,9.075617501763979,23.802426745323277,14.403118867591653,1.0,0.0,300.4117033601333,-5.392017194436278,1016.7946249962544,107.55833277297307,-4.493926389369053,-11.9941990690053,1.0,1015.4726960642065,0.0,1.0,110.76181760180314,6953.239462399359,1.0,1.0,39.63740490396686,19.464597071129067,-41.57928217148017,-14.026402458611646,1.0,1014.8369774783564,0.0,1.0,51.64186862595995,-1.2611916169942858,,,
2.9699999999999998,2.9699999999999998,1.0,17.380889861667402,10.932023959193062,-11.930381009305341,8.634318707122809,-7.196539133337463,9.077774800182501,23.747388724973053,14.448101271677773,1.0,0.0,300.4117033601333,-5.392017194436278,1016.7946249962544,107.55833277297307,-4.493926389369053,-11.9941990690053,1.0,1015.4726960642065,0.0,1.0,110.54993555249834,6790.44772236218,1.0,1.0,39.63740490396686,19.464597071129067,-41.57928217148017,-14.026402458611646,1.0,1014.8369774783564,0.0,1.0,51.64186862595995,-1.2611916169942858,,,
3.0,3.0,1.0,17.77830264999902,11.538885603335832,-11.86518959067926,8.671211259954298,-6.954872706170449,9.076479944543816,24.289846646378738,14.35070197786502,1.0,0.0,300.4117033601333,-5.392017194436278,1016.7946249962544,107.55833277297307,-4.493926389369053,-11.9941990690053,1.0,1013.6035402085689,0.0,1.0,111.14837749879568,6827.302051467317,1.0,1.0,27.748352426691284,-7.436813930109771,-46.86983756344665,7.3315493236459295,1.0,1014.1322172124424,0.0,0.0,51.64186862595995,-1.2611916169942858,,,
3.03,3.03,1.0,18.135427065529598,11.96945229208444,-11.87756388097975,8.72421927307837,-6.46247691873906,9.076579133123406,24.763643245055516,14.151321443944322,1.0,0.0,300.4117033601333,-5.392017194436278,1016.7946249962544,107.55833277297307,-4.493926389369053,-11.9941990690053,1.0,1013.6035402085689,0.0,1.0,110.39793065436444,6847.290766711688,1.0,1.0,27.748352426691284,-7.436813930109771,-46.86983756344665,7.3315493236459295,1.0,1014.1322172124424,0.0,0.0,51.64186862595995,-1.2611916169942858,,,
3.06,3.06,1.0,18.44395863038145,12.019161387650664,-12.040542685460652,8.797053773674008,-5.889208093833075,9.073014092088773,25.092120647366873,13.94239978571202,1.0,0.0,300.4117033601333,-5.392017194436278,1016.7946249962544,107.55833277297307,-4.493926389369053,-11.9941990690053,1.0,1012.5258125409721,0.0,1.0,110.80396621941544,6711.749192715861,1.0,1.0,-19.01351715277451,-20.886450046199343,-27.6560389410953,33.22343201068536,1.0,1013.587609591332,0.0,0.0,51.64186862595995,-1.2611916169942858,,,
3.09,3.09,1.0,18.764727278649424,11.941452428411331,-12.86802037643927,8.901278652278823,-5.312948032292713,9.075345085315327,25.69628814343731,13.777592926811081,1.0,0.0,300.4117033601333,-5.392017194436278,1016.7946249962544,107.55833277297307,-4.493926389369053,-11.9941990690053,1.0,1012.5258125409721,0.0,1.0,110.31538725125714,6767.2424309418375,1.0,1.0,-19.01351715277451,-20.886450046199343,-27.6560389410953,33.22343201068536,1.0,1013.587609591332,0.0,0.0,51.64186862595995,-1.2611916169942858,,,
3.12,3.12,1.0,18.775946627169546,10.735409043635235,-13.390099231789536,8.982137773905434,-4.738321481836824,9.078531616012818,25.43776594981673,13.62168219265152,1.0,0.0,300.4117033601333,-5.392017194436278,1016.7946249962544,107.55833277297307,-4.493926389369053,-11.9941990690053,1.0,1013.2543345662908,0.0,1.0,110.00023926657128,6682.1043676988575,1.0,1.0,-60.15839832241497,-15.157383952721705,4.5292292104531695,45.27531044531218,1.0,1012.8247708119471,0.0,0.0,51.64186862595995,-1.2611916169942858,,,
3.15,3.15,1.0,18.809824430366323,8.307809389706714,-13.988833541553634,9.01843830957909,-4.42056663012664,9.077626564429258,24.869995090675044,13.53798149349838,1.0,0.0,327.2456922086862,-8.590632150357436,1012.6262908803766,106.93357150366626,-3.44642440402016,-10.477128306596496,1.0,1013.2543345662908,0.0,1.0,110.37282164700264,6910.354510022177,1.0,1.0,-60.15839832241497,-15.157383952721705,4.5292292104531695,45.27531044531218,1.0,1012.8247708119471,0.0,0.0,51.64186862595995,-1.2611916169942858,,,
3.1799999999999997,3.1799999999999997,1.0,18.67621454169724,6.17049141008212,-14.253116174232948,8.98996267700523,-4.39453048791196,9.078038813619113,24.290477033718,13.510814773532715,1.0,0.0,327.2456922086862,-8.590632150357436,1012.6262908803766,106.93357150366626,-3.44642440402016,-10.477128306596496,1.0,1011.8902984461354,0.0,1.0,110.1352697178051,6647.543419421033,1.0,1.0,-68.87039869393178,6.064495510530015,30.23918463787469,36.7179555851669,1.0,1012.3670402811409,0.0,0.0,51.64186862595995,-1.2611916169942858,,,
3.21,3.21,1.0,18.084557921715923,4.241288395655144,-14.31038223501539,8.879164270978778,-4.640300441500358,9.074054058074717,23.448385918678095,13.517041221631187,1.0,0.0,327.2456922086862,-8.590632150357436,1012.6262908803766,106.93357150366626,-3.44642440402016,-10.477128306596496,1.0,1011.8902984461354,0.0,1.0,109.43239307377367,6668.228421840395,1.0,1.0,-68.87039869393178,6.064495510530015,30.23918463787469,36.7179555851669,1.0,1012.3670402811409,0.0,0.0,51.64186862595995,-1.2611916169942858,,,
3.2399999999999998,3.2399999999999998,1.0,17.48808498642827,2.784453560598578,-14.165574979499912,8.691160745607434,-5.145530044502676,9.076623345318755,22.67707680948984,13.579316842082031,1.0,0.0,327.2456922086862,-8.590632150357436,1012.6262908803766,106.93357150366626,-3.44642440402016,-10.477128306596496,1.0,1010.5270066731167,0.0,1.0,109.66431469505908,6815.256342345346,1.0,1.0,-55.183191499776946,31.75666989477258,33.40166982800862,13.438999303542424,1.0,1011.6042176273527,0.0,1.0,-78.56683827027261,-28.878069118248305,,,
3.27,3.27,1.0,16.89672235277935,2.64810019523617,-13.708685851279045,8.481198424745724,-5.714436192225533,9.078656995534566,21.918935391117458,13.675069307228211,1.0,0.0,327.2456922086862,-8.590632150357436,1012.6262908803766,106.93357150366626,-3.44642440402016,-10.477128306596496,1.0,1010.5270066731167,0.0,1.0,109.478201020128,6518.50056362856,1.0,1.0,-55.183191499776946,31.75666989477258,33.40166982800862,13.438999303542424,1.0,1011.6042176273527,0.0,1.0,-78.56683827027261,-28.878069118248305,,,
3.3,3.3,1.0,16.51804572715156,3.776109104418747,-13.985006878126434,8.288303004026432,-6.292509060359797,9.079942480977495,21.970099043791034,13.810756402859456,1.0,0.0,327.2456922086862,-8.590632150357436,1012.6262908803766,106.93357150366626,-3.44642440402016,-10.477128306596496,1.0,1010.7493610833491,0.0,1.0,108.73958842930475,6770.091081125081,1.0,1.0,-15.108890357697128,44.65138025709019,11.980816396384116,-13.003012886119029,1.0,1010.9578361031773,0.0,1.0,-23.743572273407445,-40.06269642025765,,,
3.33,3.33,1.0,17.17754830200892,5.728875814567004,-15.986319833110564,8.137775147813297,-6.865418477332596,9.07770458280056,24.154722220987853,13.991500123927594,1.0,0.0,327.2456922086862,-8.590632150357436,1012.6262908803766,106.93357150366626,-3.44642440402016,-10.477128306596496,1.0,1010.7493610833491,0.0,1.0,109.58399441429894,6850.176091781549,1.0,1.0,-15.108890357697128,44.65138025709019,11.980816396384116,-13.003012886119029,1.0,1010.9578361031773,0.0,1.0,-23.743572273407445,-40.06269642025765,,,
3.36,3.36,1.0,17.343933271933864,8.8227196801056,-17.531045749348237,8.052362640917352,-7.445412704612901,9.076221550905265,26.19141021328859,14.235607190561625,1.0,0.0,348.1621508674715,-8.682764265873253,1010.9935666624114,106.13323873388035,-6.355095130687456,-15.004845751823831,1.0,1009.2921870719049,0.0,1.0,110.08875452536256,6758.923836787299,1.0,1.0,21.21055157933345,32.90237525517129,-20.61959255623294,-28.110786492172608,1.0,1010.0527189870271,0.0,1.0,21.81585679683626,-15.068562441011846,,,
3.3899999999999997,3.3899999999999997,1.0,17.967063584350864,10.62855691839444,-15.72300819430388,8.02589075382973,-7.9645057772585774,9.075510122537972,26.134165046731535,14.498729553056847,1.0,0.0,348.1621508674715,-8.682764265873253,1010.9935666624114,106.13323873388035,-6.355095130687456,-15.004845751823831,1.0,1009.2921870719049,0.0,1.0,110.2550068138879,6808.779060258048,1.0,1.0,21.21055157933345,32.90237525517129,-20.61959255623294,-28.110786492172608,1.0,1010.0527189870271,0.0,1.0,21.81585679683626,-15.068562441011846,,,
3.42,3.42,1.0,18.271986239782684,10.99744792556306,-15.900898135765184,8.030973443037182,-8.073573800383215,9.08023884664322,26.60165227098234,14.564678707925257,1.0,0.0,348.1621508674715,-8.682764265873253,1010.9935666624114,106.13323873388035,-6.355095130687456,-15.004845751823831,1.0,1009.1845807002582,0.0,1.0,110.45804418334619,6750.38009207956,1.0,1.0,29.916375612615123,2.3415548724954487,-43.14689134235633,-21.051017107110418,1.0,1008.3091131318902,0.0,1.0,49.35228537193595,23.914468633638656,,,
