time_s,x_m,y_m,altitude_m,vx_mps,vy_mps,vz_mps,speed_mps,mass_kg,roll_deg,pitch_deg,yaw_deg,p_dps,q_dps,r_dps,alpha_deg,beta_deg,qbar_pa,mach,airspeed_mps,load_factor_g,density_kgpm3,pressure_pa,temperature_k,wind_x_mps,wind_y_mps,wind_z_mps,thrust_n,mass_flow_kgps,propulsion_throttle_actual,propulsion_health,energy_j_per_kg,target_distance_m,guidance_mode,pitch_command_deg,heading_command_deg,roll_command_deg,elevator_command_deg,aileron_command_deg,rudder_command_deg,elevator_deg,aileron_deg,rudder_deg,throttle,elevator_saturated,aileron_saturated,rudder_saturated,elevator_failed,aileron_failed,rudder_failed,elevator_raw_rad,aileron_raw_rad,rudder_raw_rad,elevator_effective_rad,aileron_effective_rad,rudder_effective_rad,sensor_time_s,imu_valid,imu_ax_mps2,imu_ay_mps2,imu_az_mps2,gyro_p_rps,gyro_q_rps,gyro_r_rps,imu_accel_norm_mps2,imu_gyro_norm_rps,gps_valid,gps_latency_s,gps_x_m,gps_y_m,gps_z_m,gps_vx_mps,gps_vy_mps,gps_vz_mps,baro_valid,baro_alt_m,baro_bias_m,pitot_valid,pitot_airspeed_mps,pitot_qbar_pa,pitot_compressibility_factor,mag_valid,mag_heading_deg,mag_x_ut,mag_y_ut,mag_z_ut,radar_valid,optical_flow_valid,horizon_valid,horizon_roll_deg,horizon_pitch_deg
0.0,0.0,0.0,14500.0,168.0,0.0,10.0,168.2973558912914,21.0,0.0,4.0,0.0,0.0,0.0,0.0,0.5935562450052811,0.0,2967.811486241532,0.5703651498833013,168.29735589129137,2.248005065083861,0.20956160755836276,13032.637272130847,216.64999999999998,0.0,0.0,0.0,478.40000000000003,0.23796694453104436,0.92,nominal,156358.425,nan,pitch_program,6.000000000000001,0.0,0.0,-13.62160000000002,-0.0,0.0,-4.8,0.0,0.0,0.92,0.0,0.0,0.0,0.0,0.0,0.0,-0.08377580409572781,0.0,0.0,-0.08377580409572781,0.0,0.0,0.0,1.0,22.039952029066992,0.06421624096399967,-0.05549153272046388,8.96710374289511e-06,-0.00392686140635816,-0.00033643320647488983,22.040115437070227,0.003941257187258108,1.0,0.0,-6.056244605796681,-14.452553801575789,14505.691541827058,168.06173605742853,-0.11079775418696261,10.04166907179879,1.0,14497.48871022862,0.0,1.0,167.72453538558904,3025.811276576433,1.0,1.0,1.9849282074758248,21.07724535897506,0.014132475832505058,-43.128268434554464,0.0,0.0,1.0,0.3225627711320563,4.232969305443469
0.04,6.737639783316654,0.0,14500.393475421926,168.8829682267017,0.0,9.676405761284657,169.15995325584055,20.990437389859768,0.0,4.339834280684275,0.0,0.0,-16.592933380646375,0.0,1.0605710608507573,0.0,2998.126078763367,0.5732885200843033,169.15995325584055,2.2666847775448655,0.20954860538516928,13031.828666924224,216.64999999999998,0.0,0.0,0.0,482.816,0.24016356248056167,0.92,nominal,156507.82856850553,nan,pitch_program,6.0200000000000005,0.0,0.0,2.71442065694904,-0.0,0.0,0.0,0.0,0.0,0.92,0.0,0.0,0.0,0.0,0.0,0.0,0.0,0.0,0.0,0.0,0.0,0.0,0.04,1.0,22.248739461321012,0.004457972158902777,0.5076767054307417,-8.975239615825204e-05,-0.2906811470180924,0.006616684680462875,22.254531294289162,0.29075645788770904,1.0,0.0,-6.056244605796681,-14.452553801575789,14505.691541827058,168.06173605742853,-0.11079775418696261,10.04166907179879,1.0,14503.748873000204,0.0,1.0,169.44442580350932,3009.2588409429563,1.0,1.0,1.9849282074758248,21.07724535897506,0.014132475832505058,-43.128268434554464,0.0,0.0,1.0,0.3225627711320563,4.232969305443469
0.08,13.510675514767513,0.0,14500.774698748812,169.76952556188797,0.0,9.388687183729164,170.02893652711722,20.980786915001556,0.0,4.893138383003395,0.0,0.0,-10.719915119638541,0.0,1.7277601779105574,0.0,3028.8261670827283,0.5762335323285119,170.0289365271172,2.2852386961973252,0.20953600884496712,13031.04528803507,216.64999999999998,0.0,0.0,0.0,487.232,0.242360180430079,0.92,nominal,156658.94182775624,nan,pitch_program,6.04,0.0,0.0,3.759038024071299,-0.0,0.0,3.007230419257039,0.0,0.0,0.92,0.0,0.0,0.0,0.0,0.0,0.0,0.05248607218216482,0.0,0.0,0.05248607218216482,0.0,0.0,0.08,1.0,22.360464694871194,-0.02338347405040481,1.170651766632787,0.00032815998591068275,-0.18980164256587734,0.0015816988868904915,22.391099877320904,0.18980851661885514,1.0,0.0,-6.056244605796681,-14.452553801575789,14505.691541827058,168.06173605742853,-0.11079775418696261,10.04166907179879,1.0,14495.271480794654,0.0,1.0,169.86129745773104,3039.888398988207,1.0,1.0,-0.7490479202685634,20.365337779118892,-0.015398035674553966,-43.40303184935918,0.0,0.0,1.0,-0.0923479037681312,5.343911874831486
0.12,20.31925790435661,0.0,14501.1449671915,170.6608678452441,0.0,9.125504531694029,170.90467122536424,20.97104857542536,0.0,4.92994566626984,0.0,0.0,8.817131518609195,0.0,1.8691653003875734,0.0,3059.927811250982,0.5792014253757819,170.90467122536424,2.3048595607851876,0.2095237750055052,13030.284465506506,216.64999999999998,0.0,0.0,0.0,491.648,0.24455679837959635,0.92,nominal,156811.8566158334,nan,pitch_program,6.06,0.0,0.0,-1.4142637236705031,-0.0,0.0,-0.5299648950849943,0.0,0.0,0.92,0.0,0.0,0.0,0.0,0.0,0.0,-0.009249632339219466,0.0,0.0,-0.009249632339219466,0.0,0.0,0.12,1.0,22.549879694155287,-0.04084592173786858,1.0549758776783675,-0.00237234848955191,0.156064138125723,0.0011583307911810347,22.574581207913532,0.156086466346389,1.0,0.0,-6.056244605796681,-14.452553801575789,14505.691541827058,168.06173605742853,-0.11079775418696261,10.04166907179879,1.0,14505.84317004272,0.0,1.0,171.10276394523004,3008.9034299628483,1.0,1.0,-0.7490479202685634,20.365337779118892,-0.015398035674553966,-43.40303184935918,0.0,0.0,1.0,-0.0923479037681312,5.343911874831486
0.16,27.163692797686785,0.0,14501.504449721335,171.56267807677992,0.0,8.846537963990034,171.79061017071083,20.961222371131186,0.0,4.502823717341356,0.0,0.0,12.320329032864672,0.0,1.5510117476815368,0.0,3091.559009790731,0.5822039009445393,171.79061017071083,2.3275325632980026,0.20951189822092983,13029.545848222864,216.64999999999998,0.0,0.0,0.0,496.0640000000001,0.2467534163291137,0.92,nominal,156967.18548327227,nan,pitch_program,6.08,0.0,0.0,-4.915791208740608,-0.0,0.0,-4.038625946009485,0.0,0.0,0.92,0.0,0.0,0.0,0.0,0.0,0.0,-0.07048732001433626,0.0,0.0,-0.07048732001433626,0.0,0.0,0.16,1.0,22.800142174432178,0.03319989188614972,0.5554250967856029,0.0022162629116312224,0.21576722143401839,-0.0002460041148525029,22.80693057921827,0.21577874358859986,1.0,0.0,-6.056244605796681,-14.452553801575789,14505.691541827058,168.06173605742853,-0.11079775418696261,10.04166907179879,1.0,14503.353125689991,0.0,1.0,171.94758072700148,3077.230815769545,1.0,1.0,-0.7611812131334899,20.74691153870059,0.00853686375760408,-43.32797582763432,0.0,0.0,1.0,0.21453848142004184,4.721314614708386
0.2,34.04443017990512,0.0,14501.852325191243,172.47576381392398,0.0,8.546286162551166,172.6873710216491,20.95130830211903,0.0,4.257118421613372,0.0,0.0,-0.0191146292039504,0.0,1.4203954382196167,0.0,3123.748266617001,0.5852430522992716,172.6873710216491,2.3502412765398244,0.20950040555785907,13028.831119457242,216.64999999999998,0.0,0.0,0.0,500.48,0.24895003427863102,0.92,nominal,157125.05416002104,nan,pitch_program,6.1,0.0,0.0,-2.698262030900808,-0.0,0.0,-2.9663348139225434,0.0,0.0,0.92,0.0,0.0,0.0,0.0,0.0,0.0,-0.05177230921948171,0.0,0.0,-0.05177230921948171,0.0,0.0,0.2,1.0,23.036250347981216,0.0045659909310376305,0.5367185973271995,0.002825913862601225,-0.005435575370453801,-0.0017066103174499042,23.04250242043721,0.00635954302936557,1.0,0.0,31.758533152959025,-3.6933226876318983,14498.3731517901,172.36062744457303,-0.1382751029959232,8.623457163023266,1.0,14502.950475743344,0.0,1.0,172.13133248791945,3104.1656611054354,1.0,1.0,-0.7611812131334899,20.74691153870059,0.00853686375760408,-43.32797582763432,0.0,0.0,1.0,0.21453848142004184,4.721314614708386
0.24,40.961856419183974,0.0,14502.188247922433,173.3967014152379,0.0,8.251351503075727,173.59291708855082,20.941306368388897,0.0,4.400900723895174,0.0,0.0,-6.956006149153922,0.0,1.6764472654330993,0.0,3156.4278720003067,0.5883119770333491,173.59291708855082,2.3709210593664185,0.2094893083723267,13028.140985441427,216.64999999999998,0.0,0.0,0.0,504.89599999999996,0.2511466522281483,0.92,nominal,157285.13481314474,nan,pitch_program,6.12,0.0,0.0,0.49766741851208623,-0.0,0.0,-0.19513302797483995,0.0,0.0,0.92,0.0,0.0,0.0,0.0,0.0,0.0,-0.0034057138175471596,0.0,0.0,-0.0034057138175471596,0.0,0.0,0.24,1.0,23.23847328590801,0.0030382783380873196,0.961398959846679,0.001759196210680961,-0.11959822139358016,0.005552013942351433,23.258352002044123,0.11973994400629871,1.0,0.0,31.758533152959025,-3.6933226876318983,14498.3731517901,172.36062744457303,-0.1382751029959232,8.623457163023266,1.0,14503.558879301383,0.0,1.0,174.4094757138865,3205.2199332196724,1.0,1.0,-1.1114201617609234,20.707155497212273,0.06279654633319463,-43.325846976118406,0.0,0.0,1.0,0.08449078060680751,4.683470146352719
0.28,47.91623902117008,0.0,14502.512753799238,174.3235667357247,0.0,7.97549407194771,174.50591515807236,20.93121656994078,0.0,4.554324229034699,0.0,0.0,-0.6010949668475782,0.0,1.9348062476998797,0.0,3189.5539272607853,0.5914061568438873,174.50591515807233,2.391113625559869,0.2094785889000232,13027.474341412933,216.64999999999998,0.0,0.0,0.0,509.31200000000007,0.2533432701776657,0.92,nominal,157447.22390962346,nan,pitch_program,6.14,0.0,0.0,-0.004117559596300671,-0.0,0.0,-0.03902660559496801,0.0,0.0,0.92,0.0,0.0,0.0,0.0,0.0,0.0,-0.0006811427635094324,0.0,0.0,-0.0006811427635094324,0.0,0.0,0.28,1.0,23.39918311588965,0.03414839186664129,1.1074124143915756,0.002028252075046659,-0.005958240601299722,0.0032549845405176157,23.425398584851248,0.0070858564691867855,1.0,0.0,31.758533152959025,-3.6933226876318983,14498.3731517901,172.36062744457303,-0.1382751029959232,8.623457163023266,1.0,14499.834632360597,0.0,1.0,173.97969110721803,3237.8252040304637,1.0,1.0,-1.1114201617609234,20.707155497212273,0.06279654633319463,-43.325846976118406,0.0,0.0,1.0,0.08449078060680751,4.683470146352719
0.32,54.907843919613356,0.0,14502.826355635454,175.25814061776651,0.0,7.704378492740296,175.4274017956038,20.921038906774683,0.0,4.432959828767437,0.0,0.0,6.602060380938517,0.0,1.9158479496471412,0.0,3223.168648202386,0.5945291046843192,175.4274017956038,2.4122004638572694,0.20946823014440755,13026.830130356804,216.64999999999998,0.0,0.0,0.0,513.728,0.255539888127183,0.92,nominal,157611.52873087054,nan,pitch_program,6.16,0.0,0.0,-2.522403199453911,-0.0,0.0,-2.025727880682122,0.0,0.0,0.92,0.0,0.0,0.0,0.0,0.0,0.0,-0.03535562126734987,0.0,0.0,-0.03535562126734987,0.0,0.0,0.32,1.0,23.63499812208884,-0.03823278540144194,1.043623924872261,-0.0007698503487642755,0.11358316320041716,0.0016271624951772715,23.65805885683752,0.11359742642312722,1.0,0.0,31.758533152959025,-3.6933226876318983,14498.3731517901,172.36062744457303,-0.1382751029959232,8.623457163023266,1.0,14506.30396313003,0.0,1.0,174.83188302375,3271.297934367766,1.0,1.0,0.5599854402746506,20.68551946256616,0.0012030225546295838,-43.28244770417962,0.0,0.0,1.0,-0.14368028964104557,4.026969410342818
0.36,61.93702537111638,0.0,14503.128917672828,176.20250476829096,0.0,7.422855893675639,176.3587862178629,20.910773378890607,0.0,4.211270686172317,0.0,0.0,4.425926182122999,0.0,1.7990064874956144,0.0,3257.3291772061266,0.5976855964354073,176.35878621786293,2.4343486663731153,0.2094582365360017,13026.208627807217,216.64999999999998,0.0,0.0,0.0,518.1440000000001,0.2577365060767004,0.92,nominal,157778.31993861517,nan,pitch_program,6.18,0.0,0.0,-3.06874032242593,-0.0,0.0,-2.8601378340771686,0.0,0.0,0.92,0.0,0.0,0.0,0.0,0.0,0.0,-0.04991882226550586,0.0,0.0,-0.04991882226550586,0.0,0.0,0.36,1.0,23.846730285927308,0.017078488452456634,0.9169859327418528,0.002625691012318353,0.0775006343540149,-0.004200281309021834,23.86436046084992,0.0776587724706089,1.0,0.0,31.758533152959025,-3.6933226876318983,14498.3731517901,172.36062744457303,-0.1382751029959232,8.623457163023266,1.0,14500.867696043138,0.0,1.0,176.75691970467687,3277.516904225263,1.0,1.0,0.5599854402746506,20.68551946256616,0.0012030225546295838,-43.28244770417962,0.0,0.0,1.0,-0.14368028964104557,4.026969410342818
0.4,69.00416804849982,0.0,14503.420096072572,177.15600540827526,0.0,7.136281764576131,177.2996806811571,20.900419986288547,0.0,4.154385233060767,0.0,0.0,-1.5011723023225425,0.0,1.8476167937747021,0.0,3292.027187164453,0.6008743180213115,177.29968068115713,2.4559778391547074,0.2094486193787753,13025.610536758091,216.64999999999998,0.0,0.0,0.0,522.5600000000001,0.2599331240262177,0.92,nominal,157947.55306997022,nan,pitch_program,6.2,0.0,0.0,-1.4906997602649175,-0.0,0.0,-1.7645873750273677,0.0,0.0,0.92,0.0,0.0,0.0,0.0,0.0,0.0,-0.03079785963335153,0.0,0.0,-0.03079785963335153,0.0,0.0,0.4,1.0,24.041090593273026,-0.04500358335360431,0.9429899675853048,0.002023840005181767,-0.0224151635560493,0.001732668162615753,24.059619538044277,0.022572940095892627,1.0,0.0,69.60389361730579,-10.023653412103453,14505.822476705116,177.2364476556169,-0.2762817506196476,7.21201753929058,1.0,14508.46425878976,0.0,1.0,176.82667438536745,3324.5253943955577,1.0,1.0,-1.1507104654202995,20.966148269947826,0.014704042995086555,-43.29060280314996,0.0,0.0,1.0,0.11869794040652398,4.660198003238279
0.44,76.10960219082855,0.0,14503.699952605253,178.11692573423127,0.0,6.857582229823443,178.24888686062656,20.889978728968508,0.0,4.221768169637873,0.0,0.0,-1.752543788703019,0.0,2.0169436972444554,0.0,3327.2236448099625,0.6040912082805557,178.24888686062658,2.4767161662058603,0.20943937658087144,13025.035727116841,216.64999999999998,0.0,0.0,0.0,526.976,0.262129741975735,0.92,nominal,158119.0419737425,nan,pitch_program,6.22,0.0,0.0,-0.6639493170540365,-0.0,0.0,-0.8840769286487028,0.0,0.0,0.92,0.0,0.0,0.0,0.0,0.0,0.0,-0.015430053245838847,0.0,0.0,-0.015430053245838847,0.0,0.0,0.44,1.0,24.216627556760105,0.07509587677116007,1.1815741253821879,0.000789607133830544,-0.030209561894424492,0.0023214080559461462,24.245552314338266,0.030308910317612413,1.0,0.0,69.60389361730579,-10.023653412103453,14505.822476705116,177.2364476556169,-0.2762817506196476,7.21201753929058,1.0,14503.256559385483,0.0,1.0,178.73875073159743,3309.8266231271027,1.0,1.0,-1.1507104654202995,20.966148269947826,0.014704042995086555,-43.29060280314996,0.0,0.0,1.0,0.11869794040652398,4.660198003238279
0.48,83.253617416312,0.0,14503.968831930828,179.08516012732164,0.0,6.5868582353197676,179.20625346019773,20.87944960693049,0.0,4.2063367104706,0.0,0.0,2.546523292449307,0.0,2.099913534504805,0.0,3362.917769054187,0.6073357544658824,179.20625346019773,2.49746037020072,0.20943049671044617,13024.48348793704,216.64999999999998,0.0,0.0,0.0,531.392,0.26432635992525233,0.92,nominal,158292.78658527476,nan,pitch_program,6.240000000000001,0.0,0.0,-1.6329145463369872,-0.0,0.0,-1.4831470227993302,0.0,0.0,0.92,0.0,0.0,0.0,0.0,0.0,0.0,-0.02588579883899972,0.0,0.0,-0.02588579883899972,0.0,0.0,0.48,1.0,24.440061246053627,-0.015786655920125812,1.182678939442914,-0.0003283581531905378,0.0441305204543986,0.0028070631184894685,24.46866511281642,0.04422092556702137,1.0,0.0,69.60389361730579,-10.023653412103453,14505.822476705116,177.2364476556169,-0.2762817506196476,7.21201753929058,1.0,14505.753271987976,0.0,1.0,179.61125481109607,3347.9935955277597,1.0,1.0,-0.016169170088370554,20.86797514014889,-0.0568923487975029,-43.24359933503376,0.0,0.0,1.0,-0.18039758799319058,3.445130840543901
0.52,90.43653051113219,0.0,14504.226863942507,180.0619594305438,0.0,6.314430827739494,180.17264295848332,20.868832620174487,0.0,4.075150309099904,0.0,0.0,3.980636858392305,0.0,2.0667192086287796,0.0,3399.1470642626473,0.6106108795450389,180.1726429584833,2.518805382942505,0.20942197543184984,13023.953549584616,216.64999999999998,0.0,0.0,0.0,535.808,0.26652297787476964,0.92,nominal,158468.96701060433,nan,pitch_program,6.260000000000001,0.0,0.0,-2.586206556222801,-0.0,0.0,-2.3655946495381066,0.0,0.0,0.92,0.0,0.0,0.0,0.0,0.0,0.0,-0.041287415402001315,0.0,0.0,-0.041287415402001315,0.0,0.0,0.52,1.0,24.652022376852027,-0.023672421802965485,1.0638422841338124,-0.0041003556722694285,0.07119381523110474,0.0005144578227476238,24.6749777721861,0.07131365164294408,1.0,0.0,69.60389361730579,-10.023653412103453,14505.822476705116,177.2364476556169,-0.2762817506196476,7.21201753929058,1.0,14503.159135360107,0.0,1.0,179.72776785098807,3410.9029035963213,1.0,1.0,-0.016169170088370554,20.86797514014889,-0.0568923487975029,-43.24359933503376,0.0,0.0,1.0,-0.18039758799319058,3.445130840543901
0.56,97.65869595758245,0.0,14504.473901601445,181.04774012845883,0.0,6.037341309838056,181.14837480836928,20.858127768700506,0.0,3.9728214287855512,0.0,0.0,1.1585202870341182,0.0,2.062905056564431,0.0,3435.929327665886,0.6139176661541262,181.14837480836928,2.5403544137977034,0.2094138175568811,13023.446211305349,216.64999999999998,0.0,0.0,0.0,540.224,0.268719595824287,0.92,nominal,158647.66583499653,nan,pitch_program,6.28,0.0,0.0,-2.193985308318049,-0.0,0.0,-2.22830717656206,0.0,0.0,0.92,0.0,0.0,0.0,0.0,0.0,0.0,-0.03889129697682657,0.0,0.0,-0.03889129697682657,0.0,0.0,0.56,1.0,24.861550920348126,-0.014420410313563309,1.079882471086922,0.0023753918418035966,0.018316046254353808,-0.0014771672718084208,24.884996850806655,0.018528412234798675,1.0,0.0,69.60389361730579,-10.023653412103453,14505.822476705116,177.2364476556169,-0.2762817506196476,7.21201753929058,1.0,14501.789259195863,0.0,1.0,181.3338997048915,3404.885687403615,1.0,1.0,0.05427760456933768,21.010178939603488,0.024581835224760276,-43.11846370930909,0.0,0.0,1.0,-0.04952645340959745,4.351208635697806
0.6,104.92045832172985,0.0,14504.709879639962,182.04169162206702,0.0,5.762102668255042,182.13286171304526,20.847335052508544,0.0,3.964957310035621,0.0,0.0,-0.6861745056018859,0.0,2.151999128852121,0.0,3473.248049444193,0.6172541239253723,182.13286171304523,2.561518871215267,0.20940602519829732,13022.96160449163,216.64999999999998,0.0,0.0,0.0,544.64,0.2709162137738043,0.92,nominal,158828.80279906286,nan,pitch_program,6.3,0.0,0.0,-1.4365830099286174,-0.0,0.0,-1.594927843255306,0.0,0.0,0.92,0.0,0.0,0.0,0.0,0.0,0.0,-0.027836742196537125,0.0,0.0,-0.027836742196537125,0.0,0.0,0.6,1.0,25.061774643117957,0.01733662082518371,1.1917160849296604,-0.0059939284980820694,-0.011052123612353163,-0.0012153869831135462,25.090098366645197,0.012631459959227856,1.0,0.0,98.20559805606645,-0.8999799510570993,14510.07661580179,182.2172962318402,0.3009528389527853,5.636285866183127,1.0,14508.53474941159,0.0,1.0,181.54701168322836,3455.372219583807,1.0,1.0,0.05427760456933768,21.010178939603488,0.024581835224760276,-43.11846370930909,0.0,0.0,1.0,-0.04952645340959745,4.351208635697806
0.64,112.22213152742657,0.0,14504.934965689357,183.04328042768228,0.0,5.492757211843261,183.12567512917295,20.836454471598604,0.0,3.9602238648385124,0.0,0.0,0.9737923882007338,0.0,2.2414096440344284,0.0,3511.09225417416,0.620618800511626,183.12567512917295,2.582446783424329,0.20939859278017411,13022.499382376696,216.64999999999998,0.0,0.0,0.0,549.0559999999999,0.2731128317233216,0.92,nominal,159012.32692703523,nan,pitch_program,6.32,0.0,0.0,-1.5987515398222798,-0.0,0.0,-1.5979868005088849,0.0,0.0,0.92,0.0,0.0,0.0,0.0,0.0,0.0,-0.02789013107228984,0.0,0.0,-0.02789013107228984,0.0,0.0,0.64,1.0,25.268467502143224,-0.06926739674205176,1.3680490508047178,-0.0006871492332895192,0.01916286135024213,0.0024451031505412536,25.305568677358888,0.019330441242097936,1.0,0.0,98.20559805606645,-0.8999799510570993,14510.07661580179,182.2172962318402,0.3009528389527853,5.636285866183127,1.0,14509.32959779636,0.0,1.0,183.35407992632005,3504.1340665323837,1.0,1.0,-0.855629222658691,21.074252712074426,0.008291052627199655,-43.147491025110064,0.0,0.0,1.0,0.006915726090833276,4.601774095785162
0.68,119.56402896730334,0.0,14505.149326392724,184.0529928721359,0.0,5.225334265713663,184.1271525424182,20.82548602597068,0.0,3.8852151456543287,0.0,0.0,2.7761725363567833,0.0,2.259003059606654,0.0,3549.4801926630353,0.624012839662659,184.12715254241823,2.6035847226424984,0.20939151476187734,13022.059200388487,216.64999999999998,0.0,0.0,0.0,553.4720000000001,0.27530944967283905,0.92,nominal,159198.32679335866,nan,pitch_program,6.34,0.0,0.0,-2.2733787276836575,-0.0,0.0,-2.1383003422487032,0.0,0.0,0.92,0.0,0.0,0.0,0.0,0.0,0.0,-0.03732038136876148,0.0,0.0,-0.03732038136876148,0.0,0.0,0.68,1.0,25.530851989135314,-0.04168706322690143,1.2885204367287937,0.002014445715824742,0.04583501931875657,-0.00020313654011118204,25.5633805670972,0.045879715037767194,1.0,0.0,98.20559805606645,-0.8999799510570993,14510.07661580179,182.2172962318402,0.3009528389527853,5.636285866183127,1.0,14510.959728663396,0.0,1.0,183.8522006827687,3552.942626836943,1.0,1.0,-0.855629222658691,21.074252712074426,0.008291052627199655,-43.147491025110064,0.0,0.0,1.0,0.006915726090833276,4.601774095785162
0.72,126.94648768472966,0.0,14505.352948674072,185.07136651867364,0.0,4.955706598374773,185.13770478478557,20.814429715624776,0.0,3.791916574028722,0.0,0.0,1.8979640864922223,0.0,2.2580583490706387,0.0,3588.4333886722206,0.6274376337013429,185.13770478478557,2.624997034083962,0.20938479153922415,13021.641083142873,216.64999999999998,0.0,0.0,0.0,557.888,0.27750606762235636,0.92,nominal,159386.90436060377,nan,pitch_program,6.36,0.0,0.0,-2.3653711273072417,-0.0,0.0,-2.319956970295534,0.0,0.0,0.92,0.0,0.0,0.0,0.0,0.0,0.0,-0.040490887636249355,0.0,0.0,-0.040490887636249355,0.0,0.0,0.72,1.0,25.69379571015813,-0.007611917963291339,1.3259765265632333,-0.0017002863529614084,0.03268118401915876,0.0021748305269490838,25.727988838726436,0.03279757080024578,1.0,0.0,98.20559805606645,-0.8999799510570993,14510.07661580179,182.2172962318402,0.3009528389527853,5.636285866183127,1.0,14506.671636808287,0.0,1.0,184.46135045092564,3540.976306858733,1.0,1.0,0.8756401447471279,21.215801755715095,-0.03502009456010383,-43.09213254017045,0.0,0.0,1.0,-0.2517459631466969,3.801850329200168
0.76,134.36985080094175,0.0,14505.545777278989,186.09814862989336,0.0,4.686016908559232,186.15713705883314,20.803285540560893,0.0,3.749267319130625,0.0,0.0,0.28634815843215905,0.0,2.306844221527258,0.0,3627.9501853891716,0.6308925224528844,186.15713705883311,2.646314251596862,0.20937842490236508,13021.245141969323,216.64999999999998,0.0,0.0,0.0,562.3040000000001,0.2797026855718737,0.92,nominal,159578.0503357236,nan,pitch_program,6.38,0.0,0.0,-1.9248394738418841,-0.0,0.0,-2.0038629731326143,0.0,0.0,0.92,0.0,0.0,0.0,0.0,0.0,0.0,-0.03497400663996679,0.0,0.0,-0.03497400663996679,0.0,0.0,0.76,1.0,25.93688224803312,0.02249582990040733,1.415764135866889,-0.0030084665662428673,0.004419240993109124,0.0033503430799876836,25.97550297682617,0.006309148975020214,1.0,0.0,98.20559805606645,-0.8999799510570993,14510.07661580179,182.2172962318402,0.3009528389527853,5.636285866183127,1.0,14502.220726228536,0.0,1.0,185.8892500588229,3622.27825428485,1.0,1.0,0.8756401447471279,21.215801755715095,-0.03502009456010383,-43.09213254017045,0.0,0.0,1.0,-0.2517459631466969,3.801850329200168
0.8,141.83444456994187,0.0,14505.727888479605,187.13286803210528,0.0,4.420018842437598,187.18506047355606,20.792053500779026,0.0,3.7322138025303224,0.0,0.0,0.6192636298643347,0.0,2.379157289306954,0.0,3668.021134401214,0.6343761879531654,187.18506047355606,2.6674165399686633,0.2093724123006133,13020.871218240613,216.64999999999998,0.0,0.0,0.0,566.72,0.281899303521391,0.92,nominal,159771.71982980293,nan,pitch_program,6.4,0.0,0.0,-1.8210418548782161,-0.0,0.0,-1.8576060785290955,0.0,0.0,0.92,0.0,0.0,0.0,0.0,0.0,0.0,-0.03242134227539306,0.0,0.0,-0.03242134227539306,0.0,0.0,0.8,1.0,26.16667986900523,0.0416055013207252,1.5238893802640472,-0.0021384238186860785,0.008843291118729802,-0.0021487229052000634,26.21104929658531,0.009348457860110444,1.0,0.0,148.16092067788148,2.3593000228182355,14505.680786095934,187.1615530781922,-0.06805753574152172,4.41820507783793,1.0,14500.803762474558,0.0,1.0,187.56106014002108,3707.980814007208,1.0,1.0,1.875768927168171,21.297511421471423,-0.02334473854944351,-43.06691978523224,0.0,0.0,1.0,-0.2538184740447178,3.8888534927350538
0.84,149.3405869381269,0.0,14505.899420822843,188.1756239800153,0.0,4.156820974106132,188.22153070485555,20.78073359627918,0.0,3.6815340960154685,0.0,0.0,1.933376896635896,0.0,2.4160696091739107,0.0,3708.6539867799925,0.6378888188896048,188.22153070485552,2.688538083889855,0.20936674912938982,13020.519025597954,216.64999999999998,0.0,0.0,0.0,571.136,0.2840959214709083,0.92,nominal,159967.95086565177,nan,pitch_program,6.42,0.0,0.0,-2.2043882768926055,-0.0,0.0,-2.1350318372199037,0.0,0.0,0.92,0.0,0.0,0.0,0.0,0.0,0.0,-0.037263335194390936,0.0,0.0,-0.037263335194390936,0.0,0.0,0.84,1.0,26.339807842839555,-0.015908370633943902,1.4039617024399196,0.0022244538956223423,0.03689591257892611,0.0006162688898660338,26.37720301199288,0.03696804495114834,1.0,0.0,148.16092067788148,2.3593000228182355,14505.680786095934,187.1615530781922,-0.06805753574152172,4.41820507783793,1.0,14507.551698827476,0.0,1.0,187.65279650372915,3773.8521010067584,1.0,1.0,1.875768927168171,21.297511421471423,-0.02334473854944351,-43.06691978523224,0.0,0.0,1.0,-0.2538184740447178,3.8888534927350538
0.88,156.88860756252726,0.0,14506.060421737271,189.22681442167803,0.0,3.8932570435488336,189.26686119493638,20.769325827061355,0.0,3.605397886845296,0.0,0.0,1.8846599393118788,0.0,2.426729154621018,0.0,3749.866856726871,0.6414314775279121,189.26686119493638,2.70985165109743,0.20936143379454752,13020.188464901334,216.64999999999998,0.0,0.0,0.0,575.552,0.28629253942042565,0.92,nominal,160166.82980812146,nan,pitch_program,6.44,0.0,0.0,-2.414723681581904,-0.0,0.0,-2.358785312709504,0.0,0.0,0.92,0.0,0.0,0.0,0.0,0.0,0.0,-0.04116857005446489,0.0,0.0,-0.04116857005446489,0.0,0.0,0.88,1.0,26.598081893210836,-0.056846211253428466,1.5207060405747754,0.0017378955623530748,0.033075577416937105,0.00043196713933973935,26.641579133968854,0.03312401995620272,1.0,0.0,148.16092067788148,2.3593000228182355,14505.680786095934,187.1615530781922,-0.06805753574152172,4.41820507783793,1.0,14502.354411830423,0.0,1.0,188.96197098436252,3767.1337441510527,1.0,1.0,1.3410760508621564,21.358318017178817,0.0059233228732307195,-43.04830094707314,0.0,0.0,1.0,-0.08181619588055228,3.6976229549888515
0.92,164.47884494934632,0.0,14506.210872296995,190.28643127512112,0.0,3.6294791492821656,190.32104204820985,20.757830193125546,0.0,3.552478907473813,0.0,0.0,0.7991043407257629,0.0,2.459765030139545,0.0,3791.6653399179913,0.6450041303316186,190.32104204820985,2.731196684160945,0.2093564668944042,13019.879573360135,216.64999999999998,0.0,0.0,0.0,579.968,0.28848915736994296,0.92,nominal,160368.38237396957,nan,pitch_program,6.46,0.0,0.0,-2.2042210808035656,-0.0,0.0,-2.2351339271847532,0.0,0.0,0.92,0.0,0.0,0.0,0.0,0.0,0.0,-0.039010446252405136,0.0,0.0,-0.039010446252405136,0.0,0.0,0.92,1.0,26.700345103287493,0.015705542704126604,1.5797260125654966,0.0009516298735982592,0.01272606637507967,-0.00012983215546151625,26.747041136796724,0.012762257683805395,1.0,0.0,148.16092067788148,2.3593000228182355,14505.680786095934,187.1615530781922,-0.06805753574152172,4.41820507783793,1.0,14504.677603918339,0.0,1.0,189.89750709718362,3772.1873213957847,1.0,1.0,1.3410760508621564,21.358318017178817,0.0059233228732307195,-43.04830094707314,0.0,0.0,1.0,-0.08181619588055228,3.6976229549888515
0.96,172.11162976260078,0.0,14506.350816290867,191.35415348831256,0.0,3.3681166568842285,191.38379311489012,20.746246694471758,0.0,3.5245944474939255,0.0,0.0,0.643195422924748,0.0,2.5162079533082062,0.0,3834.044212227322,0.6486058278640937,191.38379311489015,2.7524045044427123,0.2093518469585929,13019.592259532232,216.64999999999998,0.0,0.0,0.0,584.384,0.2906857753194603,0.92,nominal,160572.58336610036,nan,pitch_program,6.48,0.0,0.0,-2.061344064856656,-0.0,0.0,-2.0961020373222756,0.0,0.0,0.92,0.0,0.0,0.0,0.0,0.0,0.0,-0.03658388200903478,0.0,0.0,-0.03658388200903478,0.0,0.0,0.96,1.0,26.98817500564468,0.01231926051938102,1.6294593187164437,-0.00011778920603343397,0.014325289168576977,-0.00032030735832690285,27.037323824129412,0.014329353818794664,1.0,0.0,148.16092067788148,2.3593000228182355,14505.680786095934,187.1615530781922,-0.06805753574152172,4.41820507783793,1.0,14502.840513286486,0.0,1.0,191.34343118655323,3784.3977161024245,1.0,1.0,-0.8779208712999178,21.32195424801072,0.0008456021625410988,-42.97812429142145,0.0,0.0,1.0,0.032433043219334025,3.564352979020865
1.0,179.7872842486925,0.0,14506.480362837052,192.4299353847934,0.0,3.1094944221344196,192.45505705945232,20.73457533109999,0.0,3.482731240497621,0.0,0.0,1.4773825628298882,0.0,2.5569636255795647,0.0,3877.006989673975,0.6522363758134,192.45505705945234,2.773563931154797,0.20934757036197166,13019.326297970028,216.64999999999998,0.0,0.0,0.0,588.8000000000001,0.2928823932689777,0.92,nominal,160779.45014409447,nan,pitch_program,6.5,0.0,0.0,-2.269187158625354,-0.0,0.0,-2.234570134364738,0.0,0.0,0.92,0.0,0.0,0.0,0.0,0.0,0.0,-0.03900060621139677,0.0,0.0,-0.03900060621139677,0.0,0.0,1.0,1.0,27.15878030841737,-0.033528278752470886,1.6529127013926264,0.0031122155606933886,0.023961565801163133,-0.0004537801906851138,27.209053500347643,0.02416709411164592,1.0,0.0,178.0081069053744,3.1000170917265457,14499.893168301998,192.24113545065396,-0.09427000198388218,2.97961260313583,1.0,14512.252985935633,0.0,1.0,193.19929061230033,3843.156060123944,1.0,1.0,-0.8779208712999178,21.32195424801072,0.0008456021625410988,-42.97812429142145,0.0,0.0,1.0,0.032433043219334025,3.564352979020865
1.04,187.5060777369399,0.0,14506.599577200348,193.5096821202572,0.0,2.8512550133631596,193.53068679006495,20.722861052321985,0.0,3.4197949158542067,0.0,0.0,1.68547514566076,0.0,2.5756353060012143,0.0,3920.3915163163642,0.6558817195519913,193.53068679006495,2.772645459173978,0.2093436349290414,13019.08155337923,216.64999999999998,0.0,0.0,0.0,588.6977777777778,0.29283154563125735,0.92,nominal,160988.2081084689,nan,pitch_program,6.52,0.0,0.0,-2.4706279080704885,-0.0,0.0,-2.4234163533293382,0.0,0.0,0.92,0.0,0.0,0.0,0.0,0.0,0.0,-0.0422965945122712,0.0,0.0,-0.0422965945122712,0.0,0.0,1.04,1.0,27.174651991114647,0.08209940488310168,1.7031192430247037,0.0037072856089737606,0.02785269064969062,-0.000717315906609876,27.228093328517048,0.028107488061435565,1.0,0.0,178.0081069053744,3.1000170917265457,14499.893168301998,192.24113545065396,-0.09427000198388218,2.97961260313583,1.0,14507.100858799806,0.0,1.0,193.41746054672987,3857.615612129112,1.0,1.0,1.2892820476969535,21.50730550102806,0.14268177879962665,-42.96032543661311,0.0,0.0,1.0,0.23310546971279078,3.6339042802924686
1.08,195.26805491845485,0.0,14506.708452612735,194.58910455921418,0.0,2.592628478486922,194.60637537240206,20.71114880744949,0.0,3.366890508430034,0.0,0.0,0.9918617635347677,0.0,2.6035493079569614,0.0,3964.025472388619,0.659527262740969,194.60637537240203,2.7717741515620817,0.20934004086398103,13018.858038457724,216.64999999999998,0.0,0.0,0.0,588.5955555555556,0.29278069799353706,0.92,nominal,161198.0331146068,nan,pitch_program,6.54,0.0,0.0,-2.3819320429884066,-0.0,0.0,-2.390228905056593,0.0,0.0,0.92,0.0,0.0,0.0,0.0,0.0,0.0,-0.041717364269576486,0.0,0.0,-0.041717364269576486,0.0,0.0,1.08,1.0,27.137160507711236,-0.02502519049099016,1.684369829025248,-0.00013210453407288853,0.020644516676939013,0.0024575524751704702,27.189395145945635,0.02079069706865434,1.0,0.0,178.0081069053744,3.1000170917265457,14499.893168301998,192.24113545065396,-0.09427000198388218,2.97961260313583,1.0,14505.284331586518,0.0,1.0,194.18343695867452,3933.627400200787,1.0,1.0,1.2892820476969535,21.50730550102806,0.14268177879962665,-42.96032543661311,0.0,0.0,1.0,0.23310546971279078,3.6339042802924686
1.12,203.07319873630763,0.0,14506.807006911169,195.66798602073553,0.0,2.335353351262301,195.68192207939396,20.6994385964825,0.0,3.3335413614979057,0.0,0.0,0.7190851282364842,0.0,2.6497323216717783,0.0,4007.900864756462,0.6631723251098406,195.68192207939396,2.7708100686860018,0.20933678756041277,13018.655715494871,216.64999999999998,0.0,0.0,0.0,588.4933333333333,0.2927298503558167,0.92,nominal,161408.88624866842,nan,pitch_program,6.5600000000000005,0.0,0.0,-2.2648906905760273,-0.0,0.0,-2.2899583334721405,0.0,0.0,0.92,0.0,0.0,0.0,0.0,0.0,0.0,-0.03996731265257113,0.0,0.0,-0.03996731265257113,0.0,0.0,1.12,1.0,27.14682757996211,-0.031040520587644428,1.8465874006910115,-0.0012480854341916556,0.009838756022335023,0.0007666112545257264,27.20957728812597,0.009947187046277986,1.0,0.0,178.0081069053744,3.1000170917265457,14499.893168301998,192.24113545065396,-0.09427000198388218,2.97961260313583,1.0,14505.637977413622,0.0,1.0,195.81508914325016,3994.51222808397,1.0,1.0,0.19740921746118686,21.589616201646997,-0.04420177874997674,-42.93109983778337,0.0,0.0,1.0,0.367103914393271,2.868051051997061
1.16,210.92148502628635,0.0,14506.895311347762,196.74623556034877,0.0,2.0800894091778406,196.75723107199497,20.687730419421023,0.0,3.2948112503036406,0.0,0.0,1.248217878355231,0.0,2.6890771502989677,0.0,4052.01380788287,0.6668165818569988,196.75723107199494,2.7697627299836687,0.20933387265045134,13018.474437231878,216.64999999999998,0.0,0.0,0.0,588.3911111111112,0.29267900271809644,0.92,nominal,161620.7488945877,nan,pitch_program,6.58,0.0,0.0,-2.3869520054948694,-0.0,0.0,-2.367553271090324,0.0,0.0,0.92,0.0,0.0,0.0,0.0,0.0,0.0,-0.04132159979688803,0.0,0.0,-0.04132159979688803,0.0,0.0,1.16,1.0,27.07188072780125,0.018587537060100173,1.792270617099117,-4.472625110210913e-05,0.02483353179175481,0.0019237495489914302,27.13115009729126,0.024907972900597094,1.0,0.0,178.0081069053744,3.1000170917265457,14499.893168301998,192.24113545065396,-0.09427000198388218,2.97961260313583,1.0,14508.812729307945,0.0,1.0,196.2935588106721,4045.6265200416487,1.0,1.0,0.19740921746118686,21.589616201646997,-0.04420177874997674,-42.93109983778337,0.0,0.0,1.0,0.367103914393271,2.868051051997061
1.2,218.81289136318048,0.0,14506.973420682038,197.82400966715483,0.0,1.8254727230621657,197.83243200105795,20.676024276265053,0.0,3.240470596995905,0.0,0.0,1.488893066275084,0.0,2.7117738313499813,0.0,4096.369679253334,0.6704604723733525,197.83243200105795,2.768754509987577,0.2093312943123971,13018.314090377236,216.64999999999998,0.0,0.0,0.0,588.2888888888889,0.2926281550803761,0.92,nominal,161833.6464716581,nan,pitch_program,6.6,0.0,0.0,-2.552903801870836,-0.0,0.0,-2.515833695714734,0.0,0.0,0.92,0.0,0.0,0.0,0.0,0.0,0.0,-0.04390958142283926,0.0,0.0,-0.04390958142283926,0.0,0.0,1.2,1.0,27.13936941809063,0.06306482018866198,1.8393259998120444,-0.00013216227888778834,0.028429083282799604,-0.0001943358016607929,27.201699757859306,0.02843005468816625,1.0,0.0,203.6620989592235,-1.170508952334346,14490.411822914073,197.87251043263115,0.024909568298184238,1.8321833142763022,1.0,14505.040632011145,0.0,1.0,198.32336482701396,4105.44502346517,1.0,1.0,0.07279488918118421,21.620036664660617,0.026940747801058023,-42.84581438836204,0.0,0.0,1.0,0.1718013532083167,3.31639004494596
1.24,226.7474007152093,0.0,14507.041345156402,198.9013780577235,0.0,1.5708869028843988,198.9075812504971,20.664320167014594,0.0,3.1908531835121448,0.0,0.0,1.0225021500691829,0.0,2.738350947465571,0.0,4140.970952046277,0.6741041877457995,198.9075812504971,2.7677990416112794,0.20932905219572517,13018.1746531318,216.64999999999998,0.0,0.0,0.0,588.1866666666667,0.2925773074426558,0.92,nominal,162047.58994693955,nan,pitch_program,6.62,0.0,0.0,-2.5184735303543375,-0.0,0.0,-2.517945563426417,0.0,0.0,0.92,0.0,0.0,0.0,0.0,0.0,0.0,-0.04394644046777469,0.0,0.0,-0.04394644046777469,0.0,0.0,1.24,1.0,27.031471457194456,-0.011605378712605174,1.9443771005727966,0.0015865455449370655,0.017625140095805986,-0.002376536093496108,27.10131336550252,0.017855268521269493,1.0,0.0,203.6620989592235,-1.170508952334346,14490.411822914073,197.87251043263115,0.024909568298184238,1.8321833142763022,1.0,14514.067450581388,0.0,1.0,198.7314954335473,4116.170966919125,1.0,1.0,0.07279488918118421,21.620036664660617,0.026940747801058023,-42.84581438836204,0.0,0.0,1.0,0.1718013532083167,3.31639004494596
1.28,234.72499413838642,0.0,14507.099108279555,199.978191142983,0.0,1.317524650461875,199.98253124716675,20.65261809166964,0.0,3.155934688994797,0.0,0.0,0.7639125077631409,0.0,2.7784559787049417,0.0,4185.811605378516,0.6777472278442047,199.98253124716675,2.766789938037228,0.2093271455136457,13018.056076565106,216.64999999999998,0.0,0.0,0.0,588.0844444444444,0.29252645980493547,0.92,nominal,162262.54987222172,nan,pitch_program,6.64,0.0,0.0,-2.4342879317623023,-0.0,0.0,-2.451019458095125,0.0,0.0,0.92,0.0,0.0,0.0,0.0,0.0,0.0,-0.042778359574207114,0.0,0.0,-0.042778359574207114,0.0,0.0,1.28,1.0,27.10106270202989,-0.060961590163669074,1.9668936895284832,0.0015267865395474582,0.01178778074041519,0.0010425452223271436,27.172412235220076,0.011931879670112491,1.0,0.0,203.6620989592235,-1.170508952334346,14490.411822914073,197.87251043263115,0.024909568298184238,1.8321833142763022,1.0,14517.025724810908,0.0,1.0,199.7306839157121,4227.49201380024,1.0,1.0,0.6404825376029071,21.680680277137203,-0.006569877914700802,-42.86585702194803,0.0,0.0,1.0,-0.2581612528338506,3.3224261516825107
1.32,242.74564717224024,0.0,14507.14677481839,201.0543616816986,0.0,1.0660359597270876,201.05718784441083,20.640918050230198,0.0,3.1187116620134905,0.0,0.0,1.1289093726607367,0.0,2.814919252771192,0.0,4230.887708415454,0.6813892736025238,201.05718784441083,2.765700116735469,0.20932557211915204,13017.958227154802,216.64999999999998,0.0,0.0,0.0,587.9822222222223,0.2924756121672152,0.92,nominal,162478.5073112241,nan,pitch_program,6.66,0.0,0.0,-2.520068871931754,-0.0,0.0,-2.5062589891644285,0.0,0.0,0.92,0.0,0.0,0.0,0.0,0.0,0.0,-0.04374247126862416,0.0,0.0,-0.04374247126862416,0.0,0.0,1.32,1.0,27.05645145407193,-0.048400960677325945,2.0604208749395987,0.001302129741937797,0.021068235628697824,0.0007422440657022214,27.13483447750202,0.0211214824438116,1.0,0.0,203.6620989592235,-1.170508952334346,14490.411822914073,197.87251043263115,0.024909568298184238,1.8321833142763022,1.0,14501.886879196034,0.0,1.0,201.46409879066883,4251.838814539408,1.0,1.0,0.6404825376029071,21.680680277137203,-0.006569877914700802,-42.86585702194803,0.0,0.0,1.0,-0.2581612528338506,3.3224261516825107
1.36,250.80933600460077,0.0,14507.184401874627,202.12999724224622,0.0,0.8154547830478411,202.13164213366906,20.629220042696264,0.0,3.0699777803495665,0.0,0.0,1.3304929587865462,0.0,2.8388301792276316,0.0,4276.203088957351,0.6850306337325747,202.13164213366906,2.7646221429691433,0.20932433011991283,13017.880987216795,216.64999999999998,0.0,0.0,0.0,587.88,0.2924247645294949,0.92,nominal,162695.48029047062,nan,pitch_program,6.68,0.0,0.0,-2.653549063818192,-0.0,0.0,-2.6240910488874394,0.0,0.0,0.92,0.0,0.0,0.0,0.0,0.0,0.0,-0.0457990286751973,0.0,0.0,-0.0457990286751973,0.0,0.0,1.36,1.0,27.016132520706936,0.030057852415360995,2.0553755670575082,0.0020406099943563478,0.02547014680536259,5.270512958780247e-05,27.094222420518875,0.025551814911400603,1.0,0.0,203.6620989592235,-1.170508952334346,14490.411822914073,197.87251043263115,0.024909568298184238,1.8321833142763022,1.0,14501.260446989052,0.0,1.0,201.59491350420504,4304.654873685273,1.0,1.0,0.4496114075270781,21.75645219911273,0.001867540974892284,-42.69213796652804,0.0,0.0,1.0,-0.1880086816993715,3.245212119581988
1.4000000000000001,258.9160408419692,0.0,14507.212012534319,203.20515586166397,0.0,0.5652442123851176,203.2059420139647,20.61752406906784,0.0,3.0243911287061485,0.0,0.0,0.9794876475703148,0.0,2.8650151320817447,0.0,4321.759843262241,0.688671470565687,203.2059420139647,2.7635927321687435,0.20932341874800725,13017.82430899408,216.64999999999998,0.0,0.0,0.0,587.7777777777778,0.2923739168917746,0.92,nominal,162913.47811761106,nan,pitch_program,6.7,0.0,0.0,-2.638447357085701,-0.0,0.0,-2.6355760954460488,0.0,0.0,0.92,0.0,0.0,0.0,0.0,0.0,0.0,-0.04599948055238988,0.0,0.0,-0.04599948055238988,0.0,0.0,1.4000000000000001,1.0,26.94436971324177,0.04207196727651356,2.1759387418355205,0.0016619201671743207,0.01996890564788635,-0.0006038918680256584,27.032120499555926,0.020047041098489215,1.0,0.0,264.82017827991103,-5.845487490206498,14510.910465059376,203.10403141280435,0.1921698435681847,0.5745996955510208,1.0,14510.521423643992,0.0,1.0,203.8507625683575,4302.819692208461,1.0,1.0,0.4496114075270781,21.75645219911273,0.001867540974892284,-42.69213796652804,0.0,0.0,1.0,-0.1880086816993715,3.245212119581988
1.44,267.06574052595545,0.0,14507.229638557714,204.27972172992764,0.0,0.3163175310729072,204.27996663118276,20.605830129344923,0.0,2.9901096830341705,0.0,0.0,0.7733273836253561,0.0,2.9013899370018854,0.0,4367.552890307517,0.6923113745233798,204.27996663118276,2.762529322073337,0.20932283695078063,13017.788127022064,216.64999999999998,0.0,0.0,0.0,587.6755555555557,0.2923230692540543,0.92,nominal,163132.47591838057,nan,pitch_program,6.720000000000001,0.0,0.0,-2.5805553151995624,-0.0,0.0,-2.591559471248859,0.0,0.0,0.92,0.0,0.0,0.0,0.0,0.0,0.0,-0.04523124553453592,0.0,0.0,-0.04523124553453592,0.0,0.0,1.44,1.0,27.00698811178153,-0.04189316331380954,2.2218853454387166,5.767135212377379e-05,0.015229245500638823,0.0008853857706450552,27.09826445356449,0.015255069729976468,1.0,0.0,264.82017827991103,-5.845487490206498,14510.910465059376,203.10403141280435,0.1921698435681847,0.5745996955510208,1.0,14510.76799589449,0.0,1.0,203.2221258001472,4412.20451280354,1.0,1.0,-0.7228401792152889,21.795612833504617,0.012489665515090165,-42.78940967163829,0.0,0.0,1.0,0.23839887152304504,2.7469560533158486
1.48,275.2584095097319,0.0,14507.237344177798,205.35362318826313,0.0,0.06920644720254288,205.35363484993272,20.594138223527516,0.0,2.9540645832572605,0.0,0.0,1.0603231738157122,0.0,2.934755271212417,0.0,4413.578726502318,0.6959500706352058,205.3536348499327,2.761390895600408,0.20932258260529724,13017.77230927536,216.64999999999998,0.0,0.0,0.0,587.5733333333334,0.292272221616334,0.92,nominal,163352.45677432095,nan,pitch_program,6.74,0.0,0.0,-2.654691736582912,-0.0,0.0,-2.6420652835161014,0.0,0.0,0.92,0.0,0.0,0.0,0.0,0.0,0.0,-0.046112738249993436,0.0,0.0,-0.046112738249993436,0.0,0.0,1.48,1.0,26.99556901363738,-0.0007915695423767858,2.2519084042830415,-0.001742731707386641,0.01621617052892966,0.0040572720446763804,27.089330712624143,0.016806628361208265,1.0,0.0,264.82017827991103,-5.845487490206498,14510.910465059376,203.10403141280435,0.1921698435681847,0.5745996955510208,1.0,14515.715780917924,0.0,1.0,206.0869306597581,4476.274332300902,1.0,1.0,-0.7228401792152889,21.795612833504617,0.012489665515090165,-42.78940967163829,0.0,0.0,1.0,0.23839887152304504,2.7469560533158486
1.52,283.49402270547887,0.0,14507.235187602488,206.42694489899023,0.0,-0.17686722967834018,206.42702066916453,20.582448351615618,0.0,2.9092851470307393,0.0,0.0,1.2029794831068898,0.0,2.958376331904563,0.0,4459.840483275203,0.6995878096859858,206.42702066916453,2.7602532404534275,0.2093226537890493,13017.776736193207,216.64999999999998,0.0,0.0,0.0,587.4711111111111,0.29222137397861364,0.92,nominal,163573.43538367577,nan,pitch_program,6.76,0.0,0.0,-2.762904026491347,-0.0,0.0,-2.738736277896298,0.0,0.0,0.92,0.0,0.0,0.0,0.0,0.0,0.0,-0.0477999653931048,0.0,0.0,-0.0477999653931048,0.0,0.0,1.52,1.0,27.02087363768838,0.07438448794048194,2.250456702453032,0.0018376203390066319,0.022631676372468722,-0.0034293606704669704,27.114529325909103,0.022963669971209643,1.0,0.0,264.82017827991103,-5.845487490206498,14510.910465059376,203.10403141280435,0.1921698435681847,0.5745996955510208,1.0,14505.280971788372,0.0,1.0,206.83928387302578,4494.2331197522035,1.0,1.0,-0.5018245254092427,21.849319583112226,0.0487662324654304,-42.72385759486444,0.0,0.0,1.0,0.15030151754214735,2.607879181306248
1.56,291.7725580994289,0.0,14507.223200316177,207.49972669388492,0.0,-0.4222993695756687,207.50015642113254,20.570760513609226,0.0,2.867786941596002,0.0,0.0,0.9034969299856598,0.0,2.984394026082709,0.0,4506.339568304965,0.7032247012507691,207.50015642113254,2.759160532376543,0.20932304946313707,13017.80134316642,216.64999999999998,0.0,0.0,0.0,587.3688888888889,0.29217052634089336,0.92,nominal,163795.41785477786,nan,pitch_program,6.78,0.0,0.0,-2.7500168442207666,-0.0,0.0,-2.7477607309558727,0.0,0.0,0.92,0.0,0.0,0.0,0.0,0.0,0.0,-0.047957471812186056,0.0,0.0,-0.047957471812186056,0.0,0.0,1.56,1.0,26.966847779808887,-0.012616271786481273,2.3003351451073555,-0.0024485258041474366,0.018196396156788214,-0.0024013633030982827,27.06478487129564,0.01851676692681041,1.0,0.0,264.82017827991103,-5.845487490206498,14510.910465059376,203.10403141280435,0.1921698435681847,0.5745996955510208,1.0,14507.376639440612,0.0,1.0,207.6079497804862,4453.070773260961,1.0,1.0,-0.5018245254092427,21.849319583112226,0.0487662324654304,-42.72385759486444,0.0,0.0,1.0,0.15030151754214735,2.607879181306248
1.6,300.09399223439556,0.0,14507.20142290396,208.57186715020896,0.0,-0.666296798481293,208.57293141236732,20.559074709508344,0.0,2.8352384456891544,0.0,0.0,0.7616452861537089,0.0,3.018273028028419,0.0,4553.071168689305,0.706860370185829,208.57293141236735,2.758040620166516,0.20932376828976962,13017.84604699778,216.64999999999998,0.0,0.0,0.0,587.2666666666668,0.29211967870317307,0.92,nominal,164018.38069289515,nan,pitch_program,6.8,0.0,0.0,-2.7124949622394747,-0.0,0.0,-2.719548115982754,0.0,0.0,0.92,0.0,0.0,0.0,0.0,0.0,0.0,-0.047465068790307686,0.0,0.0,-0.047465068790307686,0.0,0.0,1.6,1.0,26.944173811558272,-0.03921739523203313,2.3918669364090506,0.001103780625103049,0.015395068984052455,0.00200183697088942,27.05015836983285,0.015563863015013545,1.0,0.0,299.77444152806095,-4.72072954752664,14505.565836077853,208.68612406856954,-0.12159663982096436,-0.8727978968000449,1.0,14502.207686774802,0.0,1.0,208.85328331326792,4578.020273674117,1.0,1.0,-0.4377004259237133,21.964442081530468,-0.03747383020246067,-42.748482717185695,0.0,0.0,1.0,-0.18094491096081344,3.062633711930665
1.6400000000000001,308.4582980538557,0.0,14507.169922217334,209.64331434965095,0.0,-0.9084867734486698,209.6452827986456,20.547390939312972,0.0,2.8002803942886607,0.0,0.0,1.0167477851466957,0.0,3.048569409343279,0.0,4600.032453801083,0.7104946035100723,209.6452827986456,2.7568492369768163,0.20932480806563386,13017.910710663233,216.64999999999998,0.0,0.0,0.0,587.1644444444444,0.29206883106545267,0.92,nominal,164242.31021757465,nan,pitch_program,6.82,0.0,0.0,-2.787057218442962,-0.0,0.0,-2.77355539795092,0.0,0.0,0.92,0.0,0.0,0.0,0.0,0.0,0.0,-0.04840767368070514,0.0,0.0,-0.04840767368070514,0.0,0.0,1.6400000000000001,1.0,26.999604896155414,0.04026510505641589,2.373362357137223,0.0006237810617358748,0.015490246299548498,-0.0013362094417628157,27.10374761366886,0.01556027920398321,1.0,0.0,299.77444152806095,-4.72072954752664,14505.565836077853,208.68612406856954,-0.12159663982096436,-0.8727978968000449,1.0,14506.740119410653,0.0,1.0,209.96678842353407,4751.092556722639,1.0,1.0,-0.4377004259237133,21.964442081530468,-0.03747383020246067,-42.748482717185695,0.0,0.0,1.0,-0.18094491096081344,3.062633711930665
1.68,316.8654492189243,0.0,14507.128757105145,210.71414420749713,0.0,-1.1495771713851035,210.71728001464632,20.53570920302311,0.0,2.7586320230949934,0.0,0.0,1.0911201692509964,0.0,3.0712131596400707,0.0,4647.2263772489905,0.7141276365398584,210.71728001464632,2.7556586236347016,0.20932616685300998,13017.995213655977,216.64999999999998,0.0,0.0,0.0,587.0622222222222,0.2920179834277324,0.92,nominal,164467.2202742506,nan,pitch_program,6.84,0.0,0.0,-2.8740971378107902,-0.0,0.0,-2.8539887898388163,0.0,0.0,0.92,0.0,0.0,0.0,0.0,0.0,0.0,-0.049811501197695826,0.0,0.0,-0.049811501197695826,0.0,0.0,1.68,1.0,27.000517168787507,-0.0018989004931677046,2.4830320775263437,0.0005965412209964411,0.0224231790368956,0.0022973247630307587,27.11444964010586,0.022548448297296565,1.0,0.0,299.77444152806095,-4.72072954752664,14505.565836077853,208.68612406856954,-0.12159663982096436,-0.8727978968000449,1.0,14510.472378615368,0.0,1.0,210.61867590853885,4664.64076212777,1.0,1.0,-0.5897495294349937,21.931659195407622,-0.016283785133589287,-42.70738220926672,0.0,0.0,1.0,0.45317038481678895,3.0683877162108986
1.72,325.31542175573384,0.0,14507.077965176148,211.78437481462566,0.0,-1.3897887524789851,211.78893485826487,20.524029500638754,0.0,2.7212263083816564,0.0,0.0,0.8121177883710109,0.0,3.09721196357924,0.0,4694.653415960891,0.7177595092586342,211.7889348582649,2.7545121809886757,0.2093278434166983,13018.099479158938,216.64999999999998,0.0,0.0,0.0,586.96,0.2919671357900121,0.92,nominal,164693.11259139384,nan,pitch_program,6.86,0.0,0.0,-2.855138515913306,-0.0,0.0,-2.854908570698408,0.0,0.0,0.92,0.0,0.0,0.0,0.0,0.0,0.0,-0.04982755440209253,0.0,0.0,-0.04982755440209253,0.0,0.0,1.72,1.0,26.885914542207903,-0.0367311266594899,2.576221562397838,-0.0006920061442557684,0.01335099383754486,0.0010391052560190523,27.00908490647426,0.013409237438681401,1.0,0.0,299.77444152806095,-4.72072954752664,14505.565836077853,208.68612406856954,-0.12159663982096436,-0.8727978968000449,1.0,14510.350595695336,0.0,1.0,211.51066988850766,4637.255714266172,1.0,1.0,-0.5897495294349937,21.931659195407622,-0.016283785133589287,-42.70738220926672,0.0,0.0,1.0,0.45317038481678895,3.0683877162108986
1.76,333.8081898416746,0.0,14507.017596215246,212.8539095590114,0.0,-1.6283676312811914,212.86013810880237,20.512351832159908,0.0,2.6908230551354704,0.0,0.0,0.7449272227431393,0.0,3.129136699100433,0.0,4742.308657052785,0.7213898515139393,212.86013810880237,2.7533355160737027,0.2093298361209884,13018.22340544728,216.64999999999998,0.0,0.0,0.0,586.8577777777779,0.2919162881522918,0.92,nominal,164919.96330777346,nan,pitch_program,6.88,0.0,0.0,-2.836231238554654,-0.0,0.0,-2.8399667049834045,0.0,0.0,0.92,0.0,0.0,0.0,0.0,0.0,0.0,-0.049566769648974864,0.0,0.0,-0.049566769648974864,0.0,0.0,1.76,1.0,26.901258638175303,0.04332972376622677,2.5202212464341653,-0.002327921180005477,0.013008716291182438,0.00029492113448892614,27.019087862360216,0.013218657081578357,1.0,0.0,299.77444152806095,-4.72072954752664,14505.565836077853,208.68612406856954,-0.12159663982096436,-0.8727978968000449,1.0,14505.736278492577,0.0,1.0,212.70360324123064,4770.860121177265,1.0,1.0,0.14564406546944647,22.010060306576992,-0.0024987805230685754,-42.69376526092483,0.0,0.0,1.0,-0.5047301191530814,2.830454219274054
1.8,342.34372472495767,0.0,14506.947720991577,213.92272025503885,0.0,-1.8651372339541463,213.93085092668866,20.50067619758657,0.0,2.656784430555188,0.0,0.0,0.9861331269813497,0.0,3.156318953552639,0.0,4790.190226148514,0.7250185316772223,213.9308509266887,2.7520887229075948,0.20933214263887054,13018.366847804255,216.64999999999998,0.0,0.0,0.0,586.7555555555556,0.2918654405145715,0.92,nominal,165147.7633571706,nan,pitch_program,6.9,0.0,0.0,-2.9167291020371606,-0.0,0.0,-2.9013766226264095,0.0,0.0,0.92,0.0,0.0,0.0,0.0,0.0,0.0,-0.05063857490522385,0.0,0.0,-0.05063857490522385,0.0,0.0,1.8,1.0,26.916146185664,0.08798612994934507,2.560658706638544,0.0034790757940642396,0.01818310957636908,-0.0007970427138126827,27.037818700090842,0.018530103057855088,1.0,0.0,348.40304683469475,3.57184111878229,14504.272740811732,213.84251381016716,-0.33674699934019636,-1.631994229220559,1.0,14515.387512764084,0.0,1.0,212.8827685382967,4760.851450821519,1.0,1.0,0.14564406546944647,22.010060306576992,-0.0024987805230685754,-42.69376526092483,0.0,0.0,1.0,-0.5047301191530814,2.830454219274054
1.84,350.9219988721124,0.0,14506.868398316714,214.99087961214948,0.0,-2.1007830331445554,215.0011432661652,20.48900259691874,0.0,2.618001081520611,0.0,0.0,0.9796099964548396,0.0,3.1778488805173293,0.0,4838.301119609292,0.7286457868256561,215.0011432661652,2.7508524154361664,0.20933476103936588,13018.529686142281,216.64999999999998,0.0,0.0,0.0,586.6533333333333,0.29181459287685113,0.92,nominal,165376.52678123163,nan,pitch_program,6.92,0.0,0.0,-2.982091591417922,-0.0,0.0,-2.9659485976596196,0.0,0.0,0.92,0.0,0.0,0.0,0.0,0.0,0.0,-0.05176556847406894,0.0,0.0,-0.05176556847406894,0.0,0.0,1.84,1.0,26.822438402410217,0.05067503863304672,2.6668678630577176,0.00011627998705808482,0.01735247927010867,0.0020107949319641523,26.954738989825906,0.017468982629602503,1.0,0.0,348.40304683469475,3.57184111878229,14504.272740811732,213.84251381016716,-0.33674699934019636,-1.631994229220559,1.0,14510.454678672566,0.0,1.0,214.82735943994095,4860.7671791571365,1.0,1.0,-0.5527947429352299,22.027144094424298,0.021473861929088452,-42.627360024225986,0.0,0.0,1.0,-0.4159999661909108,2.194228343656686
1.8800000000000001,359.54298640824885,0.0,14506.779671219057,216.05837912508358,0.0,-2.335306592950395,216.07099955116936,20.47733103015642,0.0,2.5847884999819235,0.0,0.0,0.715672767663602,0.0,3.204056319700779,0.0,4886.640540455943,0.7322715641714637,216.07099955116934,2.7496605372570335,0.20933768991380308,13018.711832856083,216.64999999999998,0.0,0.0,0.0,586.5511111111111,0.2917637452391309,0.92,nominal,165606.24928628106,nan,pitch_program,6.940000000000001,0.0,0.0,-2.9541637865512755,-0.0,0.0,-2.956520748772944,0.0,0.0,0.92,0.0,0.0,0.0,0.0,0.0,0.0,-0.051601021469615975,0.0,0.0,-0.051601021469615975,0.0,0.0,1.8800000000000001,1.0,26.86957524466788,-0.018203625673627325,2.76033379441163,-0.0016895846284310505,0.011341965155056621,0.00113902791639127,27.010994943863647,0.011523552160226798,1.0,0.0,348.40304683469475,3.57184111878229,14504.272740811732,213.84251381016716,-0.33674699934019636,-1.631994229220559,1.0,14504.408343639312,0.0,1.0,215.97915297973302,4850.211334371886,1.0,1.0,-0.5527947429352299,22.027144094424298,0.021473861929088452,-42.627360024225986,0.0,0.0,1.0,-0.4159999661909108,2.194228343656686
1.92,368.2066590375595,0.0,14506.68159935736,217.12512548682878,0.0,-2.567978788602907,217.1403109344966,20.46566149729961,0.0,2.5564270252555343,0.0,0.0,0.7380914385498718,0.0,3.23404315197518,0.0,4935.20342580339,0.7358954948279698,217.1403109344966,2.7484255315846724,0.20934092730583823,13018.913166280621,216.64999999999998,0.0,0.0,0.0,586.448888888889,0.2917128976014106,0.92,nominal,165836.90642270277,nan,pitch_program,6.960000000000001,0.0,0.0,-2.9566915202895445,-0.0,0.0,-2.9566573659862248,0.0,0.0,0.92,0.0,0.0,0.0,0.0,0.0,0.0,-0.05160340588980262,0.0,0.0,-0.05160340588980262,0.0,0.0,1.92,1.0,26.806127536845285,-0.12563838697604038,2.774562508601002,-0.002877941416211166,0.013721384032517252,-0.002144353609110162,26.949628116915292,0.0141829890701455,1.0,0.0,348.40304683469475,3.57184111878229,14504.272740811732,213.84251381016716,-0.33674699934019636,-1.631994229220559,1.0,14504.913854545817,0.0,1.0,216.4377887211293,4932.177251205324,1.0,1.0,-0.3106435661663701,22.075534189483935,-0.02144746903739673,-42.68148737633672,0.0,0.0,1.0,0.22729601919354392,2.918925955288234
1.96,376.9129863227331,0.0,14506.57425718202,218.19112002345395,0.0,-2.7988711424153316,218.20907070229947,20.45399399834831,0.0,2.5230570860977304,0.0,0.0,0.9578870749797794,0.0,3.257984836137364,0.0,4983.9892691930045,0.7395175560417292,218.20907070229944,2.7471232356575124,0.20934447077208493,13019.13353446169,216.64999999999998,0.0,0.0,0.0,586.3466666666667,0.2916620499636903,0.92,nominal,166068.4957075746,nan,pitch_program,6.98,0.0,0.0,-3.04342670688823,-0.0,0.0,-3.0260728387078286,0.0,0.0,0.92,0.0,0.0,0.0,0.0,0.0,0.0,-0.05281493444062292,0.0,0.0,-0.05281493444062292,0.0,0.0,1.96,1.0,26.79266588390948,0.01972519521005072,2.88106652219727,-0.0032490498279123983,0.015765369317607466,-0.0011535711782778358,26.947131174866442,0.016137965205321573,1.0,0.0,348.40304683469475,3.57184111878229,14504.272740811732,213.84251381016716,-0.33674699934019636,-1.631994229220559,1.0,14510.049910289266,0.0,1.0,218.34175764813722,4997.341382080647,1.0,1.0,-0.3106435661663701,22.075534189483935,-0.02144746903739673,-42.68148737633672,0.0,0.0,1.0,0.22729601919354392,2.918925955288234
2.0,385.66193963082554,0.0,14506.45770248779,219.25642945274956,0.0,-3.028625610854023,219.2773459102861,20.442328533302515,0.0,2.4873706980343253,0.0,0.0,0.8546960351633511,0.0,3.2787565213373373,0.0,5033.000957576881,0.743137975066693,219.2773459102861,2.745851639674999,0.20934831842017348,13019.372819712806,216.64999999999998,0.0,0.0,0.0,586.2444444444444,0.29161120232596993,0.92,nominal,166301.03064283152,nan,pitch_program,7.0,0.0,0.0,-3.082379889323808,-0.0,0.0,-3.0711184792006123,0.0,0.0,0.92,0.0,0.0,0.0,0.0,0.0,0.0,-0.053601129180891674,0.0,0.0,-0.053601129180891674,0.0,0.0,2.0,1.0,26.78877280814498,-0.03135772206306502,2.8908114100129176,-0.0002586214643303276,0.015623021525903303,-0.0005565016390608708,26.944315216412566,0.015635068939244486,1.0,0.0,386.96705551525133,5.202099602332095,14509.030821789447,219.4748693829357,0.018030822379456763,-3.188902457011199,1.0,14504.472394004983,0.0,1.0,219.29905931283358,5018.343497996025,1.0,1.0,1.0238448525945218,22.206534333193414,-0.025238714016482977,-42.51580612264556,0.0,0.0,1.0,-0.22998493593489877,1.8461135338673182
2.04,394.453491047808,0.0,14506.331984561339,220.32101252095993,0.0,-3.2569688136568744,220.3450848195033,20.43066510216223,0.0,2.458456578338722,0.0,0.0,0.6273863398774071,0.0,3.305388848688453,0.0,5082.235965246588,0.7467565765578851,220.3450848195033,2.7446198982766843,0.20935246863979878,13019.63092188909,216.64999999999998,0.0,0.0,0.0,586.1422222222222,0.29156035468824965,0.92,nominal,166534.4987584555,nan,pitch_program,7.02,0.0,0.0,-3.0483633842634474,-0.0,0.0,-3.0529144032508806,0.0,0.0,0.92,0.0,0.0,0.0,0.0,0.0,0.0,-0.05328340811828574,0.0,0.0,-0.05328340811828574,0.0,0.0,2.04,1.0,26.769526518817642,0.009331653982824754,2.9009230830649795,-0.0013243203864896727,0.008607858930964569,-0.0011128556946318428,26.926250980322276,0.008779949183140706,1.0,0.0,386.96705551525133,5.202099602332095,14509.030821789447,219.4748693829357,0.018030822379456763,-3.188902457011199,1.0,14508.9955735729,0.0,1.0,220.39663348103144,5107.668508315062,1.0,1.0,1.0238448525945218,22.206534333193414,-0.025238714016482977,-42.51580612264556,0.0,0.0,1.0,-0.22998493593489877,1.8461135338673182
2.08,403.2876096895947,0.0,14506.197173669603,221.38478681251848,0.0,-3.483258225143766,221.41218783049703,20.419003704927455,0.0,2.4315221452342115,0.0,0.0,0.7529053677219825,0.0,3.33293697025564,0.0,5131.689485059797,0.7503730229695534,221.412187830497,2.7433214489122046,0.20935691912921725,13019.907697845096,216.64999999999998,0.0,0.0,0.0,586.0400000000001,0.29150950705052936,0.92,nominal,166768.87697311066,nan,pitch_program,7.04,0.0,0.0,-3.078512310675629,-0.0,0.0,-3.0733927291906795,0.0,0.0,0.92,0.0,0.0,0.0,0.0,0.0,0.0,-0.0536408223312318,0.0,0.0,-0.0536408223312318,0.0,0.0,2.08,1.0,26.735846886613988,-0.037323679271106205,2.998525205230232,-0.0010772532715467979,0.014070878234874348,0.0031027324918994317,26.903495222886974,0.01444911892912531,1.0,0.0,386.96705551525133,5.202099602332095,14509.030821789447,219.4748693829357,0.018030822379456763,-3.188902457011199,1.0,14502.185648505312,0.0,1.0,221.97591567619006,5138.504747331266,1.0,1.0,-0.26365015607418363,22.230839806796826,-0.026260898392294865,-42.52701477363644,0.0,0.0,1.0,-0.8144371568954659,2.7632146763486847
2.12,412.164263657304,0.0,14506.053346019697,222.44778869144199,0.0,-3.7078647816363395,222.47868876580364,20.40734434159819,0.0,2.3986947751903664,0.0,0.0,0.9144856514486698,0.0,3.3536394497407414,0.0,5181.362830092975,0.7539874289273616,222.47868876580364,2.7419686553592797,0.20936166739167866,13020.20299230792,216.64999999999998,0.0,0.0,0.0,585.9377777777778,0.291458659412809,0.92,nominal,167004.17152321973,nan,pitch_program,7.0600000000000005,0.0,0.0,-3.1648135663237356,-0.0,0.0,-3.1465293988971244,0.0,0.0,0.92,0.0,0.0,0.0,0.0,0.0,0.0,-0.05491729802155285,0.0,0.0,-0.05491729802155285,0.0,0.0,2.12,1.0,26.77066483515806,0.05556593770714595,3.0321874718834256,0.002166408113966731,0.012725153961550996,0.001098284471014144,26.941895704542553,0.012954886963640737,1.0,0.0,386.96705551525133,5.202099602332095,14509.030821789447,219.4748693829357,0.018030822379456763,-3.188902457011199,1.0,14506.227937663363,0.0,1.0,222.82912859888063,5200.708929498245,1.0,1.0,-0.26365015607418363,22.230839806796826,-0.026260898392294865,-42.52701477363644,0.0,0.0,1.0,-0.8144371568954659,2.7632146763486847
