time_s,sensor_time_s,imu_valid,imu_ax_mps2,imu_ay_mps2,imu_az_mps2,gyro_p_rps,gyro_q_rps,gyro_r_rps,imu_accel_norm_mps2,imu_gyro_norm_rps,gps_valid,gps_latency_s,gps_x_m,gps_y_m,gps_z_m,gps_vx_mps,gps_vy_mps,gps_vz_mps,baro_valid,baro_alt_m,baro_bias_m,pitot_valid,pitot_airspeed_mps,pitot_qbar_pa,pitot_compressibility_factor,mag_valid,mag_heading_deg,mag_x_ut,mag_y_ut,mag_z_ut,radar_valid,optical_flow_valid,horizon_valid,horizon_roll_deg,horizon_pitch_deg
0.0,0.0,1.0,22.039952029066992,0.06421624096399967,-0.05549153272046388,8.96710374289511e-06,-0.00392686140635816,-0.00033643320647488983,22.040115437070227,0.003941257187258108,1.0,0.0,-6.056244605796681,-14.452553801575789,14505.691541827058,168.06173605742853,-0.11079775418696261,10.04166907179879,1.0,14497.48871022862,0.0,1.0,167.72453538558904,3025.811276576433,1.0,1.0,1.9849282074758248,21.07724535897506,0.014132475832505058,-43.128268434554464,0.0,0.0,1.0,0.3225627711320563,4.232969305443469
0.04,0.04,1.0,22.248739461321012,0.004457972158902777,0.5076767054307417,-8.975239615825204e-05,-0.2906811470180924,0.006616684680462875,22.254531294289162,0.29075645788770904,1.0,0.0,-6.056244605796681,-14.452553801575789,14505.691541827058,168.06173605742853,-0.11079775418696261,10.04166907179879,1.0,14503.748873000204,0.0,1.0,169.44442580350932,3009.2588409429563,1.0,1.0,1.9849282074758248,21.07724535897506,0.014132475832505058,-43.128268434554464,0.0,0.0,1.0,0.3225627711320563,4.232969305443469
0.08,0.08,1.0,22.360464694871194,-0.02338347405040481,1.170651766632787,0.00032815998591068275,-0.18980164256587734,0.0015816988868904915,22.391099877320904,0.18980851661885514,1.0,0.0,-6.056244605796681,-14.452553801575789,14505.691541827058,168.06173605742853,-0.11079775418696261,10.04166907179879,1.0,14495.271480794654,0.0,1.0,169.86129745773104,3039.888398988207,1.0,1.0,-0.7490479202685634,20.365337779118892,-0.015398035674553966,-43.40303184935918,0.0,0.0,1.0,-0.0923479037681312,5.343911874831486
0.12,0.12,1.0,22.549879694155287,-0.04084592173786858,1.0549758776783675,-0.00237234848955191,0.156064138125723,0.0011583307911810347,22.574581207913532,0.156086466346389,1.0,0.0,-6.056244605796681,-14.452553801575789,14505.691541827058,168.06173605742853,-0.11079775418696261,10.04166907179879,1.0,14505.84317004272,0.0,1.0,171.10276394523004,3008.9034299628483,1.0,1.0,-0.7490479202685634,20.365337779118892,-0.015398035674553966,-43.40303184935918,0.0,0.0,1.0,-0.0923479037681312,5.343911874831486
0.16,0.16,1.0,22.800142174432178,0.03319989188614972,0.5554250967856029,0.0022162629116312224,0.21576722143401839,-0.0002460041148525029,22.80693057921827,0.21577874358859986,1.0,0.0,-6.056244605796681,-14.452553801575789,14505.691541827058,168.06173605742853,-0.11079775418696261,10.04166907179879,1.0,14503.353125689991,0.0,1.0,171.94758072700148,3077.230815769545,1.0,1.0,-0.7611812131334899,20.74691153870059,0.00853686375760408,-43.32797582763432,0.0,0.0,1.0,0.21453848142004184,4.721314614708386
0.2,0.2,1.0,23.036250347981216,0.0045659909310376305,0.5367185973271995,0.002825913862601225,-0.005435575370453801,-0.0017066103174499042,23.04250242043721,0.00635954302936557,1.0,0.0,31.758533152959025,-3.6933226876318983,14498.3731517901,172.36062744457303,-0.1382751029959232,8.623457163023266,1.0,14502.950475743344,0.0,1.0,172.13133248791945,3104.1656611054354,1.0,1.0,-0.7611812131334899,20.74691153870059,0.00853686375760408,-43.32797582763432,0.0,0.0,1.0,0.21453848142004184,4.721314614708386
0.24,0.24,1.0,23.23847328590801,0.0030382783380873196,0.961398959846679,0.001759196210680961,-0.11959822139358016,0.005552013942351433,23.258352002044123,0.11973994400629871,1.0,0.0,31.758533152959025,-3.6933226876318983,14498.3731517901,172.36062744457303,-0.1382751029959232,8.623457163023266,1.0,14503.558879301383,0.0,1.0,174.4094757138865,3205.2199332196724,1.0,1.0,-1.1114201617609234,20.707155497212273,0.06279654633319463,-43.325846976118406,0.0,0.0,1.0,0.08449078060680751,4.683470146352719
0.28,0.28,1.0,23.39918311588965,0.03414839186664129,1.1074124143915756,0.002028252075046659,-0.005958240601299722,0.0032549845405176157,23.425398584851248,0.0070858564691867855,1.0,0.0,31.758533152959025,-3.6933226876318983,14498.3731517901,172.36062744457303,-0.1382751029959232,8.623457163023266,1.0,14499.834632360597,0.0,1.0,173.97969110721803,3237.8252040304637,1.0,1.0,-1.1114201617609234,20.707155497212273,0.06279654633319463,-43.325846976118406,0.0,0.0,1.0,0.08449078060680751,4.683470146352719
0.32,0.32,1.0,23.63499812208884,-0.03823278540144194,1.043623924872261,-0.0007698503487642755,0.11358316320041716,0.0016271624951772715,23.65805885683752,0.11359742642312722,1.0,0.0,31.758533152959025,-3.6933226876318983,14498.3731517901,172.36062744457303,-0.1382751029959232,8.623457163023266,1.0,14506.30396313003,0.0,1.0,174.83188302375,3271.297934367766,1.0,1.0,0.5599854402746506,20.68551946256616,0.0012030225546295838,-43.28244770417962,0.0,0.0,1.0,-0.14368028964104557,4.026969410342818
0.36,0.36,1.0,23.846730285927308,0.017078488452456634,0.9169859327418528,0.002625691012318353,0.0775006343540149,-0.004200281309021834,23.86436046084992,0.0776587724706089,1.0,0.0,31.758533152959025,-3.6933226876318983,14498.3731517901,172.36062744457303,-0.1382751029959232,8.623457163023266,1.0,14500.867696043138,0.0,1.0,176.75691970467687,3277.516904225263,1.0,1.0,0.5599854402746506,20.68551946256616,0.0012030225546295838,-43.28244770417962,0.0,0.0,1.0,-0.14368028964104557,4.026969410342818
0.4,0.4,1.0,24.041090593273026,-0.04500358335360431,0.9429899675853048,0.002023840005181767,-0.0224151635560493,0.001732668162615753,24.059619538044277,0.022572940095892627,1.0,0.0,69.60389361730579,-10.023653412103453,14505.822476705116,177.2364476556169,-0.2762817506196476,7.21201753929058,1.0,14508.46425878976,0.0,1.0,176.82667438536745,3324.5253943955577,1.0,1.0,-1.1507104654202995,20.966148269947826,0.014704042995086555,-43.29060280314996,0.0,0.0,1.0,0.11869794040652398,4.660198003238279
0.44,0.44,1.0,24.216627556760105,0.07509587677116007,1.1815741253821879,0.000789607133830544,-0.030209561894424492,0.0023214080559461462,24.245552314338266,0.030308910317612413,1.0,0.0,69.60389361730579,-10.023653412103453,14505.822476705116,177.2364476556169,-0.2762817506196476,7.21201753929058,1.0,14503.256559385483,0.0,1.0,178.73875073159743,3309.8266231271027,1.0,1.0,-1.1507104654202995,20.966148269947826,0.014704042995086555,-43.29060280314996,0.0,0.0,1.0,0.11869794040652398,4.660198003238279
0.48,0.48,1.0,24.440061246053627,-0.015786655920125812,1.182678939442914,-0.0003283581531905378,0.0441305204543986,0.0028070631184894685,24.46866511281642,0.04422092556702137,1.0,0.0,69.60389361730579,-10.023653412103453,14505.822476705116,177.2364476556169,-0.2762817506196476,7.21201753929058,1.0,14505.753271987976,0.0,1.0,179.61125481109607,3347.9935955277597,1.0,1.0,-0.016169170088370554,20.86797514014889,-0.0568923487975029,-43.24359933503376,0.0,0.0,1.0,-0.18039758799319058,3.445130840543901
0.52,0.52,1.0,24.652022376852027,-0.023672421802965485,1.0638422841338124,-0.0041003556722694285,0.07119381523110474,0.0005144578227476238,24.6749777721861,0.07131365164294408,1.0,0.0,69.60389361730579,-10.023653412103453,14505.822476705116,177.2364476556169,-0.2762817506196476,7.21201753929058,1.0,14503.159135360107,0.0,1.0,179.72776785098807,3410.9029035963213,1.0,1.0,-0.016169170088370554,20.86797514014889,-0.0568923487975029,-43.24359933503376,0.0,0.0,1.0,-0.18039758799319058,3.445130840543901
0.56,0.56,1.0,24.861550920348126,-0.014420410313563309,1.079882471086922,0.0023753918418035966,0.018316046254353808,-0.0014771672718084208,24.884996850806655,0.018528412234798675,1.0,0.0,69.60389361730579,-10.023653412103453,14505.822476705116,177.2364476556169,-0.2762817506196476,7.21201753929058,1.0,14501.789259195863,0.0,1.0,181.3338997048915,3404.885687403615,1.0,1.0,0.05427760456933768,21.010178939603488,0.024581835224760276,-43.11846370930909,0.0,0.0,1.0,-0.04952645340959745,4.351208635697806
0.6,0.6,1.0,25.061774643117957,0.01733662082518371,1.1917160849296604,-0.0059939284980820694,-0.011052123612353163,-0.0012153869831135462,25.090098366645197,0.012631459959227856,1.0,0.0,98.20559805606645,-0.8999799510570993,14510.07661580179,182.2172962318402,0.3009528389527853,5.636285866183127,1.0,14508.53474941159,0.0,1.0,181.54701168322836,3455.372219583807,1.0,1.0,0.05427760456933768,21.010178939603488,0.024581835224760276,-43.11846370930909,0.0,0.0,1.0,-0.04952645340959745,4.351208635697806
0.64,0.64,1.0,25.268467502143224,-0.06926739674205176,1.3680490508047178,-0.0006871492332895192,0.01916286135024213,0.0024451031505412536,25.305568677358888,0.019330441242097936,1.0,0.0,98.20559805606645,-0.8999799510570993,14510.07661580179,182.2172962318402,0.3009528389527853,5.636285866183127,1.0,14509.32959779636,0.0,1.0,183.35407992632005,3504.1340665323837,1.0,1.0,-0.855629222658691,21.074252712074426,0.008291052627199655,-43.147491025110064,0.0,0.0,1.0,0.006915726090833276,4.601774095785162
0.68,0.68,1.0,25.530851989135314,-0.04168706322690143,1.2885204367287937,0.002014445715824742,0.04583501931875657,-0.00020313654011118204,25.5633805670972,0.045879715037767194,1.0,0.0,98.20559805606645,-0.8999799510570993,14510.07661580179,182.2172962318402,0.3009528389527853,5.636285866183127,1.0,14510.959728663396,0.0,1.0,183.8522006827687,3552.942626836943,1.0,1.0,-0.855629222658691,21.074252712074426,0.008291052627199655,-43.147491025110064,0.0,0.0,1.0,0.006915726090833276,4.601774095785162
0.72,0.72,1.0,25.69379571015813,-0.007611917963291339,1.3259765265632333,-0.0017002863529614084,0.03268118401915876,0.0021748305269490838,25.727988838726436,0.03279757080024578,1.0,0.0,98.20559805606645,-0.8999799510570993,14510.07661580179,182.2172962318402,0.3009528389527853,5.636285866183127,1.0,14506.671636808287,0.0,1.0,184.46135045092564,3540.976306858733,1.0,1.0,0.8756401447471279,21.215801755715095,-0.03502009456010383,-43.09213254017045,0.0,0.0,1.0,-0.2517459631466969,3.801850329200168
0.76,0.76,1.0,25.93688224803312,0.02249582990040733,1.415764135866889,-0.0030084665662428673,0.004419240993109124,0.0033503430799876836,25.97550297682617,0.006309148975020214,1.0,0.0,98.20559805606645,-0.8999799510570993,14510.07661580179,182.2172962318402,0.3009528389527853,5.636285866183127,1.0,14502.220726228536,0.0,1.0,185.8892500588229,3622.27825428485,1.0,1.0,0.8756401447471279,21.215801755715095,-0.03502009456010383,-43.09213254017045,0.0,0.0,1.0,-0.2517459631466969,3.801850329200168
0.8,0.8,1.0,26.16667986900523,0.0416055013207252,1.5238893802640472,-0.0021384238186860785,0.008843291118729802,-0.0021487229052000634,26.21104929658531,0.009348457860110444,1.0,0.0,148.16092067788148,2.3593000228182355,14505.680786095934,187.1615530781922,-0.06805753574152172,4.41820507783793,1.0,14500.803762474558,0.0,1.0,187.56106014002108,3707.980814007208,1.0,1.0,1.875768927168171,21.297511421471423,-0.02334473854944351,-43.06691978523224,0.0,0.0,1.0,-0.2538184740447178,3.8888534927350538
0.84,0.84,1.0,26.339807842839555,-0.015908370633943902,1.4039617024399196,0.0022244538956223423,0.03689591257892611,0.0006162688898660338,26.37720301199288,0.03696804495114834,1.0,0.0,148.16092067788148,2.3593000228182355,14505.680786095934,187.1615530781922,-0.06805753574152172,4.41820507783793,1.0,14507.551698827476,0.0,1.0,187.65279650372915,3773.8521010067584,1.0,1.0,1.875768927168171,21.297511421471423,-0.02334473854944351,-43.06691978523224,0.0,0.0,1.0,-0.2538184740447178,3.8888534927350538
0.88,0.88,1.0,26.598081893210836,-0.056846211253428466,1.5207060405747754,0.0017378955623530748,0.033075577416937105,0.00043196713933973935,26.641579133968854,0.03312401995620272,1.0,0.0,148.16092067788148,2.3593000228182355,14505.680786095934,187.1615530781922,-0.06805753574152172,4.41820507783793,1.0,14502.354411830423,0.0,1.0,188.96197098436252,3767.1337441510527,1.0,1.0,1.3410760508621564,21.358318017178817,0.0059233228732307195,-43.04830094707314,0.0,0.0,1.0,-0.08181619588055228,3.6976229549888515
0.92,0.92,1.0,26.700345103287493,0.015705542704126604,1.5797260125654966,0.0009516298735982592,0.01272606637507967,-0.00012983215546151625,26.747041136796724,0.012762257683805395,1.0,0.0,148.16092067788148,2.3593000228182355,14505.680786095934,187.1615530781922,-0.06805753574152172,4.41820507783793,1.0,14504.677603918339,0.0,1.0,189.89750709718362,3772.1873213957847,1.0,1.0,1.3410760508621564,21.358318017178817,0.0059233228732307195,-43.04830094707314,0.0,0.0,1.0,-0.08181619588055228,3.6976229549888515
0.96,0.96,1.0,26.98817500564468,0.01231926051938102,1.6294593187164437,-0.00011778920603343397,0.014325289168576977,-0.00032030735832690285,27.037323824129412,0.014329353818794664,1.0,0.0,148.16092067788148,2.3593000228182355,14505.680786095934,187.1615530781922,-0.06805753574152172,4.41820507783793,1.0,14502.840513286486,0.0,1.0,191.34343118655323,3784.3977161024245,1.0,1.0,-0.8779208712999178,21.32195424801072,0.0008456021625410988,-42.97812429142145,0.0,0.0,1.0,0.032433043219334025,3.564352979020865
1.0,1.0,1.0,27.15878030841737,-0.033528278752470886,1.6529127013926264,0.0031122155606933886,0.023961565801163133,-0.0004537801906851138,27.209053500347643,0.02416709411164592,1.0,0.0,178.0081069053744,3.1000170917265457,14499.893168301998,192.24113545065396,-0.09427000198388218,2.97961260313583,1.0,14512.252985935633,0.0,1.0,193.19929061230033,3843.156060123944,1.0,1.0,-0.8779208712999178,21.32195424801072,0.0008456021625410988,-42.97812429142145,0.0,0.0,1.0,0.032433043219334025,3.564352979020865
1.04,1.04,1.0,27.174651991114647,0.08209940488310168,1.7031192430247037,0.0037072856089737606,0.02785269064969062,-0.000717315906609876,27.228093328517048,0.028107488061435565,1.0,0.0,178.0081069053744,3.1000170917265457,14499.893168301998,192.24113545065396,-0.09427000198388218,2.97961260313583,1.0,14507.100858799806,0.0,1.0,193.41746054672987,3857.615612129112,1.0,1.0,1.2892820476969535,21.50730550102806,0.14268177879962665,-42.96032543661311,0.0,0.0,1.0,0.23310546971279078,3.6339042802924686
1.08,1.08,1.0,27.137160507711236,-0.02502519049099016,1.684369829025248,-0.00013210453407288853,0.020644516676939013,0.0024575524751704702,27.189395145945635,0.02079069706865434,1.0,0.0,178.0081069053744,3.1000170917265457,14499.893168301998,192.24113545065396,-0.09427000198388218,2.97961260313583,1.0,14505.284331586518,0.0,1.0,194.18343695867452,3933.627400200787,1.0,1.0,1.2892820476969535,21.50730550102806,0.14268177879962665,-42.96032543661311,0.0,0.0,1.0,0.23310546971279078,3.6339042802924686
1.12,1.12,1.0,27.14682757996211,-0.031040520587644428,1.8465874006910115,-0.0012480854341916556,0.009838756022335023,0.0007666112545257264,27.20957728812597,0.009947187046277986,1.0,0.0,178.0081069053744,3.1000170917265457,14499.893168301998,192.24113545065396,-0.09427000198388218,2.97961260313583,1.0,14505.637977413622,0.0,1.0,195.81508914325016,3994.51222808397,1.0,1.0,0.19740921746118686,21.589616201646997,-0.04420177874997674,-42.93109983778337,0.0,0.0,1.0,0.367103914393271,2.868051051997061
1.16,1.16,1.0,27.07188072780125,0.018587537060100173,1.792270617099117,-4.472625110210913e-05,0.02483353179175481,0.0019237495489914302,27.13115009729126,0.024907972900597094,1.0,0.0,178.0081069053744,3.1000170917265457,14499.893168301998,192.24113545065396,-0.09427000198388218,2.97961260313583,1.0,14508.812729307945,0.0,1.0,196.2935588106721,4045.6265200416487,1.0,1.0,0.19740921746118686,21.589616201646997,-0.04420177874997674,-42.93109983778337,0.0,0.0,1.0,0.367103914393271,2.868051051997061
1.2,1.2,1.0,27.13936941809063,0.06306482018866198,1.8393259998120444,-0.00013216227888778834,0.028429083282799604,-0.0001943358016607929,27.201699757859306,0.02843005468816625,1.0,0.0,203.6620989592235,-1.170508952334346,14490.411822914073,197.87251043263115,0.024909568298184238,1.8321833142763022,1.0,14505.040632011145,0.0,1.0,198.32336482701396,4105.44502346517,1.0,1.0,0.07279488918118421,21.620036664660617,0.026940747801058023,-42.84581438836204,0.0,0.0,1.0,0.1718013532083167,3.31639004494596
1.24,1.24,1.0,27.031471457194456,-0.011605378712605174,1.9443771005727966,0.0015865455449370655,0.017625140095805986,-0.002376536093496108,27.10131336550252,0.017855268521269493,1.0,0.0,203.6620989592235,-1.170508952334346,14490.411822914073,197.87251043263115,0.024909568298184238,1.8321833142763022,1.0,14514.067450581388,0.0,1.0,198.7314954335473,4116.170966919125,1.0,1.0,0.07279488918118421,21.620036664660617,0.026940747801058023,-42.84581438836204,0.0,0.0,1.0,0.1718013532083167,3.31639004494596
1.28,1.28,1.0,27.10106270202989,-0.060961590163669074,1.9668936895284832,0.0015267865395474582,0.01178778074041519,0.0010425452223271436,27.172412235220076,0.011931879670112491,1.0,0.0,203.6620989592235,-1.170508952334346,14490.411822914073,197.87251043263115,0.024909568298184238,1.8321833142763022,1.0,14517.025724810908,0.0,1.0,199.7306839157121,4227.49201380024,1.0,1.0,0.6404825376029071,21.680680277137203,-0.006569877914700802,-42.86585702194803,0.0,0.0,1.0,-0.2581612528338506,3.3224261516825107
1.32,1.32,1.0,27.05645145407193,-0.048400960677325945,2.0604208749395987,0.001302129741937797,0.021068235628697824,0.0007422440657022214,27.13483447750202,0.0211214824438116,1.0,0.0,203.6620989592235,-1.170508952334346,14490.411822914073,197.87251043263115,0.024909568298184238,1.8321833142763022,1.0,14501.886879196034,0.0,1.0,201.46409879066883,4251.838814539408,1.0,1.0,0.6404825376029071,21.680680277137203,-0.006569877914700802,-42.86585702194803,0.0,0.0,1.0,-0.2581612528338506,3.3224261516825107
1.36,1.36,1.0,27.016132520706936,0.030057852415360995,2.0553755670575082,0.0020406099943563478,0.02547014680536259,5.270512958780247e-05,27.094222420518875,0.025551814911400603,1.0,0.0,203.6620989592235,-1.170508952334346,14490.411822914073,197.87251043263115,0.024909568298184238,1.8321833142763022,1.0,14501.260446989052,0.0,1.0,201.59491350420504,4304.654873685273,1.0,1.0,0.4496114075270781,21.75645219911273,0.001867540974892284,-42.69213796652804,0.0,0.0,1.0,-0.1880086816993715,3.245212119581988
1.4000000000000001,1.4000000000000001,1.0,26.94436971324177,0.04207196727651356,2.1759387418355205,0.0016619201671743207,0.01996890564788635,-0.0006038918680256584,27.032120499555926,0.020047041098489215,1.0,0.0,264.82017827991103,-5.845487490206498,14510.910465059376,203.10403141280435,0.1921698435681847,0.5745996955510208,1.0,14510.521423643992,0.0,1.0,203.8507625683575,4302.819692208461,1.0,1.0,0.4496114075270781,21.75645219911273,0.001867540974892284,-42.69213796652804,0.0,0.0,1.0,-0.1880086816993715,3.245212119581988
1.44,1.44,1.0,27.00698811178153,-0.04189316331380954,2.2218853454387166,5.767135212377379e-05,0.015229245500638823,0.0008853857706450552,27.09826445356449,0.015255069729976468,1.0,0.0,264.82017827991103,-5.845487490206498,14510.910465059376,203.10403141280435,0.1921698435681847,0.5745996955510208,1.0,14510.76799589449,0.0,1.0,203.2221258001472,4412.20451280354,1.0,1.0,-0.7228401792152889,21.795612833504617,0.012489665515090165,-42.78940967163829,0.0,0.0,1.0,0.23839887152304504,2.7469560533158486
1.48,1.48,1.0,26.99556901363738,-0.0007915695423767858,2.2519084042830415,-0.001742731707386641,0.01621617052892966,0.0040572720446763804,27.089330712624143,0.016806628361208265,1.0,0.0,264.82017827991103,-5.845487490206498,14510.910465059376,203.10403141280435,0.1921698435681847,0.5745996955510208,1.0,14515.715780917924,0.0,1.0,206.0869306597581,4476.274332300902,1.0,1.0,-0.7228401792152889,21.795612833504617,0.012489665515090165,-42.78940967163829,0.0,0.0,1.0,0.23839887152304504,2.7469560533158486
1.52,1.52,1.0,27.02087363768838,0.07438448794048194,2.250456702453032,0.0018376203390066319,0.022631676372468722,-0.0034293606704669704,27.114529325909103,0.022963669971209643,1.0,0.0,264.82017827991103,-5.845487490206498,14510.910465059376,203.10403141280435,0.1921698435681847,0.5745996955510208,1.0,14505.280971788372,0.0,1.0,206.83928387302578,4494.2331197522035,1.0,1.0,-0.5018245254092427,21.849319583112226,0.0487662324654304,-42.72385759486444,0.0,0.0,1.0,0.15030151754214735,2.607879181306248
1.56,1.56,1.0,26.966847779808887,-0.012616271786481273,2.3003351451073555,-0.0024485258041474366,0.018196396156788214,-0.0024013633030982827,27.06478487129564,0.01851676692681041,1.0,0.0,264.82017827991103,-5.845487490206498,14510.910465059376,203.10403141280435,0.1921698435681847,0.5745996955510208,1.0,14507.376639440612,0.0,1.0,207.6079497804862,4453.070773260961,1.0,1.0,-0.5018245254092427,21.849319583112226,0.0487662324654304,-42.72385759486444,0.0,0.0,1.0,0.15030151754214735,2.607879181306248
1.6,1.6,1.0,26.944173811558272,-0.03921739523203313,2.3918669364090506,0.001103780625103049,0.015395068984052455,0.00200183697088942,27.05015836983285,0.015563863015013545,1.0,0.0,299.77444152806095,-4.72072954752664,14505.565836077853,208.68612406856954,-0.12159663982096436,-0.8727978968000449,1.0,14502.207686774802,0.0,1.0,208.85328331326792,4578.020273674117,1.0,1.0,-0.4377004259237133,21.964442081530468,-0.03747383020246067,-42.748482717185695,0.0,0.0,1.0,-0.18094491096081344,3.062633711930665
1.6400000000000001,1.6400000000000001,1.0,26.999604896155414,0.04026510505641589,2.373362357137223,0.0006237810617358748,0.015490246299548498,-0.0013362094417628157,27.10374761366886,0.01556027920398321,1.0,0.0,299.77444152806095,-4.72072954752664,14505.565836077853,208.68612406856954,-0.12159663982096436,-0.8727978968000449,1.0,14506.740119410653,0.0,1.0,209.96678842353407,4751.092556722639,1.0,1.0,-0.4377004259237133,21.964442081530468,-0.03747383020246067,-42.748482717185695,0.0,0.0,1.0,-0.18094491096081344,3.062633711930665
1.68,1.68,1.0,27.000517168787507,-0.0018989004931677046,2.4830320775263437,0.0005965412209964411,0.0224231790368956,0.0022973247630307587,27.11444964010586,0.022548448297296565,1.0,0.0,299.77444152806095,-4.72072954752664,14505.565836077853,208.68612406856954,-0.12159663982096436,-0.8727978968000449,1.0,14510.472378615368,0.0,1.0,210.61867590853885,4664.64076212777,1.0,1.0,-0.5897495294349937,21.931659195407622,-0.016283785133589287,-42.70738220926672,0.0,0.0,1.0,0.45317038481678895,3.0683877162108986
1.72,1.72,1.0,26.885914542207903,-0.0367311266594899,2.576221562397838,-0.0006920061442557684,0.01335099383754486,0.0010391052560190523,27.00908490647426,0.013409237438681401,1.0,0.0,299.77444152806095,-4.72072954752664,14505.565836077853,208.68612406856954,-0.12159663982096436,-0.8727978968000449,1.0,14510.350595695336,0.0,1.0,211.51066988850766,4637.255714266172,1.0,1.0,-0.5897495294349937,21.931659195407622,-0.016283785133589287,-42.70738220926672,0.0,0.0,1.0,0.45317038481678895,3.0683877162108986
1.76,1.76,1.0,26.901258638175303,0.04332972376622677,2.5202212464341653,-0.002327921180005477,0.013008716291182438,0.00029492113448892614,27.019087862360216,0.013218657081578357,1.0,0.0,299.77444152806095,-4.72072954752664,14505.565836077853,208.68612406856954,-0.12159663982096436,-0.8727978968000449,1.0,14505.736278492577,0.0,1.0,212.70360324123064,4770.860121177265,1.0,1.0,0.14564406546944647,22.010060306576992,-0.0024987805230685754,-42.69376526092483,0.0,0.0,1.0,-0.5047301191530814,2.830454219274054
1.8,1.8,1.0,26.916146185664,0.08798612994934507,2.560658706638544,0.0034790757940642396,0.01818310957636908,-0.0007970427138126827,27.037818700090842,0.018530103057855088,1.0,0.0,348.40304683469475,3.57184111878229,14504.272740811732,213.84251381016716,-0.33674699934019636,-1.631994229220559,1.0,14515.387512764084,0.0,1.0,212.8827685382967,4760.851450821519,1.0,1.0,0.14564406546944647,22.010060306576992,-0.0024987805230685754,-42.69376526092483,0.0,0.0,1.0,-0.5047301191530814,2.830454219274054
1.84,1.84,1.0,26.822438402410217,0.05067503863304672,2.6668678630577176,0.00011627998705808482,0.01735247927010867,0.0020107949319641523,26.954738989825906,0.017468982629602503,1.0,0.0,348.40304683469475,3.57184111878229,14504.272740811732,213.84251381016716,-0.33674699934019636,-1.631994229220559,1.0,14510.454678672566,0.0,1.0,214.82735943994095,4860.7671791571365,1.0,1.0,-0.5527947429352299,22.027144094424298,0.021473861929088452,-42.627360024225986,0.0,0.0,1.0,-0.4159999661909108,2.194228343656686
1.8800000000000001,1.8800000000000001,1.0,26.86957524466788,-0.018203625673627325,2.76033379441163,-0.0016895846284310505,0.011341965155056621,0.00113902791639127,27.010994943863647,0.011523552160226798,1.0,0.0,348.40304683469475,3.57184111878229,14504.272740811732,213.84251381016716,-0.33674699934019636,-1.631994229220559,1.0,14504.408343639312,0.0,1.0,215.97915297973302,4850.211334371886,1.0,1.0,-0.5527947429352299,22.027144094424298,0.021473861929088452,-42.627360024225986,0.0,0.0,1.0,-0.4159999661909108,2.194228343656686
1.92,1.92,1.0,26.806127536845285,-0.12563838697604038,2.774562508601002,-0.002877941416211166,0.013721384032517252,-0.002144353609110162,26.949628116915292,0.0141829890701455,1.0,0.0,348.40304683469475,3.57184111878229,14504.272740811732,213.84251381016716,-0.33674699934019636,-1.631994229220559,1.0,14504.913854545817,0.0,1.0,216.4377887211293,4932.177251205324,1.0,1.0,-0.3106435661663701,22.075534189483935,-0.02144746903739673,-42.68148737633672,0.0,0.0,1.0,0.22729601919354392,2.918925955288234
1.96,1.96,1.0,26.79266588390948,0.01972519521005072,2.88106652219727,-0.0032490498279123983,0.015765369317607466,-0.0011535711782778358,26.947131174866442,0.016137965205321573,1.0,0.0,348.40304683469475,3.57184111878229,14504.272740811732,213.84251381016716,-0.33674699934019636,-1.631994229220559,1.0,14510.049910289266,0.0,1.0,218.34175764813722,4997.341382080647,1.0,1.0,-0.3106435661663701,22.075534189483935,-0.02144746903739673,-42.68148737633672,0.0,0.0,1.0,0.22729601919354392,2.918925955288234
2.0,2.0,1.0,26.78877280814498,-0.03135772206306502,2.8908114100129176,-0.0002586214643303276,0.015623021525903303,-0.0005565016390608708,26.944315216412566,0.015635068939244486,1.0,0.0,386.96705551525133,5.202099602332095,14509.030821789447,219.4748693829357,0.018030822379456763,-3.188902457011199,1.0,14504.472394004983,0.0,1.0,219.29905931283358,5018.343497996025,1.0,1.0,1.0238448525945218,22.206534333193414,-0.025238714016482977,-42.51580612264556,0.0,0.0,1.0,-0.22998493593489877,1.8461135338673182
2.04,2.04,1.0,26.769526518817642,0.009331653982824754,2.9009230830649795,-0.0013243203864896727,0.008607858930964569,-0.0011128556946318428,26.926250980322276,0.008779949183140706,1.0,0.0,386.96705551525133,5.202099602332095,14509.030821789447,219.4748693829357,0.018030822379456763,-3.188902457011199,1.0,14508.9955735729,0.0,1.0,220.39663348103144,5107.668508315062,1.0,1.0,1.0238448525945218,22.206534333193414,-0.025238714016482977,-42.51580612264556,0.0,0.0,1.0,-0.22998493593489877,1.8461135338673182
2.08,2.08,1.0,26.735846886613988,-0.037323679271106205,2.998525205230232,-0.0010772532715467979,0.014070878234874348,0.0031027324918994317,26.903495222886974,0.01444911892912531,1.0,0.0,386.96705551525133,5.202099602332095,14509.030821789447,219.4748693829357,0.018030822379456763,-3.188902457011199,1.0,14502.185648505312,0.0,1.0,221.97591567619006,5138.504747331266,1.0,1.0,-0.26365015607418363,22.230839806796826,-0.026260898392294865,-42.52701477363644,0.0,0.0,1.0,-0.8144371568954659,2.7632146763486847
2.12,2.12,1.0,26.77066483515806,0.05556593770714595,3.0321874718834256,0.002166408113966731,0.012725153961550996,0.001098284471014144,26.941895704542553,0.012954886963640737,1.0,0.0,386.96705551525133,5.202099602332095,14509.030821789447,219.4748693829357,0.018030822379456763,-3.188902457011199,1.0,14506.227937663363,0.0,1.0,222.82912859888063,5200.708929498245,1.0,1.0,-0.26365015607418363,22.230839806796826,-0.026260898392294865,-42.52701477363644,0.0,0.0,1.0,-0.8144371568954659,2.7632146763486847
2.16,2.16,1.0,26.694564143193368,0.024302335866765664,3.1599349547533255,-0.00040786531302324126,0.01350050216137488,-0.00023574685918672703,26.880951142339917,0.013508719010493622,1.0,0.0,386.96705551525133,5.202099602332095,14509.030821789447,219.4748693829357,0.018030822379456763,-3.188902457011199,1.0,14505.173849723213,0.0,1.0,224.10317616198296,5237.885915141309,1.0,1.0,-2.753498157607498,22.225352635726512,0.004278258559991774,-42.49049102869077,0.0,0.0,1.0,0.1345195239461923,2.4612167328182575
2.2,2.2,1.0,26.661805090179648,-0.008943973558833838,3.206411128898318,-0.001980562908143919,0.009991027501966761,0.002842020302488393,26.85391969506343,0.010574513670988746,1.0,0.0,431.6342928729814,0.9824591276232669,14500.435126298478,224.77888917398707,0.3161770666188828,-4.0150618445301545,1.0,14507.313417559577,0.0,1.0,224.9922614085045,5310.117558038141,1.0,1.0,-2.753498157607498,22.225352635726512,0.004278258559991774,-42.49049102869077,0.0,0.0,1.0,0.1345195239461923,2.4612167328182575
2.24,2.24,1.0,26.62069413900641,0.02583246001017342,3.234538447239584,0.0018275008298490594,0.012186631679313713,0.0009033279307342422,26.81649236431177,0.012355960194205717,1.0,0.0,431.6342928729814,0.9824591276232669,14500.435126298478,224.77888917398707,0.3161770666188828,-4.0150618445301545,1.0,14500.26655966478,0.0,1.0,226.0840769066222,5289.313462341541,1.0,1.0,0.48882795498473625,22.28296741100812,-0.04125906303333317,-42.49630410984797,0.0,0.0,1.0,-0.31925629917746534,2.6803697408795304
2.2800000000000002,2.2800000000000002,1.0,26.64510312755704,-0.0010545337900223918,3.2101869823570226,0.000640769350349159,0.012254637543365851,0.0019225311408097362,26.83778720855887,0.012421064876531395,1.0,0.0,431.6342928729814,0.9824591276232669,14500.435126298478,224.77888917398707,0.3161770666188828,-4.0150618445301545,1.0,14512.125497875617,0.0,1.0,226.50620427242242,5398.3326528643765,1.0,1.0,0.48882795498473625,22.28296741100812,-0.04125906303333317,-42.49630410984797,0.0,0.0,1.0,-0.31925629917746534,2.6803697408795304
2.32,2.32,1.0,26.601531480397806,-0.0021255426480979783,3.374702708719631,-0.001221833303950927,0.012933254975069017,0.001346855301101926,26.814736619865702,0.013060473960576526,1.0,0.0,431.6342928729814,0.9824591276232669,14500.435126298478,224.77888917398707,0.3161770666188828,-4.0150618445301545,1.0,14514.272282247188,0.0,1.0,227.78435840730492,5435.655098668061,1.0,1.0,0.08295295909956021,22.34651471497205,0.06961810462545165,-42.474071714382276,0.0,0.0,1.0,0.16271025672814457,2.0882673644664242
2.36,2.36,1.0,26.559997102408825,0.050812556665404005,3.368510890372664,0.0007536726618691541,0.014274027420631594,0.0006737164990266755,26.772801377787108,0.014309779006233895,1.0,0.0,431.6342928729814,0.9824591276232669,14500.435126298478,224.77888917398707,0.3161770666188828,-4.0150618445301545,1.0,14507.756076226087,0.0,1.0,228.68966701016478,5528.969631957139,1.0,1.0,0.08295295909956021,22.34651471497205,0.06961810462545165,-42.474071714382276,0.0,0.0,1.0,0.16271025672814457,2.0882673644664242
2.4,2.4,1.0,26.553337716352303,-0.05932689623349379,3.4727994803595625,0.0013864998138556795,0.01433191037255584,-0.0005387356978552423,26.779536959963668,0.014408895613923334,1.0,0.0,479.1350573297606,6.515715031239981,14496.278914912295,230.00489603020594,0.04360444195591789,-5.3173108209340105,1.0,14510.817540455577,0.0,1.0,229.77523152426087,5601.058241715732,1.0,1.0,-0.9718278307432127,22.35248957915226,-0.0667368829927928,-42.510585397585764,0.0,0.0,1.0,-0.06541509704264097,2.3434695516519057
2.44,2.44,1.0,26.5698397973275,-0.06927404956318277,3.4653296527233852,-0.004707508076612011,0.012271336093867177,-0.0035036957289953656,26.79495652826545,0.01360228677764864,1.0,0.0,479.1350573297606,6.515715031239981,14496.278914912295,230.00489603020594,0.04360444195591789,-5.3173108209340105,1.0,14498.810629319192,0.0,1.0,231.27533447299595,5597.354514975491,1.0,1.0,-0.9718278307432127,22.35248957915226,-0.0667368829927928,-42.510585397585764,0.0,0.0,1.0,-0.06541509704264097,2.3434695516519057
2.48,2.48,1.0,26.50884752984143,0.0441980558762528,3.573179137461662,0.000426335958781526,0.0031931630194931126,-0.002465872491128719,26.748617907789452,0.004056917495009467,1.0,0.0,479.1350573297606,6.515715031239981,14496.278914912295,230.00489603020594,0.04360444195591789,-5.3173108209340105,1.0,14509.254886802395,0.0,1.0,232.02175429853006,5640.846292932223,1.0,1.0,-0.6819656050385632,22.39583290077658,0.047809818070674026,-42.41323918692155,0.0,0.0,1.0,-0.5823263724081379,2.1322070694962174
2.52,2.52,1.0,26.504562999913464,-0.04689268434528909,3.554956452919791,-0.0003970096166505065,0.015154801019559091,0.001763767969835208,26.741947837103844,0.015262256976920513,1.0,0.0,479.1350573297606,6.515715031239981,14496.278914912295,230.00489603020594,0.04360444195591789,-5.3173108209340105,1.0,14500.09004421741,0.0,1.0,233.15893364031965,5712.6068381667565,1.0,1.0,-0.6819656050385632,22.39583290077658,0.047809818070674026,-42.41323918692155,0.0,0.0,1.0,-0.5823263724081379,2.1322070694962174
2.56,2.56,1.0,26.499166773894373,-0.010919555675168181,3.6872971824910508,-0.004045715377268412,0.014363859365358556,7.176439037553493e-05,26.75447849350404,0.01492291589835548,1.0,0.0,479.1350573297606,6.515715031239981,14496.278914912295,230.00489603020594,0.04360444195591789,-5.3173108209340105,1.0,14502.619402866443,0.0,1.0,233.88975019741886,5713.6991241501155,1.0,1.0,-0.2718868449665738,22.432286037985197,0.06408661370859216,-42.376510000294395,0.0,0.0,1.0,-0.029839003841576492,2.374961486921257
2.6,2.6,1.0,26.45485079281357,0.07717967325929875,3.7451670065204277,-0.00019850172323039077,0.009760513940680657,-0.0016347131062875958,26.71874553714531,0.009898450497942359,1.0,0.0,522.1193268798918,4.503432607252925,14506.37767577615,235.01596836974113,0.036850614960082545,-6.0083234900286016,1.0,14499.787732115483,0.0,1.0,235.4555853650909,5720.842813536983,1.0,1.0,-0.2718868449665738,22.432286037985197,0.06408661370859216,-42.376510000294395,0.0,0.0,1.0,-0.029839003841576492,2.374961486921257
2.64,2.64,1.0,26.41930971586962,-0.05931209676547658,3.8134942176075017,0.002227185524053325,0.0061619811062456585,-0.0011112458132737763,26.693186058160826,0.006645692873568538,1.0,0.0,522.1193268798918,4.503432607252925,14506.37767577615,235.01596836974113,0.036850614960082545,-6.0083234900286016,1.0,14505.570104837261,0.0,1.0,236.71600412980007,5741.697777579629,1.0,1.0,1.195757194914078,22.539764985321785,0.028811628387503944,-42.41384245308812,0.0,0.0,1.0,0.06142492001479758,1.3398917023233738
2.68,2.68,1.0,26.434860378265533,0.06773240044511453,3.8506047400746337,0.0028487120418152503,0.013782242965707557,0.003012013055316213,26.713921235205216,0.014392275848814669,1.0,0.0,522.1193268798918,4.503432607252925,14506.37767577615,235.01596836974113,0.036850614960082545,-6.0083234900286016,1.0,14494.614112052917,0.0,1.0,237.6306555540909,5874.312808989984,1.0,1.0,1.195757194914078,22.539764985321785,0.028811628387503944,-42.41384245308812,0.0,0.0,1.0,0.06142492001479758,1.3398917023233738
2.72,2.72,1.0,26.320622692935512,0.03202187215535467,3.9971850950169623,0.0021253509449528684,0.0106789706280458,-7.496788108718124e-05,26.62242838337619,0.010888670740594174,1.0,0.0,522.1193268798918,4.503432607252925,14506.37767577615,235.01596836974113,0.036850614960082545,-6.0083234900286016,1.0,14505.033484371796,0.0,1.0,237.98475372345945,5882.953607376274,1.0,1.0,-0.7927198490573568,22.427520318361246,-0.008257148168456439,-42.32002326229859,0.0,0.0,1.0,-0.025110456462002613,1.8591021280380027
2.7600000000000002,2.7600000000000002,1.0,26.440228755026325,-0.0021240082688422364,4.030922283700475,0.0007672109124201012,0.0022890322930499475,-0.002039666251745679,26.745729296221576,0.0031604619664334283,1.0,0.0,522.1193268798918,4.503432607252925,14506.37767577615,235.01596836974113,0.036850614960082545,-6.0083234900286016,1.0,14508.193633688661,0.0,1.0,239.7078004167217,6039.912760088131,1.0,1.0,-0.7927198490573568,22.427520318361246,-0.008257148168456439,-42.32002326229859,0.0,0.0,1.0,-0.025110456462002613,1.8591021280380027
2.8000000000000003,2.8000000000000003,1.0,26.293104931274474,0.005218190761288001,4.057903518962852,-0.004311052781826266,0.011398182942445193,0.00034032985573976583,26.604397665155584,0.01219096283678399,1.0,0.0,567.8693456629109,-2.7442798217251054,14497.716699671799,240.41782564973977,-0.336661701762928,-7.428212994244182,1.0,14499.820153211975,0.0,1.0,240.2248322469959,6007.545134299454,1.0,1.0,-1.048900212464882,22.545888504156032,-0.021694958498944844,-42.360492023400596,0.0,0.0,1.0,-0.22556650889395413,1.9219909921811242
2.84,2.84,1.0,26.310357392507452,0.009776643576666395,4.064369974119558,-0.002077820708936031,0.013480479993766139,0.0014223430034749859,26.62243612051226,0.013713633339868279,1.0,0.0,567.8693456629109,-2.7442798217251054,14497.716699671799,240.41782564973977,-0.336661701762928,-7.428212994244182,1.0,14507.50829231452,0.0,1.0,241.96497361423152,6122.557911289931,1.0,1.0,-1.048900212464882,22.545888504156032,-0.021694958498944844,-42.360492023400596,0.0,0.0,1.0,-0.22556650889395413,1.9219909921811242
2.88,2.88,1.0,26.265431508218576,0.04984368985143606,4.21123275896907,0.0018395398760121715,0.0026528226457537257,-0.004296270558447325,26.600937165005174,0.005373947865084287,1.0,0.0,567.8693456629109,-2.7442798217251054,14497.716699671799,240.41782564973977,-0.336661701762928,-7.428212994244182,1.0,14498.993859966902,0.0,1.0,242.6444304266384,6134.0085793660755,1.0,1.0,0.6002589253583046,22.624710781056578,-0.012494784984274197,-42.330343752406584,0.0,0.0,1.0,-0.2654290514445181,1.820183339852483
2.92,2.92,1.0,26.251906596254006,-0.03334596605249394,4.273515948141181,0.0007752349501114198,0.006116250140033931,-0.0011886871151586221,26.597493311417782,0.006278732520268997,1.0,0.0,567.8693456629109,-2.7442798217251054,14497.716699671799,240.41782564973977,-0.336661701762928,-7.428212994244182,1.0,14495.372534512731,0.0,1.0,244.12085107256266,6241.1900102386735,1.0,1.0,0.6002589253583046,22.624710781056578,-0.012494784984274197,-42.330343752406584,0.0,0.0,1.0,-0.2654290514445181,1.820183339852483
2.96,2.96,1.0,26.24839928743169,-0.03239623447333465,4.343941694879727,0.005333739707932976,0.014946075099852388,-0.0015129191840678885,26.605438243279643,0.015941231590436453,1.0,0.0,567.8693456629109,-2.7442798217251054,14497.716699671799,240.41782564973977,-0.336661701762928,-7.428212994244182,1.0,14503.435409078327,0.0,1.0,244.3021772196137,6229.944318108289,1.0,1.0,1.2168476573990261,22.567617905390275,-0.03044897477984714,-42.3345562705292,0.0,0.0,1.0,-0.01959410908427266,1.6671453935986573
3.0,3.0,1.0,26.228624635901213,0.02543477889055996,4.4032860016879045,0.0015962969850003737,0.00542929310857111,0.0015792781031255918,26.595682447187585,0.0058753303779541625,1.0,0.0,625.3856609098953,-2.279000549709126,14503.1741888409,245.60674488144798,-0.16980942102249125,-8.231872684297134,1.0,14505.415220046445,0.0,1.0,245.67023352989037,6303.055602527746,1.0,1.0,1.2168476573990261,22.567617905390275,-0.03044897477984714,-42.3345562705292,0.0,0.0,1.0,-0.01959410908427266,1.6671453935986573
3.04,3.04,1.0,26.200910510918916,-0.008571146797055123,4.405430526079237,0.00047481900814659106,-0.0009029804714926907,-1.71496165488728e-05,26.56869592557846,0.0010203533367134387,1.0,0.0,625.3856609098953,-2.279000549709126,14503.1741888409,245.60674488144798,-0.16980942102249125,-8.231872684297134,1.0,14497.30947335489,0.0,1.0,246.70440561837805,6260.02719838561,1.0,1.0,-1.3176768269462686,22.648522549449453,-0.010865495067703124,-42.34209000963543,0.0,0.0,1.0,-0.025045771717528396,2.34429790447368
3.08,3.08,1.0,26.223805130878354,0.017544344386933915,4.560431093367177,0.002428861683159635,0.014165561034904618,0.0004447956190858829,26.617396474930676,0.014379163106811433,1.0,0.0,625.3856609098953,-2.279000549709126,14503.1741888409,245.60674488144798,-0.16980942102249125,-8.231872684297134,1.0,14504.95474020161,0.0,1.0,247.50236200374536,6438.323505705913,1.0,1.0,-1.3176768269462686,22.648522549449453,-0.010865495067703124,-42.34209000963543,0.0,0.0,1.0,-0.025045771717528396,2.34429790447368
3.12,3.12,1.0,26.16338384226468,0.054727356006925944,4.5936430489897635,0.001252128524519945,0.012067802273697642,-6.530913161998989e-05,26.56364443412658,0.012132763198944066,1.0,0.0,625.3856609098953,-2.279000549709126,14503.1741888409,245.60674488144798,-0.16980942102249125,-8.231872684297134,1.0,14509.435220522098,0.0,1.0,249.263324804406,6538.887809965843,1.0,1.0,1.6433434741146629,22.640285865068726,-0.021686668197432576,-42.369037148487024,0.0,0.0,1.0,0.4370997649632534,1.9705388329471087
3.16,3.16,1.0,26.170126738502503,0.06232454307153749,4.643427749146512,0.001356381129926487,-0.003923881994213091,0.002041135588343802,26.578954816160408,0.004626321882892927,1.0,0.0,625.3856609098953,-2.279000549709126,14503.1741888409,245.60674488144798,-0.16980942102249125,-8.231872684297134,1.0,14499.796169543248,0.0,1.0,250.08949649943025,6639.429732229115,1.0,1.0,1.6433434741146629,22.640285865068726,-0.021686668197432576,-42.369037148487024,0.0,0.0,1.0,0.4370997649632534,1.9705388329471087
3.2,3.2,1.0,26.022292968067948,0.006906875102637384,4.726614109981041,0.0014991053478324052,0.011561809637751138,-0.0011493062344199029,26.448074787506823,0.011715104086774956,1.0,0.0,664.4031634246344,3.4569094297159464,14507.180883685947,251.05233882156548,-0.13095458462721551,-9.109325724544076,1.0,14494.978258392677,0.0,1.0,251.3716576770665,6675.5599616404725,1.0,1.0,-0.8020993878944752,22.645254209053935,-0.07034457240411825,-42.27669867571519,0.0,0.0,1.0,0.5317679510565062,1.125782984048658
3.24,3.24,1.0,26.06585553201758,-0.05107509351181665,4.685506529478226,-8.754458763207249e-05,0.017728610756876668,0.0013491935418370566,26.483681857305488,0.017780090737591906,1.0,0.0,664.4031634246344,3.4569094297159464,14507.180883685947,251.05233882156548,-0.13095458462721551,-9.109325724544076,1.0,14495.593705955178,0.0,1.0,252.32727717019378,6506.127446819288,1.0,1.0,-0.8020993878944752,22.645254209053935,-0.07034457240411825,-42.27669867571519,0.0,0.0,1.0,0.5317679510565062,1.125782984048658
3.2800000000000002,3.2800000000000002,1.0,26.06771075688475,0.004739243417253117,4.774516791740779,-0.0022996570220907755,-0.0027350495977934482,-1.5604982631991307e-05,26.501350478035036,0.0035733964567515398,1.0,0.0,664.4031634246344,3.4569094297159464,14507.180883685947,251.05233882156548,-0.13095458462721551,-9.109325724544076,1.0,14502.043460263318,0.0,1.0,252.7765196031272,6738.21768945536,1.0,1.0,-0.740356698231406,22.720889576636395,-0.00808649597976032,-42.3355856794545,0.0,0.0,1.0,-0.09486680751131221,1.7361710480839003
3.3200000000000003,3.3200000000000003,1.0,26.04440556093641,-0.009181937724229821,4.920023404961556,0.00317159472379725,-0.0010312942142299934,-0.001800990826685214,26.50505188894912,0.0037902702814083195,1.0,0.0,664.4031634246344,3.4569094297159464,14507.180883685947,251.05233882156548,-0.13095458462721551,-9.109325724544076,1.0,14497.77494284978,0.0,1.0,254.0875156049391,6736.16837934398,1.0,1.0,-0.740356698231406,22.720889576636395,-0.00808649597976032,-42.3355856794545,0.0,0.0,1.0,-0.09486680751131221,1.7361710480839003
3.36,3.36,1.0,25.986514519016218,0.05714896502709776,4.963099122342002,-0.000575738727097849,0.026460918379317553,-0.002008838243649968,26.45627630165357,0.02654330626820887,1.0,0.0,664.4031634246344,3.4569094297159464,14507.180883685947,251.05233882156548,-0.13095458462721551,-9.109325724544076,1.0,14495.957440451075,0.0,1.0,255.47448664408776,6726.531424971294,1.0,1.0,0.332198780409719,22.74437589821518,0.03483554493793628,-42.247637640665324,0.0,0.0,1.0,-0.40198766784840967,1.7551809795186533
3.4,3.4,1.0,25.97141405536307,0.010094099512652952,4.969935320511946,0.0003492739554405217,-0.002630528712480592,0.0012603308237401582,26.442668303634328,0.002937704441975641,1.0,0.0,723.2428665813303,-0.5566383451275277,14493.762906219443,256.0493826161677,0.21876907680071708,-10.006106415427213,1.0,14492.317468344057,0.0,1.0,255.83787126515207,6857.456568603004,1.0,1.0,0.332198780409719,22.74437589821518,0.03483554493793628,-42.247637640665324,0.0,0.0,1.0,-0.40198766784840967,1.7551809795186533
3.44,3.44,1.0,25.858099194066103,-0.0019023660914587008,5.134282925765804,0.0022351332902384117,-0.010104733012649095,-6.1007193085893933e-05,26.362893595183536,0.01034916286274695,1.0,0.0,723.2428665813303,-0.5566383451275277,14493.762906219443,256.0493826161677,0.21876907680071708,-10.006106415427213,1.0,14493.736190722915,0.0,1.0,256.98658737426524,6995.888571076677,1.0,1.0,2.5313206052148485,22.7821429384907,0.016070938469974115,-42.29620162515159,0.0,0.0,1.0,-0.09077395151229199,1.9442341493313386
3.48,3.48,1.0,25.88217834072259,0.006455315471697212,5.113295475252741,0.0012130237207049865,0.030355545040036555,0.0030390808497459294,26.382437111633706,0.03053140274595934,1.0,0.0,723.2428665813303,-0.5566383451275277,14493.762906219443,256.0493826161677,0.21876907680071708,-10.006106415427213,1.0,14493.883252113386,0.0,1.0,257.9319669024011,7051.144997421528,1.0,1.0,2.5313206052148485,22.7821429384907,0.016070938469974115,-42.29620162515159,0.0,0.0,1.0,-0.09077395151229199,1.9442341493313386
3.52,3.52,1.0,25.886722402199158,-0.06635852955480538,5.192147507520915,-0.001367003943054864,0.006883583763769679,-0.0005897087080788104,26.402371028428867,0.007042739635507269,1.0,0.0,723.2428665813303,-0.5566383451275277,14493.762906219443,256.0493826161677,0.21876907680071708,-10.006106415427213,1.0,14497.631512045062,0.0,1.0,259.6037123969554,7063.162984382641,1.0,1.0,-0.8197210580862828,22.75702465181549,0.028270861984047005,-42.26039806280866,0.0,0.0,1.0,0.06913398090220209,2.3442770082471704
3.56,3.56,1.0,25.81560289358418,-0.006555565049608623,5.34731401074419,-0.0017093134350414324,-0.023516087657198502,-0.0010611404918017093,26.363595408520556,0.023601994624683695,1.0,0.0,723.2428665813303,-0.5566383451275277,14493.762906219443,256.0493826161677,0.21876907680071708,-10.006106415427213,1.0,14490.799693058298,0.0,1.0,259.91981673583285,7087.570886696675,1.0,1.0,-0.8197210580862828,22.75702465181549,0.028270861984047005,-42.26039806280866,0.0,0.0,1.0,0.06913398090220209,2.3442770082471704
3.6,3.6,1.0,25.819101755525445,0.017228529403269525,5.402550423144464,-0.0020071554247959875,0.0336665552627249,-0.0024950398279698686,26.378283935067135,0.03381849848678314,1.0,0.0,763.3852823475077,-0.09366238549082458,14496.528037200475,261.1684125012275,0.027856919521483538,-10.42785838412229,1.0,14503.510910941508,0.0,1.0,261.5711187288915,7171.95674173537,1.0,1.0,0.5213997456682499,22.767868680460303,0.047244418420058366,-42.29055345965049,0.0,0.0,1.0,-0.2490437632817925,1.5640350260461962
3.64,3.64,1.0,25.78215751772961,-0.049663724980309895,5.2954838885925195,-0.0014555804108358804,0.019163317385440203,-0.0021259750084939525,26.32041531528223,0.019335749721287373,1.0,0.0,763.3852823475077,-0.09366238549082458,14496.528037200475,261.1684125012275,0.027856919521483538,-10.42785838412229,1.0,14499.495046546655,0.0,1.0,262.339443680564,7219.175336891038,1.0,1.0,0.5213997456682499,22.767868680460303,0.047244418420058366,-42.29055345965049,0.0,0.0,1.0,-0.2490437632817925,1.5640350260461962
3.68,3.68,1.0,25.72799000517002,-0.0569025625700685,5.619695856267573,0.0017659627746584481,-0.04142755530072355,0.0003643496584499221,26.334648072922988,0.04146677843032419,1.0,0.0,763.3852823475077,-0.09366238549082458,14496.528037200475,261.1684125012275,0.027856919521483538,-10.42785838412229,1.0,14492.672496410603,0.0,1.0,264.1572426066068,7307.561040694071,1.0,1.0,1.8452855126963252,22.746331635501164,0.028152810671935268,-42.22213777688513,0.0,0.0,1.0,-0.12081534434753252,2.090460271071646
3.72,3.72,1.0,25.71840932063579,-0.01325092673421044,5.660465501282697,0.0022990796984278796,0.0284623915065985,0.0025692626457197013,26.333963303347193,0.028670448344546413,1.0,0.0,763.3852823475077,-0.09366238549082458,14496.528037200475,261.1684125012275,0.027856919521483538,-10.42785838412229,1.0,14490.886636739633,0.0,1.0,264.38309155329756,7349.101961958501,1.0,1.0,1.8452855126963252,22.746331635501164,0.028152810671935268,-42.22213777688513,0.0,0.0,1.0,-0.12081534434753252,2.090460271071646
3.7600000000000002,3.7600000000000002,1.0,25.717336079313355,0.015208737075051425,5.470135794303599,0.0010339889825016517,0.04571198877386099,0.0014987721947877456,26.29266041940521,0.04574823897123688,1.0,0.0,763.3852823475077,-0.09366238549082458,14496.528037200475,261.1684125012275,0.027856919521483538,-10.42785838412229,1.0,14495.842749490193,0.0,1.0,265.572648265089,7397.966984102423,1.0,1.0,-0.08901997136975334,22.855671426950263,-0.05804433012735944,-42.190688837405524,0.0,0.0,1.0,0.40112680537517953,1.5341538588368215
3.8000000000000003,3.8000000000000003,1.0,25.61500365602184,0.07387211195140239,5.757579160599998,0.0005435237286555047,-0.06551358510912857,-0.0019524333843813435,26.254210846595864,0.06554492541772468,1.0,0.0,825.0610836837718,1.3489450846153628,14498.139212805052,266.2156658527804,-0.24713589408384287,-11.425329807346753,1.0,14490.339804270783,0.0,1.0,266.61966776375306,7561.889889028998,1.0,1.0,-0.08901997136975334,22.855671426950263,-0.05804433012735944,-42.190688837405524,0.0,0.0,1.0,0.40112680537517953,1.5341538588368215
3.84,3.84,1.0,25.644280086397842,0.018957490986988464,5.995599349199705,0.0020920253146670775,0.01726638433194008,-0.0007325872371264977,26.33584386520032,0.017408080936032966,1.0,0.0,825.0610836837718,1.3489450846153628,14498.139212805052,266.2156658527804,-0.24713589408384287,-11.425329807346753,1.0,14493.73928786005,0.0,1.0,267.7576355846209,7482.751645590262,1.0,1.0,1.9243504887093328,22.710809013890003,0.0010394310631968026,-42.235294120429536,0.0,0.0,1.0,-0.6957730088024753,1.7226966533275205
3.88,3.88,1.0,25.65378168339765,0.04672784888187608,5.527742902531311,-0.0015282877879024285,0.08236756498109495,0.0022354223253927565,26.242611145763966,0.08241206548467532,1.0,0.0,825.0610836837718,1.3489450846153628,14498.139212805052,266.2156658527804,-0.24713589408384287,-11.425329807346753,1.0,14489.523899814989,0.0,1.0,268.985294966866,7534.247754005805,1.0,1.0,1.9243504887093328,22.710809013890003,0.0010394310631968026,-42.235294120429536,0.0,0.0,1.0,-0.6957730088024753,1.7226966533275205
3.92,3.92,1.0,25.609646425430157,0.04923617598297061,5.95749667376007,-0.0013725848186611118,-0.10013182043836252,0.0006266825429613399,26.293500734106047,0.1001431884073727,1.0,0.0,825.0610836837718,1.3489450846153628,14498.139212805052,266.2156658527804,-0.24713589408384287,-11.425329807346753,1.0,14488.73997631457,0.0,1.0,269.97090566331644,7646.439297675045,1.0,1.0,-1.7449487114466906,22.81261848096887,0.017956434665668045,-42.15999027838483,0.0,0.0,1.0,0.15415034574385136,1.550201490755452
3.96,3.96,1.0,25.48148635106034,-0.004882550952777889,6.311824767529896,-0.0016710203643095244,-0.005670428258429202,0.0028394033996411573,26.251577141089676,0.006558069636548801,1.0,0.0,825.0610836837718,1.3489450846153628,14498.139212805052,266.2156658527804,-0.24713589408384287,-11.425329807346753,1.0,14497.851760408686,0.0,1.0,270.06077483894296,7818.718066025274,1.0,1.0,-1.7449487114466906,22.81261848096887,0.017956434665668045,-42.15999027838483,0.0,0.0,1.0,0.15415034574385136,1.550201490755452
4.0,4.0,1.0,25.645349333948754,-0.08111236945859941,5.619363627759076,-0.0011410837233270302,0.14571148841645487,0.0031657441579283465,26.253909599481116,0.14575034087327468,1.0,0.0,868.6575201962293,3.5729625046960436,14492.290721240888,271.3340121106388,-0.1957257673268677,-12.304536814541853,1.0,14493.270634300992,0.0,1.0,271.5689822300906,7655.567401587471,1.0,1.0,-0.7464173656776686,22.841296801252216,-0.07066124103522413,-42.22101877126092,0.0,0.0,1.0,0.2732283722469435,1.4736613158104697
4.04,4.04,1.0,25.504259295584802,0.009544685015309752,6.0741047204555105,0.0002104956436379422,-0.14642703356056985,-0.000872081233240238,26.217591069213352,0.14642978177762067,1.0,0.0,868.6575201962293,3.5729625046960436,14492.290721240888,271.3340121106388,-0.1957257673268677,-12.304536814541853,1.0,14495.726313040454,0.0,1.0,273.06707799624763,8106.792246163803,1.0,1.0,-0.7464173656776686,22.841296801252216,-0.07066124103522413,-42.22101877126092,0.0,0.0,1.0,0.2732283722469435,1.4736613158104697
4.08,4.08,1.0,25.431168130268375,0.03151910237954649,6.673714473611821,-0.0020505705137503147,-0.03576991815930273,-0.0010615101311056653,26.29227587712955,0.03584436759539101,1.0,0.0,868.6575201962293,3.5729625046960436,14492.290721240888,271.3340121106388,-0.1957257673268677,-12.304536814541853,1.0,14489.297923301769,0.0,1.0,273.19680212528664,7910.555500328147,1.0,1.0,0.21394760297270757,22.699041621055976,-0.030545095397866175,-42.318681403101486,0.0,0.0,1.0,0.06611444583003628,1.3542610578188294
4.12,4.12,1.0,25.49570836246675,-0.03919457029458048,5.680683208494828,-0.0039869374396233346,0.25171609711290305,-0.001137398642094343,26.120927296586785,0.2517502391092627,1.0,0.0,868.6575201962293,3.5729625046960436,14492.290721240888,271.3340121106388,-0.1957257673268677,-12.304536814541853,1.0,14484.141376092628,0.0,1.0,274.7945752342095,7860.467176365249,1.0,1.0,0.21394760297270757,22.699041621055976,-0.030545095397866175,-42.318681403101486,0.0,0.0,1.0,0.06611444583003628,1.3542610578188294
4.16,4.16,1.0,25.486444146471328,-0.04283597444442355,6.217466715403943,-0.0008261164080709746,-0.22637149479171748,-0.0001388825691314628,26.23390101584332,0.22637304479757359,1.0,0.0,868.6575201962293,3.5729625046960436,14492.290721240888,271.3340121106388,-0.1957257673268677,-12.304536814541853,1.0,14487.982508552632,0.0,1.0,275.21606619851843,7917.2750466336975,1.0,1.0,0.25057743110548675,22.957764100243324,0.057223412742803084,-42.165757206126294,0.0,0.0,1.0,-0.15161574072764533,1.3109696751670668
4.2,4.2,1.0,25.360863560258625,-0.019238885352542433,7.430680956600844,0.0020110598867282216,-0.09992644860914505,7.537539904712517e-05,26.427046564751684,0.09994671167654741,1.0,0.0,935.4135481766182,-4.978190887468631,14488.72386277415,276.45117847656945,-0.12803306832788064,-12.507438704082832,1.0,14489.748629761638,0.0,1.0,276.8060979901713,8002.333051998333,1.0,1.0,0.25057743110548675,22.957764100243324,0.057223412742803084,-42.165757206126294,0.0,0.0,1.0,-0.15161574072764533,1.3109696751670668
4.24,4.24,1.0,25.474440001677127,0.016739755954229392,5.725911512875832,-0.003934072795109418,0.43029298027715174,-0.0003221948850970976,26.110025589259028,0.43031108469814544,1.0,0.0,935.4135481766182,-4.978190887468631,14488.72386277415,276.45117847656945,-0.12803306832788064,-12.507438704082832,1.0,14485.455375892414,0.0,1.0,277.923209914972,8110.254375893349,1.0,1.0,-1.2602042416995005,22.928856490259697,0.021448542285332002,-42.28423207531266,0.0,0.0,1.0,0.06537686525202098,1.2583183131721534
4.28,4.28,1.0,25.526684957967856,0.010626450386613449,5.2498384687029755,0.0005527594253276251,-0.12392365158940549,-0.001301737858507131,26.06093938852289,0.1239317210712694,1.0,0.0,935.4135481766182,-4.978190887468631,14488.72386277415,276.45117847656945,-0.12803306832788064,-12.507438704082832,1.0,14487.698639668251,0.0,1.0,278.92835108594124,8130.8508401483095,1.0,1.0,-1.2602042416995005,22.928856490259697,0.021448542285332002,-42.28423207531266,0.0,0.0,1.0,0.06537686525202098,1.2583183131721534
4.32,4.32,1.0,25.27414728801437,-0.045570040012944325,7.774118988200732,-0.004520845052198431,-0.5011239523312475,-0.00204371542656923,26.442797200891853,0.5011485113345356,1.0,0.0,935.4135481766182,-4.978190887468631,14488.72386277415,276.45117847656945,-0.12803306832788064,-12.507438704082832,1.0,14483.17239346293,0.0,1.0,279.9587542247901,8363.687174971066,1.0,1.0,1.2490965365466862,22.610250259665687,-0.0176216245347708,-42.34570463905044,0.0,0.0,1.0,0.6762001425626258,1.6179130113965725
4.36,4.36,1.0,25.22720349092541,0.018395777099605846,8.022685296019008,0.00028653289110234294,0.23158698181591883,0.0035621832624604614,26.472166774484744,0.2316145535092727,1.0,0.0,935.4135481766182,-4.978190887468631,14488.72386277415,276.45117847656945,-0.12803306832788064,-12.507438704082832,1.0,14481.7691323936,0.0,1.0,280.8402645982009,8271.84760419421,1.0,1.0,1.2490965365466862,22.610250259665687,-0.0176216245347708,-42.34570463905044,0.0,0.0,1.0,0.6762001425626258,1.6179130113965725
4.4,4.4,1.0,25.458698732514208,0.009705959560894295,5.475301846833951,-0.0013323422081939651,0.5013429477180177,0.0005519187905011501,26.04082114051926,0.5013450218928098,1.0,0.0,983.2253945207825,1.2003508490603525,14495.171971983367,281.35308497549255,-0.3674751855925118,-12.67593186864872,1.0,14483.427250678349,0.0,1.0,281.86683632934864,8292.281113235964,1.0,1.0,-1.4322066786564354,23.0816999119042,0.017841674799897057,-42.126893176285094,0.0,0.0,1.0,0.13604801867675795,1.1691441246721666
4.44,4.44,1.0,25.52003934873091,0.10270680242909229,5.535787334454938,0.0005959249311417598,-0.26375421134668364,-0.003913210914629802,26.113749222590595,0.2637839122260814,1.0,0.0,983.2253945207825,1.2003508490603525,14495.171971983367,281.35308497549255,-0.3674751855925118,-12.67593186864872,1.0,14485.82706865191,0.0,1.0,283.2100266013997,8300.610578294487,1.0,1.0,-1.4322066786564354,23.0816999119042,0.017841674799897057,-42.126893176285094,0.0,0.0,1.0,0.13604801867675795,1.1691441246721666
4.48,4.48,1.0,25.191078287315754,-0.032143761428748426,8.27248644683464,-0.00027503239177572886,-0.49267288177519664,-0.0043301442522301345,26.514627859205056,0.49269198717732215,1.0,0.0,983.2253945207825,1.2003508490603525,14495.171971983367,281.35308497549255,-0.3674751855925118,-12.67593186864872,1.0,14479.69441145406,0.0,1.0,282.99686390794784,8227.870223091293,1.0,1.0,-1.1024665982765978,22.566738211262464,-0.01861797955789804,-42.34949968363638,0.0,0.0,1.0,-0.3369250952176552,2.1882014034337076
4.5200000000000005,4.5200000000000005,1.0,25.107830413698593,-0.06441963040576197,8.246861156221373,-0.0020900007033862714,0.27441789941740496,-0.0011842155617624735,26.427599529692866,0.2744284132339395,1.0,0.0,983.2253945207825,1.2003508490603525,14495.171971983367,281.35308497549255,-0.3674751855925118,-12.67593186864872,1.0,14488.318285326914,0.0,1.0,284.6819122657977,8512.053868618572,1.0,1.0,-1.1024665982765978,22.566738211262464,-0.01861797955789804,-42.34949968363638,0.0,0.0,1.0,-0.3369250952176552,2.1882014034337076
4.5600000000000005,4.5600000000000005,1.0,25.351772234146644,0.043306250906839046,5.587286611297919,0.0007229605721627328,0.4637964296154553,-0.000480160844465465,25.960200355933413,0.4637972416374093,1.0,0.0,983.2253945207825,1.2003508490603525,14495.171971983367,281.35308497549255,-0.3674751855925118,-12.67593186864872,1.0,14485.401878374572,0.0,1.0,285.72565103562414,8461.857682535625,1.0,1.0,1.3259132646516558,23.03269908042629,-0.0035281755840377692,-42.137515802479115,0.0,0.0,1.0,-0.4710199598301002,1.3662248850648202
4.6000000000000005,4.6000000000000005,1.0,25.414988561911983,0.026407875205752,5.9943796956111655,-0.0027464164993739235,-0.29980480514732066,0.001803515699863043,26.112352037170936,0.29982280877526746,1.0,0.0,1050.6451532584072,1.6718861808585128,14487.880995452475,286.5868738386197,-0.009740363781446887,-13.545215841335482,1.0,14478.50352512713,0.0,1.0,287.1782211673493,8652.438312724582,1.0,1.0,1.3259132646516558,23.03269908042629,-0.0035281755840377692,-42.137515802479115,0.0,0.0,1.0,-0.4710199598301002,1.3662248850648202
4.64,4.64,1.0,25.076633172184042,0.01695792974563232,8.755301665744224,0.0004645272754602892,-0.4155125488868172,-0.0007217022175441302,26.561120572781675,0.4155134353087757,1.0,0.0,1050.6451532584072,1.6718861808585128,14487.880995452475,286.5868738386197,-0.009740363781446887,-13.545215841335482,1.0,14479.455685864943,0.0,1.0,287.95457927240426,8759.250319864444,1.0,1.0,0.7672585271484665,22.54035680178594,-0.008110950308195183,-42.38770355319724,0.0,0.0,1.0,-0.7564696031565403,1.9268620629984032
