time_s,x_m,y_m,altitude_m,vx_mps,vy_mps,vz_mps,speed_mps,mass_kg,roll_deg,pitch_deg,yaw_deg,p_dps,q_dps,r_dps,alpha_deg,beta_deg,qbar_pa,mach,airspeed_mps,load_factor_g,density_kgpm3,pressure_pa,temperature_k,wind_x_mps,wind_y_mps,wind_z_mps,thrust_n,mass_flow_kgps,propulsion_throttle_actual,propulsion_health,energy_j_per_kg,target_distance_m,guidance_mode,pitch_command_deg,heading_command_deg,roll_command_deg
0.0,0.0,0.0,14500.0,168.0,0.0,10.0,168.2973558912914,21.0,0.0,4.0,0.0,0.0,0.0,0.0,0.5935562450052811,0.0,2967.811486241532,0.5703651498833013,168.29735589129137,2.248005065083861,0.20956160755836276,13032.637272130847,216.64999999999998,0.0,0.0,0.0,478.40000000000003,0.23796694453104436,0.92,nominal,156358.425,nan,pitch_program,6.000000000000001,0.0,0.0
0.04,6.737639783316654,0.0,14500.393475421926,168.8829682267017,0.0,9.676405761284657,169.15995325584055,20.990437389859768,0.0,4.339834280684275,0.0,0.0,-16.592933380646375,0.0,1.0605710608507573,0.0,2998.126078763367,0.5732885200843033,169.15995325584055,2.2666847775448655,0.20954860538516928,13031.828666924224,216.64999999999998,0.0,0.0,0.0,482.816,0.24016356248056167,0.92,nominal,156507.82856850553,nan,pitch_program,6.0200000000000005,0.0,0.0
0.08,13.510675514767513,0.0,14500.774698748812,169.76952556188797,0.0,9.388687183729164,170.02893652711722,20.980786915001556,0.0,4.893138383003395,0.0,0.0,-10.719915119638541,0.0,1.7277601779105574,0.0,3028.8261670827283,0.5762335323285119,170.0289365271172,2.2852386961973252,0.20953600884496712,13031.04528803507,216.64999999999998,0.0,0.0,0.0,487.232,0.242360180430079,0.92,nominal,156658.94182775624,nan,pitch_program,6.04,0.0,0.0
0.12,20.31925790435661,0.0,14501.1449671915,170.6608678452441,0.0,9.125504531694029,170.90467122536424,20.97104857542536,0.0,4.92994566626984,0.0,0.0,8.817131518609195,0.0,1.8691653003875734,0.0,3059.927811250982,0.5792014253757819,170.90467122536424,2.3048595607851876,0.2095237750055052,13030.284465506506,216.64999999999998,0.0,0.0,0.0,491.648,0.24455679837959635,0.92,nominal,156811.8566158334,nan,pitch_program,6.06,0.0,0.0
0.16,27.163692797686785,0.0,14501.504449721335,171.56267807677992,0.0,8.846537963990034,171.79061017071083,20.961222371131186,0.0,4.502823717341356,0.0,0.0,12.320329032864672,0.0,1.5510117476815368,0.0,3091.559009790731,0.5822039009445393,171.79061017071083,2.3275325632980026,0.20951189822092983,13029.545848222864,216.64999999999998,0.0,0.0,0.0,496.0640000000001,0.2467534163291137,0.92,nominal,156967.18548327227,nan,pitch_program,6.08,0.0,0.0
0.2,34.04443017990512,0.0,14501.852325191243,172.47576381392398,0.0,8.546286162551166,172.6873710216491,20.95130830211903,0.0,4.257118421613372,0.0,0.0,-0.0191146292039504,0.0,1.4203954382196167,0.0,3123.748266617001,0.5852430522992716,172.6873710216491,2.3502412765398244,0.20950040555785907,13028.831119457242,216.64999999999998,0.0,0.0,0.0,500.48,0.24895003427863102,0.92,nominal,157125.05416002104,nan,pitch_program,6.1,0.0,0.0
0.24,40.961856419183974,0.0,14502.188247922433,173.3967014152379,0.0,8.251351503075727,173.59291708855082,20.941306368388897,0.0,4.400900723895174,0.0,0.0,-6.956006149153922,0.0,1.6764472654330993,0.0,3156.4278720003067,0.5883119770333491,173.59291708855082,2.3709210593664185,0.2094893083723267,13028.140985441427,216.64999999999998,0.0,0.0,0.0,504.89599999999996,0.2511466522281483,0.92,nominal,157285.13481314474,nan,pitch_program,6.12,0.0,0.0
0.28,47.91623902117008,0.0,14502.512753799238,174.3235667357247,0.0,7.97549407194771,174.50591515807236,20.93121656994078,0.0,4.554324229034699,0.0,0.0,-0.6010949668475782,0.0,1.9348062476998797,0.0,3189.5539272607853,0.5914061568438873,174.50591515807233,2.391113625559869,0.2094785889000232,13027.474341412933,216.64999999999998,0.0,0.0,0.0,509.31200000000007,0.2533432701776657,0.92,nominal,157447.22390962346,nan,pitch_program,6.14,0.0,0.0
0.32,54.907843919613356,0.0,14502.826355635454,175.25814061776651,0.0,7.704378492740296,175.4274017956038,20.921038906774683,0.0,4.432959828767437,0.0,0.0,6.602060380938517,0.0,1.9158479496471412,0.0,3223.168648202386,0.5945291046843192,175.4274017956038,2.4122004638572694,0.20946823014440755,13026.830130356804,216.64999999999998,0.0,0.0,0.0,513.728,0.255539888127183,0.92,nominal,157611.52873087054,nan,pitch_program,6.16,0.0,0.0
0.36,61.93702537111638,0.0,14503.128917672828,176.20250476829096,0.0,7.422855893675639,176.3587862178629,20.910773378890607,0.0,4.211270686172317,0.0,0.0,4.425926182122999,0.0,1.7990064874956144,0.0,3257.3291772061266,0.5976855964354073,176.35878621786293,2.4343486663731153,0.2094582365360017,13026.208627807217,216.64999999999998,0.0,0.0,0.0,518.1440000000001,0.2577365060767004,0.92,nominal,157778.31993861517,nan,pitch_program,6.18,0.0,0.0
0.4,69.00416804849982,0.0,14503.420096072572,177.15600540827526,0.0,7.136281764576131,177.2996806811571,20.900419986288547,0.0,4.154385233060767,0.0,0.0,-1.5011723023225425,0.0,1.8476167937747021,0.0,3292.027187164453,0.6008743180213115,177.29968068115713,2.4559778391547074,0.2094486193787753,13025.610536758091,216.64999999999998,0.0,0.0,0.0,522.5600000000001,0.2599331240262177,0.92,nominal,157947.55306997022,nan,pitch_program,6.2,0.0,0.0
0.44,76.10960219082855,0.0,14503.699952605253,178.11692573423127,0.0,6.857582229823443,178.24888686062656,20.889978728968508,0.0,4.221768169637873,0.0,0.0,-1.752543788703019,0.0,2.0169436972444554,0.0,3327.2236448099625,0.6040912082805557,178.24888686062658,2.4767161662058603,0.20943937658087144,13025.035727116841,216.64999999999998,0.0,0.0,0.0,526.976,0.262129741975735,0.92,nominal,158119.0419737425,nan,pitch_program,6.22,0.0,0.0
0.48,83.253617416312,0.0,14503.968831930828,179.08516012732164,0.0,6.5868582353197676,179.20625346019773,20.87944960693049,0.0,4.2063367104706,0.0,0.0,2.546523292449307,0.0,2.099913534504805,0.0,3362.917769054187,0.6073357544658824,179.20625346019773,2.49746037020072,0.20943049671044617,13024.48348793704,216.64999999999998,0.0,0.0,0.0,531.392,0.26432635992525233,0.92,nominal,158292.78658527476,nan,pitch_program,6.240000000000001,0.0,0.0
0.52,90.43653051113219,0.0,14504.226863942507,180.0619594305438,0.0,6.314430827739494,180.17264295848332,20.868832620174487,0.0,4.075150309099904,0.0,0.0,3.980636858392305,0.0,2.0667192086287796,0.0,3399.1470642626473,0.6106108795450389,180.1726429584833,2.518805382942505,0.20942197543184984,13023.953549584616,216.64999999999998,0.0,0.0,0.0,535.808,0.26652297787476964,0.92,nominal,158468.96701060433,nan,pitch_program,6.260000000000001,0.0,0.0
0.56,97.65869595758245,0.0,14504.473901601445,181.04774012845883,0.0,6.037341309838056,181.14837480836928,20.858127768700506,0.0,3.9728214287855512,0.0,0.0,1.1585202870341182,0.0,2.062905056564431,0.0,3435.929327665886,0.6139176661541262,181.14837480836928,2.5403544137977034,0.2094138175568811,13023.446211305349,216.64999999999998,0.0,0.0,0.0,540.224,0.268719595824287,0.92,nominal,158647.66583499653,nan,pitch_program,6.28,0.0,0.0
0.6,104.92045832172985,0.0,14504.709879639962,182.04169162206702,0.0,5.762102668255042,182.13286171304526,20.847335052508544,0.0,3.964957310035621,0.0,0.0,-0.6861745056018859,0.0,2.151999128852121,0.0,3473.248049444193,0.6172541239253723,182.13286171304523,2.561518871215267,0.20940602519829732,13022.96160449163,216.64999999999998,0.0,0.0,0.0,544.64,0.2709162137738043,0.92,nominal,158828.80279906286,nan,pitch_program,6.3,0.0,0.0
0.64,112.22213152742657,0.0,14504.934965689357,183.04328042768228,0.0,5.492757211843261,183.12567512917295,20.836454471598604,0.0,3.9602238648385124,0.0,0.0,0.9737923882007338,0.0,2.2414096440344284,0.0,3511.09225417416,0.620618800511626,183.12567512917295,2.582446783424329,0.20939859278017411,13022.499382376696,216.64999999999998,0.0,0.0,0.0,549.0559999999999,0.2731128317233216,0.92,nominal,159012.32692703523,nan,pitch_program,6.32,0.0,0.0
0.68,119.56402896730334,0.0,14505.149326392724,184.0529928721359,0.0,5.225334265713663,184.1271525424182,20.82548602597068,0.0,3.8852151456543287,0.0,0.0,2.7761725363567833,0.0,2.259003059606654,0.0,3549.4801926630353,0.624012839662659,184.12715254241823,2.6035847226424984,0.20939151476187734,13022.059200388487,216.64999999999998,0.0,0.0,0.0,553.4720000000001,0.27530944967283905,0.92,nominal,159198.32679335866,nan,pitch_program,6.34,0.0,0.0
0.72,126.94648768472966,0.0,14505.352948674072,185.07136651867364,0.0,4.955706598374773,185.13770478478557,20.814429715624776,0.0,3.791916574028722,0.0,0.0,1.8979640864922223,0.0,2.2580583490706387,0.0,3588.4333886722206,0.6274376337013429,185.13770478478557,2.624997034083962,0.20938479153922415,13021.641083142873,216.64999999999998,0.0,0.0,0.0,557.888,0.27750606762235636,0.92,nominal,159386.90436060377,nan,pitch_program,6.36,0.0,0.0
0.76,134.36985080094175,0.0,14505.545777278989,186.09814862989336,0.0,4.686016908559232,186.15713705883314,20.803285540560893,0.0,3.749267319130625,0.0,0.0,0.28634815843215905,0.0,2.306844221527258,0.0,3627.9501853891716,0.6308925224528844,186.15713705883311,2.646314251596862,0.20937842490236508,13021.245141969323,216.64999999999998,0.0,0.0,0.0,562.3040000000001,0.2797026855718737,0.92,nominal,159578.0503357236,nan,pitch_program,6.38,0.0,0.0
0.8,141.83444456994187,0.0,14505.727888479605,187.13286803210528,0.0,4.420018842437598,187.18506047355606,20.792053500779026,0.0,3.7322138025303224,0.0,0.0,0.6192636298643347,0.0,2.379157289306954,0.0,3668.021134401214,0.6343761879531654,187.18506047355606,2.6674165399686633,0.2093724123006133,13020.871218240613,216.64999999999998,0.0,0.0,0.0,566.72,0.281899303521391,0.92,nominal,159771.71982980293,nan,pitch_program,6.4,0.0,0.0
0.84,149.3405869381269,0.0,14505.899420822843,188.1756239800153,0.0,4.156820974106132,188.22153070485555,20.78073359627918,0.0,3.6815340960154685,0.0,0.0,1.933376896635896,0.0,2.4160696091739107,0.0,3708.6539867799925,0.6378888188896048,188.22153070485552,2.688538083889855,0.20936674912938982,13020.519025597954,216.64999999999998,0.0,0.0,0.0,571.136,0.2840959214709083,0.92,nominal,159967.95086565177,nan,pitch_program,6.42,0.0,0.0
0.88,156.88860756252726,0.0,14506.060421737271,189.22681442167803,0.0,3.8932570435488336,189.26686119493638,20.769325827061355,0.0,3.605397886845296,0.0,0.0,1.8846599393118788,0.0,2.426729154621018,0.0,3749.866856726871,0.6414314775279121,189.26686119493638,2.70985165109743,0.20936143379454752,13020.188464901334,216.64999999999998,0.0,0.0,0.0,575.552,0.28629253942042565,0.92,nominal,160166.82980812146,nan,pitch_program,6.44,0.0,0.0
0.92,164.47884494934632,0.0,14506.210872296995,190.28643127512112,0.0,3.6294791492821656,190.32104204820985,20.757830193125546,0.0,3.552478907473813,0.0,0.0,0.7991043407257629,0.0,2.459765030139545,0.0,3791.6653399179913,0.6450041303316186,190.32104204820985,2.731196684160945,0.2093564668944042,13019.879573360135,216.64999999999998,0.0,0.0,0.0,579.968,0.28848915736994296,0.92,nominal,160368.38237396957,nan,pitch_program,6.46,0.0,0.0
0.96,172.11162976260078,0.0,14506.350816290867,191.35415348831256,0.0,3.3681166568842285,191.38379311489012,20.746246694471758,0.0,3.5245944474939255,0.0,0.0,0.643195422924748,0.0,2.5162079533082062,0.0,3834.044212227322,0.6486058278640937,191.38379311489015,2.7524045044427123,0.2093518469585929,13019.592259532232,216.64999999999998,0.0,0.0,0.0,584.384,0.2906857753194603,0.92,nominal,160572.58336610036,nan,pitch_program,6.48,0.0,0.0
1.0,179.7872842486925,0.0,14506.480362837052,192.4299353847934,0.0,3.1094944221344196,192.45505705945232,20.73457533109999,0.0,3.482731240497621,0.0,0.0,1.4773825628298882,0.0,2.5569636255795647,0.0,3877.006989673975,0.6522363758134,192.45505705945234,2.773563931154797,0.20934757036197166,13019.326297970028,216.64999999999998,0.0,0.0,0.0,588.8000000000001,0.2928823932689777,0.92,nominal,160779.45014409447,nan,pitch_program,6.5,0.0,0.0
1.04,187.5060777369399,0.0,14506.599577200348,193.5096821202572,0.0,2.8512550133631596,193.53068679006495,20.722861052321985,0.0,3.4197949158542067,0.0,0.0,1.68547514566076,0.0,2.5756353060012143,0.0,3920.3915163163642,0.6558817195519913,193.53068679006495,2.772645459173978,0.2093436349290414,13019.08155337923,216.64999999999998,0.0,0.0,0.0,588.6977777777778,0.29283154563125735,0.92,nominal,160988.2081084689,nan,pitch_program,6.52,0.0,0.0
1.08,195.26805491845485,0.0,14506.708452612735,194.58910455921418,0.0,2.592628478486922,194.60637537240206,20.71114880744949,0.0,3.366890508430034,0.0,0.0,0.9918617635347677,0.0,2.6035493079569614,0.0,3964.025472388619,0.659527262740969,194.60637537240203,2.7717741515620817,0.20934004086398103,13018.858038457724,216.64999999999998,0.0,0.0,0.0,588.5955555555556,0.29278069799353706,0.92,nominal,161198.0331146068,nan,pitch_program,6.54,0.0,0.0
1.12,203.07319873630763,0.0,14506.807006911169,195.66798602073553,0.0,2.335353351262301,195.68192207939396,20.6994385964825,0.0,3.3335413614979057,0.0,0.0,0.7190851282364842,0.0,2.6497323216717783,0.0,4007.900864756462,0.6631723251098406,195.68192207939396,2.7708100686860018,0.20933678756041277,13018.655715494871,216.64999999999998,0.0,0.0,0.0,588.4933333333333,0.2927298503558167,0.92,nominal,161408.88624866842,nan,pitch_program,6.5600000000000005,0.0,0.0
1.16,210.92148502628635,0.0,14506.895311347762,196.74623556034877,0.0,2.0800894091778406,196.75723107199497,20.687730419421023,0.0,3.2948112503036406,0.0,0.0,1.248217878355231,0.0,2.6890771502989677,0.0,4052.01380788287,0.6668165818569988,196.75723107199494,2.7697627299836687,0.20933387265045134,13018.474437231878,216.64999999999998,0.0,0.0,0.0,588.3911111111112,0.29267900271809644,0.92,nominal,161620.7488945877,nan,pitch_program,6.58,0.0,0.0
1.2,218.81289136318048,0.0,14506.973420682038,197.82400966715483,0.0,1.8254727230621657,197.83243200105795,20.676024276265053,0.0,3.240470596995905,0.0,0.0,1.488893066275084,0.0,2.7117738313499813,0.0,4096.369679253334,0.6704604723733525,197.83243200105795,2.768754509987577,0.2093312943123971,13018.314090377236,216.64999999999998,0.0,0.0,0.0,588.2888888888889,0.2926281550803761,0.92,nominal,161833.6464716581,nan,pitch_program,6.6,0.0,0.0
1.24,226.7474007152093,0.0,14507.041345156402,198.9013780577235,0.0,1.5708869028843988,198.9075812504971,20.664320167014594,0.0,3.1908531835121448,0.0,0.0,1.0225021500691829,0.0,2.738350947465571,0.0,4140.970952046277,0.6741041877457995,198.9075812504971,2.7677990416112794,0.20932905219572517,13018.1746531318,216.64999999999998,0.0,0.0,0.0,588.1866666666667,0.2925773074426558,0.92,nominal,162047.58994693955,nan,pitch_program,6.62,0.0,0.0
1.28,234.72499413838642,0.0,14507.099108279555,199.978191142983,0.0,1.317524650461875,199.98253124716675,20.65261809166964,0.0,3.155934688994797,0.0,0.0,0.7639125077631409,0.0,2.7784559787049417,0.0,4185.811605378516,0.6777472278442047,199.98253124716675,2.766789938037228,0.2093271455136457,13018.056076565106,216.64999999999998,0.0,0.0,0.0,588.0844444444444,0.29252645980493547,0.92,nominal,162262.54987222172,nan,pitch_program,6.64,0.0,0.0
1.32,242.74564717224024,0.0,14507.14677481839,201.0543616816986,0.0,1.0660359597270876,201.05718784441083,20.640918050230198,0.0,3.1187116620134905,0.0,0.0,1.1289093726607367,0.0,2.814919252771192,0.0,4230.887708415454,0.6813892736025238,201.05718784441083,2.765700116735469,0.20932557211915204,13017.958227154802,216.64999999999998,0.0,0.0,0.0,587.9822222222223,0.2924756121672152,0.92,nominal,162478.5073112241,nan,pitch_program,6.66,0.0,0.0
1.36,250.80933600460077,0.0,14507.184401874627,202.12999724224622,0.0,0.8154547830478411,202.13164213366906,20.629220042696264,0.0,3.0699777803495665,0.0,0.0,1.3304929587865462,0.0,2.8388301792276316,0.0,4276.203088957351,0.6850306337325747,202.13164213366906,2.7646221429691433,0.20932433011991283,13017.880987216795,216.64999999999998,0.0,0.0,0.0,587.88,0.2924247645294949,0.92,nominal,162695.48029047062,nan,pitch_program,6.68,0.0,0.0
1.4000000000000001,258.9160408419692,0.0,14507.212012534319,203.20515586166397,0.0,0.5652442123851176,203.2059420139647,20.61752406906784,0.0,3.0243911287061485,0.0,0.0,0.9794876475703148,0.0,2.8650151320817447,0.0,4321.759843262241,0.688671470565687,203.2059420139647,2.7635927321687435,0.20932341874800725,13017.82430899408,216.64999999999998,0.0,0.0,0.0,587.7777777777778,0.2923739168917746,0.92,nominal,162913.47811761106,nan,pitch_program,6.7,0.0,0.0
1.44,267.06574052595545,0.0,14507.229638557714,204.27972172992764,0.0,0.3163175310729072,204.27996663118276,20.605830129344923,0.0,2.9901096830341705,0.0,0.0,0.7733273836253561,0.0,2.9013899370018854,0.0,4367.552890307517,0.6923113745233798,204.27996663118276,2.762529322073337,0.20932283695078063,13017.788127022064,216.64999999999998,0.0,0.0,0.0,587.6755555555557,0.2923230692540543,0.92,nominal,163132.47591838057,nan,pitch_program,6.720000000000001,0.0,0.0
1.48,275.2584095097319,0.0,14507.237344177798,205.35362318826313,0.0,0.06920644720254288,205.35363484993272,20.594138223527516,0.0,2.9540645832572605,0.0,0.0,1.0603231738157122,0.0,2.934755271212417,0.0,4413.578726502318,0.6959500706352058,205.3536348499327,2.761390895600408,0.20932258260529724,13017.77230927536,216.64999999999998,0.0,0.0,0.0,587.5733333333334,0.292272221616334,0.92,nominal,163352.45677432095,nan,pitch_program,6.74,0.0,0.0
1.52,283.49402270547887,0.0,14507.235187602488,206.42694489899023,0.0,-0.17686722967834018,206.42702066916453,20.582448351615618,0.0,2.9092851470307393,0.0,0.0,1.2029794831068898,0.0,2.958376331904563,0.0,4459.840483275203,0.6995878096859858,206.42702066916453,2.7602532404534275,0.2093226537890493,13017.776736193207,216.64999999999998,0.0,0.0,0.0,587.4711111111111,0.29222137397861364,0.92,nominal,163573.43538367577,nan,pitch_program,6.76,0.0,0.0
1.56,291.7725580994289,0.0,14507.223200316177,207.49972669388492,0.0,-0.4222993695756687,207.50015642113254,20.570760513609226,0.0,2.867786941596002,0.0,0.0,0.9034969299856598,0.0,2.984394026082709,0.0,4506.339568304965,0.7032247012507691,207.50015642113254,2.759160532376543,0.20932304946313707,13017.80134316642,216.64999999999998,0.0,0.0,0.0,587.3688888888889,0.29217052634089336,0.92,nominal,163795.41785477786,nan,pitch_program,6.78,0.0,0.0
1.6,300.09399223439556,0.0,14507.20142290396,208.57186715020896,0.0,-0.666296798481293,208.57293141236732,20.559074709508344,0.0,2.8352384456891544,0.0,0.0,0.7616452861537089,0.0,3.018273028028419,0.0,4553.071168689305,0.706860370185829,208.57293141236735,2.758040620166516,0.20932376828976962,13017.84604699778,216.64999999999998,0.0,0.0,0.0,587.2666666666668,0.29211967870317307,0.92,nominal,164018.38069289515,nan,pitch_program,6.8,0.0,0.0
1.6400000000000001,308.4582980538557,0.0,14507.169922217334,209.64331434965095,0.0,-0.9084867734486698,209.6452827986456,20.547390939312972,0.0,2.8002803942886607,0.0,0.0,1.0167477851466957,0.0,3.048569409343279,0.0,4600.032453801083,0.7104946035100723,209.6452827986456,2.7568492369768163,0.20932480806563386,13017.910710663233,216.64999999999998,0.0,0.0,0.0,587.1644444444444,0.29206883106545267,0.92,nominal,164242.31021757465,nan,pitch_program,6.82,0.0,0.0
1.68,316.8654492189243,0.0,14507.128757105145,210.71414420749713,0.0,-1.1495771713851035,210.71728001464632,20.53570920302311,0.0,2.7586320230949934,0.0,0.0,1.0911201692509964,0.0,3.0712131596400707,0.0,4647.2263772489905,0.7141276365398584,210.71728001464632,2.7556586236347016,0.20932616685300998,13017.995213655977,216.64999999999998,0.0,0.0,0.0,587.0622222222222,0.2920179834277324,0.92,nominal,164467.2202742506,nan,pitch_program,6.84,0.0,0.0
1.72,325.31542175573384,0.0,14507.077965176148,211.78437481462566,0.0,-1.3897887524789851,211.78893485826487,20.524029500638754,0.0,2.7212263083816564,0.0,0.0,0.8121177883710109,0.0,3.09721196357924,0.0,4694.653415960891,0.7177595092586342,211.7889348582649,2.7545121809886757,0.2093278434166983,13018.099479158938,216.64999999999998,0.0,0.0,0.0,586.96,0.2919671357900121,0.92,nominal,164693.11259139384,nan,pitch_program,6.86,0.0,0.0
1.76,333.8081898416746,0.0,14507.017596215246,212.8539095590114,0.0,-1.6283676312811914,212.86013810880237,20.512351832159908,0.0,2.6908230551354704,0.0,0.0,0.7449272227431393,0.0,3.129136699100433,0.0,4742.308657052785,0.7213898515139393,212.86013810880237,2.7533355160737027,0.2093298361209884,13018.22340544728,216.64999999999998,0.0,0.0,0.0,586.8577777777779,0.2919162881522918,0.92,nominal,164919.96330777346,nan,pitch_program,6.88,0.0,0.0
1.8,342.34372472495767,0.0,14506.947720991577,213.92272025503885,0.0,-1.8651372339541463,213.93085092668866,20.50067619758657,0.0,2.656784430555188,0.0,0.0,0.9861331269813497,0.0,3.156318953552639,0.0,4790.190226148514,0.7250185316772223,213.9308509266887,2.7520887229075948,0.20933214263887054,13018.366847804255,216.64999999999998,0.0,0.0,0.0,586.7555555555556,0.2918654405145715,0.92,nominal,165147.7633571706,nan,pitch_program,6.9,0.0,0.0
1.84,350.9219988721124,0.0,14506.868398316714,214.99087961214948,0.0,-2.1007830331445554,215.0011432661652,20.48900259691874,0.0,2.618001081520611,0.0,0.0,0.9796099964548396,0.0,3.1778488805173293,0.0,4838.301119609292,0.7286457868256561,215.0011432661652,2.7508524154361664,0.20933476103936588,13018.529686142281,216.64999999999998,0.0,0.0,0.0,586.6533333333333,0.29181459287685113,0.92,nominal,165376.52678123163,nan,pitch_program,6.92,0.0,0.0
1.8800000000000001,359.54298640824885,0.0,14506.779671219057,216.05837912508358,0.0,-2.335306592950395,216.07099955116936,20.47733103015642,0.0,2.5847884999819235,0.0,0.0,0.715672767663602,0.0,3.204056319700779,0.0,4886.640540455943,0.7322715641714637,216.07099955116934,2.7496605372570335,0.20933768991380308,13018.711832856083,216.64999999999998,0.0,0.0,0.0,586.5511111111111,0.2917637452391309,0.92,nominal,165606.24928628106,nan,pitch_program,6.940000000000001,0.0,0.0
1.92,368.2066590375595,0.0,14506.68159935736,217.12512548682878,0.0,-2.567978788602907,217.1403109344966,20.46566149729961,0.0,2.5564270252555343,0.0,0.0,0.7380914385498718,0.0,3.23404315197518,0.0,4935.20342580339,0.7358954948279698,217.1403109344966,2.7484255315846724,0.20934092730583823,13018.913166280621,216.64999999999998,0.0,0.0,0.0,586.448888888889,0.2917128976014106,0.92,nominal,165836.90642270277,nan,pitch_program,6.960000000000001,0.0,0.0
1.96,376.9129863227331,0.0,14506.57425718202,218.19112002345395,0.0,-2.7988711424153316,218.20907070229947,20.45399399834831,0.0,2.5230570860977304,0.0,0.0,0.9578870749797794,0.0,3.257984836137364,0.0,4983.9892691930045,0.7395175560417292,218.20907070229944,2.7471232356575124,0.20934447077208493,13019.13353446169,216.64999999999998,0.0,0.0,0.0,586.3466666666667,0.2916620499636903,0.92,nominal,166068.4957075746,nan,pitch_program,6.98,0.0,0.0
2.0,385.66193963082554,0.0,14506.45770248779,219.25642945274956,0.0,-3.028625610854023,219.2773459102861,20.442328533302515,0.0,2.4873706980343253,0.0,0.0,0.8546960351633511,0.0,3.2787565213373373,0.0,5033.000957576881,0.743137975066693,219.2773459102861,2.745851639674999,0.20934831842017348,13019.372819712806,216.64999999999998,0.0,0.0,0.0,586.2444444444444,0.29161120232596993,0.92,nominal,166301.03064283152,nan,pitch_program,7.0,0.0,0.0
2.04,394.453491047808,0.0,14506.331984561339,220.32101252095993,0.0,-3.2569688136568744,220.3450848195033,20.43066510216223,0.0,2.458456578338722,0.0,0.0,0.6273863398774071,0.0,3.305388848688453,0.0,5082.235965246588,0.7467565765578851,220.3450848195033,2.7446198982766843,0.20935246863979878,13019.63092188909,216.64999999999998,0.0,0.0,0.0,586.1422222222222,0.29156035468824965,0.92,nominal,166534.4987584555,nan,pitch_program,7.02,0.0,0.0
2.08,403.2876096895947,0.0,14506.197173669603,221.38478681251848,0.0,-3.483258225143766,221.41218783049703,20.419003704927455,0.0,2.4315221452342115,0.0,0.0,0.7529053677219825,0.0,3.33293697025564,0.0,5131.689485059797,0.7503730229695534,221.412187830497,2.7433214489122046,0.20935691912921725,13019.907697845096,216.64999999999998,0.0,0.0,0.0,586.0400000000001,0.29150950705052936,0.92,nominal,166768.87697311066,nan,pitch_program,7.04,0.0,0.0
2.12,412.164263657304,0.0,14506.053346019697,222.44778869144199,0.0,-3.7078647816363395,222.47868876580364,20.40734434159819,0.0,2.3986947751903664,0.0,0.0,0.9144856514486698,0.0,3.3536394497407414,0.0,5181.362830092975,0.7539874289273616,222.47868876580364,2.7419686553592797,0.20936166739167866,13020.20299230792,216.64999999999998,0.0,0.0,0.0,585.9377777777778,0.291458659412809,0.92,nominal,167004.17152321973,nan,pitch_program,7.0600000000000005,0.0,0.0
2.16,421.0834232696525,0.0,14505.900557729523,223.51006590991355,0.0,-3.93127939342088,223.54463652864283,20.39568701217443,0.0,2.366855875241695,0.0,0.0,0.7084904004763547,0.0,3.374517399914796,0.0,5231.25806582134,0.7575999601658933,223.54463652864285,2.7406764539483195,0.2093667115947219,13020.516691316796,216.64999999999998,0.0,0.0,0.0,585.8355555555556,0.29140781177508873,0.92,nominal,167240.39196481972,nan,pitch_program,7.08,0.0,0.0
2.2,430.0450582094522,0.0,14505.738866959884,224.57154143614588,0.0,-4.152921879547234,224.6099374095995,20.38403171665618,0.0,2.3420291440093512,0.0,0.0,0.5702150231721401,0.0,3.401458920463878,0.0,5281.370593491961,0.7612102991009275,224.6099374095995,2.7394032308381813,0.20937204983952018,13020.848676783678,216.64999999999998,0.0,0.0,0.0,585.7333333333333,0.2913569641373684,0.92,nominal,167477.51605124422,nan,pitch_program,7.1,0.0,0.0
2.24,439.0491350175707,0.0,14505.56835434218,225.63216235464805,0.0,-4.372393018287641,225.6745233949562,20.372378455043442,0.0,2.315421655851962,0.0,0.0,0.7903028942218958,0.0,3.4255839312558094,0.0,5331.69692573614,0.7648182152317896,225.6745233949562,2.7380331948995362,0.20937767948639555,13021.198784546983,216.64999999999998,0.0,0.0,0.0,585.6311111111112,0.2913061164996481,0.92,nominal,167715.52715688007,nan,pitch_program,7.12,0.0,0.0
2.2800000000000002,448.0956207828006,0.0,14505.389094123368,226.69199804764708,0.0,-4.590353793759456,226.7384690051212,20.36072722733621,0.0,2.2835837173345928,0.0,0.0,0.8274157121120407,0.0,3.4436244887824534,0.0,5382.24028593179,0.768423961110539,226.7384690051212,2.7366461462895058,0.2093835981074055,13021.566863612956,216.64999999999998,0.0,0.0,0.0,585.5288888888889,0.29125526886192776,0.92,nominal,167954.44062327806,nan,pitch_program,7.140000000000001,0.0,0.0
2.32,457.18448458565285,0.0,14505.201141926156,227.75105350865678,0.0,-4.806941361882219,227.8017758042277,20.349078033534486,0.0,2.256712370546006,0.0,0.0,0.5510838216016851,0.0,3.4658245239308076,0.0,5433.00049987119,0.7720275420380733,227.8017758042277,2.7353487868852167,0.20938980389047612,13021.952801288713,216.64999999999998,0.0,0.0,0.0,585.4266666666667,0.2912044212242075,0.92,nominal,168194.25530824994,nan,pitch_program,7.16,0.0,0.0
2.36,466.31569315776466,0.0,14505.004568883776,228.8092264769982,0.0,-5.021348765005988,228.8643180236318,20.337430873638272,0.0,2.234893714875904,0.0,0.0,0.5760786759194051,0.0,3.492080424189045,0.0,5483.9712793059125,0.775628531780415,228.86431802363182,2.734017730668201,0.20939629451235414,13022.356453091123,216.64999999999998,0.0,0.0,0.0,585.3244444444445,0.29115357358648714,0.92,nominal,168434.9410876551,nan,pitch_program,7.180000000000001,0.0,0.0
2.4,475.48921086024484,0.0,14504.79946279885,229.8665205737109,0.0,-5.233654019091044,229.92609337579717,20.32578574764757,0.0,2.2074108997691457,0.0,0.0,0.8239701316493449,0.0,3.51170908969008,0.0,5535.152153729705,0.7792269225850296,229.92609337579714,2.7325732961391216,0.20940306710023301,13022.777640360333,216.64999999999998,0.0,0.0,0.0,585.2222222222222,0.29110272594876685,0.92,nominal,168676.49585938425,nan,pitch_program,7.2,0.0,0.0
2.44,484.7050042982954,0.0,14504.58589153805,230.92301522070616,0.0,-5.444623782532279,230.98719204050212,20.31414265556237,0.0,2.178174438015016,0.0,0.0,0.6663437355884287,0.0,3.528824467695815,0.0,5586.547140033833,0.7828230200740853,230.98719204050207,2.7311864031990285,0.20941011944039428,13023.216225425185,216.64999999999998,0.0,0.0,0.0,585.12,0.29105187831104656,0.92,nominal,168918.93867662954,nan,pitch_program,7.22,0.0,0.0
2.48,493.963040597813,0.0,14504.363915493796,231.97864669218657,0.0,-5.653810758213564,232.04753413304786,20.302501597382683,0.0,2.157029470712847,0.0,0.0,0.4295240830442621,0.0,3.553172529779115,0.0,5638.1520779726825,0.78641655351577,232.04753413304786,2.7298851922834246,0.20941744956676536,13023.672086015617,216.64999999999998,0.0,0.0,0.0,585.0177777777778,0.2910010306733263,0.92,nominal,169162.24944049123,nan,pitch_program,7.239999999999999,0.0,0.0
2.52,503.2632831146674,0.0,14504.133622021198,233.03332628765702,0.0,-5.860501545667345,233.10700684247223,20.290862573108505,0.0,2.1357881231440463,0.0,0.0,0.663966747594274,0.0,3.5764028496387352,0.0,5689.961104162194,0.7900071405901054,233.10700684247223,2.728461678986323,0.2094250546236909,13024.145044538407,216.64999999999998,0.0,0.0,0.0,584.9155555555557,0.290950183035606,0.92,nominal,169406.40030392236,nan,pitch_program,7.26,0.0,0.0
2.56,512.6056950621496,0.0,14503.89509792182,234.08713188864274,0.0,-6.065418444009834,234.16569906105326,20.279225582739837,0.0,2.107298699542523,0.0,0.0,0.7838254614804743,0.0,3.591554298637236,0.0,5741.978145830188,0.79359508255588,234.1656990610533,2.726968439472765,0.20943293177446803,13024.634924578995,216.64999999999998,0.0,0.0,0.0,584.8133333333333,0.2908993353978856,0.92,nominal,169651.41017041088,nan,pitch_program,7.28,0.0,0.0
2.6,521.9902426475874,0.0,14503.64840355506,235.14009683799185,0.0,-6.26896256148687,235.22364896535703,20.267590626276675,0.0,2.0835629451838407,0.0,0.0,0.4378910072644766,0.0,3.6107377517451202,0.0,5794.2047343937,0.7971805087947034,235.22364896535703,2.725628079370626,0.20944107905632184,13025.141604072398,216.64999999999998,0.0,0.0,0.0,584.7111111111111,0.2908484877601653,0.92,nominal,169897.28613301198,nan,pitch_program,7.300000000000001,0.0,0.0
2.64,531.416889692854,0.0,14503.39361436753,236.19209006028416,0.0,-6.470088848086848,236.28069209469385,20.255957703719023,0.0,2.066924960071602,0.0,0.0,0.4324268510779083,0.0,3.6360549835446574,0.0,5846.632393079825,0.8007628619440109,236.28069209469385,2.724280385576574,0.2094494940089202,13025.664930010553,216.64999999999998,0.0,0.0,0.0,584.6088888888889,0.290797640122445,0.92,nominal,170143.9877167111,nan,pitch_program,7.320000000000001,0.0,0.0
2.68,540.8855966300923,0.0,14503.130830534292,237.2431063494474,0.0,-6.668776654348277,237.3368157121874,20.24432681506688,0.0,2.0430828293207615,0.0,0.0,0.7831987091202469,0.0,3.6532125166561693,0.0,5899.260017092121,0.8043420988381194,237.3368157121874,2.7227352156047266,0.20945817335580344,13026.204698630416,216.64999999999998,0.0,0.0,0.0,584.5066666666668,0.29074679248472474,0.92,nominal,170391.5100054595,nan,pitch_program,7.34,0.0,0.0
2.72,550.3963269755868,0.0,14502.860126217362,238.29326460543274,0.0,-6.866140352698744,238.3921639644595,20.232697960320245,0.0,2.0163972515688267,0.0,0.0,0.5780451172962267,0.0,3.666851143704367,0.0,5952.094347295886,0.8079187079945643,238.3921639644595,2.721277069354032,0.2094671146801989,13026.760759632889,216.64999999999998,0.0,0.0,0.0,584.4044444444444,0.29069594484700434,0.92,nominal,170639.88517659836,nan,pitch_program,7.36,0.0,0.0
2.7600000000000002,559.9490452700484,0.0,14502.581563531645,239.34247960131833,0.0,-7.061577812957229,239.44662959189031,20.22107113947912,0.0,2.000598674380201,0.0,0.0,0.25394755110397077,0.0,3.6905672400137193,0.0,6005.129653883671,0.8114923259070457,239.44662959189034,2.719992576329954,0.20947631596384497,13027.33298750227,216.64999999999998,0.0,0.0,0.0,584.3022222222222,0.29064509720928405,0.92,nominal,170889.08570146558,nan,pitch_program,7.380000000000001,0.0,0.0
2.8000000000000003,569.5437108074323,0.0,14502.295242646487,240.39062981865413,0.0,-7.254071245523346,240.50005499842268,20.2094463525435,0.0,1.9836538394628,0.0,0.0,0.623132048374334,0.0,3.7120971599628496,0.0,6058.357538729711,0.8150624184774589,240.50005499842266,2.7184946195250084,0.209485773932021,13027.921178583669,216.64999999999998,0.0,0.0,0.0,584.2,0.29059424957156377,0.92,nominal,171139.07186842134,nan,pitch_program,7.400000000000001,0.0,0.0
2.84,579.1802832697925,0.0,14502.001259801482,241.43784679064936,0.0,-7.444787676165897,241.55260033054554,20.197823599513395,0.0,1.9564990780025224,0.0,0.0,0.7535892372721861,0.0,3.7226670794293963,0.0,6111.785544597617,0.818629528447404,241.55260033054552,2.71688469940988,0.20949548544018004,13028.525137317698,216.64999999999998,0.0,0.0,0.0,584.0977777777779,0.2905434019338435,0.92,nominal,171389.8800176563,nan,pitch_program,7.42,0.0,0.0
2.88,588.8587268596663,0.0,14501.699672647397,242.48416541904726,0.0,-7.63418830416205,242.6043101637629,20.186202880388795,0.0,1.9378122849920074,0.0,0.0,0.22002613075246596,0.0,3.741073691956869,0.0,6165.415519004118,0.8221938068846971,242.60431016376293,2.7155814077990974,0.2095054486189578,13029.144747448585,216.64999999999998,0.0,0.0,0.0,583.9955555555556,0.29049255429612314,0.92,nominal,171641.51874978523,nan,pitch_program,7.44,0.0,0.0
2.92,598.5790014914479,0.0,14501.390567701847,243.52938129967848,0.0,-7.820594323299701,243.6549224862363,20.174584195169704,0.0,1.927330831674661,0.0,0.0,0.3439626999973051,0.0,3.7666699142477293,0.0,6219.233669551441,0.8257543658227938,243.6549224862363,2.7142231299845463,0.20951566064583016,13029.77983344354,216.64999999999998,0.0,0.0,0.0,583.8933333333333,0.29044170665840285,0.92,nominal,171893.92243664022,nan,pitch_program,7.46,0.0,0.0
2.96,608.3410630546153,0.0,14501.07406191146,244.5735416156049,0.0,-8.00438454649665,244.70449000859838,20.162967543856123,0.0,1.9036816823220863,0.0,0.0,0.8538693888053107,0.0,3.778184581981562,0.0,6273.242075820148,0.8293113838997229,244.70449000859838,2.7125030050445744,0.2095261176932387,13030.43015726669,216.64999999999998,0.0,0.0,0.0,583.7911111111111,0.29039085902068257,0.92,nominal,172147.10166442813,nan,pitch_program,7.48,0.0,0.0
3.0,618.1448735570267,0.0,14500.750223127881,245.61682522963815,0.0,-8.187235549056842,245.7532414065425,20.15135292644805,0.0,1.8800301817815337,0.0,0.0,0.3583713322313055,0.0,3.789184488538168,0.0,6327.451972381244,0.832865636104761,245.7532414065425,2.71105993619467,0.20953681755589693,13031.09558177126,216.64999999999998,0.0,0.0,0.0,583.688888888889,0.2903400113829623,0.92,nominal,172401.1100065482,nan,pitch_program,7.499999999999999,0.0,0.0
3.04,627.990394640848,0.0,14500.419116320738,246.6590318777168,0.0,-8.367598235919033,246.80092120389315,20.139740342945487,0.0,1.873172395149526,0.0,0.0,0.03423779502247726,0.0,3.816114743269375,0.0,6381.849760827375,0.8364162566209359,246.80092120389313,2.709879862802769,0.20954775812414106,13031.775975757248,216.64999999999998,0.0,0.0,0.0,583.5866666666667,0.29028916374524194,0.92,nominal,172655.88248061188,nan,pitch_program,7.52,0.0,0.0
3.08,637.8775796166267,0.0,14500.080868702462,247.70004325139735,0.0,-8.544397671290863,247.8473686733617,20.12812979334843,0.0,1.8569548343611335,0.0,0.0,0.7957929564597664,0.0,3.8325858516965585,0.0,6436.4264731701505,0.839962700738299,247.8473686733617,2.7081679612506893,0.20955893523187755,13032.47108013528,216.64999999999998,0.0,0.0,0.0,583.4844444444444,0.2902383161075216,0.92,nominal,172911.3771302156,nan,pitch_program,7.54,0.0,0.0
3.12,647.8063863133868,0.0,14499.735573241995,248.74014343347383,0.0,-8.720123174507291,248.89294787816652,20.116521277656886,0.0,1.8285607443319556,0.0,0.0,0.6390491717788876,0.0,3.83636582824587,0.0,6491.200404610153,0.843506202278802,248.89294787816652,2.706467162030954,0.20957034584456558,13033.180706187248,216.64999999999998,0.0,0.0,0.0,583.3822222222223,0.2901874684698013,0.92,nominal,173167.68161107544,nan,pitch_program,7.5600000000000005,0.0,0.0
3.16,657.7767781708449,0.0,14499.383273958927,249.77924966975343,0.0,-8.894340506396873,249.93755791923058,20.104914795870847,0.0,1.8210043058647931,0.0,0.0,-0.2062535236863479,0.0,3.860376850977183,0.0,6546.1658667640395,0.847046419292229,249.9375579192306,2.705421985621548,0.2095819885454939,13033.904765807876,216.64999999999998,0.0,0.0,0.0,583.28,0.29013662083208097,0.92,nominal,173424.76841288366,nan,pitch_program,7.580000000000001,0.0,0.0
3.2,667.7887079697728,0.0,14499.024091901714,250.8170399494733,0.0,-9.06426442098957,250.9807730056414,20.093310347990318,0.0,1.815007236763224,0.0,0.0,0.5376513509637983,0.0,3.8847158216482285,0.0,6601.299911058369,0.8505819087594881,250.98077300564142,2.7038939513120415,0.2095938593725563,13034.64301259376,216.64999999999998,0.0,0.0,0.0,583.1777777777778,0.2900857731943607,0.92,nominal,173682.5288201026,nan,pitch_program,7.6,0.0,0.0
3.24,677.8421277782921,0.0,14498.658156148958,251.8538083256933,0.0,-9.232316409798344,252.0229680692728,20.0817079340153,0.0,1.7842904986038084,0.0,0.0,0.9971406154092277,0.0,3.8836672000086003,0.0,6656.621499315689,0.854113941336754,252.0229680692728,2.7018590526066366,0.2096059540980778,13035.395183625773,216.64999999999998,0.0,0.0,0.0,583.0755555555556,0.2900349255566404,0.92,nominal,173941.054224221,nan,pitch_program,7.62,0.0,0.0
3.2800000000000002,687.9370018100949,0.0,14498.285498901816,252.88970297547894,0.0,-9.400111147647392,253.0643474703896,20.07010755394579,0.0,1.7711627444424463,0.0,0.0,-0.288811433480506,0.0,3.8999123356056673,0.0,6712.140977077613,0.8576432096075343,253.06434747038958,2.7008136416576995,0.20961827169635075,13036.161215115155,216.64999999999998,0.0,0.0,0.0,582.9733333333334,0.28998407791892006,0.92,nominal,174200.39346811254,nan,pitch_program,7.640000000000001,0.0,0.0
3.3200000000000003,698.0732848142658,0.0,14497.906215955174,253.92421496980933,0.0,-9.563402292877496,254.1042416242778,20.058509207781785,0.0,1.7765511836113232,0.0,0.0,0.07175370079543772,0.0,3.933429886872023,0.0,6767.822250000503,0.8611674443277063,254.10424162427782,2.6996756803749786,0.20963080903995257,13036.940912567481,216.64999999999998,0.0,0.0,0.0,582.8711111111111,0.2899332302811997,0.92,nominal,174460.37479842146,nan,pitch_program,7.660000000000001,0.0,0.0
3.36,708.250922206399,0.0,14497.520477449489,254.95750931354783,0.0,-9.723316231347358,255.14285103428355,20.046912895523292,0.0,1.747726050260786,0.0,0.0,1.3544528365511646,0.0,3.9317571445973543,0.0,6823.675090073608,0.8646873250095559,255.14285103428355,2.697302300596088,0.20964356054365657,13037.733928637479,216.64999999999998,0.0,0.0,0.0,582.7688888888889,0.28988238264347943,0.92,nominal,174721.04640713133,nan,pitch_program,7.68,0.0,0.0
3.4,718.4698769546859,0.0,14497.128320290381,255.9900609808562,0.0,-9.884237789969358,256.18081403116656,20.035318617170308,0.0,1.7241778984700487,0.0,0.0,-0.1396093905482919,0.0,3.935372813996482,0.0,6879.733102699499,0.8682050149765504,256.18081403116656,2.6960259885298146,0.20965652502633605,13038.540189870875,216.64999999999998,0.0,0.0,0.0,582.6666666666667,0.28983153500575914,0.92,nominal,174982.56818101124,nan,pitch_program,7.699999999999999,0.0,0.0
3.44,728.7301084711823,0.0,14496.729795417568,257.02124896876944,0.0,-10.041230780907348,257.217318112645,20.02372637272283,0.0,1.7404461781156308,0.0,0.0,-0.593079747937343,0.0,3.977723111261711,0.0,6935.95219763131,0.8717177606323346,257.217318112645,2.6954930923452087,0.20966970084321193,13039.359593978852,216.64999999999998,0.0,0.0,0.0,582.5644444444445,0.28978068736803886,0.92,nominal,175244.7296167625,nan,pitch_program,7.72,0.0,0.0
3.48,739.0315554088744,0.0,14496.325112415096,258.0509352444937,0.0,-10.192644878210206,258.25215427982624,20.012136162180862,0.0,1.7192246104858795,0.0,0.0,1.6313771324403183,0.0,3.981150584716937,0.0,6992.320072789539,0.8752248536729421,258.25215427982624,2.692875453803056,0.20968308110421038,13040.191712467686,216.64999999999998,0.0,0.0,0.0,582.4622222222222,0.2897298397303185,0.92,nominal,175507.47425875108,nan,pitch_program,7.74,0.0,0.0
3.52,749.3741765342428,0.0,14495.914336020054,259.0799922578535,0.0,-10.34607207282266,259.2864894198413,20.000547985544404,0.0,1.6805166081430245,0.0,0.0,0.31219286937747415,0.0,3.9673449031596157,0.0,7048.899206401952,0.8787302487163754,259.2864894198413,2.691029099214471,0.20969666370771944,13041.036414638123,216.64999999999998,0.0,0.0,0.0,582.36,0.28967899209259823,0.92,nominal,175771.1001211638,nan,pitch_program,7.759999999999999,0.0,0.0
3.56,759.7579387875933,0.0,14495.497452559835,260.1078229248288,0.0,-10.497197031272547,260.3195549554575,19.988961842813456,0.0,1.7056228057514566,0.0,0.0,-1.4517120528667848,0.0,4.016660109237092,0.0,7105.647531875204,0.8822313410296828,260.3195549554574,2.69131532272474,0.20971044914508766,13041.89373104713,216.64999999999998,0.0,0.0,0.0,582.2577777777778,0.28962814445487794,0.92,nominal,176035.40543924962,nan,pitch_program,7.780000000000001,0.0,0.0
3.6,770.1827747281405,0.0,14495.074703005897,261.1337739898456,0.0,-10.639844995461832,261.3504433126281,19.977377733988014,0.0,1.6993310282994258,0.0,0.0,1.746728564683219,0.0,4.032545873954466,0.0,7162.514401438656,0.8857250548152422,261.3504433126281,2.688680806125729,0.20972442948700143,13042.76316857066,216.64999999999998,0.0,0.0,0.0,582.1555555555557,0.28957729681715766,0.92,nominal,176300.15144608638,nan,pitch_program,7.8,0.0,0.0
3.64,780.6486348780501,0.0,14494.646210498846,262.1591612325895,0.0,-10.784960410119918,262.38090858372817,19.965795659068082,0.0,1.64039799123637,0.0,0.0,1.1594182145587053,0.0,3.996159524438887,0.0,7219.5949719780065,0.8892173347485061,262.38090858372817,2.6857760170776244,0.20973860069964392,13043.644476345627,216.64999999999998,0.0,0.0,0.0,582.0533333333333,0.28952644917943726,0.92,nominal,176565.79285479986,nan,pitch_program,7.82,0.0,0.0
3.68,791.155496998796,0.0,14494.211875136052,263.18362140982606,0.0,-10.93080440928782,263.410518133625,19.95421561805366,0.0,1.670849272443096,0.0,0.0,-2.5244456551808647,0.0,4.049147793523797,0.0,7276.865376500142,0.8927067146151004,263.4105181336249,2.687101274822104,0.20975296612592312,13044.537862267493,216.64999999999998,0.0,0.0,0.0,581.9511111111111,0.289475601541717,0.92,nominal,176832.21341701536,nan,pitch_program,7.840000000000001,0.0,0.0
3.72,801.7032890116838,0.0,14493.771954666408,264.2057128314748,0.0,-11.064490782713358,264.437292470386,19.942637610944747,0.0,1.6892261575267642,0.0,0.0,1.6063850794166512,0.0,4.087275775836585,0.0,7334.21515407394,0.8961864858532258,264.437292470386,2.684872746027814,0.20976751727981321,13045.442798590277,216.64999999999998,0.0,0.0,0.0,581.848888888889,0.2894247539039967,0.92,nominal,177098.88956376354,nan,pitch_program,7.860000000000001,0.0,0.0
3.7600000000000002,812.2919475281453,0.0,14493.326672367144,265.22722194416497,0.0,-11.200196304631914,265.4636013797026,19.93106163774134,0.0,1.6036149880663182,0.0,0.0,2.557459983540255,0.0,4.021703625299197,0.0,7391.774349953824,0.8996646797427783,265.4636013797026,2.680175321170161,0.20978224681376278,13046.358828369725,216.64999999999998,0.0,0.0,0.0,581.7466666666668,0.2893739062662764,0.92,nominal,177366.4438403101,nan,pitch_program,7.88,0.0,0.0
3.8000000000000003,822.9214676357237,0.0,14492.875812898446,266.24850290886366,0.0,-11.34175498300833,266.4899636145905,19.919487698443444,0.0,1.6346398879939432,0.0,0.0,-3.908155737258224,0.0,4.073872578505073,0.0,7449.572107280207,0.9031430543544062,266.48996361459047,2.6835586980924133,0.20979716188920772,13047.286396975564,216.64999999999998,0.0,0.0,0.0,581.6444444444444,0.289323058628556,0.92,nominal,177635.01094421343,nan,pitch_program,7.9,0.0,0.0
3.84,833.5917870777939,0.0,14492.419622173873,267.2671565420829,0.0,-11.466587899070364,267.513019503981,19.907915793051057,0.0,1.6930430123027955,0.0,0.0,1.0297973790598531,0.0,4.149702652501186,0.0,7507.419799349598,0.9066102236548448,267.51301950398107,2.683361058942152,0.20981225440952836,13048.225000878983,216.64999999999998,0.0,0.0,0.0,581.5422222222222,0.2892722109908357,0.92,nominal,177903.69468986007,nan,pitch_program,7.92,0.0,0.0
3.88,844.3028354648984,0.0,14491.958480206484,268.28545450695214,0.0,-11.591665397174648,268.53575517364897,19.896345921564176,0.0,1.5722016113651363,0.0,0.0,4.770296008237198,0.0,4.046210826901859,0.0,7565.483253855157,0.910076307720348,268.53575517364897,2.676555613630033,0.2098275118392258,13049.173860497252,216.64999999999998,0.0,0.0,0.0,581.44,0.28922136335311543,0.92,nominal,178173.29053325788,nan,pitch_program,7.9399999999999995,0.0,0.0
3.92,855.0546428763926,0.0,14491.49201176662,269.3046413292292,0.0,-11.730745651177422,269.56001230708796,19.884778083982805,0.0,1.5972711805331263,0.0,0.0,-5.759810586027909,0.0,4.091463619534944,0.0,7623.867071569352,0.9135475480754865,269.56001230708796,2.681693369629185,0.20984294663040073,13050.133750226567,216.64999999999998,0.0,0.0,0.0,581.3377777777778,0.2891705157153951,0.92,nominal,178444.2902546898,nan,pitch_program,7.959999999999999,0.0,0.0
3.96,865.8471521179811,0.0,14491.020424458196,270.32032906071043,0.0,-11.846612084346436,270.57978956560623,19.873212280306944,0.0,1.7173969466422316,0.0,0.0,-0.11307963586555046,0.0,4.226741470098317,0.0,7682.231416889927,0.9170036059904908,270.5797895656063,2.6840077999626026,0.2098585519519408,13051.104245240022,216.64999999999998,0.0,0.0,0.0,581.2355555555556,0.28911966807767486,0.92,nominal,178715.07670619682,nan,pitch_program,7.9799999999999995,0.0,0.0
4.0,876.6802571068413,0.0,14490.544360037742,271.33529671486883,0.0,-11.958602119680098,271.5986955197,19.861648510536593,0.0,1.543485706266547,0.0,0.0,8.378293024900191,0.0,4.067058258836106,0.0,7740.778457614884,0.9204567110267875,271.59869551969996,2.6722182861878134,0.20987430660293593,13052.084027052924,216.64999999999998,0.0,0.0,0.0,581.1333333333333,0.2890688204399545,0.92,nominal,178986.62255236547,nan,pitch_program,8.0,0.0,0.0
4.04,887.5540209354557,0.0,14490.063215144912,272.3526389406187,0.0,-12.097731439374678,272.6211933139063,19.850086774671748,0.0,1.5526302991916017,0.0,0.0,-8.480936356205383,0.0,4.096000597827839,0.0,7799.763921140498,0.9239219889247038,272.6211933139063,2.6796857220335326,0.20989023058642856,13053.074339654573,216.64999999999998,0.0,0.0,0.0,581.0311111111112,0.28901797280223424,0.92,nominal,179260.13595074997,nan,pitch_program,8.020000000000001,0.0,0.0
4.08,898.4683927798068,0.0,14489.577113748519,273.3651650532851,0.0,-12.203992328264455,273.6374442457723,19.838527072712413,0.0,1.7708800725426912,0.0,0.0,-2.1376918141798193,0.0,4.327069961127772,0.0,7858.625077916599,0.9273660960053118,273.6374442457723,2.6868933554826944,0.2099063198374367,13054.074930243722,216.64999999999998,0.0,0.0,0.0,580.9288888888889,0.2889671251645139,0.92,nominal,179532.93684922098,nan,pitch_program,8.04,0.0,0.0
4.12,909.4232082302296,0.0,14489.087123157637,274.3762957100703,0.0,-12.298919425289338,274.65180696039425,19.826969404658588,0.0,1.5105933972843235,0.0,0.0,14.404720736968654,0.0,4.077159061328561,0.0,7917.6080027536,0.9308038038569736,274.6518069603943,2.6663246247990835,0.2099225390633118,13055.083603970399,216.64999999999998,0.0,0.0,0.0,580.8266666666667,0.2889162775267936,0.92,nominal,179806.21376961868,nan,pitch_program,8.06,0.0,0.0
4.16,920.4185848685515,0.0,14488.59226839022,275.39231590232276,0.0,-12.44308753131846,275.673281413627,19.815413770510272,0.0,1.4922784330057208,0.0,0.0,-12.982671948104219,0.0,4.0793216982941685,0.0,7977.233710197031,0.9342656136194296,275.67328141362697,2.6775350006778664,0.20993892057072916,13056.10236998689,216.64999999999998,0.0,0.0,0.0,580.7244444444444,0.28886542988907327,0.92,nominal,180082.43241148736,nan,pitch_program,8.08,0.0,0.0
4.2,931.4544836443896,0.0,14488.092529991305,276.4013306012897,0.0,-12.538235113841507,276.68556684065294,19.803860170267463,0.0,1.871848867412796,0.0,0.0,-5.429694316729617,0.0,4.469143917607899,0.0,8036.560119574697,0.9376962814766435,276.68556684065294,2.6940578185555544,0.2099554650415902,13057.131270700638,216.64999999999998,0.0,0.0,0.0,580.6222222222223,0.288814582251353,0.92,nominal,180357.10405820594,nan,pitch_program,8.1,0.0,0.0
4.24,942.5306417676961,0.0,14487.589688619277,277.4078337337538,0.0,-12.609697231982313,277.69427556421874,19.792308603930163,0.0,1.4585781871271906,0.0,0.0,24.78807649057672,0.0,4.06119196843919,0.0,8095.906402365137,0.94111482777084,277.6942755642188,2.6633508711739506,0.20997211355626938,13058.166641899883,216.64999999999998,0.0,0.0,0.0,580.52,0.28876373461363264,0.92,nominal,180631.77676046634,nan,pitch_program,8.120000000000001,0.0,0.0
4.28,953.6472880331489,0.0,14487.082230157439,278.42519254223225,0.0,-12.767023642004895,278.7177510221669,19.780759071498373,0.0,1.1094712432680904,0.0,0.0,-7.332476203516976,0.0,3.7348964880088893,0.0,8156.3458854539085,0.944583419002609,278.7177510221669,2.6616909877918364,0.2099889162760113,13059.21160311264,216.64999999999998,0.0,0.0,0.0,580.4177777777778,0.28871288697591235,0.92,nominal,180911.53731980076,nan,pitch_program,8.14,0.0,0.0
4.32,964.8045820043764,0.0,14486.568723631874,279.43696110793735,0.0,-12.896648615632474,279.7344075703845,19.76921157297209,0.0,1.8711575596780194,0.0,0.0,-28.905042266127744,0.0,4.513612439725104,0.0,8216.622220188206,0.9480289007300731,279.73440757038446,2.696690421661404,0.2100059206250693,13060.26910365343,216.64999999999998,0.0,0.0,0.0,580.3155555555556,0.28866203933819207,0.92,nominal,181190.3785629815,nan,pitch_program,8.16,0.0,0.0
4.36,976.0019791241709,0.0,14486.052312831907,280.43178609954475,0.0,-12.919431532840795,280.7292260633235,19.757666108351316,0.0,2.1818544195657816,0.0,0.0,13.19189093734903,0.0,4.819593469410273,0.0,8275.84151877091,0.9514003725861034,280.72922606332344,2.6938734306422227,0.21002302253547253,13061.332671534698,216.64999999999998,0.0,0.0,0.0,580.2133333333334,0.2886111917004717,0.92,nominal,181464.0940966893,nan,pitch_program,8.18,0.0,0.0
4.4,987.23923923763,0.0,14485.53444171721,281.43397864425987,0.0,-12.986559460548513,281.7334468290197,19.746122677636052,0.0,1.3023427036253303,0.0,0.0,28.841973334162812,0.0,3.9443392640661505,0.0,8335.836569900459,0.9548037090467917,281.73344682901967,2.653236932087549,0.21004017420554555,13062.399333970043,216.64999999999998,0.0,0.0,0.0,580.1111111111111,0.2885603440627514,0.92,nominal,181741.4338639461,nan,pitch_program,8.2,0.0,0.0
4.44,998.5169216939136,0.0,14485.011599189436,282.4507835802108,0.0,-13.159117344366852,282.7571528968947,19.734581280826298,0.0,1.0286644427458933,0.0,0.0,-15.158026665837195,0.0,3.6960923183022594,0.0,8397.217075823755,0.958273081823017,282.75715289689464,2.660633742451924,0.21005749194763268,13063.476324424657,216.64999999999998,0.0,0.0,0.0,580.0088888888889,0.2885094964250311,0.92,nominal,182025.24275637002,nan,pitch_program,8.22,0.0,0.0
4.48,1009.8351622596492,0.0,14484.482717862365,283.45819763377654,0.0,-13.271087097143205,283.76869376048,19.72304191792205,0.0,1.936468805959948,0.0,0.0,-28.225336822143277,0.0,4.617013736124603,0.0,8458.110638207372,0.9617012263307929,283.76869376048,2.7032649385351903,0.2100750111612594,13064.565844395182,216.64999999999998,0.0,0.0,0.0,579.9066666666668,0.28845864878731087,0.92,nominal,182306.5882243895,nan,pitch_program,8.240000000000002,0.0,0.0
4.5200000000000005,1021.1932977337171,0.0,14483.951786095626,284.4475298148122,0.0,-13.271384190312924,284.75696103181633,19.71150458892331,0.0,2.1854816669667585,0.0,0.0,15.774663177856727,0.0,4.856776679268213,0.0,8517.83961657079,0.9650504958861899,284.75696103181633,2.6917357327759572,0.21009259976542197,13065.659679763427,216.64999999999998,0.0,0.0,0.0,579.8044444444445,0.2884078011495905,0.92,nominal,182582.30921115231,nan,pitch_program,8.26,0.0,0.0
4.5600000000000005,1032.5911145677874,0.0,14483.419972462107,285.44616789842735,0.0,-13.332109702813572,285.75734446733827,19.699969293830083,0.0,1.2962649010905833,0.0,0.0,26.758238990336988,0.0,3.970390441461206,0.0,8578.512384510033,0.9684408275115471,285.75734446733827,2.647614998525316,0.21011021906017857,13066.755423779847,216.64999999999998,0.0,0.0,0.0,579.7022222222222,0.2883569535118702,0.92,nominal,182862.46043145802,nan,pitch_program,8.280000000000001,0.0,0.0
4.6000000000000005,1044.0292075191155,0.0,14482.883447672337,286.45888714121963,0.0,-13.496514129677374,286.7766551095793,19.68843603264236,0.0,1.1059358091574514,0.0,0.0,-17.241761009663016,0.0,3.803432383933277,0.0,8640.552488428011,0.9718953040489858,286.7766551095793,2.660555019664492,0.2101279959356049,13067.860967738794,216.64999999999998,0.0,0.0,0.0,579.6,0.2883061058741499,0.92,nominal,183148.9939200352,nan,pitch_program,8.3,0.0,0.0
4.64,1055.5076648288407,0.0,14482.341496669906,287.46101596534857,0.0,-13.587804568307464,287.78197325895326,19.67690480536015,0.0,1.9604710794915725,0.0,0.0,-23.664839532312698,0.0,4.666733041736917,0.0,8701.982582249471,0.9753023595782389,287.78197325895326,2.708504209577835,0.2101459541267031,13068.97778772015,216.64999999999998,0.0,0.0,0.0,579.4977777777779,0.2882552582364296,0.92,nominal,183432.48630472636,nan,pitch_program,8.32,0.0,0.0
4.68,1067.025842321984,0.0,14481.798162246947,288.4474761876625,0.0,-13.57755468431779,288.76685493705435,19.665375611983446,0.0,2.0270644971491745,0.0,0.0,20.335160467687306,0.0,4.722053533404233,0.0,8762.3971296437,0.9786401552493148,288.7668549370544,2.678743072041706,0.2101639596997305,13070.097554383889,216.64999999999998,0.0,0.0,0.0,579.3955555555556,0.28820441059870927,0.92,nominal,183711.07420291792,nan,pitch_program,8.34,0.0,0.0
4.72,1078.5836514299272,0.0,14481.253806674691,289.44521048816586,0.0,-13.650428750062654,289.7669133624458,19.653848452512253,0.0,1.3087068758131,0.0,0.0,14.284143900430193,0.0,4.008813358934962,0.0,8823.951558686747,0.9820293854048905,289.7669133624458,2.6383105870070382,0.2101820006597424,13071.219521764342,216.64999999999998,0.0,0.0,0.0,579.2933333333333,0.28815356296098893,0.92,nominal,183995.01968302595,nan,pitch_program,8.36,0.0,0.0
4.76,1090.1815716628414,0.0,14480.704845646254,290.4495937327158,0.0,-13.792273208410393,290.77687889472077,19.642323326946567,0.0,1.617340361409473,0.0,0.0,-29.715856099569812,0.0,4.336042298559853,0.0,8886.338694277456,0.9854521910642083,290.7768788947207,2.6692530472808236,0.2102001958215579,13072.351078955624,216.64999999999998,0.0,0.0,0.0,579.1911111111111,0.28810271532326864,0.92,nominal,184282.80082443438,nan,pitch_program,8.379999999999999,0.0,0.0
4.8,1101.8193097820952,0.0,14480.152520563704,291.4333018881772,0.0,-13.807536911601996,291.7602055198938,19.63080023528639,0.0,2.6929317362336143,0.0,0.0,-22.060158593896595,0.0,5.405464756785788,0.0,8947.321812423757,0.9887847166109162,291.7602055198938,2.7430249872866495,0.2102185040736571,13073.489669232133,216.64999999999998,0.0,0.0,0.0,579.088888888889,0.28805186768554836,0.92,nominal,184563.7964782914,nan,pitch_program,8.4,0.0,0.0
4.84,1113.4959479319314,0.0,14479.602037521481,292.39849018126665,0.0,-13.716386551607686,292.72003060999674,19.619279177531723,0.0,2.6953380740765627,0.0,0.0,21.939841406103408,0.0,5.381108980611839,0.0,9007.069799678507,0.9920375946996957,292.72003060999674,2.7018480387619013,0.21023675285320037,13074.624560910133,216.64999999999998,0.0,0.0,0.0,578.9866666666667,0.288001020047828,0.92,nominal,184838.89748141874,nan,pitch_program,8.42,0.0,0.0
4.88,1125.2114489851706,0.0,14479.05348160869,293.3799846421677,0.0,-13.72572621743254,293.70088687103834,19.607760153682566,0.0,1.7405919308427258,0.0,0.0,23.791936084846633,0.0,4.419210770530622,0.0,9068.31770953163,0.9953617481029394,293.70088687103834,2.6400946418080684,0.2102549393233117,13075.755577564296,216.64999999999998,0.0,0.0,0.0,578.8844444444444,0.2879501724101077,0.92,nominal,185121.11529983507,nan,pitch_program,8.44,0.0,0.0
4.92,1136.9665781576493,0.0,14478.502190546162,294.3765476572508,0.0,-13.839524106162733,294.7016868599274,19.596243163738915,0.0,1.668914663575908,0.0,0.0,-20.208063915153375,0.0,4.360579151651852,0.0,9131.018214058618,0.9987534914410501,294.7016868599274,2.668199225637047,0.21027321805782062,13076.892332141739,216.64999999999998,0.0,0.0,0.0,578.7822222222222,0.2878993247723874,0.92,nominal,185410.14562596288,nan,pitch_program,8.460000000000003,0.0,0.0
4.96,1148.7613622704262,0.0,14477.947982763757,295.35981898752766,0.0,-13.859188026315296,295.6847979945771,19.584728207700774,0.0,2.40873953329999,0.0,0.0,-15.35956045025452,0.0,5.095262578448323,0.0,9192.844482263286,1.002085286683446,295.68479799457714,2.731989710499633,0.21029159510148582,13078.035200566032,216.64999999999998,0.0,0.0,0.0,578.6800000000001,0.2878484771346671,0.92,nominal,185694.9184677171,nan,pitch_program,8.48,0.0,0.0
5.0,1160.5951744713127,0.0,14477.394922012969,296.33176876706045,0.0,-13.797928684435956,296.652827420531,19.573215285568143,0.0,2.143122603994112,0.0,0.0,28.640439549745487,0.0,4.80902810409579,0.0,9253.942122466102,1.0053659695301944,296.6528274205311,2.6811214168465085,0.21030993571168707,13079.175803193048,216.64999999999998,0.0,0.0,0.0,578.5777777777778,0.2877976294969468,0.92,nominal,185976.19492025615,nan,pitch_program,8.5,0.0,0.0
5.04,1172.4682185314864,0.0,14476.842081128212,297.32395104780613,0.0,-13.859987190451635,297.6468227809558,19.561704397341018,0.0,1.0933914188742448,0.0,0.0,21.788638512079274,0.0,3.762346615071056,0.0,9316.87261023679,1.0087346517636702,297.64682278095574,2.6276031851772768,0.2103282706293123,13080.316051798734,216.64999999999998,0.0,0.0,0.0,578.4755555555556,0.28774678185922653,0.92,nominal,186266.13895069482,nan,pitch_program,8.52,0.0,0.0
5.08,1184.381290337045,0.0,14476.284331324576,298.32941582708,0.0,-14.026821132728232,298.6589895831304,19.550195543019402,0.0,1.101845857616604,0.0,0.0,-22.21136148792073,0.0,3.793790289581853,0.0,9381.170620008985,1.012164917597449,298.65898958313034,2.653526716920535,0.21034676997058538,13081.466525911786,216.64999999999998,0.0,0.0,0.0,578.3733333333333,0.2876959342215062,0.92,nominal,186562.44976719233,nan,pitch_program,8.54,0.0,0.0
5.12,1196.3343437273218,0.0,14475.721804607394,299.31973375058334,0.0,-14.084116261135575,299.6509057943548,19.538688722603297,0.0,2.047855561391722,0.0,0.0,-23.05088281113264,0.0,4.741849866460657,0.0,9444.425935522167,1.0155265535274403,299.6509057943548,2.7186075922963373,0.2103654293997001,13082.626955888396,216.64999999999998,0.0,0.0,0.0,578.2711111111112,0.2876450865837859,0.92,nominal,186853.66990684174,nan,pitch_program,8.56,0.0,0.0
5.16,1208.326595266311,0.0,14475.159488804504,300.29255016418864,0.0,-14.030731656780475,300.62015420616154,19.5271839360927,0.0,2.0898907705470875,0.0,0.0,20.949117188867362,0.0,4.765007005063965,0.0,9506.465385135163,1.0188113675564343,300.62015420616154,2.6793617822205897,0.21038408348693982,13083.787053653776,216.64999999999998,0.0,0.0,0.0,578.1688888888889,0.28759423894606556,0.92,nominal,187139.06135835286,nan,pitch_program,8.58,0.0,0.0
5.2,1220.3579706509513,0.0,14474.59763051868,301.2788778868399,0.0,-14.074068206857559,301.6074297106168,19.51568118348761,0.0,1.3167719228826458,0.0,0.0,16.138448283800596,0.0,3.9913666608510594,0.0,9569.856681608419,1.0221572759819861,301.6074297106168,2.6258469972030456,0.2104027240487795,13084.946310274468,216.64999999999998,0.0,0.0,0.0,578.0666666666667,0.2875433913083453,0.92,nominal,187430.83368164834,nan,pitch_program,8.6,0.0,0.0
5.24,1232.4290508603303,0.0,14474.032048081222,302.27410478604276,0.0,-14.200624239080748,302.60748859369477,19.504180464788032,0.0,1.5512334154033174,0.0,0.0,-27.86155171619941,0.0,4.240971088744495,0.0,9634.283860402911,1.025546507688676,302.60748859369477,2.6617193235237897,0.210421489833461,13086.113354504234,216.64999999999998,0.0,0.0,0.0,577.9644444444444,0.28749254367062493,0.92,nominal,187727.41246080727,nan,pitch_program,8.620000000000001,0.0,0.0
5.28,1244.5395875475713,0.0,14473.463750974985,303.2486255878258,0.0,-14.197447295365846,303.58079061529907,19.492681779993962,0.0,2.5805526807248658,0.0,0.0,-21.50863743007851,0.0,5.26106029843256,0.0,9697.227617716313,1.0288450595315979,303.5807906152991,2.747932351918405,0.21044034737548492,13087.286105123514,216.64999999999998,0.0,0.0,0.0,577.8622222222223,0.28744169603290465,0.92,nominal,188016.84150880386,nan,pitch_program,8.64,0.0,0.0
