time_s,x_m,y_m,altitude_m,vx_mps,vy_mps,vz_mps,speed_mps,mass_kg,roll_deg,pitch_deg,yaw_deg,p_dps,q_dps,r_dps,alpha_deg,beta_deg,qbar_pa,mach,airspeed_mps,load_factor_g,density_kgpm3,pressure_pa,temperature_k,wind_x_mps,wind_y_mps,wind_z_mps,thrust_n,mass_flow_kgps,propulsion_throttle_actual,propulsion_health,energy_j_per_kg,target_distance_m,guidance_mode,pitch_command_deg,heading_command_deg,roll_command_deg,elevator_command_deg,aileron_command_deg,rudder_command_deg,elevator_deg,aileron_deg,rudder_deg,throttle,elevator_saturated,aileron_saturated,rudder_saturated,elevator_failed,aileron_failed,rudder_failed,elevator_raw_rad,aileron_raw_rad,rudder_raw_rad,elevator_effective_rad,aileron_effective_rad,rudder_effective_rad,sensor_time_s,imu_valid,imu_ax_mps2,imu_ay_mps2,imu_az_mps2,gyro_p_rps,gyro_q_rps,gyro_r_rps,imu_accel_norm_mps2,imu_gyro_norm_rps,gps_valid,gps_latency_s,gps_x_m,gps_y_m,gps_z_m,gps_vx_mps,gps_vy_mps,gps_vz_mps,baro_valid,baro_alt_m,baro_bias_m,pitot_valid,pitot_airspeed_mps,pitot_qbar_pa,pitot_compressibility_factor,mag_valid,mag_heading_deg,mag_x_ut,mag_y_ut,mag_z_ut,radar_valid,radar_agl_m,optical_flow_valid,optical_flow_x_radps,optical_flow_y_radps,optical_flow_quality,horizon_valid,horizon_roll_deg,horizon_pitch_deg
0.0,0.0,0.0,20.0,85.0,0.0,8.0,85.37564055396598,18.0,0.0,6.000000000000002,0.0,0.0,0.0,0.0,0.5847693590724268,0.08811800200359583,4448.934745633113,0.25074697923505807,85.30843941744567,1.7465921667440785,1.2226496753673843,101084.96761777384,288.02,0.0724,-0.1312,-0.0508,326.8,0.17539118863220368,0.86,nominal,3840.633,nan,pitch_program,13.0,0.0,0.0,-20.05352282957881,-0.0,0.0,-2.6999999999999997,0.0,0.0,0.86,0.0,0.0,0.0,0.0,0.0,0.0,-0.047123889803846894,0.0,0.0,-0.047123889803846894,0.0,0.0,0.0,1.0,17.095382095157238,-0.06110233764156506,0.14683972497508235,0.0016677683591043149,0.0011681274632859406,0.0012765720485123657,17.09612191053628,0.00240324973008537,1.0,0.0,-1.885154541229685,1.8645638091475825,21.162662438547994,85.32748210022089,0.18147237523479218,7.846341299741817,1.0,20.771163472887363,0.0,1.0,85.5597971231538,4458.492166482902,1.0,1.0,-0.8198733225718878,19.523475325297145,-0.00615746722134172,-43.81279554351524,1.0,20.39618647858491,1.0,-0.0077448575321814855,4.273240466216326,0.95,1.0,0.17459483210835952,5.697481511065039
0.03,2.565315651091616,-1.601070928043528e-05,20.23292478961755,85.51052170305388,-0.0005336903093478427,7.7641596539183535,85.86228215779504,17.994738264341034,-0.0008833118927697195,6.26868025150295,0.001802343513709266,-0.02302376409959119,-8.95602525572747,0.05966524243398118,1.0424210423057985,0.08548318635788885,4499.716767667039,0.2521774682762428,85.79489092144536,1.774782820914806,1.2226223230518514,101082.17485808964,288.01848598886744,0.0724,-0.1312,-0.0508,332.605,0.1785066900092231,0.86,nominal,3884.5829605605068,nan,pitch_program,12.985,0.0,0.0,-0.5076642295767699,0.006276971784417242,0.00935307696288341,-1.384598537746062,0.0,0.0,0.86,0.0,0.0,0.0,0.0,0.0,0.0,-0.024165803301967766,0.0,0.0,-0.024165803301967766,0.0,0.0,0.03,1.0,17.401843422809016,-0.04174126800308638,0.6632483072454108,0.001570338436026479,-0.15699138909423582,0.0027409025493574522,17.414528278494362,0.1570231663141668,1.0,0.0,-1.885154541229685,1.8645638091475825,21.162662438547994,85.32748210022089,0.18147237523479218,7.846341299741817,1.0,20.771163472887363,0.0,1.0,85.3812111851333,4486.735500131918,1.0,1.0,-0.8198733225718878,19.523475325297145,-0.00615746722134172,-43.81279554351524,1.0,20.39618647858491,1.0,-0.0077448575321814855,4.273240466216326,0.95,1.0,0.17459483210835952,5.697481511065039
0.06,5.146126351621778,-4.730747583495143e-05,20.459319423982013,86.02702335100537,-0.001043225551817205,7.546487812148783,86.3573866326538,17.98938306364076,-0.002649462650290822,6.5833962239402055,0.0053757215845760785,-0.045540494685524305,-10.490562435427366,0.11804126691985709,1.532306329415372,0.08113913709264249,4551.682974651466,0.25363286376784694,86.28981978367875,1.8038845035489406,1.2225957380198884,101079.46045460267,288.0170144237441,0.0724,-0.1312,-0.0508,338.40999999999997,0.18162219138624247,0.86,nominal,3929.43649784002,nan,pitch_program,12.97,0.0,0.0,0.21022947847816334,0.0120682766164737,0.017723505475406652,-0.4277017280115269,0.0,0.0,0.86,0.0,0.0,0.0,0.0,0.0,0.0,-0.007464803370270404,0.0,0.0,-0.007464803370270404,0.0,0.0,0.06,1.0,17.709298308423094,-0.0655460709512731,1.2014066632498994,-0.004240970800991363,-0.18456381338591665,0.0017133175691334576,17.750124530116274,0.18462048234683776,1.0,0.0,-1.885154541229685,1.8645638091475825,21.162662438547994,85.32748210022089,0.18147237523479218,7.846341299741817,1.0,20.525955785584795,0.0,1.0,85.87085311327705,4518.798486222036,1.0,1.0,0.08202954032800043,19.04681773990574,-0.027073532284374844,-44.018787543813005,1.0,20.444305666211992,1.0,0.0006221311389463102,4.219150761281884,0.9488517014400449,1.0,-0.16172036529660166,6.404408599008166
0.09,7.742600285894173,-9.231535704350155e-05,20.679741723488814,86.54913114241317,-0.0015002627069516706,7.347409983560012,86.8604428795061,17.983934397899173,-0.005275096236481669,6.777942430905418,0.010641804590182423,-0.06709998366669397,-6.48489183814137,0.17389599259326133,1.8881060597956465,0.07519139851694524,4604.794297043573,0.2551116649252263,86.79271491352205,1.8336033925574866,1.2225698547311803,101076.81771431975,288.0155816787973,0.0724,-0.1312,-0.0508,344.215,0.18473769276326188,0.86,nominal,3975.1672577846216,nan,pitch_program,12.955,0.0,0.0,-1.0781126521580942,0.017262654623601263,0.02496155220553556,-0.8179482824994672,0.0,0.0,0.86,0.0,0.0,0.0,0.0,0.0,0.0,-0.014275890640648416,0.0,0.0,-0.014275890640648416,0.0,0.0,0.09,1.0,17.983047120003977,-0.02686387725062387,1.3930229469396052,-0.0007699686360633334,-0.11487371952792076,0.005579917862087128,18.036940381308707,0.11501173754546778,1.0,0.0,-1.885154541229685,1.8645638091475825,21.162662438547994,85.32748210022089,0.18147237523479218,7.846341299741817,1.0,20.525955785584795,0.0,1.0,87.16321251542587,4636.748104949589,1.0,1.0,0.08202954032800043,19.04681773990574,-0.027073532284374844,-44.018787543813005,1.0,20.444305666211992,1.0,0.0006221311389463102,4.219150761281884,0.9488517014400449,1.0,-0.16172036529660166,6.404408599008166
0.12,10.354945379472957,-0.0001485884991722624,20.894501509405266,87.07816978595949,-0.0018757714042920278,7.158659530548466,87.3719294914861,17.978392267116273,-0.008704120352961812,6.876772136029542,0.017487208724791113,-0.08717517922821076,-3.294351935896337,0.22616028326980497,2.1399505303169,0.06777029040221424,4659.115781519632,0.25661526251081945,87.3040492046394,1.863635548029003,1.2225446367714752,101074.24291822444,288.01418574018885,0.0724,-0.1312,-0.0508,350.02,0.1878531941402813,0.86,nominal,4021.8320947598186,nan,pitch_program,12.94,0.0,0.0,-2.1346974595739545,0.021749830412187476,0.03094103212735832,-1.6079977887441597,0.0,0.0,0.86,0.0,0.0,0.0,0.0,0.0,0.0,-0.028064855778373803,0.0,0.0,-0.028064855778373803,0.0,0.0,0.12,1.0,18.248783580271915,-0.028689414415553893,1.5075971826703352,0.00025970286056363825,-0.05682094512612963,0.0011095686775761601,18.310974155060592,0.056832370997985625,1.0,0.0,-1.885154541229685,1.8645638091475825,21.162662438547994,85.32748210022089,0.18147237523479218,7.846341299741817,1.0,20.835076685167234,0.0,1.0,87.19635559176884,4705.3627147975685,1.0,1.0,-1.8776346206333072,18.83392771809896,-0.006409861150896396,-44.084359334170784,1.0,20.159393525528742,1.0,-0.012502676739139509,4.181187396440843,0.9477637462264868,1.0,0.2746531142951947,7.483512035294067
0.15,12.983396286886464,-0.00021283869819100295,21.10377500868213,87.61503024711688,-0.002141673300624685,6.975783309228824,87.89229250945321,17.972756671292064,-0.012862076255131612,6.962383164446588,0.025776052602863135,-0.10531161468920294,-2.853753048712634,0.27374533328475426,2.373381631055405,0.0590357665468917,4714.710752813209,0.2581449590795311,87.82426566522858,1.8942017864186858,1.2225200634164888,101071.73394936006,288.0128254624435,0.0724,-0.1312,-0.0508,355.825,0.1909686955173007,0.86,nominal,4069.4848764725352,nan,pitch_program,12.925,0.0,0.0,-2.2361483817059953,0.025427411948300758,0.0355068075531953,-1.984888144521261,0.0,0.0,0.86,0.0,0.0,0.0,0.0,0.0,0.0,-0.03464283340569705,0.0,0.0,-0.03464283340569705,0.0,0.0,0.15,1.0,18.54793561652228,-0.048924629368898576,1.6684163889726389,-0.0019710786173389784,-0.049940526641971884,0.00314884011910982,18.622887061382485,0.05007850383436939,1.0,0.0,-1.885154541229685,1.8645638091475825,21.162662438547994,85.32748210022089,0.18147237523479218,7.846341299741817,1.0,20.835076685167234,0.0,1.0,87.47248306167324,4732.516289840714,1.0,1.0,-1.8776346206333072,18.83392771809896,-0.006409861150896396,-44.084359334170784,1.0,20.159393525528742,1.0,-0.012502676739139509,4.181187396440843,0.9477637462264868,1.0,0.2746531142951947,7.483512035294067
0.18,15.628185211343558,-0.0002809737201045453,21.30776761752823,88.15963081523645,-0.0022711673971180786,6.799753628203293,88.42147454120663,17.967027610426545,-0.017664071757167138,7.060837109844564,0.03534019721233793,-0.12114984946772404,-3.2818831640872284,0.31554648322168816,2.613877084600185,0.04918018536272627,4771.589936049714,0.2597005880961306,88.35330746697323,1.9252438530148421,1.2224961105189731,101069.2883413486,288.01149951048603,0.0724,-0.1312,-0.0508,361.63,0.19408419689432013,0.86,nominal,4118.13639932706,nan,pitch_program,12.91,0.0,0.0,-2.026286350305158,0.02821669636195769,0.038539352350911806,-2.009727067991599,0.0,0.0,0.86,0.0,0.0,0.0,0.0,0.0,0.0,-0.035076354402905345,0.0,0.0,-0.035076354402905345,0.0,0.0,0.18,1.0,18.75321412920928,-0.05868111187568272,1.889009195037642,-0.0019747157538341368,-0.05984844619478726,0.004620331038516852,18.848205203355633,0.060058999934599885,1.0,0.0,-1.885154541229685,1.8645638091475825,21.162662438547994,85.32748210022089,0.18147237523479218,7.846341299741817,1.0,20.08187480835859,0.0,1.0,87.963717638991,4835.793963559317,1.0,1.0,-0.5075549024435793,18.721741403632155,0.02848779187431603,-44.22468713284927,1.0,21.361401438885434,1.0,0.0095734676472723,4.138934385516322,0.9467305809561795,1.0,-0.521724032945127,6.703095147346845
0.21,18.289535872725178,-0.00034814729789382775,21.50673467222078,88.71168871272064,-0.002239119259642749,6.632235156418333,88.95926181374446,17.961205084519715,-0.023009732625283094,7.150521327367381,0.04597133978248747,-0.13435299529556427,-2.989599157811111,0.3505887186758435,2.8388030329964047,0.03842173127529228,4829.747223817197,0.26128152475110844,88.89096182012956,1.9564852864931945,1.22247274807001,101066.903029404,288.01020622463056,0.0724,-0.1312,-0.0508,367.435,0.19719969827133954,0.86,nominal,4167.7841507965,nan,pitch_program,12.895,0.0,0.0,-2.073419341950012,0.030060707154414154,0.03998950343992573,-2.0479424323666473,0.0,0.0,0.86,0.0,0.0,0.0,0.0,0.0,0.0,-0.03574333833609928,0.0,0.0,-0.03574333833609928,0.0,0.0,0.21,1.0,19.04394168516103,0.05183105030597141,2.089875246374215,-0.0035293724892521416,-0.05046834331650142,0.007154581209274438,19.15833969609573,0.05109499172678518,1.0,0.0,18.15869508668801,-0.8510638186156017,22.527960204551604,88.79264980977469,-0.1092055137501182,6.691812658067243,1.0,20.08187480835859,0.0,1.0,88.74410340529968,4826.273834899887,1.0,1.0,-0.5075549024435793,18.721741403632155,0.02848779187431603,-44.22468713284927,1.0,21.361401438885434,1.0,0.0095734676472723,4.138934385516322,0.9467305809561795,1.0,-0.521724032945127,6.703095147346845
0.24,20.96767370934617,-0.00040883855428611957,21.700921962039622,89.27126122069969,-0.0020230418797430607,6.4729096606280825,89.5056235300428,17.955289093571576,-0.028780538009089633,7.214628634705708,0.05743279948521121,-0.14459205453343926,-2.1370815646532435,0.37808486792193563,3.031643242944551,0.02699644895543448,4889.196092521656,0.26288767823698017,89.43719761649693,1.987748514642824,1.222449947184082,101064.57506351525,288.0089440072467,0.0724,-0.1312,-0.0508,373.24,0.20031519964835895,0.86,nominal,4218.441668109911,nan,pitch_program,12.88,0.0,0.0,-2.3309111501793254,0.03091602181049605,0.03983554865611403,-2.217723663054254,0.0,0.0,0.86,0.0,0.0,0.0,0.0,0.0,0.0,-0.03870657981968606,0.0,0.0,-0.03870657981968606,0.0,0.0,0.24,1.0,19.344692365744095,-0.06546061219310605,2.292413154855951,-0.0021221336452841005,-0.037255138259318504,0.0077562018806558095,19.480158261410075,0.03811308758868629,1.0,0.0,18.15869508668801,-0.8510638186156017,22.527960204551604,88.79264980977469,-0.1092055137501182,6.691812658067243,1.0,22.184772640511035,0.0,1.0,89.3901616574939,4883.799879972107,1.0,1.0,-0.929974735680966,18.632712116282253,-0.012883594360201272,-44.29956141007975,1.0,21.597230517882483,1.0,0.019659894811663043,4.126321670345897,0.945747695094901,1.0,-0.6216953206925387,7.171363580388675
0.27,23.662832309707003,-0.0004569547458868532,21.890535351988518,89.8386200120278,-0.0016038730533577876,6.320446331629914,90.06067782372585,17.949279637582126,-0.03484521583322944,7.258024216688104,0.0694746817487615,-0.15159518110769932,-1.4467403423828318,0.3973957755229331,3.1982031394144483,0.01515437472185561,4949.966536275205,0.26451939353819753,89.9921320462084,2.019091671466117,1.2224276836656238,101062.30197258228,288.00771152021207,0.0724,-0.1312,-0.0508,379.045,0.20343070102537836,0.86,nominal,4270.135663544051,nan,pitch_program,12.865,0.0,0.0,-2.543205643265912,0.03075469147252779,0.03805789151009718,-2.4130128511812488,0.0,0.0,0.86,0.0,0.0,0.0,0.0,0.0,0.0,-0.04211501914604873,0.0,0.0,-0.04211501914604873,0.0,0.0,0.27,1.0,19.55701687006622,-0.031854391002946104,2.4363425282372364,-0.0007385770228597161,-0.023138373045642625,0.0048453058671081885,19.708213731162402,0.023651782008209245,1.0,0.0,18.15869508668801,-0.8510638186156017,22.527960204551604,88.79264980977469,-0.1092055137501182,6.691812658067243,1.0,22.184772640511035,0.0,1.0,90.0616958674945,4954.428203090566,1.0,1.0,-0.929974735680966,18.632712116282253,-0.012883594360201272,-44.29956141007975,1.0,21.597230517882483,1.0,0.019659894811663043,4.126321670345897,0.945747695094901,1.0,-0.6216953206925387,7.171363580388675
0.3,26.37525105486246,-0.00048594325587934134,22.075756358840696,90.41395817184859,-0.000966283666416272,6.174033561739267,90.6245139223156,17.943176716551363,-0.041065929087003475,7.291242338520393,0.08183657679260996,-0.1551794212639919,-1.1075412904767783,0.40801272552822326,3.3496054064607983,0.0031568848962281715,5012.085989021295,0.2661769316301168,90.55585374016265,2.0505996120373036,1.2224059361797708,101060.08157763859,288.0065075836675,0.0724,-0.1312,-0.0508,384.84999999999997,0.20654620240239774,0.86,nominal,4322.890477924413,nan,pitch_program,12.850000000000001,0.0,0.0,-2.6382708227447718,0.02957186683898274,0.034666765678940364,-2.5481676341193626,0.0,0.0,0.86,0.0,0.0,0.0,0.0,0.0,0.0,-0.04447391510813708,0.0,0.0,-0.04447391510813708,0.0,0.0,0.3,1.0,19.937758039735858,-0.023884353057043166,2.5780945943523967,-0.003356765851771989,-0.021587355507077417,0.008240850906640779,20.103764270673338,0.023349377260176562,1.0,0.0,18.15869508668801,-0.8510638186156017,22.527960204551604,88.79264980977469,-0.1092055137501182,6.691812658067243,1.0,22.0821186777951,0.0,1.0,90.33207108537981,5026.21368649542,1.0,1.0,0.04973635452813171,18.46663953788807,-0.008581278450749828,-44.29815587823802,1.0,21.912745739352278,1.0,0.009983301181575348,4.091799621025428,0.9448106091028983,1.0,0.4515616699172699,7.885618090821057
0.32999999999999996,29.105171180201317,-0.0004889138387176156,22.256762183811244,90.99733751129531,-9.901942794247832e-05,6.033527499018256,91.19714298285778,17.93698033047929,-0.04730085707180434,7.317475848884205,0.09424537006938788,-0.15524243560413387,-0.8747664791140127,0.4095953320218796,3.4891945064400263,-0.008728267543782845,5075.573760136506,0.26786032525020437,91.1283736824891,2.0822408586190564,1.2223846839000294,101057.91175167415,288.0053310458052,0.0724,-0.1312,-0.0508,390.655,0.20966170377941715,0.86,nominal,4376.723720987776,nan,pitch_program,12.835,0.0,0.0,-2.699973148138737,0.0273880058449627,0.02972566217158877,-2.639250942530987,0.0,0.0,0.86,0.0,0.0,0.0,0.0,0.0,0.0,-0.04606361873352937,0.0,0.0,-0.04606361873352937,0.0,0.0,0.32999999999999996,1.0,20.177113118602605,-0.05189321553308929,2.7708423027320945,-0.003543004435875467,-0.014774671733506016,0.008125535365609539,20.366544964065785,0.017229861585145317,1.0,0.0,18.15869508668801,-0.8510638186156017,22.527960204551604,88.79264980977469,-0.1092055137501182,6.691812658067243,1.0,22.0821186777951,0.0,1.0,90.82264724521818,5065.704188073073,1.0,1.0,0.04973635452813171,18.46663953788807,-0.008581278450749828,-44.29815587823802,1.0,21.912745739352278,1.0,0.009983301181575348,4.091799621025428,0.9448106091028983,1.0,0.4515616699172699,7.885618090821057
0.36,31.852835183431573,-0.0004587783199220115,22.43372729313965,91.58880010767514,0.0010045172931868063,5.898836977613608,91.77856276855283,17.930690479365907,-0.053405906473035954,7.3348767776523935,0.10642035862809221,-0.15175073904074163,-0.5803844872151775,0.4020099497200361,3.615239065174681,-0.02023360523670737,5140.447974212272,0.2695695678505119,91.7096894928113,2.1139369394411816,1.2223639063225986,101055.79040067462,288.00418077259457,0.0724,-0.1312,-0.0508,396.46,0.21277720515643656,0.86,nominal,4431.652003689864,nan,pitch_program,12.82,0.0,0.0,-2.7881627477818793,0.02424560906330549,0.023339300649668892,-2.7285980256815225,0.0,0.0,0.86,0.0,0.0,0.0,0.0,0.0,0.0,-0.04762301951155936,0.0,0.0,-0.04762301951155936,0.0,0.0,0.36,1.0,20.566368896607415,0.04544621715250131,2.8588075587229937,-0.004360197412767751,-0.01064212309412309,0.007263671477463265,20.76416084525946,0.013602464069472412,1.0,0.0,18.15869508668801,-0.8510638186156017,22.527960204551604,88.79264980977469,-0.1092055137501182,6.691812658067243,1.0,22.9967585683213,0.0,1.0,91.32481863723449,5117.991769137958,1.0,1.0,0.3534560533190273,18.54796512787896,0.05448199825804161,-44.33525087741746,1.0,22.231789721299045,1.0,0.015770292197048178,4.087261833176478,0.9439156817671509,1.0,-0.17863456178288528,7.120940389697681
0.39,34.61848807808707,-0.00038840511234988794,22.606816560359697,92.18842982184988,0.0023457735857374522,5.769642240668194,92.36880084804662,17.924307163211214,-0.059238135810091026,7.34290226233215,0.11808390691012109,-0.14474510028100657,-0.2678950739105599,0.38533685104615334,3.7274555407231875,-0.031098280257033088,5206.730381883478,0.27130474004932253,92.2998284532021,2.145657673185481,1.2223435840714394,101053.71554581457,288.00305569235763,0.0724,-0.1312,-0.0508,402.265,0.21589270653345596,0.86,nominal,4487.6948226747,nan,pitch_program,12.805,0.0,0.0,-2.887923377071185,0.020207055336386993,0.015636176440510074,-2.8241932365153204,0.0,0.0,0.86,0.0,0.0,0.0,0.0,0.0,0.0,-0.049291470689747284,0.0,0.0,-0.049291470689747284,0.0,0.0,0.39,1.0,20.835286083286352,-0.032378707640263585,3.010588881245531,-0.006726488881335512,-0.004564183764235196,0.008865710625784496,21.051694467785094,0.012028227259433808,1.0,0.0,18.15869508668801,-0.8510638186156017,22.527960204551604,88.79264980977469,-0.1092055137501182,6.691812658067243,1.0,22.9967585683213,0.0,1.0,91.47695029158527,5173.833842949516,1.0,1.0,0.3534560533190273,18.54796512787896,0.05448199825804161,-44.33525087741746,1.0,22.231789721299045,1.0,0.015770292197048178,4.087261833176478,0.9439156817671509,1.0,-0.17863456178288528,7.120940389697681
0.42,37.40237779142784,-0.00027077915883106697,22.77618350457937,92.79632377802574,0.003920865117294032,5.64556480732245,92.96789835251224,17.91783038201521,-0.06465996793416681,7.34338315757177,0.12896963738180076,-0.13435037031125366,-0.016418941349414493,0.3598641585274671,3.8279663507252772,-0.04107377936501905,5274.44463670473,0.2730659621983509,92.89883137294794,2.1555093939817427,1.2223236991049895,101051.68534455803,288.0019548072202,0.0724,-0.1312,-0.0508,404.1773684210526,0.21691906078826353,0.86,nominal,4544.873122006707,nan,pitch_program,12.79,0.0,0.0,-2.9705412377664575,0.015355253958561377,0.00677017734039028,-2.9120020372660025,0.0,0.0,0.86,0.0,0.0,0.0,0.0,0.0,0.0,-0.050824023375074356,0.0,0.0,-0.050824023375074356,0.0,0.0,0.42,1.0,20.877543503441952,-0.018073681141815116,3.1601745360520064,-0.00238920740598708,0.000914386459464884,0.007285826539640826,21.115370053455678,0.007721896333920241,1.0,0.0,38.989417185876086,0.8558990063992831,23.104733446843575,92.81659104939281,-0.010377916799900928,5.633927703120539,1.0,23.17512290061487,0.0,1.0,93.08853269315121,5276.540428737345,1.0,1.0,1.1440825607791054,18.47891166392965,0.014225316168232357,-44.25986253491144,1.0,22.710154786824777,1.0,0.025376610822162207,4.062953686412555,0.9430595412385516,1.0,0.3385678944283901,6.972466159276886
0.44999999999999996,40.20456057716684,-9.959847184656749e-05,22.941948700668828,93.40609285796658,0.005706022899483316,5.525506536315162,93.56938301620158,17.911322810191564,-0.06954273684846322,7.338157619421576,0.13882693868558302,-0.12077659056966246,0.17380283064451144,0.32608739376314166,3.9190989166226973,-0.049932420610358394,5342.870375440853,0.2748342084872156,93.50022545615225,2.1544807862305935,1.2223042372507842,101049.69834943107,288.00087733344566,0.0724,-0.1312,-0.0508,404.14342105263154,0.21690084148196515,0.86,nominal,4602.598380241731,nan,pitch_program,12.775,0.0,0.0,-3.0349054333402172,0.009793900611919712,-0.0030716026172541307,-2.985744074910531,0.0,0.0,0.86,0.0,0.0,0.0,0.0,0.0,0.0,-0.052111064729100987,0.0,0.0,-0.052111064729100987,0.0,0.0,0.44999999999999996,1.0,20.905484066306165,0.0473646137205586,3.2873611690890816,0.0011654341333031492,0.005091016384612188,0.006340804400406012,21.162425449585136,0.008214772363959092,1.0,0.0,38.989417185876086,0.8558990063992831,23.104733446843575,92.81659104939281,-0.010377916799900928,5.633927703120539,1.0,23.17512290061487,0.0,1.0,93.08071116419892,5379.4928995283435,1.0,1.0,1.1440825607791054,18.47891166392965,0.014225316168232357,-44.25986253491144,1.0,22.710154786824777,1.0,0.025376610822162207,4.062953686412555,0.9430595412385516,1.0,0.3385678944283901,6.972466159276886
0.48,43.024997347891734,0.00013070007706358368,23.1042147520434,94.01455902416315,0.007676618297005039,5.408868379152373,94.17002296156309,17.904815784947104,-0.07376973607136739,7.327919128212135,0.14742589157598385,-0.10431528686420566,0.34092723410649184,0.28471400490738036,4.001861045887261,-0.05747050842648721,5411.641082965817,0.27659997821383797,94.10077846461517,2.153517452201786,1.222285186447311,101047.7533285126,287.99982260411167,0.0724,-0.1312,-0.0508,404.1094736842105,0.2168826221756668,0.86,nominal,4660.571559888786,nan,pitch_program,12.76,0.0,0.0,-3.093985286113751,0.003645944072667404,-0.013670914276115703,-3.050688801632463,0.0,0.0,0.86,0.0,0.0,0.0,0.0,0.0,0.0,-0.05324456404220664,0.0,0.0,-0.05324456404220664,0.0,0.0,0.48,1.0,20.857879817479585,0.0271883894629047,3.382051644417709,-0.0027466010852332627,0.006187551307856491,0.007832632527622342,21.130313840888693,0.010352764897433375,1.0,0.0,38.989417185876086,0.8558990063992831,23.104733446843575,92.81659104939281,-0.010377916799900928,5.633927703120539,1.0,24.499806005655085,0.0,1.0,93.95285616545631,5354.583602470454,1.0,1.0,-0.19413463564603967,18.466848961216847,-0.022197720858401025,-44.274261467427074,1.0,23.25645642960386,1.0,0.017684183486266443,4.080928481083162,0.9422394631198915,1.0,0.5629764550194206,7.677159245910118
0.51,45.86365058774114,0.00042500200668377404,23.263078800692508,94.62177466164684,0.009810064320673013,5.2954682883036295,94.76983866583959,17.898309306281835,-0.0772392972553511,7.3129490390466225,0.15456404312829228,-0.08533432233386021,0.49869154192790377,0.23665634886145265,4.076711581686964,-0.06351244705860996,5480.757253362404,0.27836333098821336,94.70051064992855,2.1526015549463864,1.2222665352751463,101045.84911546443,287.9987899877955,0.0724,-0.1312,-0.0508,404.0755263157895,0.21686440286936848,0.86,nominal,4718.794032095442,nan,pitch_program,12.745,0.0,0.0,-3.152434180372364,-0.0029493431958382047,-0.02478788170469793,-3.1117360288764035,0.0,0.0,0.86,0.0,0.0,0.0,0.0,0.0,0.0,-0.05431003915682659,0.0,0.0,-0.05431003915682659,0.0,0.0,0.51,1.0,20.803536103567914,0.08496424321532127,3.5579634521995884,-0.0007832128430681308,0.009647245918208352,0.002203596779355706,21.105767867155812,0.009926661822079031,1.0,0.0,38.989417185876086,0.8558990063992831,23.104733446843575,92.81659104939281,-0.010377916799900928,5.633927703120539,1.0,24.499806005655085,0.0,1.0,93.71011876793375,5476.322643419981,1.0,1.0,-0.19413463564603967,18.466848961216847,-0.022197720858401025,-44.274261467427074,1.0,23.25645642960386,1.0,0.017684183486266443,4.080928481083162,0.9422394631198915,1.0,0.5629764550194206,7.677159245910118
0.54,48.72048438554538,0.0007873902120648674,23.41863219696691,95.22779326014144,0.012079606846036445,5.1851132091467305,95.36885316551106,17.891803374195753,-0.0798677644787601,7.293816335869405,0.16007292480577084,-0.06427202391772721,0.6375064626455753,0.1830137999393086,4.144398944219274,-0.06791677309499823,5550.219741322091,0.2801243339197553,95.29944481827599,2.1517272165472185,1.222248272995647,101043.98461347936,287.9977788907197,0.0724,-0.1312,-0.0508,404.0415789473684,0.2168461835630701,0.86,nominal,4777.26740648679,nan,pitch_program,12.73,0.0,0.0,-3.2065801465193333,-0.009839287902056073,-0.03616752957357598,-3.1686424994621616,0.0,0.0,0.86,0.0,0.0,0.0,0.0,0.0,0.0,-0.05530324443423737,0.0,0.0,-0.05530324443423737,0.0,0.0,0.54,1.0,20.814462156130812,0.005850663323195157,3.643585004893869,0.001462992662298845,0.012659350659150281,0.0024078210091844046,21.13096260862601,0.01296908279923984,1.0,0.0,38.989417185876086,0.8558990063992831,23.104733446843575,92.81659104939281,-0.010377916799900928,5.633927703120539,1.0,23.59572820411332,0.0,1.0,94.95379963005658,5534.027256975876,1.0,1.0,0.7611509764504608,18.506412916676574,-0.014430467575275815,-44.2195475486868,1.0,23.612502748924708,1.0,0.007581652121554867,4.050348927882356,0.9414534195075828,1.0,-0.07345120228573439,7.173656876032556
0.57,51.595464286879526,0.0012210380693556718,23.57096111852776,95.83266337780478,0.014454928576360146,5.0776307186949845,95.96708765375784,17.885297988688862,-0.08159199208953523,7.271238364466602,0.16382288844420462,-0.04162914211564627,0.7524236067273441,0.12505073365142466,4.205802823931727,-0.07058040257346826,5620.02925730557,0.2818830487339049,95.8976019469789,2.1508934611482786,1.2222303894782243,101042.15878785412,287.99678875272957,0.0724,-0.1312,-0.0508,404.0076315789474,0.21682796425677175,0.86,nominal,4835.993122225031,nan,pitch_program,12.715,0.0,0.0,-3.254292350441066,-0.01686071017547726,-0.04754283276948499,-3.2200324100495044,0.0,0.0,0.86,0.0,0.0,0.0,0.0,0.0,0.0,-0.056200167576291996,0.0,0.0,-0.056200167576291996,0.0,0.0,0.57,1.0,20.78857077120401,0.03090962682597141,3.7040690046363354,0.002679786301695477,0.015821011792447794,-0.002630060361694322,21.116007134529383,0.01626047005057611,1.0,0.0,38.989417185876086,0.8558990063992831,23.104733446843575,92.81659104939281,-0.010377916799900928,5.633927703120539,1.0,23.59572820411332,0.0,1.0,96.28483005052199,5651.190743348014,1.0,1.0,0.7611509764504608,18.506412916676574,-0.014430467575275815,-44.2195475486868,1.0,23.612502748924708,1.0,0.007581652121554867,4.050348927882356,0.9414534195075828,1.0,-0.07345120228573439,7.173656876032556
0.6,54.48855706892969,0.0017281235349364526,23.720147522091594,96.43642606833876,0.016902848852692692,4.9728801187944915,96.56455920893735,17.878793149761158,-0.08237128131977425,7.245762175751838,0.16572680619686067,-0.017957885554853125,0.8491153556022797,0.06417036201937963,4.261609494563115,-0.07144210289365746,5690.186093164862,0.28363952511701895,96.4949989195776,2.150095740565101,1.2222128750885497,101040.37065457388,287.99581904110636,0.0724,-0.1312,-0.0508,403.9736842105263,0.21680974495047337,0.86,nominal,4894.972232305704,nan,pitch_program,12.7,0.0,0.0,-3.2972525446362155,-0.023843503901434467,-0.058639782104927464,-3.2663644908015312,0.0,-0.035183869262956476,0.86,0.0,0.0,0.0,0.0,0.0,0.0,-0.057008814934714755,0.0,-0.000614074362229821,-0.057008814934714755,0.0,-0.000614074362229821,0.6,1.0,20.779275165942416,0.05292452399714888,3.8549218823960922,-0.002502273047656156,0.01935939892746567,0.0016221562517192054,21.133894580662783,0.019587727998488673,1.0,0.0,38.989417185876086,0.8558990063992831,23.104733446843575,92.81659104939281,-0.010377916799900928,5.633927703120539,1.0,23.922742576036487,0.0,1.0,96.5487387901404,5717.821251346596,1.0,1.0,-1.9226861253762875,18.575509895987487,-0.05776935521566498,-44.30463829405847,1.0,23.29783022936304,1.0,0.01656901363678131,4.054835104321789,0.9406996311947711,1.0,-0.11357050894718433,7.190873336586947
0.63,57.39973060044586,0.002306565204733716,23.866269693256758,97.03911771720561,0.01928138899324212,4.870739038838845,97.1612826072717,17.872288857412645,-0.08227273032721645,7.217766236782881,0.166409778793418,0.006150859781484822,0.9331645715741792,0.023925439618280923,4.312323394248629,-0.0712073783861998,5760.690303967672,0.2853938056000493,97.09165018685947,2.1493284246237345,1.2221957206239586,101038.61927371583,287.9948692469938,0.0724,-0.1312,-0.0508,403.9397368421053,0.21679152564417503,0.86,nominal,4954.205572632436,nan,pitch_program,12.685,0.0,0.0,-3.337213451099042,-0.03078400488378188,-0.06573200744612168,-3.3088738669800373,0.0,-0.053512752172855595,0.86,0.0,0.0,0.0,0.0,0.0,0.0,-0.057750743511998534,0.0,-0.0009339737172200798,-0.057750743511998534,0.0,-0.0009339737172200798,0.63,1.0,20.747638400026137,0.062208188661057554,3.95968579847192,0.0011049149187952112,0.014301822571104301,0.002229510915764234,21.12220349915216,0.014516669203251707,1.0,0.0,57.72183097386308,-1.4382181986180818,24.336566497130733,97.25000083256381,0.13033956003308406,4.837095203174821,1.0,23.922742576036487,0.0,1.0,97.30957341707632,5761.050627125353,1.0,1.0,-1.9226861253762875,18.575509895987487,-0.05776935521566498,-44.30463829405847,1.0,23.29783022936304,1.0,0.01656901363678131,4.054835104321789,0.9406996311947711,1.0,-0.11357050894718433,7.190873336586947
0.6599999999999999,60.32895374143659,0.0029550506690738535,24.00940249705892,97.64077136635792,0.021616182144671255,4.771093460072156,97.75727099853728,17.86578511164332,-0.08133876539384619,7.187606376950508,0.16621764776974451,0.03032918643679433,1.005336731481254,-0.004918435862344221,4.358417672860637,-0.07020384659293727,5831.541823744886,0.2871459286311695,97.68756881205174,2.148587521437945,1.2221789172839874,101036.90374643965,287.9939388837691,0.0724,-0.1312,-0.0508,403.9057894736842,0.21677330633787664,0.86,nominal,5013.693823538511,nan,pitch_program,12.67,0.0,0.0,-3.374242298631637,-0.037527174918436566,-0.07052867163245803,-3.3480949259709973,0.0,-0.06372230384861706,0.86,0.0,0.0,0.0,0.0,0.0,0.0,-0.05843528012750971,0.0,-0.001112164009114622,-0.05843528012750971,0.0,-0.001112164009114622,0.6599999999999999,1.0,20.64616983016693,0.03213773231380877,3.9846429841522983,0.0016435109265674067,0.013890988201717884,0.002296700217607172,21.02719052087291,0.014175172424897298,1.0,0.0,57.72183097386308,-1.4382181986180818,24.336566497130733,97.25000083256381,0.13033956003308406,4.837095203174821,1.0,23.950399854195453,0.0,1.0,98.35010783812893,5688.120029988342,1.0,1.0,-1.5041179753395377,18.668721835838188,-0.0001941929045676371,-44.23268187268353,1.0,24.050073640725273,1.0,0.015840031665500773,4.0496772124692555,0.9399764937573527,1.0,-0.13788549277599635,7.641561004819737
0.69,63.27619624932494,0.0036724601621270134,24.149617703147992,98.2414169296115,0.023913649768438665,4.673840202969072,98.35253608546803,17.859281912453184,-0.0796033305088436,7.15564527616832,0.16536750578239515,0.05431005132109035,1.0654084920416467,-0.02662004544005775,4.400362813073813,-0.0686423506607581,5902.740451098794,0.2888959283530211,98.28276639481719,2.14787113981345,1.2221624566321625,101035.22321108523,287.99302748492954,0.0724,-0.1312,-0.0508,403.8718421052631,0.21675508703157828,0.86,nominal,5073.437525670222,nan,pitch_program,12.655,0.0,0.0,-3.408057645208216,-0.04397729216548969,-0.07384231848904613,-3.3840725575133286,0.0,-0.0697943126328745,0.86,0.0,0.0,0.0,0.0,0.0,0.0,-0.059063208254992755,0.0,-0.0012181405546099323,-0.059063208254992755,0.0,-0.0012181405546099323,0.69,1.0,20.68030835087646,0.04596089103817192,4.158869999921033,0.0007044650942399863,0.0193014004084603,0.0016265359017199976,21.094394173976145,0.01938261973615275,1.0,0.0,57.72183097386308,-1.4382181986180818,24.336566497130733,97.25000083256381,0.13033956003308406,4.837095203174821,1.0,23.950399854195453,0.0,1.0,97.52975376797377,5911.730563596279,1.0,1.0,-1.5041179753395377,18.668721835838188,-0.0001941929045676371,-44.23268187268353,1.0,24.050073640725273,1.0,0.015840031665500773,4.0496772124692555,0.9399764937573527,1.0,-0.13788549277599635,7.641561004819737
0.72,66.24142866932112,0.004457632514022656,24.286984389925315,98.84108066653945,0.026172411729854753,4.578889559244162,98.94708758685245,17.852779259842237,-0.07709854530210242,7.122202577512517,0.16401537172952504,0.07789159811125923,1.1148167675782041,-0.043197283042601196,4.438575569966889,-0.0666772255089548,5974.285780799902,0.2906438330753873,98.87725255133151,2.1471774073694347,1.2221463305485152,101033.57683832345,287.99213460146547,0.0724,-0.1312,-0.0508,403.8378947368421,0.21673686772527995,0.86,nominal,5133.437026427586,nan,pitch_program,12.64,0.0,0.0,-3.438983711409485,-0.05007190818343872,-0.07608008607938309,-3.4170192498510223,0.0,-0.07356577670077966,0.86,0.0,0.0,0.0,0.0,0.0,0.0,-0.0596382365139271,0.0,-0.0012839650202155363,-0.0596382365139271,0.0,-0.0012839650202155363,0.72,1.0,20.617019143735344,0.0031722384544790646,4.252095508201408,0.0038682680350243686,0.019580200283884682,-0.002896851005610893,21.05093358136672,0.020167783380841284,1.0,0.0,57.72183097386308,-1.4382181986180818,24.336566497130733,97.25000083256381,0.13033956003308406,4.837095203174821,1.0,23.54379377546838,0.0,1.0,98.75725734639185,5956.8093306242945,1.0,1.0,0.45150993858314686,18.614536838538907,-0.013430237145884628,-44.200961759578405,1.0,24.864672764004997,1.0,0.016136094063129738,4.067178235748734,0.9392825390251867,1.0,-0.5216293730359673,6.774324450013738
0.75,69.22462223810217,0.005309286621827999,24.421569282924455,99.43978562603472,0.028388470260178093,4.486163099971359,99.54093344256185,17.84627715381048,-0.07385705512522549,7.08754153126459,0.16228617835480316,0.10092044673997044,1.1554425893059075,-0.05567513286038652,4.47340724607961,-0.06443301377124877,6046.177221968155,0.29238966589483745,99.4710351248213,2.1465041129110656,1.2221305311898296,101031.96382709684,287.99125979966095,0.0724,-0.1312,-0.0508,403.80394736842106,0.21671864841898159,0.86,nominal,5193.692497716655,nan,pitch_program,12.625,0.0,0.0,-3.4675318511632973,-0.05576964202469342,-0.07746779579146985,-3.4473268106383874,0.0,-0.07590698815519377,0.86,0.0,0.0,0.0,0.0,0.0,0.0,-0.06016720323791494,0.0,-0.0013248268685804678,-0.06016720323791494,0.0,-0.0013248268685804678,0.75,1.0,20.567929124467632,0.021975848169604763,4.2542969298329405,0.0029517221691314995,0.023909351541251386,0.00038044278145105105,21.003314828241102,0.024093868340240437,1.0,0.0,57.72183097386308,-1.4382181986180818,24.336566497130733,97.25000083256381,0.13033956003308406,4.837095203174821,1.0,23.54379377546838,0.0,1.0,99.89164557253727,6029.677884355782,1.0,1.0,0.45150993858314686,18.614536838538907,-0.013430237145884628,-44.200961759578405,1.0,24.864672764004997,1.0,0.016136094063129738,4.067178235748734,0.9392825390251867,1.0,-0.5216293730359673,6.774324450013738
0.78,72.22574880685644,0.0062260124844896285,24.553437006491098,100.03755229180902,0.030557528755387663,4.395590785554774,100.13408021574395,17.83977559435791,-0.06991245946613414,7.051893801613859,0.16028666669851813,0.12328339268725048,1.1883397442721266,-0.06465278696947915,4.5051704543581,-0.062015945920535095,6118.4140408163385,0.2941334458810081,100.06412058895307,2.1458495120891,1.2221150509600645,101030.38340159883,287.9904026594578,0.0724,-0.1312,-0.0508,403.77,0.21670042911268322,0.86,nominal,5254.203973346227,nan,pitch_program,12.61,0.0,0.0,-3.4939415206734696,-0.06104422215520822,-0.07815156567232953,-3.4752956366594367,-0.03662653329312494,-0.07725373466547523,0.86,0.0,0.0,0.0,0.0,0.0,0.0,-0.06065535133989972,-0.0006392535995563515,-0.001348332029374623,-0.06065535133989972,-0.0006392535995563515,-0.001348332029374623,0.78,1.0,20.572182784225113,-0.05719779175168532,4.3680977024425305,0.0029353964888976626,0.020003584899657898,-0.0013822695773060179,21.03088808474414,0.020265010006639522,1.0,0.0,57.72183097386308,-1.4382181986180818,24.336566497130733,97.25000083256381,0.13033956003308406,4.837095203174821,1.0,23.502514089346036,0.0,1.0,100.10521463190885,6205.654194563566,1.0,1.0,0.18348687368283145,18.741828810008787,0.007306309639820107,-44.23095889837697,1.0,24.360738858809068,1.0,0.03934576273909596,4.067945190925954,0.9386164074837723,1.0,-0.43403235722028477,6.531995713502741
0.8099999999999999,75.24478077123439,0.00720629198339491,24.682650313367517,100.63439881259814,0.03267598329684272,4.307110229213988,100.72653320063954,17.83327458148453,-0.06619299072670928,7.01547247386865,0.1581102795016646,0.11509879909950396,1.2141289611491761,-0.07055826047871791,4.534153691956275,-0.059447632760146134,6190.995368884759,0.29587518839581783,100.65651415625705,2.1452124985069134,1.2220998824833742,101028.83480851847,287.9895627729631,0.0724,-0.1312,-0.0508,403.73605263157896,0.21668220980638486,0.86,nominal,5314.971358005355,nan,pitch_program,12.595,0.0,0.0,-3.5183107532015203,-0.05725301187344804,-0.07824218331881495,-3.501104706584687,-0.014650613317249976,-0.07784680385747907,0.86,0.0,0.0,0.0,0.0,0.0,0.0,-0.06110580458697278,-0.00025570143982254063,-0.0013586830394672323,-0.06110580458697278,-0.00025570143982254063,-0.0013586830394672323,0.8099999999999999,1.0,20.607645404114866,-0.01015634198155835,4.5258014094532175,0.0031360161971953934,0.0206390501657452,0.0015366213269678046,21.09876846289441,0.02093241969853727,1.0,0.0,57.72183097386308,-1.4382181986180818,24.336566497130733,97.25000083256381,0.13033956003308406,4.837095203174821,1.0,23.502514089346036,0.0,1.0,99.83688569499299,6142.349532285312,1.0,1.0,0.18348687368283145,18.741828810008787,0.007306309639820107,-44.23095889837697,1.0,24.360738858809068,1.0,0.03934576273909596,4.067945190925954,0.9386164074837723,1.0,-0.43403235722028477,6.531995713502741
0.84,78.28169100320152,0.008248574312083545,24.80927031299118,101.23034106557108,0.03474274428962118,4.220666654122126,101.31829640452581,17.82677411519034,-0.062195667645861805,6.978466909865385,0.15584152011334876,0.12403166495929505,1.2336021691614139,-0.07368002032932061,4.560613915555394,-0.05685132148917744,6263.920196358266,0.29761490504693155,101.24821976211341,2.1445921509865915,1.2220850185772862,101027.31731430143,287.98873974296555,0.0724,-0.1312,-0.0508,403.7021052631579,0.2166639905000865,0.86,nominal,5375.994423872568,nan,pitch_program,12.58,0.0,0.0,-3.540810745182476,-0.05851736127705333,-0.07782341849438429,-3.5249283297433602,-0.04097066209313198,-0.0778327726396222,0.86,0.0,0.0,0.0,0.0,0.0,0.0,-0.061521605250846004,-0.0007150729502471847,-0.0013584381485175652,-0.061521605250846004,-0.0007150729502471847,-0.0013584381485175652,0.84,1.0,20.49540598084322,0.05994195911092466,4.513924836173145,0.0034308825972868403,0.025327040825909093,-0.0013446612034880563,20.986680937791636,0.025593711457031737,1.0,0.0,77.87571412744504,0.11865841976577118,24.91417148953479,101.23931641242976,0.05178576326548479,4.168447945119161,1.0,25.955585730492423,0.0,1.0,101.00684820228332,6282.1424563849805,1.0,1.0,-0.09663527168964334,18.678856491169462,0.025154281629804466,-44.165762728521045,1.0,24.637634387213986,1.0,-0.006373301379800866,4.074018988197506,0.937976824217522,1.0,0.4974467420547292,7.417719992502459
0.87,81.33645278995111,0.009351287391167695,24.933356673838176,101.82539289165335,0.036757102636138364,4.136212028233226,101.90937267281487,17.82027419547534,-0.05861502641377295,6.9410412123660015,0.15355454921007783,0.11011746979960738,1.2476023789939112,-0.07435537924044482,4.5847784902264825,-0.054245006340474404,6337.187382456719,0.2993526040455057,101.83924018629436,2.1439875973089992,1.2220704522289214,101025.83020272141,287.98793318162,0.0724,-0.1312,-0.0508,403.66815789473685,0.21664577119378817,0.86,nominal,5437.272821508828,nan,pitch_program,12.565,0.0,0.0,-3.5616446445055017,-0.0530886382879037,-0.07698316640300833,-3.5469581186006454,-0.016388264837252794,-0.07732300889765388,0.86,0.0,0.0,0.0,0.0,0.0,0.0,-0.061906097599924784,-0.0002860291800988739,-0.0013495410928129313,-0.061906097599924784,-0.0002860291800988739,-0.0013495410928129313,0.87,1.0,20.459012798089816,0.004451977190593441,4.629953407014814,0.0011591213645098125,0.021379292875809534,0.00012605545592249173,20.976360338334004,0.021411062939174018,1.0,0.0,77.87571412744504,0.11865841976577118,24.91417148953479,101.23931641242976,0.05178576326548479,4.168447945119161,1.0,25.955585730492423,0.0,1.0,101.60050293357277,6275.938186253662,1.0,1.0,-0.09663527168964334,18.678856491169462,0.025154281629804466,-44.165762728521045,1.0,24.637634387213986,1.0,-0.006373301379800866,4.074018988197506,0.937976824217522,1.0,0.4974467420547292,7.417719992502459
0.8999999999999999,84.40903978021565,0.010512905907000294,25.054967796010548,102.41956634215154,0.03872061719441998,4.053704072412422,102.49976383244632,17.813774822339525,-0.05486838708247664,6.903339514431261,0.15131516754939106,0.11589153615740655,1.2567960794823674,-0.07285733840160805,4.606848718233202,-0.05173861535240864,6410.79566932031,0.3010882906329726,102.42957719801753,2.1433981169806153,1.2220561765747204,101024.37277280969,287.9871427093259,0.0724,-0.1312,-0.0508,403.6342105263158,0.2166275518874898,0.86,nominal,5498.806092790382,nan,pitch_program,12.55,0.0,0.0,-3.580964965317292,-0.05352157424843259,-0.07579502054258763,-3.5673622266306335,-0.006555305934901117,-0.07640621588461413,0.86,0.0,0.0,0.0,0.0,0.0,0.0,-0.062262216465980694,-0.00011441167203954955,-0.0013335400361761084,-0.062262216465980694,-0.00011441167203954955,-0.0013335400361761084,0.8999999999999999,1.0,20.489916474206755,-0.003486073429399059,4.661231172757229,0.0024701102336331135,0.021886249414113646,0.0025546784694156464,21.013418696598634,0.022172860439401698,1.0,0.0,77.87571412744504,0.11865841976577118,24.91417148953479,101.23931641242976,0.05178576326548479,4.168447945119161,1.0,25.04105563711038,0.0,1.0,101.89891752628768,6544.777670323713,1.0,1.0,-1.866399221041651,18.899525862817047,-0.05640850447469074,-44.09358907280438,1.0,25.195231306783842,1.0,0.009409486455082201,4.076662177126762,0.9373625805099737,1.0,0.1332062507414957,6.684089885060296
0.9299999999999999,87.49942593660037,0.011731953351782811,25.174160963672,103.01287187949066,0.04063491482608391,3.9731055887151205,103.08947081092103,17.8072759957829,-0.050738060251043535,6.865490304965449,0.14917888025109344,0.12914189702726697,1.261704979222419,-0.06953341317495461,4.627006378372674,-0.04940332492209674,6484.743692833977,0.3028219674212242,103.01923167155273,2.1428231991689,1.222042184882522,101022.94433702505,287.98636795373613,0.0724,-0.1312,-0.0508,403.6002631578947,0.21660933258119142,0.86,nominal,5560.5936816522635,nan,pitch_program,12.535000000000002,0.0,0.0,-3.598882381167901,-0.056074106995029314,-0.07434171687045059,-3.5862743193529933,-0.002622122373960447,-0.075167516476116,0.86,0.0,0.0,0.0,0.0,0.0,0.0,-0.06259229475242833,-4.576466881581983e-05,-0.0013119206530553098,-0.06259229475242833,-4.576466881581983e-05,-0.0013119206530553098,0.9299999999999999,1.0,20.432344207358693,-0.02734522248883308,4.725813680928701,0.0014617748541956052,0.02316382034036617,-0.002688505900787325,20.971760834894862,0.023365089823574152,1.0,0.0,77.87571412744504,0.11865841976577118,24.91417148953479,101.23931641242976,0.05178576326548479,4.168447945119161,1.0,25.04105563711038,0.0,1.0,102.90527957769382,6447.0926306262345,1.0,1.0,-1.866399221041651,18.899525862817047,-0.05640850447469074,-44.09358907280438,1.0,25.195231306783842,1.0,0.009409486455082201,4.076662177126762,0.9373625805099737,1.0,0.1332062507414957,6.684089885060296
0.96,90.6075854917764,0.013007015772829061,25.290992485357766,103.60531850586756,0.04250208070154167,3.89438405619218,103.67849370195465,17.800777715805463,-0.04615204060783634,6.827606982605876,0.14719021418431755,0.14496498251034623,1.2628326567568635,-0.06474843156582105,4.645414372133652,-0.04728763881305409,6559.029987654634,0.304553634586283,103.60820365199217,2.1422624392158385,1.2220284705350781,101021.54421957006,287.98560854884516,0.0724,-0.1312,-0.0508,403.56631578947366,0.21659111327489305,0.86,nominal,5622.634939609659,nan,pitch_program,12.520000000000001,0.0,0.0,-3.615509519367894,-0.05924759201936881,-0.07270388833747934,-3.6038154393619335,-0.036597404161205466,-0.07368933959293401,0.86,0.0,0.0,0.0,0.0,0.0,0.0,-0.0628984450510718,-0.0006387452002961089,-0.0012861215995169165,-0.0628984450510718,-0.0006387452002961089,-0.0012861215995169165,0.96,1.0,20.405174434074766,0.04649321435594828,4.87394192973198,0.008340847753834112,0.021640999739214715,-0.002864640364640464,20.97924248485629,0.023368970353527738,1.0,0.0,77.87571412744504,0.11865841976577118,24.91417148953479,101.23931641242976,0.05178576326548479,4.168447945119161,1.0,25.00856657080909,0.0,1.0,103.10931332072259,6573.414142917334,1.0,1.0,0.4682537488261397,18.9270856591555,-0.008611118342781554,-44.144347754095335,1.0,25.440140364295985,1.0,0.017062647812891258,4.074252012416865,0.9367725187866056,1.0,-0.33144330772159053,6.610297444209681
0.99,93.73349290902486,0.014336756499322107,25.4055178191219,104.19691390828169,0.044324690883101536,3.817511125471131,104.26683184925676,17.794279982407215,-0.04202670825767908,6.789788670622185,0.14538234594177896,0.1303667018071611,1.2606561177949869,-0.05886721635379996,4.66221857094092,-0.045348229544266774,6633.652994780952,0.30628329011374467,104.19649243864448,2.1417154952341932,1.22201502701535,101020.17175488951,287.98486413417567,0.0724,-0.1312,-0.0508,403.53236842105264,0.21657289396859472,0.86,nominal,5684.929133261484,nan,pitch_program,12.505,0.0,0.0,-3.630957493847796,-0.053462139605775595,-0.0709564074038808,-3.6201006720534514,-0.014638961664482185,-0.07204958027950208,0.86,0.0,0.0,0.0,0.0,0.0,0.0,-0.0631826759809922,-0.00025549808011844356,-0.0012575024005572876,-0.0631826759809922,-0.00025549808011844356,-0.0012575024005572876,0.99,1.0,20.47832263742645,0.03008056199543659,4.942043684531578,0.0008692694935759292,0.02232852679788973,0.0025660435184582265,21.066238360527517,0.022492294630721055,1.0,0.0,77.87571412744504,0.11865841976577118,24.91417148953479,101.23931641242976,0.05178576326548479,4.168447945119161,1.0,25.00856657080909,0.0,1.0,103.5093770649448,6589.9299775572945,1.0,1.0,0.4682537488261397,18.9270856591555,-0.008611118342781554,-44.144347754095335,1.0,25.440140364295985,1.0,0.017062647812891258,4.074252012416865,0.9367725187866056,1.0,-0.33144330772159053,6.610297444209681
1.02,96.87712284686306,0.01571997797465814,25.51779168269019,104.78766459460665,0.046107382511201014,3.742462118943078,104.85448392793809,17.787782795588157,-0.037807321070667456,6.752122164593501,0.1437803761420143,0.1343504661712516,1.2555868849655596,-0.05215182600028579,4.677548131999703,-0.04365158866944764,6708.611069442304,0.30801093004293506,104.78409666800293,2.141182079806106,1.2220018478935606,101018.82628634805,287.9841343540625,0.0724,-0.1312,-0.0508,403.49842105263156,0.21655467466229633,0.86,nominal,5747.475451702167,nan,pitch_program,12.49,0.0,0.0,-3.6453214910172904,-0.05322291355628954,-0.06915379501367333,-3.6352331634317547,-0.0058555846657928744,-0.07031210912000482,0.86,0.0,0.0,0.0,0.0,0.0,0.0,-0.06344678777957324,-0.00010219923204737744,-0.001227177808165617,-0.06344678777957324,-0.00010219923204737744,-0.001227177808165617,1.02,1.0,20.361236592735576,0.001962334132031227,5.034475478262614,0.0010761292560187736,0.022829914403235493,6.394438795378587e-05,20.97441066579314,0.02285535243043672,1.0,0.0,77.87571412744504,0.11865841976577118,24.91417148953479,101.23931641242976,0.05178576326548479,4.168447945119161,1.0,25.347202267637247,0.0,1.0,104.95574787364323,6829.5117539515995,1.0,1.0,0.35094292683219663,18.931626067252033,-0.05887016980522213,-44.0894201515004,1.0,25.57668201847213,1.0,0.01227652276842776,4.1225966932385205,0.9362055207932745,1.0,-0.2728256913552146,6.406912989383057
1.05,100.03845012792172,0.01715560213629424,25.62786814986004,105.37757603528871,0.047854138721203296,3.6692155723282296,105.44144803637639,17.781286155348287,-0.03327934964029975,6.714683916955502,0.14240013984523947,0.14553796974450472,1.2479697371581187,-0.044916370856589456,4.691519384056204,-0.04222819837845473,6783.902490014066,0.30973654872601064,105.37101440180835,2.1406619883292928,1.2219889268158606,101017.50716507265,287.98341885702587,0.0724,-0.1312,-0.0508,403.46447368421053,0.216536455355998,0.86,nominal,5810.273015195756,nan,pitch_program,12.475,0.0,0.0,-3.6586792313076772,-0.05503944273407077,-0.06735652132440906,-3.6493008041573085,-0.0023422338663171495,-0.06853875644264736,0.86,0.0,0.0,0.0,0.0,0.0,0.0,-0.0636923144282218,-4.087969281895097e-05,-0.0011962269651466725,-0.0636923144282218,-4.087969281895097e-05,-0.0011962269651466725,1.05,1.0,20.3938638286345,0.028465164492192267,5.077703549371497,0.0015781687084242147,0.023301936564990376,-0.0010001248125584138,21.01650697575066,0.023376721621984977,1.0,0.0,100.9656179883741,-0.49716571132373616,25.089685147042896,105.48835798893114,-0.05627866093737864,3.6558129659079603,1.0,25.347202267637247,0.0,1.0,105.0131625486718,6686.251578368126,1.0,1.0,0.35094292683219663,18.931626067252033,-0.05887016980522213,-44.0894201515004,1.0,25.57668201847213,1.0,0.01227652276842776,4.1225966932385205,0.9362055207932745,1.0,-0.2728256913552146,6.406912989383057
1.08,103.21744971075364,0.018642662657637015,25.735800737307027,105.96665276106401,0.049568684044759205,3.5977529148996688,106.02772175461955,17.774790061687607,-0.028363389129280867,6.677540845501765,0.14124833206080073,0.1593885287426358,1.2381227594397353,-0.037465672058545875,4.704236689709737,-0.04108873800274968,6859.52546351374,0.3114601390005894,105.95724318570235,2.1401550600720336,1.2219762574941317,101016.21374891128,287.98271729520746,0.0724,-0.1312,-0.0508,403.43052631578945,0.21651823604969964,0.86,nominal,5873.320880538024,nan,pitch_program,12.46,0.0,0.0,-3.6711043275074142,-0.05751990373680229,-0.06561923005496635,-3.6623829181673715,-0.03544883578860823,-0.06678704061003875,0.86,0.0,0.0,0.0,0.0,0.0,0.0,-0.06392064039081868,-0.0006186989005100142,-0.0011656537563083384,-0.06392064039081868,-0.0006186989005100142,-0.0011656537563083384,1.08,1.0,20.30591149999018,-0.017548424978507858,5.2215322554212955,0.002841964330096451,0.021759184119285912,0.0009294392613638832,20.96651494376349,0.021963668002660426,1.0,0.0,100.9656179883741,-0.49716571132373616,25.089685147042896,105.48835798893114,-0.05627866093737864,3.6558129659079603,1.0,26.153614655605242,0.0,1.0,105.7733575038324,6851.098224248924,1.0,1.0,0.8676934644026709,19.01844010600569,-0.06393418779581053,-44.02065129734528,1.0,25.680442317737803,1.0,0.0035237470994407974,4.115973035034899,0.9356604981567325,1.0,-0.8366096547859688,6.749597617929053
1.1099999999999999,106.41409666458344,0.02018029902289397,25.84164248141688,106.55489846099326,0.051254545508565216,3.5280581369951447,106.6133022060523,17.768294514606115,-0.023979192579723405,6.64075117894121,0.14032288096441675,0.14256262952618262,1.2263361294485928,-0.030080098887264248,4.715794132173271,-0.0401531999460529,6935.4781317286415,0.3131816923707072,106.54278011072051,2.1396611679180024,1.2219638336969527,101014.94540151008,287.9820293238708,0.0724,-0.1312,-0.0508,403.3965789473684,0.21650001674340127,0.86,nominal,5936.618046879905,nan,pitch_program,12.445,0.0,0.0,-3.6826653862981127,-0.050982643487800884,-0.06398776513658538,-3.674552399045816,-0.014179534315443292,-0.06510747532596672,0.86,0.0,0.0,0.0,0.0,0.0,0.0,-0.06413303790040603,-0.0002474795602040057,-0.0011363398120990877,-0.06413303790040603,-0.0002474795602040057,-0.0011363398120990877,1.1099999999999999,1.0,20.340534741375414,-0.046053452161817394,5.271745130233244,0.0015346554046895063,0.02207774243546279,0.0022993473061440283,21.01263360941922,0.0222501432870004,1.0,0.0,100.9656179883741,-0.49716571132373616,25.089685147042896,105.48835798893114,-0.05627866093737864,3.6558129659079603,1.0,26.153614655605242,0.0,1.0,107.06266981626473,6977.933400486922,1.0,1.0,0.8676934644026709,19.01844010600569,-0.06393418779581053,-44.02065129734528,1.0,25.680442317737803,1.0,0.0035237470994407974,4.115973035034899,0.9356604981567325,1.0,-0.8366096547859688,6.749597617929053
1.14,109.62836614653415,0.0217678031159151,25.945446006236004,107.14231606502352,0.0529168031007043,3.4601174939708432,107.19818610889612,17.761799514103814,-0.019548969752769485,6.604365463324444,0.13961702279476076,0.1449605812659475,1.212866019178331,-0.022910899314967977,4.726274975239412,-0.039458812147631465,7011.7585765598305,0.3149011991640296,107.12762186671482,2.1391801930328667,1.2219516492416087,101013.70149149733,287.98135460095943,0.0724,-0.1312,-0.0508,403.3626315789474,0.21648179743710294,0.86,nominal,6000.16346059582,nan,pitch_program,12.43,0.0,0.0,-3.6934234988736434,-0.05019463814496925,-0.06248458595008643,-3.6858750589425124,-0.0056718137261773174,-0.06353374170043855,0.86,0.0,0.0,0.0,0.0,0.0,0.0,-0.0643306555956869,-9.899182408160229e-05,-0.0011088729787842736,-0.0643306555956869,-9.899182408160229e-05,-0.0011088729787842736,1.14,1.0,20.289459078500087,0.010617071577129378,5.292993688346491,0.003743080827468573,0.01777087035116591,0.0015482647660420969,20.968501248425323,0.01822667306188043,1.0,0.0,100.9656179883741,-0.49716571132373616,25.089685147042896,105.48835798893114,-0.05627866093737864,3.6558129659079603,1.0,26.664446893286545,0.0,1.0,106.90392011953662,6949.569341201783,1.0,1.0,-0.6202586125853549,19.087718778003172,0.021946554251399464,-44.090337153166324,1.0,25.999829893295615,1.0,0.011715784719734508,4.125653839029824,0.93513638498441,1.0,-0.22227481168388666,6.899163538166201
1.17,112.86023338183524,0.023404579974658363,26.047263582082145,107.72890784337002,0.05455922862477542,3.3939191948713896,107.78236984468312,17.7553050601807,-0.014840426791299769,6.568427739502531,0.1391184558059677,0.15504522270473964,1.1979290681970496,-0.01614971346334685,4.7357544166090735,-0.03900996876392766,7088.364827089629,0.31661864872221773,107.71176480706333,2.138712051390118,1.2219396979872057,101012.48139178015,287.9806927867164,0.0724,-0.1312,-0.0508,403.3286842105263,0.21646357813080455,0.86,nominal,6063.956022075254,nan,pitch_program,12.415,0.0,0.0,-3.703429607515038,-0.051612405721180275,-0.06113766783423417,-3.6964077880860278,-0.0022687254904709274,-0.06209609738071592,0.86,0.0,0.0,0.0,0.0,0.0,0.0,-0.06451448639846201,-3.959672963264092e-05,-0.0010837813519325196,-0.06451448639846201,-3.959672963264092e-05,-0.0010837813519325196,1.17,1.0,20.19978951092585,-0.02191987710058723,5.320785762051391,0.0018425775689116515,0.023138500936997222,-0.0013723658384717041,20.888818489621926,0.02325228388144876,1.0,0.0,100.9656179883741,-0.49716571132373616,25.089685147042896,105.48835798893114,-0.05627866093737864,3.6558129659079603,1.0,26.664446893286545,0.0,1.0,107.77929344541029,7008.616558852924,1.0,1.0,-0.6202586125853549,19.087718778003172,0.021946554251399464,-44.090337153166324,1.0,25.999829893295615,1.0,0.011715784719734508,4.125653839029824,0.93513638498441,1.0,-0.22227481168388666,6.899163538166201
1.2,116.10967364597776,0.025090124035270417,26.147147177783864,108.31467547141746,0.056184802020401756,3.3294531900573108,108.36584949953212,17.748811152836776,-0.009758947229896116,6.532976081923315,0.13880973635063878,0.168208670258283,1.1817241255974351,-0.009969783836796331,4.744300123807944,-0.03879515983200195,7165.294863898192,0.31833402952387235,108.29520499044794,2.1382566708146533,1.2219279738285247,101011.28447891671,287.9800435433444,0.0724,-0.1312,-0.0508,403.2947368421053,0.21644535882450622,0.86,nominal,6127.994589748637,nan,pitch_program,12.4,0.0,0.0,-3.712731703827579,-0.05381953351852664,-0.059969283345578876,-3.7062021375309584,-0.0009074901961883709,-0.060820008959633694,0.86,0.0,0.0,0.0,0.0,0.0,0.0,-0.06468543004436693,-1.5838691853056368e-05,-0.001061509407438059,-0.06468543004436693,-1.5838691853056368e-05,-0.001061509407438059,1.2,1.0,20.17276571311123,0.06545432379446109,5.518263234935334,0.0028110313871018713,0.020172317189235858,-0.0011915685867422733,20.9140141989676,0.020402061511997343,1.0,0.0,100.9656179883741,-0.49716571132373616,25.089685147042896,105.48835798893114,-0.05627866093737864,3.6558129659079603,1.0,26.83510007247807,0.0,1.0,107.69670394307992,7193.6374750902005,1.0,1.0,2.202236210378886,19.12316139580177,0.034754198407009426,-44.02602099163729,1.0,26.392027890791585,1.0,0.007773274977426804,4.13175696038286,0.9346321320555403,1.0,-0.12746320054784266,6.134501651033101
1.23,119.37666224881045,0.026824000090901405,26.245148506398497,108.89962009442273,0.05779586852103292,3.266710953821065,108.94862090695702,17.74231779207204,-0.004263707527774621,6.498043166687706,0.1386691181141011,0.182642781667301,1.1644311064178028,-0.0045145082198957244,4.751972901760031,-0.03879453412310218,7242.546623709233,0.3200473293106427,108.87793822371438,2.137813981285375,1.221916470690646,101010.11013256708,287.9794065347084,0.0724,-0.1312,-0.0508,403.26078947368416,0.2164271395182078,0.86,nominal,6192.277984364188,nan,pitch_program,12.385,0.0,0.0,-3.7213741556783195,-0.056258538381413856,-0.05899467469877643,-3.7153053484193754,-0.0003629960784753484,-0.05972480840311934,0.86,0.0,0.0,0.0,0.0,0.0,0.0,-0.0648443110468732,-6.335476741222547e-06,-0.0010423945517572092,-0.0648443110468732,-6.335476741222547e-06,-0.0010423945517572092,1.23,1.0,20.220973982093344,0.002258249053398933,5.516216467194859,0.003446704096078147,0.021166314638868415,0.0024969829803023168,20.959876860256994,0.021589987691553153,1.0,0.0,100.9656179883741,-0.49716571132373616,25.089685147042896,105.48835798893114,-0.05627866093737864,3.6558129659079603,1.0,26.83510007247807,0.0,1.0,109.21368189900579,7284.891029160728,1.0,1.0,2.202236210378886,19.12316139580177,0.034754198407009426,-44.02602099163729,1.0,26.392027890791585,1.0,0.007773274977426804,4.13175696038286,0.9346321320555403,1.0,-0.12746320054784266,6.134501651033101
