time_s,sensor_time_s,imu_valid,imu_ax_mps2,imu_ay_mps2,imu_az_mps2,gyro_p_rps,gyro_q_rps,gyro_r_rps,imu_accel_norm_mps2,imu_gyro_norm_rps,gps_valid,gps_latency_s,gps_x_m,gps_y_m,gps_z_m,gps_vx_mps,gps_vy_mps,gps_vz_mps,baro_valid,baro_alt_m,baro_bias_m,pitot_valid,pitot_airspeed_mps,pitot_qbar_pa,pitot_compressibility_factor,mag_valid,mag_heading_deg,mag_x_ut,mag_y_ut,mag_z_ut,radar_valid,radar_agl_m,optical_flow_valid,optical_flow_x_radps,optical_flow_y_radps,optical_flow_quality,horizon_valid,horizon_roll_deg,horizon_pitch_deg
0.0,0.0,1.0,17.095382095157238,-0.06110233764156506,0.14683972497508235,0.0016677683591043149,0.0011681274632859406,0.0012765720485123657,17.09612191053628,0.00240324973008537,1.0,0.0,-1.885154541229685,1.8645638091475825,21.162662438547994,85.32748210022089,0.18147237523479218,7.846341299741817,1.0,20.771163472887363,0.0,1.0,85.5597971231538,4458.492166482902,1.0,1.0,-0.8198733225718878,19.523475325297145,-0.00615746722134172,-43.81279554351524,1.0,20.39618647858491,1.0,-0.0077448575321814855,4.273240466216326,0.95,1.0,0.17459483210835952,5.697481511065039
0.03,0.03,1.0,17.401843422809016,-0.04174126800308638,0.6632483072454108,0.001570338436026479,-0.15699138909423582,0.0027409025493574522,17.414528278494362,0.1570231663141668,1.0,0.0,-1.885154541229685,1.8645638091475825,21.162662438547994,85.32748210022089,0.18147237523479218,7.846341299741817,1.0,20.771163472887363,0.0,1.0,85.3812111851333,4486.735500131918,1.0,1.0,-0.8198733225718878,19.523475325297145,-0.00615746722134172,-43.81279554351524,1.0,20.39618647858491,1.0,-0.0077448575321814855,4.273240466216326,0.95,1.0,0.17459483210835952,5.697481511065039
0.06,0.06,1.0,17.709298308423094,-0.0655460709512731,1.2014066632498994,-0.004240970800991363,-0.18456381338591665,0.0017133175691334576,17.750124530116274,0.18462048234683776,1.0,0.0,-1.885154541229685,1.8645638091475825,21.162662438547994,85.32748210022089,0.18147237523479218,7.846341299741817,1.0,20.525955785584795,0.0,1.0,85.87085311327705,4518.798486222036,1.0,1.0,0.08202954032800043,19.04681773990574,-0.027073532284374844,-44.018787543813005,1.0,20.444305666211992,1.0,0.0006221311389463102,4.219150761281884,0.9488517014400449,1.0,-0.16172036529660166,6.404408599008166
0.09,0.09,1.0,17.983047120003977,-0.02686387725062387,1.3930229469396052,-0.0007699686360633334,-0.11487371952792076,0.005579917862087128,18.036940381308707,0.11501173754546778,1.0,0.0,-1.885154541229685,1.8645638091475825,21.162662438547994,85.32748210022089,0.18147237523479218,7.846341299741817,1.0,20.525955785584795,0.0,1.0,87.16321251542587,4636.748104949589,1.0,1.0,0.08202954032800043,19.04681773990574,-0.027073532284374844,-44.018787543813005,1.0,20.444305666211992,1.0,0.0006221311389463102,4.219150761281884,0.9488517014400449,1.0,-0.16172036529660166,6.404408599008166
0.12,0.12,1.0,18.248783580271915,-0.028689414415553893,1.5075971826703352,0.00025970286056363825,-0.05682094512612963,0.0011095686775761601,18.310974155060592,0.056832370997985625,1.0,0.0,-1.885154541229685,1.8645638091475825,21.162662438547994,85.32748210022089,0.18147237523479218,7.846341299741817,1.0,20.835076685167234,0.0,1.0,87.19635559176884,4705.3627147975685,1.0,1.0,-1.8776346206333072,18.83392771809896,-0.006409861150896396,-44.084359334170784,1.0,20.159393525528742,1.0,-0.012502676739139509,4.181187396440843,0.9477637462264868,1.0,0.2746531142951947,7.483512035294067
0.15,0.15,1.0,18.54793561652228,-0.048924629368898576,1.6684163889726389,-0.0019710786173389784,-0.049940526641971884,0.00314884011910982,18.622887061382485,0.05007850383436939,1.0,0.0,-1.885154541229685,1.8645638091475825,21.162662438547994,85.32748210022089,0.18147237523479218,7.846341299741817,1.0,20.835076685167234,0.0,1.0,87.47248306167324,4732.516289840714,1.0,1.0,-1.8776346206333072,18.83392771809896,-0.006409861150896396,-44.084359334170784,1.0,20.159393525528742,1.0,-0.012502676739139509,4.181187396440843,0.9477637462264868,1.0,0.2746531142951947,7.483512035294067
0.18,0.18,1.0,18.75321412920928,-0.05868111187568272,1.889009195037642,-0.0019747157538341368,-0.05984844619478726,0.004620331038516852,18.848205203355633,0.060058999934599885,1.0,0.0,-1.885154541229685,1.8645638091475825,21.162662438547994,85.32748210022089,0.18147237523479218,7.846341299741817,1.0,20.08187480835859,0.0,1.0,87.963717638991,4835.793963559317,1.0,1.0,-0.5075549024435793,18.721741403632155,0.02848779187431603,-44.22468713284927,1.0,21.361401438885434,1.0,0.0095734676472723,4.138934385516322,0.9467305809561795,1.0,-0.521724032945127,6.703095147346845
0.21,0.21,1.0,19.04394168516103,0.05183105030597141,2.089875246374215,-0.0035293724892521416,-0.05046834331650142,0.007154581209274438,19.15833969609573,0.05109499172678518,1.0,0.0,18.15869508668801,-0.8510638186156017,22.527960204551604,88.79264980977469,-0.1092055137501182,6.691812658067243,1.0,20.08187480835859,0.0,1.0,88.74410340529968,4826.273834899887,1.0,1.0,-0.5075549024435793,18.721741403632155,0.02848779187431603,-44.22468713284927,1.0,21.361401438885434,1.0,0.0095734676472723,4.138934385516322,0.9467305809561795,1.0,-0.521724032945127,6.703095147346845
0.24,0.24,1.0,19.344692365744095,-0.06546061219310605,2.292413154855951,-0.0021221336452841005,-0.037255138259318504,0.0077562018806558095,19.480158261410075,0.03811308758868629,1.0,0.0,18.15869508668801,-0.8510638186156017,22.527960204551604,88.79264980977469,-0.1092055137501182,6.691812658067243,1.0,22.184772640511035,0.0,1.0,89.3901616574939,4883.799879972107,1.0,1.0,-0.929974735680966,18.632712116282253,-0.012883594360201272,-44.29956141007975,1.0,21.597230517882483,1.0,0.019659894811663043,4.126321670345897,0.945747695094901,1.0,-0.6216953206925387,7.171363580388675
0.27,0.27,1.0,19.55701687006622,-0.031854391002946104,2.4363425282372364,-0.0007385770228597161,-0.023138373045642625,0.0048453058671081885,19.708213731162402,0.023651782008209245,1.0,0.0,18.15869508668801,-0.8510638186156017,22.527960204551604,88.79264980977469,-0.1092055137501182,6.691812658067243,1.0,22.184772640511035,0.0,1.0,90.0616958674945,4954.428203090566,1.0,1.0,-0.929974735680966,18.632712116282253,-0.012883594360201272,-44.29956141007975,1.0,21.597230517882483,1.0,0.019659894811663043,4.126321670345897,0.945747695094901,1.0,-0.6216953206925387,7.171363580388675
0.3,0.3,1.0,19.937758039735858,-0.023884353057043166,2.5780945943523967,-0.003356765851771989,-0.021587355507077417,0.008240850906640779,20.103764270673338,0.023349377260176562,1.0,0.0,18.15869508668801,-0.8510638186156017,22.527960204551604,88.79264980977469,-0.1092055137501182,6.691812658067243,1.0,22.0821186777951,0.0,1.0,90.33207108537981,5026.21368649542,1.0,1.0,0.04973635452813171,18.46663953788807,-0.008581278450749828,-44.29815587823802,1.0,21.912745739352278,1.0,0.009983301181575348,4.091799621025428,0.9448106091028983,1.0,0.4515616699172699,7.885618090821057
0.32999999999999996,0.32999999999999996,1.0,20.177113118602605,-0.05189321553308929,2.7708423027320945,-0.003543004435875467,-0.014774671733506016,0.008125535365609539,20.366544964065785,0.017229861585145317,1.0,0.0,18.15869508668801,-0.8510638186156017,22.527960204551604,88.79264980977469,-0.1092055137501182,6.691812658067243,1.0,22.0821186777951,0.0,1.0,90.82264724521818,5065.704188073073,1.0,1.0,0.04973635452813171,18.46663953788807,-0.008581278450749828,-44.29815587823802,1.0,21.912745739352278,1.0,0.009983301181575348,4.091799621025428,0.9448106091028983,1.0,0.4515616699172699,7.885618090821057
0.36,0.36,1.0,20.566368896607415,0.04544621715250131,2.8588075587229937,-0.004360197412767751,-0.01064212309412309,0.007263671477463265,20.76416084525946,0.013602464069472412,1.0,0.0,18.15869508668801,-0.8510638186156017,22.527960204551604,88.79264980977469,-0.1092055137501182,6.691812658067243,1.0,22.9967585683213,0.0,1.0,91.32481863723449,5117.991769137958,1.0,1.0,0.3534560533190273,18.54796512787896,0.05448199825804161,-44.33525087741746,1.0,22.231789721299045,1.0,0.015770292197048178,4.087261833176478,0.9439156817671509,1.0,-0.17863456178288528,7.120940389697681
0.39,0.39,1.0,20.835286083286352,-0.032378707640263585,3.010588881245531,-0.006726488881335512,-0.004564183764235196,0.008865710625784496,21.051694467785094,0.012028227259433808,1.0,0.0,18.15869508668801,-0.8510638186156017,22.527960204551604,88.79264980977469,-0.1092055137501182,6.691812658067243,1.0,22.9967585683213,0.0,1.0,91.47695029158527,5173.833842949516,1.0,1.0,0.3534560533190273,18.54796512787896,0.05448199825804161,-44.33525087741746,1.0,22.231789721299045,1.0,0.015770292197048178,4.087261833176478,0.9439156817671509,1.0,-0.17863456178288528,7.120940389697681
0.42,0.42,1.0,20.877543503441952,-0.018073681141815116,3.1601745360520064,-0.00238920740598708,0.000914386459464884,0.007285826539640826,21.115370053455678,0.007721896333920241,1.0,0.0,38.989417185876086,0.8558990063992831,23.104733446843575,92.81659104939281,-0.010377916799900928,5.633927703120539,1.0,23.17512290061487,0.0,1.0,93.08853269315121,5276.540428737345,1.0,1.0,1.1440825607791054,18.47891166392965,0.014225316168232357,-44.25986253491144,1.0,22.710154786824777,1.0,0.025376610822162207,4.062953686412555,0.9430595412385516,1.0,0.3385678944283901,6.972466159276886
0.44999999999999996,0.44999999999999996,1.0,20.905484066306165,0.0473646137205586,3.2873611690890816,0.0011654341333031492,0.005091016384612188,0.006340804400406012,21.162425449585136,0.008214772363959092,1.0,0.0,38.989417185876086,0.8558990063992831,23.104733446843575,92.81659104939281,-0.010377916799900928,5.633927703120539,1.0,23.17512290061487,0.0,1.0,93.08071116419892,5379.4928995283435,1.0,1.0,1.1440825607791054,18.47891166392965,0.014225316168232357,-44.25986253491144,1.0,22.710154786824777,1.0,0.025376610822162207,4.062953686412555,0.9430595412385516,1.0,0.3385678944283901,6.972466159276886
0.48,0.48,1.0,20.857879817479585,0.0271883894629047,3.382051644417709,-0.0027466010852332627,0.006187551307856491,0.007832632527622342,21.130313840888693,0.010352764897433375,1.0,0.0,38.989417185876086,0.8558990063992831,23.104733446843575,92.81659104939281,-0.010377916799900928,5.633927703120539,1.0,24.499806005655085,0.0,1.0,93.95285616545631,5354.583602470454,1.0,1.0,-0.19413463564603967,18.466848961216847,-0.022197720858401025,-44.274261467427074,1.0,23.25645642960386,1.0,0.017684183486266443,4.080928481083162,0.9422394631198915,1.0,0.5629764550194206,7.677159245910118
0.51,0.51,1.0,20.803536103567914,0.08496424321532127,3.5579634521995884,-0.0007832128430681308,0.009647245918208352,0.002203596779355706,21.105767867155812,0.009926661822079031,1.0,0.0,38.989417185876086,0.8558990063992831,23.104733446843575,92.81659104939281,-0.010377916799900928,5.633927703120539,1.0,24.499806005655085,0.0,1.0,93.71011876793375,5476.322643419981,1.0,1.0,-0.19413463564603967,18.466848961216847,-0.022197720858401025,-44.274261467427074,1.0,23.25645642960386,1.0,0.017684183486266443,4.080928481083162,0.9422394631198915,1.0,0.5629764550194206,7.677159245910118
0.54,0.54,1.0,20.814462156130812,0.005850663323195157,3.643585004893869,0.001462992662298845,0.012659350659150281,0.0024078210091844046,21.13096260862601,0.01296908279923984,1.0,0.0,38.989417185876086,0.8558990063992831,23.104733446843575,92.81659104939281,-0.010377916799900928,5.633927703120539,1.0,23.59572820411332,0.0,1.0,94.95379963005658,5534.027256975876,1.0,1.0,0.7611509764504608,18.506412916676574,-0.014430467575275815,-44.2195475486868,1.0,23.612502748924708,1.0,0.007581652121554867,4.050348927882356,0.9414534195075828,1.0,-0.07345120228573439,7.173656876032556
0.57,0.57,1.0,20.78857077120401,0.03090962682597141,3.7040690046363354,0.002679786301695477,0.015821011792447794,-0.002630060361694322,21.116007134529383,0.01626047005057611,1.0,0.0,38.989417185876086,0.8558990063992831,23.104733446843575,92.81659104939281,-0.010377916799900928,5.633927703120539,1.0,23.59572820411332,0.0,1.0,96.28483005052199,5651.190743348014,1.0,1.0,0.7611509764504608,18.506412916676574,-0.014430467575275815,-44.2195475486868,1.0,23.612502748924708,1.0,0.007581652121554867,4.050348927882356,0.9414534195075828,1.0,-0.07345120228573439,7.173656876032556
0.6,0.6,1.0,20.779275165942416,0.05292452399714888,3.8549218823960922,-0.002502273047656156,0.01935939892746567,0.0016221562517192054,21.133894580662783,0.019587727998488673,1.0,0.0,38.989417185876086,0.8558990063992831,23.104733446843575,92.81659104939281,-0.010377916799900928,5.633927703120539,1.0,23.922742576036487,0.0,1.0,96.5487387901404,5717.821251346596,1.0,1.0,-1.9226861253762875,18.575509895987487,-0.05776935521566498,-44.30463829405847,1.0,23.29783022936304,1.0,0.01656901363678131,4.054835104321789,0.9406996311947711,1.0,-0.11357050894718433,7.190873336586947
0.63,0.63,1.0,20.747638400026137,0.062208188661057554,3.95968579847192,0.0011049149187952112,0.014301822571104301,0.002229510915764234,21.12220349915216,0.014516669203251707,1.0,0.0,57.72183097386308,-1.4382181986180818,24.336566497130733,97.25000083256381,0.13033956003308406,4.837095203174821,1.0,23.922742576036487,0.0,1.0,97.30957341707632,5761.050627125353,1.0,1.0,-1.9226861253762875,18.575509895987487,-0.05776935521566498,-44.30463829405847,1.0,23.29783022936304,1.0,0.01656901363678131,4.054835104321789,0.9406996311947711,1.0,-0.11357050894718433,7.190873336586947
0.6599999999999999,0.6599999999999999,1.0,20.64616983016693,0.03213773231380877,3.9846429841522983,0.0016435109265674067,0.013890988201717884,0.002296700217607172,21.02719052087291,0.014175172424897298,1.0,0.0,57.72183097386308,-1.4382181986180818,24.336566497130733,97.25000083256381,0.13033956003308406,4.837095203174821,1.0,23.950399854195453,0.0,1.0,98.35010783812893,5688.120029988342,1.0,1.0,-1.5041179753395377,18.668721835838188,-0.0001941929045676371,-44.23268187268353,1.0,24.050073640725273,1.0,0.015840031665500773,4.0496772124692555,0.9399764937573527,1.0,-0.13788549277599635,7.641561004819737
0.69,0.69,1.0,20.68030835087646,0.04596089103817192,4.158869999921033,0.0007044650942399863,0.0193014004084603,0.0016265359017199976,21.094394173976145,0.01938261973615275,1.0,0.0,57.72183097386308,-1.4382181986180818,24.336566497130733,97.25000083256381,0.13033956003308406,4.837095203174821,1.0,23.950399854195453,0.0,1.0,97.52975376797377,5911.730563596279,1.0,1.0,-1.5041179753395377,18.668721835838188,-0.0001941929045676371,-44.23268187268353,1.0,24.050073640725273,1.0,0.015840031665500773,4.0496772124692555,0.9399764937573527,1.0,-0.13788549277599635,7.641561004819737
0.72,0.72,1.0,20.617019143735344,0.0031722384544790646,4.252095508201408,0.0038682680350243686,0.019580200283884682,-0.002896851005610893,21.05093358136672,0.020167783380841284,1.0,0.0,57.72183097386308,-1.4382181986180818,24.336566497130733,97.25000083256381,0.13033956003308406,4.837095203174821,1.0,23.54379377546838,0.0,1.0,98.75725734639185,5956.8093306242945,1.0,1.0,0.45150993858314686,18.614536838538907,-0.013430237145884628,-44.200961759578405,1.0,24.864672764004997,1.0,0.016136094063129738,4.067178235748734,0.9392825390251867,1.0,-0.5216293730359673,6.774324450013738
0.75,0.75,1.0,20.567929124467632,0.021975848169604763,4.2542969298329405,0.0029517221691314995,0.023909351541251386,0.00038044278145105105,21.003314828241102,0.024093868340240437,1.0,0.0,57.72183097386308,-1.4382181986180818,24.336566497130733,97.25000083256381,0.13033956003308406,4.837095203174821,1.0,23.54379377546838,0.0,1.0,99.89164557253727,6029.677884355782,1.0,1.0,0.45150993858314686,18.614536838538907,-0.013430237145884628,-44.200961759578405,1.0,24.864672764004997,1.0,0.016136094063129738,4.067178235748734,0.9392825390251867,1.0,-0.5216293730359673,6.774324450013738
0.78,0.78,1.0,20.572182784225113,-0.05719779175168532,4.3680977024425305,0.0029353964888976626,0.020003584899657898,-0.0013822695773060179,21.03088808474414,0.020265010006639522,1.0,0.0,57.72183097386308,-1.4382181986180818,24.336566497130733,97.25000083256381,0.13033956003308406,4.837095203174821,1.0,23.502514089346036,0.0,1.0,100.10521463190885,6205.654194563566,1.0,1.0,0.18348687368283145,18.741828810008787,0.007306309639820107,-44.23095889837697,1.0,24.360738858809068,1.0,0.03934576273909596,4.067945190925954,0.9386164074837723,1.0,-0.43403235722028477,6.531995713502741
0.8099999999999999,0.8099999999999999,1.0,20.607645404114866,-0.01015634198155835,4.5258014094532175,0.0031360161971953934,0.0206390501657452,0.0015366213269678046,21.09876846289441,0.02093241969853727,1.0,0.0,57.72183097386308,-1.4382181986180818,24.336566497130733,97.25000083256381,0.13033956003308406,4.837095203174821,1.0,23.502514089346036,0.0,1.0,99.83688569499299,6142.349532285312,1.0,1.0,0.18348687368283145,18.741828810008787,0.007306309639820107,-44.23095889837697,1.0,24.360738858809068,1.0,0.03934576273909596,4.067945190925954,0.9386164074837723,1.0,-0.43403235722028477,6.531995713502741
0.84,0.84,1.0,20.49540598084322,0.05994195911092466,4.513924836173145,0.0034308825972868403,0.025327040825909093,-0.0013446612034880563,20.986680937791636,0.025593711457031737,1.0,0.0,77.87571412744504,0.11865841976577118,24.91417148953479,101.23931641242976,0.05178576326548479,4.168447945119161,1.0,25.955585730492423,0.0,1.0,101.00684820228332,6282.1424563849805,1.0,1.0,-0.09663527168964334,18.678856491169462,0.025154281629804466,-44.165762728521045,1.0,24.637634387213986,1.0,-0.006373301379800866,4.074018988197506,0.937976824217522,1.0,0.4974467420547292,7.417719992502459
0.87,0.87,1.0,20.459012798089816,0.004451977190593441,4.629953407014814,0.0011591213645098125,0.021379292875809534,0.00012605545592249173,20.976360338334004,0.021411062939174018,1.0,0.0,77.87571412744504,0.11865841976577118,24.91417148953479,101.23931641242976,0.05178576326548479,4.168447945119161,1.0,25.955585730492423,0.0,1.0,101.60050293357277,6275.938186253662,1.0,1.0,-0.09663527168964334,18.678856491169462,0.025154281629804466,-44.165762728521045,1.0,24.637634387213986,1.0,-0.006373301379800866,4.074018988197506,0.937976824217522,1.0,0.4974467420547292,7.417719992502459
0.8999999999999999,0.8999999999999999,1.0,20.489916474206755,-0.003486073429399059,4.661231172757229,0.0024701102336331135,0.021886249414113646,0.0025546784694156464,21.013418696598634,0.022172860439401698,1.0,0.0,77.87571412744504,0.11865841976577118,24.91417148953479,101.23931641242976,0.05178576326548479,4.168447945119161,1.0,25.04105563711038,0.0,1.0,101.89891752628768,6544.777670323713,1.0,1.0,-1.866399221041651,18.899525862817047,-0.05640850447469074,-44.09358907280438,1.0,25.195231306783842,1.0,0.009409486455082201,4.076662177126762,0.9373625805099737,1.0,0.1332062507414957,6.684089885060296
0.9299999999999999,0.9299999999999999,1.0,20.432344207358693,-0.02734522248883308,4.725813680928701,0.0014617748541956052,0.02316382034036617,-0.002688505900787325,20.971760834894862,0.023365089823574152,1.0,0.0,77.87571412744504,0.11865841976577118,24.91417148953479,101.23931641242976,0.05178576326548479,4.168447945119161,1.0,25.04105563711038,0.0,1.0,102.90527957769382,6447.0926306262345,1.0,1.0,-1.866399221041651,18.899525862817047,-0.05640850447469074,-44.09358907280438,1.0,25.195231306783842,1.0,0.009409486455082201,4.076662177126762,0.9373625805099737,1.0,0.1332062507414957,6.684089885060296
0.96,0.96,1.0,20.405174434074766,0.04649321435594828,4.87394192973198,0.008340847753834112,0.021640999739214715,-0.002864640364640464,20.97924248485629,0.023368970353527738,1.0,0.0,77.87571412744504,0.11865841976577118,24.91417148953479,101.23931641242976,0.05178576326548479,4.168447945119161,1.0,25.00856657080909,0.0,1.0,103.10931332072259,6573.414142917334,1.0,1.0,0.4682537488261397,18.9270856591555,-0.008611118342781554,-44.144347754095335,1.0,25.440140364295985,1.0,0.017062647812891258,4.074252012416865,0.9367725187866056,1.0,-0.33144330772159053,6.610297444209681
0.99,0.99,1.0,20.47832263742645,0.03008056199543659,4.942043684531578,0.0008692694935759292,0.02232852679788973,0.0025660435184582265,21.066238360527517,0.022492294630721055,1.0,0.0,77.87571412744504,0.11865841976577118,24.91417148953479,101.23931641242976,0.05178576326548479,4.168447945119161,1.0,25.00856657080909,0.0,1.0,103.5093770649448,6589.9299775572945,1.0,1.0,0.4682537488261397,18.9270856591555,-0.008611118342781554,-44.144347754095335,1.0,25.440140364295985,1.0,0.017062647812891258,4.074252012416865,0.9367725187866056,1.0,-0.33144330772159053,6.610297444209681
1.02,1.02,1.0,20.361236592735576,0.001962334132031227,5.034475478262614,0.0010761292560187736,0.022829914403235493,6.394438795378587e-05,20.97441066579314,0.02285535243043672,1.0,0.0,77.87571412744504,0.11865841976577118,24.91417148953479,101.23931641242976,0.05178576326548479,4.168447945119161,1.0,25.347202267637247,0.0,1.0,104.95574787364323,6829.5117539515995,1.0,1.0,0.35094292683219663,18.931626067252033,-0.05887016980522213,-44.0894201515004,1.0,25.57668201847213,1.0,0.01227652276842776,4.1225966932385205,0.9362055207932745,1.0,-0.2728256913552146,6.406912989383057
1.05,1.05,1.0,20.3938638286345,0.028465164492192267,5.077703549371497,0.0015781687084242147,0.023301936564990376,-0.0010001248125584138,21.01650697575066,0.023376721621984977,1.0,0.0,100.9656179883741,-0.49716571132373616,25.089685147042896,105.48835798893114,-0.05627866093737864,3.6558129659079603,1.0,25.347202267637247,0.0,1.0,105.0131625486718,6686.251578368126,1.0,1.0,0.35094292683219663,18.931626067252033,-0.05887016980522213,-44.0894201515004,1.0,25.57668201847213,1.0,0.01227652276842776,4.1225966932385205,0.9362055207932745,1.0,-0.2728256913552146,6.406912989383057
1.08,1.08,1.0,20.30591149999018,-0.017548424978507858,5.2215322554212955,0.002841964330096451,0.021759184119285912,0.0009294392613638832,20.96651494376349,0.021963668002660426,1.0,0.0,100.9656179883741,-0.49716571132373616,25.089685147042896,105.48835798893114,-0.05627866093737864,3.6558129659079603,1.0,26.153614655605242,0.0,1.0,105.7733575038324,6851.098224248924,1.0,1.0,0.8676934644026709,19.01844010600569,-0.06393418779581053,-44.02065129734528,1.0,25.680442317737803,1.0,0.0035237470994407974,4.115973035034899,0.9356604981567325,1.0,-0.8366096547859688,6.749597617929053
1.1099999999999999,1.1099999999999999,1.0,20.340534741375414,-0.046053452161817394,5.271745130233244,0.0015346554046895063,0.02207774243546279,0.0022993473061440283,21.01263360941922,0.0222501432870004,1.0,0.0,100.9656179883741,-0.49716571132373616,25.089685147042896,105.48835798893114,-0.05627866093737864,3.6558129659079603,1.0,26.153614655605242,0.0,1.0,107.06266981626473,6977.933400486922,1.0,1.0,0.8676934644026709,19.01844010600569,-0.06393418779581053,-44.02065129734528,1.0,25.680442317737803,1.0,0.0035237470994407974,4.115973035034899,0.9356604981567325,1.0,-0.8366096547859688,6.749597617929053
1.14,1.14,1.0,20.289459078500087,0.010617071577129378,5.292993688346491,0.003743080827468573,0.01777087035116591,0.0015482647660420969,20.968501248425323,0.01822667306188043,1.0,0.0,100.9656179883741,-0.49716571132373616,25.089685147042896,105.48835798893114,-0.05627866093737864,3.6558129659079603,1.0,26.664446893286545,0.0,1.0,106.90392011953662,6949.569341201783,1.0,1.0,-0.6202586125853549,19.087718778003172,0.021946554251399464,-44.090337153166324,1.0,25.999829893295615,1.0,0.011715784719734508,4.125653839029824,0.93513638498441,1.0,-0.22227481168388666,6.899163538166201
1.17,1.17,1.0,20.19978951092585,-0.02191987710058723,5.320785762051391,0.0018425775689116515,0.023138500936997222,-0.0013723658384717041,20.888818489621926,0.02325228388144876,1.0,0.0,100.9656179883741,-0.49716571132373616,25.089685147042896,105.48835798893114,-0.05627866093737864,3.6558129659079603,1.0,26.664446893286545,0.0,1.0,107.77929344541029,7008.616558852924,1.0,1.0,-0.6202586125853549,19.087718778003172,0.021946554251399464,-44.090337153166324,1.0,25.999829893295615,1.0,0.011715784719734508,4.125653839029824,0.93513638498441,1.0,-0.22227481168388666,6.899163538166201
1.2,1.2,1.0,20.17276571311123,0.06545432379446109,5.518263234935334,0.0028110313871018713,0.020172317189235858,-0.0011915685867422733,20.9140141989676,0.020402061511997343,1.0,0.0,100.9656179883741,-0.49716571132373616,25.089685147042896,105.48835798893114,-0.05627866093737864,3.6558129659079603,1.0,26.83510007247807,0.0,1.0,107.69670394307992,7193.6374750902005,1.0,1.0,2.202236210378886,19.12316139580177,0.034754198407009426,-44.02602099163729,1.0,26.392027890791585,1.0,0.007773274977426804,4.13175696038286,0.9346321320555403,1.0,-0.12746320054784266,6.134501651033101
1.23,1.23,1.0,20.220973982093344,0.002258249053398933,5.516216467194859,0.003446704096078147,0.021166314638868415,0.0024969829803023168,20.959876860256994,0.021589987691553153,1.0,0.0,100.9656179883741,-0.49716571132373616,25.089685147042896,105.48835798893114,-0.05627866093737864,3.6558129659079603,1.0,26.83510007247807,0.0,1.0,109.21368189900579,7284.891029160728,1.0,1.0,2.202236210378886,19.12316139580177,0.034754198407009426,-44.02602099163729,1.0,26.392027890791585,1.0,0.007773274977426804,4.13175696038286,0.9346321320555403,1.0,-0.12746320054784266,6.134501651033101
1.26,1.26,1.0,20.211277102227292,0.013939096592846222,5.58037648581668,0.002021699851081191,0.020606171333091217,-0.0001635968116236323,20.967511014063803,0.020705755992316374,1.0,0.0,120.35207277007201,-0.9600733769520445,28.257806162961224,109.52939263160258,-0.04425481805959372,3.1698988888272788,1.0,25.61548855861344,0.0,1.0,110.05942839832896,7430.430760225469,1.0,1.0,1.1015813614104994,19.22154059717668,-0.03623150927815358,-43.94818736216407,1.0,26.71505817345241,1.0,0.008507324894688735,4.143699939871577,0.9341467023379891,1.0,-0.1602672131432211,6.3340392871219295
1.29,1.29,1.0,20.20050252717616,-0.043229058602868284,5.663413908940443,-0.0002723013673907298,0.01852724112592611,-0.00030143073445172214,20.979428691123555,0.018531693723471764,1.0,0.0,120.35207277007201,-0.9600733769520445,28.257806162961224,109.52939263160258,-0.04425481805959372,3.1698988888272788,1.0,25.61548855861344,0.0,1.0,109.95705013527764,7327.460660326059,1.0,1.0,1.1015813614104994,19.22154059717668,-0.03623150927815358,-43.94818736216407,1.0,26.71505817345241,1.0,0.008507324894688735,4.143699939871577,0.9341467023379891,1.0,-0.1602672131432211,6.3340392871219295
1.3199999999999998,1.3199999999999998,1.0,20.08102362635151,0.04679631510009396,5.732035366721366,0.00255313180644007,0.021537143122462157,0.00034421901572947593,20.883149408615047,0.02169067778169379,1.0,0.0,120.35207277007201,-0.9600733769520445,28.257806162961224,109.52939263160258,-0.04425481805959372,3.1698988888272788,1.0,26.37508184221575,0.0,1.0,111.15037929608083,7365.516311932684,1.0,1.0,1.831725785769789,19.18815620331742,-0.0984288906541361,-43.91441196315678,1.0,26.52551983710383,1.0,0.020998545533153386,4.150650393757481,0.9336790675496525,1.0,-0.7094889001485184,6.514609237940621
1.3499999999999999,1.3499999999999999,1.0,20.12412478679425,-0.07527260449103938,5.817981587442433,0.0006450088573280682,0.020620198666671155,-0.0002278960866689371,20.948388342573583,0.0206315429889608,1.0,0.0,120.35207277007201,-0.9600733769520445,28.257806162961224,109.52939263160258,-0.04425481805959372,3.1698988888272788,1.0,26.37508184221575,0.0,1.0,110.43461895717653,7536.439328042823,1.0,1.0,1.831725785769789,19.18815620331742,-0.0984288906541361,-43.91441196315678,1.0,26.52551983710383,1.0,0.020998545533153386,4.150650393757481,0.9336790675496525,1.0,-0.7094889001485184,6.514609237940621
1.38,1.38,1.0,20.05309084730795,0.022720169899224145,5.868697054217019,0.004208642358265426,0.018751531304233,0.0017150937908590796,20.894223456512606,0.019294407051393403,1.0,0.0,120.35207277007201,-0.9600733769520445,28.257806162961224,109.52939263160258,-0.04425481805959372,3.1698988888272788,1.0,26.55070353668,0.0,1.0,111.73951971533077,7745.241802355803,1.0,1.0,0.14612739394782276,19.25002540863462,-0.11060839212413684,-43.95877197055133,1.0,26.886714490339124,1.0,0.006812843452139663,4.18066417219948,0.9332282055581497,1.0,-0.040928709301978845,6.910869271860169
1.41,1.41,1.0,20.119262838761482,-0.07029941413765795,5.8741886450685605,2.3795067368988492e-05,0.014823247647996817,-0.0010777871823243106,20.95938385116913,0.014862397594246254,1.0,0.0,120.35207277007201,-0.9600733769520445,28.257806162961224,109.52939263160258,-0.04425481805959372,3.1698988888272788,1.0,26.55070353668,0.0,1.0,112.36992770654189,7642.315391611048,1.0,1.0,0.14612739394782276,19.25002540863462,-0.11060839212413684,-43.95877197055133,1.0,26.886714490339124,1.0,0.006812843452139663,4.18066417219948,0.9332282055581497,1.0,-0.040928709301978845,6.910869271860169
1.44,1.44,1.0,20.12542507948428,0.03361441902787701,5.956353775021693,0.0037999729271509805,0.01738450160085013,0.0013824409414044685,20.988378090083966,0.017848580703056265,1.0,0.0,120.35207277007201,-0.9600733769520445,28.257806162961224,109.52939263160258,-0.04425481805959372,3.1698988888272788,1.0,27.196551793174613,0.0,1.0,113.2983522097014,7676.898141243766,1.0,1.0,1.5670532041378262,19.31231316982336,-0.044610293459046886,-43.919708537301325,1.0,26.69114616667593,1.0,0.014038834898567167,4.200593726086315,0.9327930984990308,1.0,-0.2634925186586958,5.887003530701639
1.47,1.47,1.0,19.987326709484343,-0.00861080623572108,6.081259537462639,0.0046935894174837435,0.01776988226590948,-0.0005675651450021098,20.891984604140184,0.018388056655286356,1.0,0.0,145.7957787841936,-1.196585703868752,26.75990555855781,113.82433683657845,-0.05140779464542054,3.1889822859184287,1.0,27.196551793174613,0.0,1.0,113.313872594278,7927.378995830255,1.0,1.0,1.5670532041378262,19.31231316982336,-0.044610293459046886,-43.919708537301325,1.0,26.69114616667593,1.0,0.014038834898567167,4.200593726086315,0.9327930984990308,1.0,-0.2634925186586958,5.887003530701639
1.5,1.5,1.0,20.020200050708254,-0.05223185040934886,6.103533310810505,0.004576937637539719,0.01769783232372712,0.0013239246412058917,20.929984641961624,0.01832796779657473,1.0,0.0,145.7957787841936,-1.196585703868752,26.75990555855781,113.82433683657845,-0.05140779464542054,3.1889822859184287,1.0,26.95292281078132,0.0,1.0,114.33707551704752,8046.588841459558,1.0,1.0,-1.066211805532229,19.40412330240682,-0.06607591897011582,-43.86856453952485,1.0,27.043496060758,1.0,0.008494551912288057,4.200642383997661,0.9323727314113914,1.0,0.40172559115721285,6.290223044722913
1.53,1.53,1.0,19.986489743812044,0.0025444906875658063,6.2435195721999825,0.007811495672680487,0.014532041830175183,0.0008102117561226735,20.93899031477834,0.016518357893205566,1.0,0.0,145.7957787841936,-1.196585703868752,26.75990555855781,113.82433683657845,-0.05140779464542054,3.1889822859184287,1.0,26.95292281078132,0.0,1.0,114.77533009865805,7938.998398078878,1.0,1.0,-1.066211805532229,19.40412330240682,-0.06607591897011582,-43.86856453952485,1.0,27.043496060758,1.0,0.008494551912288057,4.200642383997661,0.9323727314113914,1.0,0.40172559115721285,6.290223044722913
1.56,1.56,1.0,19.982254030220947,0.07422596450958854,6.241284869383665,0.006153786630947401,0.017287210934093758,-0.0016656068593712818,20.93441239784117,0.01842528149009025,1.0,0.0,145.7957787841936,-1.196585703868752,26.75990555855781,113.82433683657845,-0.05140779464542054,3.1889822859184287,1.0,27.182206326715495,0.0,1.0,115.07897167690102,8020.5849784221045,1.0,1.0,0.9253866894669477,19.374266253482897,-0.19112148856265526,-43.868592481071964,1.0,27.3042164046699,1.0,0.00973995669211695,4.219310970630309,0.9319660913231045,1.0,-0.0626122708491496,5.290916377512189
1.5899999999999999,1.5899999999999999,1.0,19.887484857002427,-0.019164940170178908,6.3400583857994155,0.005251052063563528,0.013137765670608367,0.0010238944731597545,20.873637957188443,0.014185302058195222,1.0,0.0,145.7957787841936,-1.196585703868752,26.75990555855781,113.82433683657845,-0.05140779464542054,3.1889822859184287,1.0,27.182206326715495,0.0,1.0,115.7571501056542,8153.616232977004,1.0,1.0,0.9253866894669477,19.374266253482897,-0.19112148856265526,-43.868592481071964,1.0,27.3042164046699,1.0,0.00973995669211695,4.219310970630309,0.9319660913231045,1.0,-0.0626122708491496,5.290916377512189
1.6199999999999999,1.6199999999999999,1.0,19.958315714414717,-0.03430448307348963,6.420366283914389,0.0045269677836791075,0.0131032395898369,-0.0014788762828275939,20.965606267728987,0.013941857843309391,1.0,0.0,145.7957787841936,-1.196585703868752,26.75990555855781,113.82433683657845,-0.05140779464542054,3.1889822859184287,1.0,27.895395157877147,0.0,1.0,116.81844414572356,8327.533027871348,1.0,1.0,0.4013026788229957,19.428943831908878,-0.0360994579865266,-43.9389225278526,1.0,27.18164018203443,1.0,0.009273318791493398,4.235171877259233,0.9315721666710004,1.0,0.342075582025631,5.561316593836849
1.65,1.65,1.0,19.81590824750902,-0.02502198834829159,6.429061039080921,0.004725305609512166,0.01874304178242636,-0.0014176782529960403,20.832754777461027,0.019381432867311057,1.0,0.0,145.7957787841936,-1.196585703868752,26.75990555855781,113.82433683657845,-0.05140779464542054,3.1889822859184287,1.0,27.895395157877147,0.0,1.0,117.37016112106555,8267.47744170665,1.0,1.0,0.4013026788229957,19.428943831908878,-0.0360994579865266,-43.9389225278526,1.0,27.18164018203443,1.0,0.009273318791493398,4.235171877259233,0.9315721666710004,1.0,0.342075582025631,5.561316593836849
1.68,1.68,1.0,19.91724577120081,0.008116058381549378,6.630959037864768,0.00606351179562168,0.014290571147573875,0.0017545147752919866,20.992054752754925,0.015622577287894339,1.0,0.0,169.3870660082145,0.16300892137936657,25.70490328691271,117.39883742962391,-0.040194624727821995,2.532073299736382,1.0,28.119938885051873,0.0,1.0,117.96975916362051,8421.164198491215,1.0,1.0,0.34364505571763354,19.473505900921026,-0.19110258547302766,-43.85037831116703,1.0,27.702481638461673,1.0,0.00217411918890911,4.24765351647925,0.9311899471100806,1.0,0.20795908351886716,5.855458741435182
1.71,1.71,1.0,19.723199377685827,-0.015873755494169604,6.611871734365084,0.0064000691027685875,0.01185664353536927,0.0005537133490408346,20.801963693357315,0.013485083571040004,1.0,0.0,169.3870660082145,0.16300892137936657,25.70490328691271,117.39883742962391,-0.040194624727821995,2.532073299736382,1.0,28.119938885051873,0.0,1.0,118.10685377017813,8640.774063449191,1.0,1.0,0.34364505571763354,19.473505900921026,-0.19110258547302766,-43.85037831116703,1.0,27.702481638461673,1.0,0.00217411918890911,4.24765351647925,0.9311899471100806,1.0,0.20795908351886716,5.855458741435182
1.74,1.74,1.0,19.752804182727054,0.07088472742097325,6.619119114283191,0.0064506098063892075,0.01660300465360006,-0.0015759687518664888,20.832451501799063,0.017881661217812216,1.0,0.0,169.3870660082145,0.16300892137936657,25.70490328691271,117.39883742962391,-0.040194624727821995,2.532073299736382,1.0,27.642304695371106,0.0,1.0,118.64109025300206,8509.191359343084,1.0,1.0,0.48891338054316147,19.48501602905502,-0.13360555615511907,-43.82498838172484,1.0,28.00300531717211,1.0,0.011771495858165924,4.280625854630847,0.930818423392356,1.0,0.04527863457248223,5.977537936351803
1.77,1.77,1.0,19.76218078614582,0.02154503787342317,6.807530040109452,0.0028473419388452196,0.011610269409126607,-0.002501185733830458,20.901835298843032,0.012213174933010865,1.0,0.0,169.3870660082145,0.16300892137936657,25.70490328691271,117.39883742962391,-0.040194624727821995,2.532073299736382,1.0,27.642304695371106,0.0,1.0,119.5252972701141,8753.515947034555,1.0,1.0,0.48891338054316147,19.48501602905502,-0.13360555615511907,-43.82498838172484,1.0,28.00300531717211,1.0,0.011771495858165924,4.280625854630847,0.930818423392356,1.0,0.04527863457248223,5.977537936351803
1.7999999999999998,1.7999999999999998,1.0,19.759260446612984,-0.012124979587426704,6.835745814589882,0.004761864161516761,0.010496503220524638,0.00047960821133778827,20.90827446859012,0.011536115212132915,1.0,0.0,169.3870660082145,0.16300892137936657,25.70490328691271,117.39883742962391,-0.040194624727821995,2.532073299736382,1.0,28.148333655546487,0.0,1.0,119.64009134165894,8584.031767770912,1.0,1.0,-2.124201527190695,19.50351939307982,-0.1451340201034234,-43.806636070250065,1.0,27.833550363737913,1.0,-0.01711808537019538,4.297861542551972,0.9304565874730583,1.0,-0.09821112851788193,5.8557266160770025
1.8299999999999998,1.8299999999999998,1.0,19.707305876889816,0.04063304901931776,6.916591294578024,0.005781100870054108,0.014678174611114298,-0.00017731938792068375,20.88585145753462,0.015776608613686065,1.0,0.0,169.3870660082145,0.16300892137936657,25.70490328691271,117.39883742962391,-0.040194624727821995,2.532073299736382,1.0,28.148333655546487,0.0,1.0,120.00050243301718,8905.991067943398,1.0,1.0,-2.124201527190695,19.50351939307982,-0.1451340201034234,-43.806636070250065,1.0,27.833550363737913,1.0,-0.01711808537019538,4.297861542551972,0.9304565874730583,1.0,-0.09821112851788193,5.8557266160770025
1.8599999999999999,1.8599999999999999,1.0,19.714119823968364,-0.007981872762979764,6.943347683429819,0.003968155335958736,0.009687345692358084,-0.00025291878795485943,20.901116266770668,0.01047162314289657,1.0,0.0,169.3870660082145,0.16300892137936657,25.70490328691271,117.39883742962391,-0.040194624727821995,2.532073299736382,1.0,28.223000217236038,0.0,1.0,120.80617803372049,8955.876197980257,1.0,1.0,-0.256906499795354,19.57815090820266,-0.1547846003675004,-43.79948644975432,1.0,27.842016474694187,1.0,0.010777068917291122,4.31138960586024,0.9301034328365425,1.0,0.2272484416078789,6.3279472810894175
1.89,1.89,1.0,19.66198826651688,-0.0004171868132603609,7.039437983859301,0.004617663841313909,0.012300340503486856,-0.0005937326574245777,20.884143982823268,0.013151947168445807,1.0,0.0,195.91328430945848,0.6563862610840446,28.3233632575537,121.72061969367687,0.06637098512058061,2.0971751626933206,1.0,28.223000217236038,0.0,1.0,121.63587249431947,8931.988769268593,1.0,1.0,-0.256906499795354,19.57815090820266,-0.1547846003675004,-43.79948644975432,1.0,27.842016474694187,1.0,0.010777068917291122,4.31138960586024,0.9301034328365425,1.0,0.2272484416078789,6.3279472810894175
1.92,1.92,1.0,19.696221415163794,0.008030495325725036,7.079581893982068,0.006568456161946205,0.007864987261307176,0.00037251815564205725,20.929923132147685,0.010253848582274667,1.0,0.0,195.91328430945848,0.6563862610840446,28.3233632575537,121.72061969367687,0.06637098512058061,2.0971751626933206,1.0,27.229246544125395,0.0,1.0,122.20767235078127,9087.39718127496,1.0,1.0,0.15292743236410677,19.590682408931087,-0.12614846511250472,-43.88772189160175,1.0,27.871802177669807,1.0,-0.008061617889214983,4.3453267403614975,0.9297579548683876,1.0,0.2273143172949289,6.660938535180173
1.95,1.95,1.0,19.66043623589498,-0.01624759445694427,7.160642345418672,0.007147869349243966,0.013743749603155353,0.00019423549887555497,20.923857573808444,0.01549259232075503,1.0,0.0,195.91328430945848,0.6563862610840446,28.3233632575537,121.72061969367687,0.06637098512058061,2.0971751626933206,1.0,27.229246544125395,0.0,1.0,122.36643756416251,9256.171517193634,1.0,1.0,0.15292743236410677,19.590682408931087,-0.12614846511250472,-43.88772189160175,1.0,27.871802177669807,1.0,-0.008061617889214983,4.3453267403614975,0.9297579548683876,1.0,0.2273143172949289,6.660938535180173
1.98,1.98,1.0,19.643158295841577,0.033002636632432816,7.202224054853492,0.004993837560852027,0.014781587915475593,-0.000496066726376615,20.921921239356216,0.015610247822636534,1.0,0.0,195.91328430945848,0.6563862610840446,28.3233632575537,121.72061969367687,0.06637098512058061,2.0971751626933206,1.0,28.968385700805587,0.0,1.0,123.33337367776663,9355.982483568616,1.0,1.0,0.3534598403518242,19.603902765502237,-0.23900683475151097,-43.77520096751897,1.0,28.15478112117301,1.0,0.006710088613929832,4.361875998133058,0.9294191512288678,1.0,0.7501072615686887,5.148190867535523
2.01,2.01,1.0,19.559716163938084,0.016141980465587482,7.315326660018667,0.007742550752002912,0.011570395353804531,-0.0005847539779739656,20.882929897888705,0.013934241206662052,1.0,0.0,195.91328430945848,0.6563862610840446,28.3233632575537,121.72061969367687,0.06637098512058061,2.0971751626933206,1.0,28.968385700805587,0.0,1.0,123.93351769119754,9379.777996715595,1.0,1.0,0.3534598403518242,19.603902765502237,-0.23900683475151097,-43.77520096751897,1.0,28.15478112117301,1.0,0.006710088613929832,4.361875998133058,0.9294191512288678,1.0,0.7501072615686887,5.148190867535523
2.04,2.04,1.0,19.529288182589934,0.01597582114736963,7.3473294806655085,0.009112829712078725,0.008376878697900735,-0.0020363114415062875,20.86568001870451,0.012544414150030976,1.0,0.0,195.91328430945848,0.6563862610840446,28.3233632575537,121.72061969367687,0.06637098512058061,2.0971751626933206,1.0,27.286488724790285,0.0,1.0,124.25488186362784,9534.90615271887,1.0,1.0,0.6376349225262914,19.66953145375724,-0.20566516524821638,-43.76464137748978,1.0,28.14112840636551,1.0,-0.0006977904808281241,4.375160941899682,0.9290860224728044,1.0,0.4453700237936945,5.944655014103139
2.07,2.07,1.0,19.467425392509046,0.029068903057214622,7.409774535970155,0.008064122381205619,0.00822156355898174,-0.002124050910960875,20.829936511855784,0.01171049825608593,1.0,0.0,195.91328430945848,0.6563862610840446,28.3233632575537,121.72061969367687,0.06637098512058061,2.0971751626933206,1.0,27.286488724790285,0.0,1.0,125.37117200007673,9611.259232719722,1.0,1.0,0.6376349225262914,19.66953145375724,-0.20566516524821638,-43.76464137748978,1.0,28.14112840636551,1.0,-0.0006977904808281241,4.375160941899682,0.9290860224728044,1.0,0.4453700237936945,5.944655014103139
2.1,2.1,1.0,19.503308262517642,0.01737164911598567,7.455729093793029,0.005682079835896332,0.008788071136287566,0.0017151577932392214,20.879828334471856,0.010604621248005963,1.0,0.0,220.70790814768674,-0.8176435779637388,27.7019156575021,125.39537925852443,-0.0692211682623019,2.089861885215758,1.0,28.88644660904089,0.0,1.0,125.7364064536655,9769.55511792964,1.0,1.0,-0.014633021435817278,19.6240586003969,-0.2701768413935547,-43.808452482739085,1.0,28.324092161974182,1.0,0.01669702829172448,4.38154023352588,0.9287575726054726,1.0,0.2629663704402841,6.353916983630617
2.13,2.13,1.0,19.441479723780695,-0.02856399494392803,7.546732631361747,0.0055037329206733855,0.007825268259077665,0.0009213196969620366,20.854858502546673,0.009611177314597968,1.0,0.0,220.70790814768674,-0.8176435779637388,27.7019156575021,125.39537925852443,-0.0692211682623019,2.089861885215758,1.0,28.88644660904089,0.0,1.0,125.52498790128344,9730.11797531959,1.0,1.0,-0.014633021435817278,19.6240586003969,-0.2701768413935547,-43.808452482739085,1.0,28.324092161974182,1.0,0.01669702829172448,4.38154023352588,0.9287575726054726,1.0,0.2629663704402841,6.353916983630617
2.16,2.16,1.0,19.417622488130338,0.008202184726179654,7.562107426882687,0.006962704943486308,0.010939617285065747,-0.0012187965535295953,20.83817648219473,0.013024590262755046,1.0,0.0,220.70790814768674,-0.8176435779637388,27.7019156575021,125.39537925852443,-0.0692211682623019,2.089861885215758,1.0,28.91637972951798,0.0,1.0,126.0705184177692,9750.87958137924,1.0,1.0,-1.067562228875349,19.73139850883001,-0.2523666986144278,-43.736013446741296,1.0,28.46965292812833,1.0,0.012703957745828302,4.404311792511181,0.9284328094927714,1.0,0.7364755691081762,5.666515204941544
2.19,2.19,1.0,19.39094658426681,-0.06127856865487756,7.671395230423162,0.01143458608016913,0.010143840693413607,-0.00286023678996258,20.853365898056463,0.015550826901898398,1.0,0.0,220.70790814768674,-0.8176435779637388,27.7019156575021,125.39537925852443,-0.0692211682623019,2.089861885215758,1.0,28.91637972951798,0.0,1.0,126.47161896831261,9619.215854301861,1.0,1.0,-1.067562228875349,19.73139850883001,-0.2523666986144278,-43.736013446741296,1.0,28.46965292812833,1.0,0.012703957745828302,4.404311792511181,0.9284328094927714,1.0,0.7364755691081762,5.666515204941544
2.2199999999999998,2.2199999999999998,1.0,19.357161411675445,-0.02372938815820144,7.702473454093533,0.010182540992394826,0.007810636142216521,-0.0012533167836517721,20.833347266162843,0.01289422277487415,1.0,0.0,220.70790814768674,-0.8176435779637388,27.7019156575021,125.39537925852443,-0.0692211682623019,2.089861885215758,1.0,28.806228580828666,0.0,1.0,127.75456872403637,10017.821196340848,1.0,1.0,1.209569407084844,19.71546114593936,-0.3057283537864201,-43.75014206228666,1.0,28.947817317551436,1.0,0.014129792843805812,4.421435700606801,0.9281107458251581,1.0,0.8772091719307878,5.867682811715359
2.25,2.25,1.0,19.335593603646387,-0.03264540328841351,7.80736712221982,0.011393503772403462,0.006824898724032416,0.00023121975672106315,20.852367422162068,0.013283246341951556,1.0,0.0,220.70790814768674,-0.8176435779637388,27.7019156575021,125.39537925852443,-0.0692211682623019,2.089861885215758,1.0,28.806228580828666,0.0,1.0,128.6821634816266,10154.444127711358,1.0,1.0,1.209569407084844,19.71546114593936,-0.3057283537864201,-43.75014206228666,1.0,28.947817317551436,1.0,0.014129792843805812,4.421435700606801,0.9281107458251581,1.0,0.8772091719307878,5.867682811715359
2.28,2.28,1.0,19.413964578271237,0.018873066876813397,7.8626162231968815,0.011218974141762844,0.008287778337561504,0.0005454649892368685,20.945718195189738,0.013958874690338767,1.0,0.0,220.70790814768674,-0.8176435779637388,27.7019156575021,125.39537925852443,-0.0692211682623019,2.089861885215758,1.0,29.51456690378391,0.0,1.0,129.46187625692448,10130.866898170498,1.0,1.0,0.8529486246698713,19.750188661487975,-0.33213212913811263,-43.676685038457826,1.0,28.44796546079067,1.0,0.0025552858234086364,4.441821174691655,0.927790399316465,1.0,-0.2294092133492019,5.751253694992434
2.31,2.31,1.0,19.409768381359704,0.008822248957596314,7.91349193897572,0.010477656004152718,0.006942138222732837,-0.002110401113041634,20.960976626062568,0.012744738181022515,1.0,0.0,248.83134009728394,0.512933509883951,29.3218066268641,129.3103158617389,0.36842959041922035,1.9969469070886776,1.0,29.51456690378391,0.0,1.0,129.7183640173525,10207.900647763461,1.0,1.0,0.8529486246698713,19.750188661487975,-0.33213212913811263,-43.676685038457826,1.0,28.44796546079067,1.0,0.0025552858234086364,4.441821174691655,0.927790399316465,1.0,-0.2294092133492019,5.751253694992434
2.34,2.34,1.0,19.30709377562992,0.02093343072172789,7.8857105942297885,0.010871415145550355,0.009021409289847857,-0.0016154172970584207,20.85542471026273,0.014219109180447642,1.0,0.0,248.83134009728394,0.512933509883951,29.3218066268641,129.3103158617389,0.36842959041922035,1.9969469070886776,1.0,29.09001260953984,0.0,1.0,129.86680458872476,10126.985509587485,1.0,1.0,0.9807861307889312,19.770511234079272,-0.3944472142964859,-43.684861645694,1.0,29.163365403397606,1.0,0.00908808458532179,4.459442218629313,0.9274707937874698,1.0,0.7165081263401027,5.3870563534057885
2.37,2.37,1.0,19.22512354509148,0.05137328666272532,8.02578606420725,0.01257827700227352,0.008379783625906715,-0.004985370385282423,20.833176821767648,0.015915016300380853,1.0,0.0,248.83134009728394,0.512933509883951,29.3218066268641,129.3103158617389,0.36842959041922035,1.9969469070886776,1.0,29.09001260953984,0.0,1.0,130.71484771788167,10372.788145933626,1.0,1.0,0.9807861307889312,19.770511234079272,-0.3944472142964859,-43.684861645694,1.0,29.163365403397606,1.0,0.00908808458532179,4.459442218629313,0.9274707937874698,1.0,0.7165081263401027,5.3870563534057885
2.4,2.4,1.0,19.25162211256485,-0.013867563150047337,8.151883581570292,0.010187723760271876,0.003783810499530614,0.0019992118242975667,20.90641892342586,0.011050058155067667,1.0,0.0,248.83134009728394,0.512933509883951,29.3218066268641,129.3103158617389,0.36842959041922035,1.9969469070886776,1.0,30.365841238337005,0.0,1.0,130.43125146411214,10529.089808280414,1.0,1.0,-1.135827647799748,19.842475513657806,-0.3847555434944702,-43.768883162868875,1.0,28.96040231653961,1.0,0.0116904919467397,4.477828714943144,0.9271509593039838,1.0,1.0283435730014623,6.007574036802677
2.4299999999999997,2.4299999999999997,1.0,19.22258886258335,0.04469144831933106,8.103789312911681,0.012734548442029984,0.009564216908673834,-0.0047012761069373885,20.86100000320042,0.016605570334445943,1.0,0.0,248.83134009728394,0.512933509883951,29.3218066268641,129.3103158617389,0.36842959041922035,1.9969469070886776,1.0,30.365841238337005,0.0,1.0,131.86390857902845,10603.402574257123,1.0,1.0,-1.135827647799748,19.842475513657806,-0.3847555434944702,-43.768883162868875,1.0,28.96040231653961,1.0,0.0116904919467397,4.477828714943144,0.9271509593039838,1.0,1.0283435730014623,6.007574036802677
2.46,2.46,1.0,19.142630554234568,0.021798504412320247,8.24654018941119,0.011542595552678739,0.003696696126863599,-0.005869718597252086,20.843373162861223,0.01346665031691305,1.0,0.0,248.83134009728394,0.512933509883951,29.3218066268641,129.3103158617389,0.36842959041922035,1.9969469070886776,1.0,28.71726381180575,0.0,1.0,132.02636469289882,10633.606565178989,1.0,1.0,2.1761974595741136,19.859363380126513,-0.4431069178934311,-43.62054894457509,1.0,29.011021198813687,1.0,-0.0009930932151186612,4.500994895174266,0.9268299413557942,1.0,1.341828258390912,5.535932243925908
2.4899999999999998,2.4899999999999998,1.0,19.223514087417268,0.034321187228495344,8.306437244150485,0.009999856290767217,0.00034092993968722844,-0.0031076048129276947,20.941384183096236,0.010477144970510966,1.0,0.0,248.83134009728394,0.512933509883951,29.3218066268641,129.3103158617389,0.36842959041922035,1.9969469070886776,1.0,28.71726381180575,0.0,1.0,132.5532428368998,10672.714703067855,1.0,1.0,2.1761974595741136,19.859363380126513,-0.4431069178934311,-43.62054894457509,1.0,29.011021198813687,1.0,-0.0009930932151186612,4.500994895174266,0.9268299413557942,1.0,1.341828258390912,5.535932243925908
2.52,2.52,1.0,19.16848076409083,0.023621972037962236,8.381560983104281,0.014400373590533045,0.0017555670070020133,-0.001605795042775123,20.920845521019917,0.014595593608428428,1.0,0.0,273.926491723791,0.3353045828975088,29.432189444091684,133.32072356648513,0.01833318667105896,2.2266602642320685,1.0,29.651034291695083,0.0,1.0,133.06123951945227,10738.280120818781,1.0,1.0,-0.5314759653849566,19.84827565773159,-0.390865492923146,-43.63412882654111,1.0,29.529717816425052,1.0,0.018565701560603755,4.509356485812267,0.9265067172610938,1.0,0.7452253291973681,5.458337551232292
2.55,2.55,1.0,19.075575779895956,-0.0051213420933051285,8.53848504633896,0.012441260605563886,0.00011728517183565585,-0.003574919429062269,20.899362297669565,0.012945221905837509,1.0,0.0,273.926491723791,0.3353045828975088,29.432189444091684,133.32072356648513,0.01833318667105896,2.2266602642320685,1.0,29.651034291695083,0.0,1.0,133.47027539846422,11121.97378549489,1.0,1.0,-0.5314759653849566,19.84827565773159,-0.390865492923146,-43.63412882654111,1.0,29.529717816425052,1.0,0.018565701560603755,4.509356485812267,0.9265067172610938,1.0,0.7452253291973681,5.458337551232292
2.58,2.58,1.0,19.07338597161233,0.062158241414270204,8.496167172943723,0.008800793624758257,0.0032258126244260436,-0.004015634253890406,20.8802004947194,0.010197311114921913,1.0,0.0,273.926491723791,0.3353045828975088,29.432189444091684,133.32072356648513,0.01833318667105896,2.2266602642320685,1.0,29.367401406554766,0.0,1.0,134.88761364308257,10840.153465530711,1.0,1.0,-0.373579817574895,19.860756511529953,-0.4287069028628242,-43.683082874158444,1.0,29.76914310912394,1.0,0.0022798728194200406,4.537712456471069,0.9261801268927307,1.0,0.26172247600031506,6.209981031714447
2.61,2.61,1.0,19.042862003076856,0.06851868780327386,8.56617437568699,0.012355763348142644,-0.0011798712457225624,-0.0008798129104674816,20.88096337608691,0.0124431127467854,1.0,0.0,273.926491723791,0.3353045828975088,29.432189444091684,133.32072356648513,0.01833318667105896,2.2266602642320685,1.0,29.367401406554766,0.0,1.0,135.66802124815626,11161.418362858094,1.0,1.0,-0.373579817574895,19.860756511529953,-0.4287069028628242,-43.683082874158444,1.0,29.76914310912394,1.0,0.0022798728194200406,4.537712456471069,0.9261801268927307,1.0,0.26172247600031506,6.209981031714447
2.6399999999999997,2.6399999999999997,1.0,18.992674587478657,0.09662234965603564,8.688585775681807,0.01426705797807136,-0.0042414926434371945,-0.002323061448335196,20.885941363646765,0.015064389057864998,1.0,0.0,273.926491723791,0.3353045828975088,29.432189444091684,133.32072356648513,0.01833318667105896,2.2266602642320685,1.0,29.30161820389041,0.0,1.0,135.14175767902665,11052.651784195605,1.0,1.0,-0.5055669417317007,19.940895061043424,-0.5082065845194715,-43.678668229373535,1.0,29.79907331548199,1.0,0.014309339455842856,4.542667768151773,0.9258489099103249,1.0,1.1775381598088774,6.368304303681133
2.67,2.67,1.0,19.061534058031206,-0.041489804385196095,8.769709250082382,0.014339584132190745,-0.0036475050905024134,-0.004482853159352031,20.98217344271875,0.015460399054284793,1.0,0.0,273.926491723791,0.3353045828975088,29.432189444091684,133.32072356648513,0.01833318667105896,2.2266602642320685,1.0,29.30161820389041,0.0,1.0,136.0742138626918,11542.193502028307,1.0,1.0,-0.5055669417317007,19.940895061043424,-0.5082065845194715,-43.678668229373535,1.0,29.79907331548199,1.0,0.014309339455842856,4.542667768151773,0.9258489099103249,1.0,1.1775381598088774,6.368304303681133
2.6999999999999997,2.6999999999999997,1.0,18.87198229065589,-0.04134727248139059,8.76310681972564,0.013500310251867426,-0.003616263120312015,-0.005383903629023217,20.807341644469943,0.01497738809467842,1.0,0.0,273.926491723791,0.3353045828975088,29.432189444091684,133.32072356648513,0.01833318667105896,2.2266602642320685,1.0,30.262173767115794,0.0,1.0,135.75718537585374,11358.603872136242,1.0,1.0,1.404456400066046,19.754041793486696,-0.4893582804256299,-43.66952325572631,1.0,29.84677882395932,1.0,-0.00896441495211256,4.571173661125188,0.9255117288768168,1.0,0.24476098953683767,5.4331998757599544
2.73,2.73,1.0,18.851911069998568,-0.001968595247064317,8.928196133632918,0.01170191779157127,-0.005851073147007743,-0.004464764074279101,20.8592243639863,0.013824039033918439,1.0,0.0,302.74394678997345,1.0740873040938002,32.33799107898489,137.1330403563614,0.08649542276772239,2.3517272149620823,1.0,30.262173767115794,0.0,1.0,137.20682885418927,11427.452025494997,1.0,1.0,1.404456400066046,19.754041793486696,-0.4893582804256299,-43.66952325572631,1.0,29.84677882395932,1.0,-0.00896441495211256,4.571173661125188,0.9255117288768168,1.0,0.24476098953683767,5.4331998757599544
2.76,2.76,1.0,18.86608136230831,0.03438522846543746,8.945646770284004,0.013208500807702866,-0.005570319577271981,-0.0075355432048970035,20.879530752674167,0.016194979628665673,1.0,0.0,302.74394678997345,1.0740873040938002,32.33799107898489,137.1330403563614,0.08649542276772239,2.3517272149620823,1.0,29.80281866702763,0.0,1.0,137.71681921680292,11592.455379807083,1.0,1.0,-1.4072231510820727,19.745595877620907,-0.519323562431763,-43.7617431296765,1.0,29.421526983489734,1.0,0.025606852351404502,4.585628110506795,0.9251671877583068,1.0,0.821947550393876,5.580052460059713
2.79,2.79,1.0,18.913211143563043,0.04203907949216922,8.975122235182196,0.01685816707221363,-0.00904301505477451,-0.00594770299716206,20.934759186139775,0.020033698841152546,1.0,0.0,302.74394678997345,1.0740873040938002,32.33799107898489,137.1330403563614,0.08649542276772239,2.3517272149620823,1.0,29.80281866702763,0.0,1.0,137.9798627726078,11556.443407528051,1.0,1.0,-1.4072231510820727,19.745595877620907,-0.519323562431763,-43.7617431296765,1.0,29.421526983489734,1.0,0.025606852351404502,4.585628110506795,0.9251671877583068,1.0,0.821947550393876,5.580052460059713
2.82,2.82,1.0,18.85576432360643,0.022491107065817702,9.131818352790782,0.011193995308458726,-0.007842607900655257,-0.002143585350390666,20.95066730454313,0.01383499142766723,1.0,0.0,302.74394678997345,1.0740873040938002,32.33799107898489,137.1330403563614,0.08649542276772239,2.3517272149620823,1.0,30.415305873829993,0.0,1.0,138.51117350027863,11829.189632745472,1.0,1.0,-1.80588242195899,19.760599788864987,-0.5731010262144316,-43.7131636272351,1.0,30.10495881065699,1.0,0.00769593048614774,4.598285111040053,0.9248138473891794,1.0,0.38538103354040076,5.601993373219728
2.85,2.85,1.0,18.88488208371995,0.05113995572208972,9.215419796542726,0.013734408230977954,-0.010304946521940554,-0.0013524623867747112,21.01345637056383,0.017223676924015094,1.0,0.0,302.74394678997345,1.0740873040938002,32.33799107898489,137.1330403563614,0.08649542276772239,2.3517272149620823,1.0,30.415305873829993,0.0,1.0,139.67067275532477,12096.892142003357,1.0,1.0,-1.80588242195899,19.760599788864987,-0.5731010262144316,-43.7131636272351,1.0,30.10495881065699,1.0,0.00769593048614774,4.598285111040053,0.9248138473891794,1.0,0.38538103354040076,5.601993373219728
2.88,2.88,1.0,18.77773914414039,-0.04025549240085795,9.285445451069329,0.015657656540018883,-0.008473667293684673,-0.0022736603097882856,20.94814085055843,0.01794811346447208,1.0,0.0,302.74394678997345,1.0740873040938002,32.33799107898489,137.1330403563614,0.08649542276772239,2.3517272149620823,1.0,29.856241264245007,0.0,1.0,139.51017912380152,11860.54696605298,1.0,1.0,0.30464004269554495,19.783404099286496,-0.5636986183735551,-43.744637391284975,1.0,30.318397192016377,1.0,0.022792951527309507,4.61944049009295,0.9244502383033572,1.0,0.18028446372987442,5.758330905003227
2.9099999999999997,2.9099999999999997,1.0,18.747143820524453,-0.030067730446462874,9.398606260905634,0.01869782234396135,-0.009663568973526928,-0.003833815300728997,20.97117319425351,0.02139372023451172,1.0,0.0,302.74394678997345,1.0740873040938002,32.33799107898489,137.1330403563614,0.08649542276772239,2.3517272149620823,1.0,29.856241264245007,0.0,1.0,140.51962166900546,11828.792844828817,1.0,1.0,0.30464004269554495,19.783404099286496,-0.5636986183735551,-43.744637391284975,1.0,30.318397192016377,1.0,0.022792951527309507,4.61944049009295,0.9244502383033572,1.0,0.18028446372987442,5.758330905003227
2.94,2.94,1.0,18.75151543863344,0.0058405832632643,9.515719558130666,0.020687575967735954,-0.009114757767074792,-0.0034163273681666268,21.02779788914454,0.022863199716132925,1.0,0.0,335.19803383510333,-2.090458285459881,30.452828005915162,141.22903826255296,0.07699288729884413,2.832746205571129,1.0,31.940050433780577,0.0,1.0,141.12795172239902,12397.437421569313,1.0,1.0,0.1967772677252682,19.67988760677592,-0.6621027297535922,-43.676696235571086,1.0,30.560512776792923,1.0,-0.011133342126332508,4.623397926826392,0.9240748717610542,1.0,0.20949991822549804,5.796703877127509
2.9699999999999998,2.9699999999999998,1.0,18.70519240177791,0.030159561991255614,9.514572712875262,0.02034877234945537,-0.0073847246455824266,-0.004388500730854948,20.986000721797854,0.02208768056826579,1.0,0.0,335.19803383510333,-2.090458285459881,30.452828005915162,141.22903826255296,0.07699288729884413,2.832746205571129,1.0,31.940050433780577,0.0,1.0,141.14394532168978,12132.29242936308,1.0,1.0,0.1967772677252682,19.67988760677592,-0.6621027297535922,-43.676696235571086,1.0,30.560512776792923,1.0,-0.011133342126332508,4.623397926826392,0.9240748717610542,1.0,0.20949991822549804,5.796703877127509
3.0,3.0,1.0,18.653778675975175,0.05282358961330092,9.59555636658251,0.017338660829780257,-0.012524492856336071,-0.0036419710968421514,20.97715307681545,0.021696913009661145,1.0,0.0,335.19803383510333,-2.090458285459881,30.452828005915162,141.22903826255296,0.07699288729884413,2.832746205571129,1.0,31.25097044991383,0.0,1.0,141.6697709886472,12492.290299079945,1.0,1.0,-0.39937967350961623,19.738048760185922,-0.732663465387731,-43.71874368024664,1.0,30.486207839190886,1.0,-0.011368773191214104,4.6331745798220485,0.923686249107397,1.0,1.218731917352566,5.490982359807168
