time_s,x_m,y_m,altitude_m,vx_mps,vy_mps,vz_mps,speed_mps,mass_kg,roll_deg,pitch_deg,yaw_deg,p_dps,q_dps,r_dps,alpha_deg,beta_deg,qbar_pa,mach,airspeed_mps,load_factor_g,density_kgpm3,pressure_pa,temperature_k,wind_x_mps,wind_y_mps,wind_z_mps,thrust_n,mass_flow_kgps,propulsion_throttle_actual,propulsion_health,energy_j_per_kg,target_distance_m,guidance_mode,pitch_command_deg,heading_command_deg,roll_command_deg
0.0,0.0,0.0,20.0,85.0,0.0,8.0,85.37564055396598,18.0,0.0,6.000000000000002,0.0,0.0,0.0,0.0,0.5847693590724268,0.08811800200359583,4448.934745633113,0.25074697923505807,85.30843941744567,1.7465921667440785,1.2226496753673843,101084.96761777384,288.02,0.0724,-0.1312,-0.0508,326.8,0.17539118863220368,0.86,nominal,3840.633,nan,pitch_program,13.0,0.0,0.0
0.03,2.565315651091616,-1.601070928043528e-05,20.23292478961755,85.51052170305388,-0.0005336903093478427,7.7641596539183535,85.86228215779504,17.994738264341034,-0.0008833118927697195,6.26868025150295,0.001802343513709266,-0.02302376409959119,-8.95602525572747,0.05966524243398118,1.0424210423057985,0.08548318635788885,4499.716767667039,0.2521774682762428,85.79489092144536,1.774782820914806,1.2226223230518514,101082.17485808964,288.01848598886744,0.0724,-0.1312,-0.0508,332.605,0.1785066900092231,0.86,nominal,3884.5829605605068,nan,pitch_program,12.985,0.0,0.0
0.06,5.146126351621778,-4.730747583495143e-05,20.459319423982013,86.02702335100537,-0.001043225551817205,7.546487812148783,86.3573866326538,17.98938306364076,-0.002649462650290822,6.5833962239402055,0.0053757215845760785,-0.045540494685524305,-10.490562435427366,0.11804126691985709,1.532306329415372,0.08113913709264249,4551.682974651466,0.25363286376784694,86.28981978367875,1.8038845035489406,1.2225957380198884,101079.46045460267,288.0170144237441,0.0724,-0.1312,-0.0508,338.40999999999997,0.18162219138624247,0.86,nominal,3929.43649784002,nan,pitch_program,12.97,0.0,0.0
0.09,7.742600285894173,-9.231535704350155e-05,20.679741723488814,86.54913114241317,-0.0015002627069516706,7.347409983560012,86.8604428795061,17.983934397899173,-0.005275096236481669,6.777942430905418,0.010641804590182423,-0.06709998366669397,-6.48489183814137,0.17389599259326133,1.8881060597956465,0.07519139851694524,4604.794297043573,0.2551116649252263,86.79271491352205,1.8336033925574866,1.2225698547311803,101076.81771431975,288.0155816787973,0.0724,-0.1312,-0.0508,344.215,0.18473769276326188,0.86,nominal,3975.1672577846216,nan,pitch_program,12.955,0.0,0.0
0.12,10.354945379472957,-0.0001485884991722624,20.894501509405266,87.07816978595949,-0.0018757714042920278,7.158659530548466,87.3719294914861,17.978392267116273,-0.008704120352961812,6.876772136029542,0.017487208724791113,-0.08717517922821076,-3.294351935896337,0.22616028326980497,2.1399505303169,0.06777029040221424,4659.115781519632,0.25661526251081945,87.3040492046394,1.863635548029003,1.2225446367714752,101074.24291822444,288.01418574018885,0.0724,-0.1312,-0.0508,350.02,0.1878531941402813,0.86,nominal,4021.8320947598186,nan,pitch_program,12.94,0.0,0.0
0.15,12.983396286886464,-0.00021283869819100295,21.10377500868213,87.61503024711688,-0.002141673300624685,6.975783309228824,87.89229250945321,17.972756671292064,-0.012862076255131612,6.962383164446588,0.025776052602863135,-0.10531161468920294,-2.853753048712634,0.27374533328475426,2.373381631055405,0.0590357665468917,4714.710752813209,0.2581449590795311,87.82426566522858,1.8942017864186858,1.2225200634164888,101071.73394936006,288.0128254624435,0.0724,-0.1312,-0.0508,355.825,0.1909686955173007,0.86,nominal,4069.4848764725352,nan,pitch_program,12.925,0.0,0.0
0.18,15.628185211343558,-0.0002809737201045453,21.30776761752823,88.15963081523645,-0.0022711673971180786,6.799753628203293,88.42147454120663,17.967027610426545,-0.017664071757167138,7.060837109844564,0.03534019721233793,-0.12114984946772404,-3.2818831640872284,0.31554648322168816,2.613877084600185,0.04918018536272627,4771.589936049714,0.2597005880961306,88.35330746697323,1.9252438530148421,1.2224961105189731,101069.2883413486,288.01149951048603,0.0724,-0.1312,-0.0508,361.63,0.19408419689432013,0.86,nominal,4118.13639932706,nan,pitch_program,12.91,0.0,0.0
0.21,18.289535872725178,-0.00034814729789382775,21.50673467222078,88.71168871272064,-0.002239119259642749,6.632235156418333,88.95926181374446,17.961205084519715,-0.023009732625283094,7.150521327367381,0.04597133978248747,-0.13435299529556427,-2.989599157811111,0.3505887186758435,2.8388030329964047,0.03842173127529228,4829.747223817197,0.26128152475110844,88.89096182012956,1.9564852864931945,1.22247274807001,101066.903029404,288.01020622463056,0.0724,-0.1312,-0.0508,367.435,0.19719969827133954,0.86,nominal,4167.7841507965,nan,pitch_program,12.895,0.0,0.0
0.24,20.96767370934617,-0.00040883855428611957,21.700921962039622,89.27126122069969,-0.0020230418797430607,6.4729096606280825,89.5056235300428,17.955289093571576,-0.028780538009089633,7.214628634705708,0.05743279948521121,-0.14459205453343926,-2.1370815646532435,0.37808486792193563,3.031643242944551,0.02699644895543448,4889.196092521656,0.26288767823698017,89.43719761649693,1.987748514642824,1.222449947184082,101064.57506351525,288.0089440072467,0.0724,-0.1312,-0.0508,373.24,0.20031519964835895,0.86,nominal,4218.441668109911,nan,pitch_program,12.88,0.0,0.0
0.27,23.662832309707003,-0.0004569547458868532,21.890535351988518,89.8386200120278,-0.0016038730533577876,6.320446331629914,90.06067782372585,17.949279637582126,-0.03484521583322944,7.258024216688104,0.0694746817487615,-0.15159518110769932,-1.4467403423828318,0.3973957755229331,3.1982031394144483,0.01515437472185561,4949.966536275205,0.26451939353819753,89.9921320462084,2.019091671466117,1.2224276836656238,101062.30197258228,288.00771152021207,0.0724,-0.1312,-0.0508,379.045,0.20343070102537836,0.86,nominal,4270.135663544051,nan,pitch_program,12.865,0.0,0.0
0.3,26.37525105486246,-0.00048594325587934134,22.075756358840696,90.41395817184859,-0.000966283666416272,6.174033561739267,90.6245139223156,17.943176716551363,-0.041065929087003475,7.291242338520393,0.08183657679260996,-0.1551794212639919,-1.1075412904767783,0.40801272552822326,3.3496054064607983,0.0031568848962281715,5012.085989021295,0.2661769316301168,90.55585374016265,2.0505996120373036,1.2224059361797708,101060.08157763859,288.0065075836675,0.0724,-0.1312,-0.0508,384.84999999999997,0.20654620240239774,0.86,nominal,4322.890477924413,nan,pitch_program,12.850000000000001,0.0,0.0
0.32999999999999996,29.105171180201317,-0.0004889138387176156,22.256762183811244,90.99733751129531,-9.901942794247832e-05,6.033527499018256,91.19714298285778,17.93698033047929,-0.04730085707180434,7.317475848884205,0.09424537006938788,-0.15524243560413387,-0.8747664791140127,0.4095953320218796,3.4891945064400263,-0.008728267543782845,5075.573760136506,0.26786032525020437,91.1283736824891,2.0822408586190564,1.2223846839000294,101057.91175167415,288.0053310458052,0.0724,-0.1312,-0.0508,390.655,0.20966170377941715,0.86,nominal,4376.723720987776,nan,pitch_program,12.835,0.0,0.0
0.36,31.852835183431573,-0.0004587783199220115,22.43372729313965,91.58880010767514,0.0010045172931868063,5.898836977613608,91.77856276855283,17.930690479365907,-0.053405906473035954,7.3348767776523935,0.10642035862809221,-0.15175073904074163,-0.5803844872151775,0.4020099497200361,3.615239065174681,-0.02023360523670737,5140.447974212272,0.2695695678505119,91.7096894928113,2.1139369394411816,1.2223639063225986,101055.79040067462,288.00418077259457,0.0724,-0.1312,-0.0508,396.46,0.21277720515643656,0.86,nominal,4431.652003689864,nan,pitch_program,12.82,0.0,0.0
0.39,34.61848807808707,-0.00038840511234988794,22.606816560359697,92.18842982184988,0.0023457735857374522,5.769642240668194,92.36880084804662,17.924307163211214,-0.059238135810091026,7.34290226233215,0.11808390691012109,-0.14474510028100657,-0.2678950739105599,0.38533685104615334,3.7274555407231875,-0.031098280257033088,5206.730381883478,0.27130474004932253,92.2998284532021,2.145657673185481,1.2223435840714394,101053.71554581457,288.00305569235763,0.0724,-0.1312,-0.0508,402.265,0.21589270653345596,0.86,nominal,4487.6948226747,nan,pitch_program,12.805,0.0,0.0
0.42,37.40237779142784,-0.00027077915883106697,22.77618350457937,92.79632377802574,0.003920865117294032,5.64556480732245,92.96789835251224,17.91783038201521,-0.06465996793416681,7.34338315757177,0.12896963738180076,-0.13435037031125366,-0.016418941349414493,0.3598641585274671,3.8279663507252772,-0.04107377936501905,5274.44463670473,0.2730659621983509,92.89883137294794,2.1555093939817427,1.2223236991049895,101051.68534455803,288.0019548072202,0.0724,-0.1312,-0.0508,404.1773684210526,0.21691906078826353,0.86,nominal,4544.873122006707,nan,pitch_program,12.79,0.0,0.0
0.44999999999999996,40.20456057716684,-9.959847184656749e-05,22.941948700668828,93.40609285796658,0.005706022899483316,5.525506536315162,93.56938301620158,17.911322810191564,-0.06954273684846322,7.338157619421576,0.13882693868558302,-0.12077659056966246,0.17380283064451144,0.32608739376314166,3.9190989166226973,-0.049932420610358394,5342.870375440853,0.2748342084872156,93.50022545615225,2.1544807862305935,1.2223042372507842,101049.69834943107,288.00087733344566,0.0724,-0.1312,-0.0508,404.14342105263154,0.21690084148196515,0.86,nominal,4602.598380241731,nan,pitch_program,12.775,0.0,0.0
0.48,43.024997347891734,0.00013070007706358368,23.1042147520434,94.01455902416315,0.007676618297005039,5.408868379152373,94.17002296156309,17.904815784947104,-0.07376973607136739,7.327919128212135,0.14742589157598385,-0.10431528686420566,0.34092723410649184,0.28471400490738036,4.001861045887261,-0.05747050842648721,5411.641082965817,0.27659997821383797,94.10077846461517,2.153517452201786,1.222285186447311,101047.7533285126,287.99982260411167,0.0724,-0.1312,-0.0508,404.1094736842105,0.2168826221756668,0.86,nominal,4660.571559888786,nan,pitch_program,12.76,0.0,0.0
0.51,45.86365058774114,0.00042500200668377404,23.263078800692508,94.62177466164684,0.009810064320673013,5.2954682883036295,94.76983866583959,17.898309306281835,-0.0772392972553511,7.3129490390466225,0.15456404312829228,-0.08533432233386021,0.49869154192790377,0.23665634886145265,4.076711581686964,-0.06351244705860996,5480.757253362404,0.27836333098821336,94.70051064992855,2.1526015549463864,1.2222665352751463,101045.84911546443,287.9987899877955,0.0724,-0.1312,-0.0508,404.0755263157895,0.21686440286936848,0.86,nominal,4718.794032095442,nan,pitch_program,12.745,0.0,0.0
0.54,48.72048438554538,0.0007873902120648674,23.41863219696691,95.22779326014144,0.012079606846036445,5.1851132091467305,95.36885316551106,17.891803374195753,-0.0798677644787601,7.293816335869405,0.16007292480577084,-0.06427202391772721,0.6375064626455753,0.1830137999393086,4.144398944219274,-0.06791677309499823,5550.219741322091,0.2801243339197553,95.29944481827599,2.1517272165472185,1.222248272995647,101043.98461347936,287.9977788907197,0.0724,-0.1312,-0.0508,404.0415789473684,0.2168461835630701,0.86,nominal,4777.26740648679,nan,pitch_program,12.73,0.0,0.0
0.57,51.595464286879526,0.0012210380693556718,23.57096111852776,95.83266337780478,0.014454928576360146,5.0776307186949845,95.96708765375784,17.885297988688862,-0.08159199208953523,7.271238364466602,0.16382288844420462,-0.04162914211564627,0.7524236067273441,0.12505073365142466,4.205802823931727,-0.07058040257346826,5620.02925730557,0.2818830487339049,95.8976019469789,2.1508934611482786,1.2222303894782243,101042.15878785412,287.99678875272957,0.0724,-0.1312,-0.0508,404.0076315789474,0.21682796425677175,0.86,nominal,4835.993122225031,nan,pitch_program,12.715,0.0,0.0
0.6,54.48855706892969,0.0017281235349364526,23.720147522091594,96.43642606833876,0.016902848852692692,4.9728801187944915,96.56455920893735,17.878793149761158,-0.08237128131977425,7.245762175751838,0.16572680619686067,-0.017957885554853125,0.8491153556022797,0.06417036201937963,4.261609494563115,-0.07144210289365746,5690.186093164862,0.28363952511701895,96.4949989195776,2.150095740565101,1.2222128750885497,101040.37065457388,287.99581904110636,0.0724,-0.1312,-0.0508,403.9736842105263,0.21680974495047337,0.86,nominal,4894.972232305704,nan,pitch_program,12.7,0.0,0.0
0.63,57.39973060044586,0.002306565204733716,23.866269693256758,97.03911771720561,0.01928138899324212,4.870739038838845,97.1612826072717,17.872288857412645,-0.08227273032721645,7.217766236782881,0.166409778793418,0.006150859781484822,0.9331645715741792,0.023925439618280923,4.312323394248629,-0.0712073783861998,5760.690303967672,0.2853938056000493,97.09165018685947,2.1493284246237345,1.2221957206239586,101038.61927371583,287.9948692469938,0.0724,-0.1312,-0.0508,403.9397368421053,0.21679152564417503,0.86,nominal,4954.205572632436,nan,pitch_program,12.685,0.0,0.0
0.6599999999999999,60.32895374143659,0.0029550506690738535,24.00940249705892,97.64077136635792,0.021616182144671255,4.771093460072156,97.75727099853728,17.86578511164332,-0.08133876539384619,7.187606376950508,0.16621764776974451,0.03032918643679433,1.005336731481254,-0.004918435862344221,4.358417672860637,-0.07020384659293727,5831.541823744886,0.2871459286311695,97.68756881205174,2.148587521437945,1.2221789172839874,101036.90374643965,287.9939388837691,0.0724,-0.1312,-0.0508,403.9057894736842,0.21677330633787664,0.86,nominal,5013.693823538511,nan,pitch_program,12.67,0.0,0.0
0.69,63.27619624932494,0.0036724601621270134,24.149617703147992,98.2414169296115,0.023913649768438665,4.673840202969072,98.35253608546803,17.859281912453184,-0.0796033305088436,7.15564527616832,0.16536750578239515,0.05431005132109035,1.0654084920416467,-0.02662004544005775,4.400362813073813,-0.0686423506607581,5902.740451098794,0.2888959283530211,98.28276639481719,2.14787113981345,1.2221624566321625,101035.22321108523,287.99302748492954,0.0724,-0.1312,-0.0508,403.8718421052631,0.21675508703157828,0.86,nominal,5073.437525670222,nan,pitch_program,12.655,0.0,0.0
0.72,66.24142866932112,0.004457632514022656,24.286984389925315,98.84108066653945,0.026172411729854753,4.578889559244162,98.94708758685245,17.852779259842237,-0.07709854530210242,7.122202577512517,0.16401537172952504,0.07789159811125923,1.1148167675782041,-0.043197283042601196,4.438575569966889,-0.0666772255089548,5974.285780799902,0.2906438330753873,98.87725255133151,2.1471774073694347,1.2221463305485152,101033.57683832345,287.99213460146547,0.0724,-0.1312,-0.0508,403.8378947368421,0.21673686772527995,0.86,nominal,5133.437026427586,nan,pitch_program,12.64,0.0,0.0
0.75,69.22462223810217,0.005309286621827999,24.421569282924455,99.43978562603472,0.028388470260178093,4.486163099971359,99.54093344256185,17.84627715381048,-0.07385705512522549,7.08754153126459,0.16228617835480316,0.10092044673997044,1.1554425893059075,-0.05567513286038652,4.47340724607961,-0.06443301377124877,6046.177221968155,0.29238966589483745,99.4710351248213,2.1465041129110656,1.2221305311898296,101031.96382709684,287.99125979966095,0.0724,-0.1312,-0.0508,403.80394736842106,0.21671864841898159,0.86,nominal,5193.692497716655,nan,pitch_program,12.625,0.0,0.0
0.78,72.22574880685644,0.0062260124844896285,24.553437006491098,100.03755229180902,0.030557528755387663,4.395590785554774,100.13408021574395,17.83977559435791,-0.06991245946613414,7.051893801613859,0.16028666669851813,0.12328339268725048,1.1883397442721266,-0.06465278696947915,4.5051704543581,-0.062015945920535095,6118.4140408163385,0.2941334458810081,100.06412058895307,2.1458495120891,1.2221150509600645,101030.38340159883,287.9904026594578,0.0724,-0.1312,-0.0508,403.77,0.21670042911268322,0.86,nominal,5254.203973346227,nan,pitch_program,12.61,0.0,0.0
0.8099999999999999,75.24478077123439,0.00720629198339491,24.682650313367517,100.63439881259814,0.03267598329684272,4.307110229213988,100.72653320063954,17.83327458148453,-0.06619299072670928,7.01547247386865,0.1581102795016646,0.11509879909950396,1.2141289611491761,-0.07055826047871791,4.534153691956275,-0.059447632760146134,6190.995368884759,0.29587518839581783,100.65651415625705,2.1452124985069134,1.2220998824833742,101028.83480851847,287.9895627729631,0.0724,-0.1312,-0.0508,403.73605263157896,0.21668220980638486,0.86,nominal,5314.971358005355,nan,pitch_program,12.595,0.0,0.0
0.84,78.28169100320152,0.008248574312083545,24.80927031299118,101.23034106557108,0.03474274428962118,4.220666654122126,101.31829640452581,17.82677411519034,-0.062195667645861805,6.978466909865385,0.15584152011334876,0.12403166495929505,1.2336021691614139,-0.07368002032932061,4.560613915555394,-0.05685132148917744,6263.920196358266,0.29761490504693155,101.24821976211341,2.1445921509865915,1.2220850185772862,101027.31731430143,287.98873974296555,0.0724,-0.1312,-0.0508,403.7021052631579,0.2166639905000865,0.86,nominal,5375.994423872568,nan,pitch_program,12.58,0.0,0.0
0.87,81.33645278995111,0.009351287391167695,24.933356673838176,101.82539289165335,0.036757102636138364,4.136212028233226,101.90937267281487,17.82027419547534,-0.05861502641377295,6.9410412123660015,0.15355454921007783,0.11011746979960738,1.2476023789939112,-0.07435537924044482,4.5847784902264825,-0.054245006340474404,6337.187382456719,0.2993526040455057,101.83924018629436,2.1439875973089992,1.2220704522289214,101025.83020272141,287.98793318162,0.0724,-0.1312,-0.0508,403.66815789473685,0.21664577119378817,0.86,nominal,5437.272821508828,nan,pitch_program,12.565,0.0,0.0
0.8999999999999999,84.40903978021565,0.010512905907000294,25.054967796010548,102.41956634215154,0.03872061719441998,4.053704072412422,102.49976383244632,17.813774822339525,-0.05486838708247664,6.903339514431261,0.15131516754939106,0.11589153615740655,1.2567960794823674,-0.07285733840160805,4.606848718233202,-0.05173861535240864,6410.79566932031,0.3010882906329726,102.42957719801753,2.1433981169806153,1.2220561765747204,101024.37277280969,287.9871427093259,0.0724,-0.1312,-0.0508,403.6342105263158,0.2166275518874898,0.86,nominal,5498.806092790382,nan,pitch_program,12.55,0.0,0.0
0.9299999999999999,87.49942593660037,0.011731953351782811,25.174160963672,103.01287187949066,0.04063491482608391,3.9731055887151205,103.08947081092103,17.8072759957829,-0.050738060251043535,6.865490304965449,0.14917888025109344,0.12914189702726697,1.261704979222419,-0.06953341317495461,4.627006378372674,-0.04940332492209674,6484.743692833977,0.3028219674212242,103.01923167155273,2.1428231991689,1.222042184882522,101022.94433702505,287.98636795373613,0.0724,-0.1312,-0.0508,403.6002631578947,0.21660933258119142,0.86,nominal,5560.5936816522635,nan,pitch_program,12.535000000000002,0.0,0.0
0.96,90.6075854917764,0.013007015772829061,25.290992485357766,103.60531850586756,0.04250208070154167,3.89438405619218,103.67849370195465,17.800777715805463,-0.04615204060783634,6.827606982605876,0.14719021418431755,0.14496498251034623,1.2628326567568635,-0.06474843156582105,4.645414372133652,-0.04728763881305409,6559.029987654634,0.304553634586283,103.60820365199217,2.1422624392158385,1.2220284705350781,101021.54421957006,287.98560854884516,0.0724,-0.1312,-0.0508,403.56631578947366,0.21659111327489305,0.86,nominal,5622.634939609659,nan,pitch_program,12.520000000000001,0.0,0.0
0.99,93.73349290902486,0.014336756499322107,25.4055178191219,104.19691390828169,0.044324690883101536,3.817511125471131,104.26683184925676,17.794279982407215,-0.04202670825767908,6.789788670622185,0.14538234594177896,0.1303667018071611,1.2606561177949869,-0.05886721635379996,4.66221857094092,-0.045348229544266774,6633.652994780952,0.30628329011374467,104.19649243864448,2.1417154952341932,1.22201502701535,101020.17175488951,287.98486413417567,0.0724,-0.1312,-0.0508,403.53236842105264,0.21657289396859472,0.86,nominal,5684.929133261484,nan,pitch_program,12.505,0.0,0.0
1.02,96.87712284686306,0.01571997797465814,25.51779168269019,104.78766459460665,0.046107382511201014,3.742462118943078,104.85448392793809,17.787782795588157,-0.037807321070667456,6.752122164593501,0.1437803761420143,0.1343504661712516,1.2555868849655596,-0.05215182600028579,4.677548131999703,-0.04365158866944764,6708.611069442304,0.30801093004293506,104.78409666800293,2.141182079806106,1.2220018478935606,101018.82628634805,287.9841343540625,0.0724,-0.1312,-0.0508,403.49842105263156,0.21655467466229633,0.86,nominal,5747.475451702167,nan,pitch_program,12.49,0.0,0.0
1.05,100.03845012792172,0.01715560213629424,25.62786814986004,105.37757603528871,0.047854138721203296,3.6692155723282296,105.44144803637639,17.781286155348287,-0.03327934964029975,6.714683916955502,0.14240013984523947,0.14553796974450472,1.2479697371581187,-0.044916370856589456,4.691519384056204,-0.04222819837845473,6783.902490014066,0.30973654872601064,105.37101440180835,2.1406619883292928,1.2219889268158606,101017.50716507265,287.98341885702587,0.0724,-0.1312,-0.0508,403.46447368421053,0.216536455355998,0.86,nominal,5810.273015195756,nan,pitch_program,12.475,0.0,0.0
1.08,103.21744971075364,0.018642662657637015,25.735800737307027,105.96665276106401,0.049568684044759205,3.5977529148996688,106.02772175461955,17.774790061687607,-0.028363389129280867,6.677540845501765,0.14124833206080073,0.1593885287426358,1.2381227594397353,-0.037465672058545875,4.704236689709737,-0.04108873800274968,6859.52546351374,0.3114601390005894,105.95724318570235,2.1401550600720336,1.2219762574941317,101016.21374891128,287.98271729520746,0.0724,-0.1312,-0.0508,403.43052631578945,0.21651823604969964,0.86,nominal,5873.320880538024,nan,pitch_program,12.46,0.0,0.0
1.1099999999999999,106.41409666458344,0.02018029902289397,25.84164248141688,106.55489846099326,0.051254545508565216,3.5280581369951447,106.6133022060523,17.768294514606115,-0.023979192579723405,6.64075117894121,0.14032288096441675,0.14256262952618262,1.2263361294485928,-0.030080098887264248,4.715794132173271,-0.0401531999460529,6935.4781317286415,0.3131816923707072,106.54278011072051,2.1396611679180024,1.2219638336969527,101014.94540151008,287.9820293238708,0.0724,-0.1312,-0.0508,403.3965789473684,0.21650001674340127,0.86,nominal,5936.618046879905,nan,pitch_program,12.445,0.0,0.0
1.14,109.62836614653415,0.0217678031159151,25.945446006236004,107.14231606502352,0.0529168031007043,3.4601174939708432,107.19818610889612,17.761799514103814,-0.019548969752769485,6.604365463324444,0.13961702279476076,0.1449605812659475,1.212866019178331,-0.022910899314967977,4.726274975239412,-0.039458812147631465,7011.7585765598305,0.3149011991640296,107.12762186671482,2.1391801930328667,1.2219516492416087,101013.70149149733,287.98135460095943,0.0724,-0.1312,-0.0508,403.3626315789474,0.21648179743710294,0.86,nominal,6000.16346059582,nan,pitch_program,12.43,0.0,0.0
1.17,112.86023338183524,0.023404579974658363,26.047263582082145,107.72890784337002,0.05455922862477542,3.3939191948713896,107.78236984468312,17.7553050601807,-0.014840426791299769,6.568427739502531,0.1391184558059677,0.15504522270473964,1.1979290681970496,-0.01614971346334685,4.7357544166090735,-0.03900996876392766,7088.364827089629,0.31661864872221773,107.71176480706333,2.138712051390118,1.2219396979872057,101012.48139178015,287.9806927867164,0.0724,-0.1312,-0.0508,403.3286842105263,0.21646357813080455,0.86,nominal,6063.956022075254,nan,pitch_program,12.415,0.0,0.0
1.2,116.10967364597776,0.025090124035270417,26.147147177783864,108.31467547141746,0.056184802020401756,3.3294531900573108,108.36584949953212,17.748811152836776,-0.009758947229896116,6.532976081923315,0.13880973635063878,0.168208670258283,1.1817241255974351,-0.009969783836796331,4.744300123807944,-0.03879515983200195,7165.294863898192,0.31833402952387235,108.29520499044794,2.1382566708146533,1.2219279738285247,101011.28447891671,287.9800435433444,0.0724,-0.1312,-0.0508,403.2947368421053,0.21644535882450622,0.86,nominal,6127.994589748637,nan,pitch_program,12.4,0.0,0.0
1.23,119.37666224881045,0.026824000090901405,26.245148506398497,108.89962009442273,0.05779586852103292,3.266710953821065,108.94862090695702,17.74231779207204,-0.004263707527774621,6.498043166687706,0.1386691181141011,0.182642781667301,1.1644311064178028,-0.0045145082198957244,4.751972901760031,-0.03879453412310218,7242.546623709233,0.3200473293106427,108.87793822371438,2.137813981285375,1.221916470690646,101010.11013256708,287.9794065347084,0.0724,-0.1312,-0.0508,403.26078947368416,0.2164271395182078,0.86,nominal,6192.277984364188,nan,pitch_program,12.385,0.0,0.0
1.26,122.66117452045715,0.028605825034528066,26.34131906480433,109.48374238822362,0.05939416478755537,3.2056852801944915,109.53067968890443,17.735824977886494,0.001666029375226022,6.46365697130711,0.13867156597140248,0.19766710669059548,1.146206546492632,0.00010705720107675911,4.758827520305856,-0.03898363960708038,7320.118003967827,0.32175853520766984,109.45996010281053,2.137383917995424,1.22190518252429,101008.9577350174,287.97878142607874,0.0724,-0.1312,-0.0508,403.22684210526313,0.21640892021190947,0.86,nominal,6256.804993163554,nan,pitch_program,12.37,0.0,0.0
1.29,125.96318579882029,0.03043524920722555,26.43571016810396,110.06704261210457,0.06098080575658286,3.146370109987582,110.11202129151266,17.729332710280136,0.007011044870062665,6.4298413237899235,0.13878949957026518,0.178608568424653,1.1271885770820522,0.0038209095524622044,4.764914091309834,-0.03924943097151157,7398.006866884647,0.3234676338284211,110.0412660484189,2.1369664302536147,1.2218941033017765,101007.8266707669,287.9781678839073,0.0724,-0.1312,-0.0508,403.1928947368421,0.21639070090561113,0.86,nominal,6321.574373571305,nan,pitch_program,12.355,0.0,0.0
1.3199999999999998,129.28267141814507,0.032312001573466045,26.528372980139036,110.649520644159,0.06255841220801656,3.088760401169261,110.69264100721844,17.72284098925297,0.0124052596694895,6.396616214393877,0.1389973561371765,0.18058106817951614,1.1075048295315335,0.006697540070243559,4.77027666197092,-0.03961719312213987,7476.211042137495,0.32517461134692466,110.62185133050244,2.136561635976275,1.2218832270134279,101006.71632616056,287.97756557562906,0.0724,-0.1312,-0.0508,403.158947368421,0.21637248159931274,0.86,nominal,6386.584855462149,nan,pitch_program,12.34,0.0,0.0
1.3499999999999999,132.61960668935922,0.03423997955504136,26.619358539136172,111.23117570713781,0.064265932719177,3.03285196657116,111.27253376441739,17.71634981480499,0.018206766373366805,6.363998251205468,0.1384113698309748,0.1912129197495718,1.087260245844852,-0.019702346171366368,4.774955389984002,-0.03916142888936574,7554.728319365612,0.3268794533468053,111.20171101692439,2.1361689036278224,1.2218725476645527,101005.62608908092,287.9769741694956,0.0724,-0.1312,-0.0508,403.125,0.2163542622930144,0.86,nominal,6451.835117594524,nan,pitch_program,12.325,0.0,0.0
1.38,135.9739669201536,0.036215566008629976,26.708717776740134,111.81200769314584,0.0658528817862874,2.97864125346532,111.85169513552752,17.7098591869362,0.024447504235013472,6.332001704455921,0.1376208239862002,0.20511098682501705,1.066541765030787,-0.026586958779327634,4.778987121307513,-0.038603125525548995,7633.556500251269,0.3285821459573013,111.78084035989602,2.1357886292231005,1.2218620592732066,101004.55534871915,287.9763933344512,0.0724,-0.1312,-0.0508,403.0910526315789,0.21633604298671602,0.86,nominal,6517.323899530765,nan,pitch_program,12.31,0.0,0.0
1.41,139.34572738520805,0.0382365659946295,26.79650153890118,112.39201550181537,0.06736666619998403,2.926125405368182,112.43012006004423,17.703369105646598,0.031133663109849375,6.300637710001603,0.13689114823840723,0.2201960612187338,1.0454546609598292,-0.024681967128047124,4.782404684422931,-0.0381828468625082,7712.693335726313,0.33028267449458754,112.3592343337462,2.135420645542873,1.2218517558677249,101003.503495323,287.9758227399971,0.0724,-0.1312,-0.0508,403.0571052631579,0.2163178236804177,0.86,nominal,6583.049860174446,nan,pitch_program,12.295,0.0,0.0
1.44,142.73486332129102,0.04030153534386459,26.882760600387677,112.97119786943237,0.06883231164116972,2.875302049549922,113.00780348196187,17.696879570936186,0.03826648882240274,6.269915172037957,0.1363282293817429,0.2357065996889948,1.024073141742786,-0.019271388204275243,4.7852379280875015,-0.037993130128895894,7792.136560339681,0.33198102421441156,112.93688789095009,2.1350648274072737,1.2218416314850216,101002.46992002291,287.97526205609745,0.0724,-0.1312,-0.0508,403.02315789473687,0.21629960437411935,0.86,nominal,6649.011648150648,nan,pitch_program,12.28,0.0,0.0
1.47,146.14134992235464,0.042409440886681825,26.967545676912444,113.54955336878695,0.0702635180939078,2.8261692174922564,113.58474034683915,17.690390582804962,0.04584915628940767,6.239841170204941,0.1359588520708384,0.2514141087086561,1.0024574986641108,-0.012975136345918258,4.787514201468129,-0.03805357636119517,7871.883893654771,0.3336771803429224,113.51379597260728,2.1347210655787197,1.2218316801691558,101001.45401468531,287.97471095310004,0.0724,-0.1312,-0.0508,402.9892105263158,0.21628138506782096,0.86,nominal,6715.207901641929,nan,pitch_program,12.265,0.0,0.0
1.5,149.5651623348721,0.044559479378998484,27.050907435443406,114.12708041724854,0.07166794974388858,2.778725284365437,114.16092560533181,17.68390214125293,0.05276411967880748,6.210420892247893,0.13577034988000788,0.22981743622540882,0.9806702167110729,-0.007090287655907419,4.789259091881513,-0.03825394394115374,7951.933041613984,0.3353711281058366,114.08995351835581,2.1343892499234522,1.2218218959701093,101000.45517178785,287.9741691016696,0.0724,-0.1312,-0.0508,402.9552631578947,0.2162631657615226,0.86,nominal,6781.637248934844,nan,pitch_program,12.25,0.0,0.0
1.53,153.00627565331453,0.04675104899671352,27.132896502868675,114.70377728141484,0.07305232059050118,2.7329689141756854,114.73635421413657,17.677414246280083,0.05969861299309715,6.18165774688624,0.1357349160518146,0.23102229757061493,0.9587699197909967,-0.0021151872280267274,4.790494654545469,-0.0386200237889007,8032.281697524463,0.33706285274874215,114.66535547327304,2.134069221480337,1.2218122729427714,100999.47278431537,287.97363617273135,0.0724,-0.1312,-0.0508,402.9213157894737,0.21624494645522424,0.86,nominal,6848.298308665763,nan,pitch_program,12.235,0.0,0.0
1.56,156.46466491690418,0.04898364163009537,27.2135634707582,115.2796421196555,0.07441975444606176,2.6888989296508425,115.31102116879194,17.670926897886428,0.06693814394980852,6.15355398578297,0.13581750948417742,0.24161348596021312,0.9367945102853128,0.001701915456993638,4.791241563683416,-0.03913875440884688,8112.927546292564,0.3387523396245416,115.23999681762177,2.133761064897114,1.221802805146367,100998.50624570131,287.97311183744006,0.0724,-0.1312,-0.0508,402.8873684210526,0.21622672714892588,0.86,nominal,6915.1896937053025,nan,pitch_program,12.220000000000002,0.0,0.0
1.5899999999999999,159.94030509538396,0.05126125645613812,27.2929589047721,115.85467261599217,0.07592049420142473,2.6465144671300194,115.8849212352707,17.66444009607196,0.07470614629657278,6.126109446760673,0.1350538731550139,0.2562109133414008,0.9147860047326648,-0.026439301729781338,4.791518873281398,-0.03879018579509335,8193.868250781063,0.3404395739070064,115.8138724693965,2.133463937506635,1.221793486643351,100997.55494971487,287.97259576711895,0.0724,-0.1312,-0.0508,402.8534210526316,0.21620850784262752,0.86,nominal,6982.3099802959305,nan,pitch_program,12.205000000000002,0.0,0.0
1.6199999999999999,163.43317111814056,0.05357971368285259,27.371133331599843,116.42886742522013,0.07728190755714909,2.6058142275914467,116.4580500017128,17.657953840836683,0.08297562860309239,6.099325993715963,0.1340781644142041,0.27218613962730115,0.8927364423379991,-0.03356717340780093,4.791345605365604,-0.03834104337391818,8275.101509151242,0.34212454177972745,116.38697768881335,2.1331783325652296,1.2217843115009337,100996.61829061627,287.9720876333446,0.0724,-0.1312,-0.0508,402.8194736842105,0.21619028853632916,0.86,nominal,7049.657829787054,nan,pitch_program,12.19,0.0,0.0
1.65,166.943237846605,0.05593637528993172,27.448137256218182,117.00222428214822,0.07855538690263787,2.566797487277899,117.0304024912314,17.651468132180593,0.09172952017915226,6.073201324058845,0.13317292408182235,0.2885970955670302,0.8707755827277358,-0.031332207449351765,4.790736335247119,-0.03804597967641773,8356.624979364018,0.34380722885812715,116.959307541477,2.1329038525426376,1.2217752737890486,100995.69566294934,287.9715871078346,0.0724,-0.1312,-0.0508,402.78552631578947,0.21617206923003082,0.86,nominal,7117.2318288535025,nan,pitch_program,12.175,0.0,0.0
1.68,170.47048007515818,0.058329427714768185,27.524021155967766,117.57474095177287,0.07976841416121554,2.5294633249861604,117.60197386774104,17.64498297010369,0.10096105984488572,6.047733334935674,0.1324453054045831,0.305157305832279,0.8488912311446722,-0.025545884028722682,4.789705681872988,-0.03799733009419346,8438.436322749454,0.3454876210945271,117.5308572062874,2.1326402714684685,1.2217663675810448,100994.78646161186,287.9710938624862,0.0724,-0.1312,-0.0508,402.75157894736844,0.21615384992373246,0.86,nominal,7185.030570863593,nan,pitch_program,12.16,0.0,0.0
1.71,174.01487253066324,0.0607575066926133,27.598835478822764,118.14641518350231,0.08093596592817057,2.4938107618332954,118.17275939682091,17.63849835460598,0.11067206961126823,6.0229199034628635,0.13191523345930262,0.32184257195832905,0.8270805365323016,-0.019098653532400176,4.788267985471288,-0.038207269964075516,8520.533200721218,0.3471657047024823,118.10162194970573,2.132387420172106,1.2217575869538813,100993.89008187543,287.97060756938765,0.0724,-0.1312,-0.0508,402.71763157894736,0.2161356306174341,0.86,nominal,7253.052651677858,nan,pitch_program,12.145,0.0,0.0
1.74,177.57638987141692,0.06321949002045826,27.67263064305761,118.71724469178973,0.08206611092816514,2.4598388078281905,118.74275442744849,17.632014285687454,0.11968392229562408,5.998757432885026,0.13155986635322964,0.29915466227868936,0.8053903915246066,-0.013399494928824454,4.786436614055032,-0.03855018771304195,8602.91327341378,0.34884146612232353,118.67159711403713,2.1321450599916583,1.2217489259881655,100993.00591938909,287.9701279008201,0.0724,-0.1312,-0.0508,402.68368421052634,0.21611741131113574,0.86,nominal,7321.29666780441,nan,pitch_program,12.13,0.0,0.0
1.77,181.15500668624256,0.06571446151836122,27.74545703425873,119.28722716085426,0.08316571659676499,2.427546373370719,119.31195439542732,17.62553076334812,0.1287247322280472,5.975241690811014,0.13134116573814467,0.3005999621121184,0.7838405238826768,-0.008949467059959793,4.784222786987279,-0.03904513302485949,8685.574201414065,0.35051489205008424,119.24077812727995,2.1319131770565027,1.2217403787684995,100992.13337021452,287.9696545292773,0.0724,-0.1312,-0.0508,402.64973684210526,0.21609919200483738,0.86,nominal,7389.7612170532775,nan,pitch_program,12.115,0.0,0.0
1.7999999999999998,184.7506974823295,0.06824638607103344,27.817365010776708,119.85635986956564,0.08439748508907374,2.396932550599292,119.88035456141442,17.619047787587974,0.13820126974647426,5.952366144360557,0.13022196004683126,0.31200839612871567,0.762429727975172,-0.038881026424608424,4.781637810823126,-0.03861088697626973,8768.513632941856,0.3521859691735673,119.80916041333631,2.1316907107388605,1.221731939382827,100991.2718307594,287.9691871274299,0.0724,-0.1312,-0.0508,402.6157894736842,0.216080972698539,0.86,nominal,7458.444867468152,nan,pitch_program,12.1,0.0,0.0
1.8299999999999998,188.3634367195845,0.07081041487441024,27.88840486740008,120.424641241833,0.08546762677922697,2.367995220779079,120.44795110048591,17.612565358407018,0.14815359326441987,5.930130334540932,0.12888645661868203,0.32713624767676636,0.741080712335896,-0.04612970432775235,4.778695302520551,-0.038075365448024485,8851.729265264416,0.3538546853987919,120.37673980928759,2.131478363679409,1.2217236019267081,100990.42069821348,287.9687253683619,0.0724,-0.1312,-0.0508,402.58184210526315,0.21606275339224065,0.86,nominal,7527.346287745411,nan,pitch_program,12.085,0.0,0.0
1.8599999999999999,191.99319878155706,0.07340337298259639,27.958626865382993,120.99206873241783,0.08643193693953845,2.340733266097132,121.01473959337704,17.60608347580525,0.15859030467076268,5.908525809598099,0.12763896714623243,0.343602007821409,0.7200375451670786,-0.043288848422847026,4.775401063419538,-0.037715771909087356,8935.218754334515,0.35552102802386215,120.9435119441324,2.131275366455672,1.2217153604997733,100989.57937018656,287.968268925375,0.0724,-0.1312,-0.0508,402.54789473684207,0.2160445340859423,0.86,nominal,7596.464067575837,nan,pitch_program,12.07,0.0,0.0
1.89,195.63995798003663,0.07602299638238731,28.028081211272614,121.5586399493195,0.08732077999303059,2.3151448629873568,121.58071585158368,17.59960213978267,0.16951461357923242,5.887547428878193,0.1265916398466336,0.360556240267113,0.6991770722568575,-0.0367281746561214,4.771764554884792,-0.037629244330648036,9018.979775020804,0.35718498494485257,121.50947264904748,2.131081485770132,1.2217072092082184,100988.74724496309,287.9678174721267,0.0724,-0.1312,-0.0508,402.51394736842104,0.21602631477964393,0.86,nominal,7665.796816102292,nan,pitch_program,12.055,0.0,0.0
1.92,199.30368855591317,0.07866752167552686,28.096818052644952,122.12435252921807,0.08815084310465142,2.2912280457446625,122.14587580925308,17.59312135033928,0.1809326398266617,5.8671904041546235,0.12576034913756187,0.37776341395098706,0.6784800310113832,-0.029639113306826892,4.767795538933742,-0.03782359770085413,9103.01000773585,0.358846544377792,122.07461786282163,2.130896520015735,1.2216991421652963,100987.92372155214,287.96737068265776,0.0724,-0.1312,-0.0508,402.48,0.2160080954733456,0.86,nominal,7735.3431493607095,nan,pitch_program,12.040000000000001,0.0,0.0
1.95,202.98436467933638,0.08133545278297943,28.164887475034497,122.68920411410662,0.08893103691508557,2.2689807463181655,122.71021550184567,17.58664110747508,0.19285520866209283,5.847447735839556,0.12511432074997583,0.39522135634572814,0.6580155766892918,-0.023568364009417073,4.76350142795644,-0.03826416553445501,9187.307136642175,0.36050569481553935,122.63894361719525,2.1307203309341323,1.2216911534916721,100987.10819972368,287.9669282314122,0.0724,-0.1312,-0.0508,402.44605263157894,0.2159898761670472,0.86,nominal,7805.10168801175,nan,pitch_program,12.025,0.0,0.0
1.98,206.68196043827652,0.08403050058199107,28.232339508452885,123.25319196467093,0.08983492663372138,2.2484011139462217,123.27373080816228,17.58016141119007,0.20540419428058995,5.8283095257744755,0.12355223355621814,0.4130033177223662,0.6377564650859113,-0.0540163493557525,4.758890379821197,-0.03777862453133333,9271.868838864893,0.3621624248104213,123.20244596291383,2.1305516603584054,1.2216832373146596,100986.30007993038,287.966489793195,0.0724,-0.1312,-0.0508,402.4121052631579,0.21597165686074887,0.86,nominal,7875.0710259222,nan,pitch_program,12.01,0.0,0.0
2.01,210.39644987613997,0.0867470243838795,28.2992240690215,123.81631459544784,0.09055079339628111,2.2294853522870777,123.83641857055281,17.573682261484247,0.2184994324554818,5.809776831168218,0.12179547137678431,0.4305708485659346,0.6175367622543285,-0.060541827364490895,4.75397551726437,-0.03722639263939365,9356.69284905421,0.36381672422633393,123.76512139576204,2.130391555625399,1.2216753877750615,100985.49876400609,287.96605504355136,0.0724,-0.1312,-0.0508,402.37815789473683,0.2159534375544505,0.86,nominal,7945.249867907049,nan,pitch_program,11.995000000000001,0.0,0.0
2.04,214.12780695994067,0.089481182660315,28.36559101087827,124.37856946002319,0.09113860921451648,2.2122313952256607,124.39827496759722,17.567203658357613,0.23210104178799773,5.79183685264582,0.12015913984504312,0.44787416205241715,0.5977812875436952,-0.056616124950869526,4.748756557945857,-0.03689007123505274,9441.776853157842,0.3654685821538263,124.32696614723986,2.1302387254940296,1.2216675990210812,100984.7036545438,287.96562365842925,0.0724,-0.1312,-0.0508,402.3442105263158,0.21593521824815215,0.86,nominal,8015.636830543791,nan,pitch_program,11.98,0.0,0.0
2.07,217.87600558832975,0.0922301269214704,28.43149008866448,124.93995427963578,0.09163147537184654,2.1966359262069934,124.95929649736775,17.56072560181017,0.24619374065961097,5.774484722217506,0.11875111884782465,0.4650273751737182,0.5782044171953391,-0.049108950691454656,4.743241988622484,-0.03685999217663334,9527.118572120919,0.3671179885388602,124.88797673870215,2.1300930944776955,1.2216598652127224,100983.91415534512,287.9651953144237,0.0724,-0.1312,-0.0508,402.3102631578947,0.2159169989418538,0.86,nominal,8086.230562836533,nan,pitch_program,11.965,0.0,0.0
2.1,221.6410195920996,0.09499155444419165,28.496970957810937,125.50046679232868,0.09204758409070854,2.182695638215315,125.51947975553124,17.554248091841913,0.26077784844790813,5.757714685555303,0.11757568697054854,0.4822005000360372,0.5588232940665396,-0.041455542204777096,4.737439447987999,-0.037131283157715356,9612.715730998858,0.3687649335707917,125.44814977316562,2.1299547011633804,1.2216521805217462,100983.12967141555,287.9647696887742,0.0724,-0.1312,-0.0508,402.27631578947364,0.2158987796355554,0.86,nominal,8157.029719293024,nan,pitch_program,11.95,0.0,0.0
2.13,225.42282272166867,0.0977687636096575,28.562083193751974,126.06010431896827,0.09257363884886174,2.170407864701201,126.07882114410386,17.547771128452847,0.27597371622440864,5.741512983262806,0.11549027808946997,0.4995649590342434,0.5397268613635279,-0.07169280103857184,4.731353790658137,-0.03648580778706404,9698.566043916908,0.3704094073897287,126.00748183573637,2.1298218788462195,1.221644539129423,100982.34960873505,287.9643464592406,0.0724,-0.1312,-0.0508,402.2423684210526,0.21588056032925707,0.86,nominal,8228.032923695471,nan,pitch_program,11.935,0.0,0.0
2.16,229.22138868834787,0.1005553122182184,28.626876202891463,126.61886555597323,0.09288495361869661,2.1597669713162664,126.63731810041865,17.54129471164297,0.29169491538283887,5.725884074581473,0.11325237778126188,0.5165873959010808,0.5205895484090611,-0.07680332078609252,4.724999802116653,-0.03582116446767348,9784.667294289828,0.3720514016103564,126.56597001212543,2.1296961871176743,1.2216369352369754,100981.5733753239,287.9639253046812,0.0724,-0.1312,-0.0508,402.2084210526316,0.2158623410229587,0.86,nominal,8299.238923348397,nan,pitch_program,11.92,0.0,0.0
2.19,233.0366911291599,0.10334670576174189,28.69139930357131,127.17674802706698,0.09304645145078327,2.1507700226615065,127.19496730638595,17.53481884141228,0.3078983660651545,5.710811235585316,0.11118632998978005,0.5332531037451317,0.5020625424044765,-0.07115352623823794,4.7183718624441084,-0.03542718057368257,9871.017205033548,0.37369090683419404,127.12361104225066,2.129575681166923,1.2216293630560686,100980.80038027214,287.96350590452676,0.0724,-0.1312,-0.0508,402.1744736842105,0.21584412171666034,0.86,nominal,8370.646365016662,nan,pitch_program,11.905,0.0,0.0
2.2199999999999998,236.8687036185227,0.10613954164541853,28.755701669936776,127.7337496454261,0.09309452945588807,2.143412212182281,127.75176586248482,17.52834351776078,0.32456802088087855,5.6962914796283055,0.10939399833267562,0.5497176817416309,0.48365638726185683,-0.06211900215651582,4.711479503675533,-0.03538688007414221,9957.613551848348,0.3753279148050129,127.68040205356405,2.1294609066342898,1.2216218168154092,100980.03003441275,287.9630879391454,0.0724,-0.1312,-0.0508,402.1405263157895,0.215825902410362,0.86,nominal,8442.253942273055,nan,pitch_program,11.890000000000002,0.0,0.0
2.25,240.71739965371282,0.10893654594345023,28.8198323726142,128.28986783967144,0.09323347660105659,2.1376900892474975,128.3077106089856,17.521868740688472,0.34181813135250827,5.682311513292043,0.10672646046792085,0.5661889012106915,0.46547646990601493,-0.09118834897355137,4.704328771687395,-0.034468618793516405,10044.454089992696,0.37696241701047795,128.23634008530243,2.1293502814373824,1.2216142907559588,100979.2617498333,287.962671089578,0.0724,-0.1312,-0.0508,402.1065789473684,0.21580768310406362,0.86,nominal,8514.060309996492,nan,pitch_program,11.875,0.0,0.0
2.28,244.5827526964633,0.11173047387325932,28.883840273413984,128.8451014250161,0.09313093099363648,2.133596693326122,128.86279940092396,17.51539451019535,0.35955346642575137,5.668876406706973,0.10398360794704516,0.5821359463208713,0.4472716529831427,-0.09371953644605394,4.696933342768573,-0.03361246824747215,10131.536640844637,0.37859440630223073,128.79142263977351,2.129245422501282,1.2216067791432927,100978.49494113744,287.9622550382228,0.0724,-0.1312,-0.0508,402.0726315789474,0.21578946379776529,0.86,nominal,8586.064246938658,nan,pitch_program,11.86,0.0,0.0
2.31,248.46473613729236,0.11451623222672096,28.94777412186961,129.39944802763515,0.09285861178205433,2.13112828185424,129.41702932895714,17.508920826281418,0.3777264230633483,5.655966768862963,0.10149839759231809,0.5975916091000922,0.42978197297278203,-0.0852030803590065,4.689283814785355,-0.03311388428614239,10218.858965415211,0.38022387451523443,129.34564687236647,2.1291438593261045,1.2215992762562733,100977.72902428864,287.9618394682078,0.0724,-0.1312,-0.0508,402.03868421052636,0.21577124449146692,0.86,nominal,8658.26442925831,nan,pitch_program,11.845,0.0,0.0
2.34,252.36332331002103,0.11728995532253683,29.011682485012088,129.95290575762183,0.09245743652719599,2.130278771415894,129.970397979197,17.502447688946674,0.39631974418842725,5.643582729578934,0.0993628975355327,0.6127695582175281,0.4123134071020957,-0.07362431001888754,4.681392261550396,-0.033044247786590764,10306.41889168368,0.3818508148463581,129.89901040081745,2.129046615518716,1.221591776395289,100976.96341745104,287.9614240638474,0.0724,-0.1312,-0.0508,402.0047368421053,0.21575302518516856,0.86,nominal,8730.659591477073,nan,pitch_program,11.83,0.0,0.0
2.37,256.2784874753133,0.12005396415183336,29.075613808316128,130.50547217640892,0.0921336276432177,2.131044110134706,130.52290260943528,17.49597509819112,0.4154471893963417,5.6317073525903645,0.09641583676761527,0.6279311878947197,0.39514344626960624,-0.10056190041200408,4.673261941000859,-0.03216008711946767,10394.214216679995,0.3834752200202678,130.45151068119702,2.128951684952812,1.2215842738750964,100976.19754025906,287.9610085102459,0.0724,-0.1312,-0.0508,401.9707894736842,0.21573480587887017,0.86,nominal,8803.248420949385,nan,pitch_program,11.815,0.0,0.0
2.4,260.210201863477,0.12280066350205937,29.139616278406464,131.05714627212342,0.09155664500753372,2.1334156696778335,131.07454151753356,17.489503054014754,0.43501607401017567,5.620350057550343,0.09343840032558572,0.6425663929439053,0.37783304936093476,-0.1015767352399767,4.664909564390286,-0.03137969987255516,10482.242811534932,0.3850970842255684,131.00314566676298,2.128861602603973,1.2215767630409387,100975.43081546252,287.96059249419034,0.0724,-0.1312,-0.0508,401.9368421052631,0.2157165865725718,0.86,nominal,8876.029734992448,nan,pitch_program,11.8,0.0,0.0
2.4299999999999997,264.1584396227257,0.12553046070285656,29.20373799607656,131.60792530829062,0.09099324002657332,2.137390589003141,131.62531186003812,17.483031556417576,0.4550991781158475,5.609477662355137,0.08954402406208423,0.6567356976606034,0.36139874667699623,-0.13200089830606163,4.656320406603224,-0.029704495431886937,10570.502456761573,0.3867164000746226,131.55391277350012,2.128625507375414,1.2215692382482366,100974.66266685349,287.96017570302547,0.0724,-0.1312,-0.0508,401.9028947368421,0.21569836726627348,0.86,nominal,8949.002198345372,nan,pitch_program,11.785,0.0,0.0
2.46,268.1231742017434,0.12823409976006617,29.268023457682297,132.15781930058867,0.09012130190698663,2.142848720191272,132.17522129648103,17.476560605399587,0.47557100224577736,5.603149102595962,0.08569675416846778,0.6698658226785648,0.20990849491869265,-0.12933794880421123,4.6516065598610865,-0.028261666034978785,10658.99252310976,0.3883331891738455,132.10381928482838,2.128830797441569,1.2215616942755017,100973.89256141748,287.95975784752505,0.0724,-0.1312,-0.0508,401.86894736842106,0.21568014795997512,0.86,nominal,9022.165824628146,nan,pitch_program,11.77,0.0,0.0
2.4899999999999998,272.10437613863945,0.1309050668234518,29.332530261329985,132.7067312298682,0.0890322354461878,2.1502267882562274,132.7241798456346,17.470090200960787,0.4963627602112869,5.59787372182638,0.08232750064556552,0.6820982241318558,0.17489169280909528,-0.11325979041990412,4.647093029133118,-0.027407692800623454,10747.696669412811,0.38994718802978434,132.65277547776583,2.1289006171027807,1.2215541243638497,100973.1198092027,287.95933855330134,0.0724,-0.1312,-0.0508,401.835,0.21566192865367675,0.86,nominal,9095.507815735453,nan,pitch_program,11.755,0.0,0.0
2.52,276.10201597520893,0.1335443269059232,29.397313095562467,133.25466121898245,0.08797533608237985,2.159427807749342,133.27218616313917,17.463620343101177,0.5175670477148174,5.59520806631623,0.07832639564955778,0.6938029570043707,0.08767726053242549,-0.13351543472733624,4.644398849937218,-0.025946748122527397,10836.612731213603,0.3915583935281872,133.2007802086436,2.1291537158595824,1.221546522095964,100972.34375512914,287.9589174648788,0.0724,-0.1312,-0.0508,401.80105263157895,0.2156437093473784,0.86,nominal,9169.02696281981,nan,pitch_program,11.74,0.0,0.0
2.55,280.11606283537515,0.1361489743283171,29.462432072374884,133.80156200554012,0.08682158074646394,2.170632560413956,133.81919585329157,17.457151031820754,0.539193593731209,5.59442070322518,0.07330916164100469,0.7045800645790982,0.02470939589850674,-0.16667939168230325,4.642728464483308,-0.02354539303900858,10925.731459626,0.3931666752459852,133.74778901624558,2.1294665759842477,1.221538880418212,100971.56367916462,287.95849419152955,0.0724,-0.1312,-0.0508,401.7671052631579,0.21562549004108003,0.86,nominal,9242.71634889336,nan,pitch_program,11.725000000000001,0.0,0.0
2.58,284.14648505504533,0.13870744540778066,29.52794924290775,134.3474073223392,0.08528236931545222,2.183905684428825,134.36518362788595,17.45068226711952,0.5610724090940781,5.595310581287529,0.06854282009807021,0.713804242167515,-0.031179433390116956,-0.157829087907052,4.641851275383972,-0.021578360451783636,11015.0465882193,0.3947719583537322,134.29377634695697,2.1298352431501426,1.2215311920495444,100970.77883806612,287.9580683299211,0.0724,-0.1312,-0.0508,401.73315789473685,0.2156072707347817,0.86,nominal,9316.57154912072,nan,pitch_program,11.71,0.0,0.0
2.61,288.1932502490572,0.14121815859271325,29.593928444772487,134.89217313372836,0.0836904394977534,2.1993067288246135,134.91012685086642,17.444214048997477,0.5832414837010363,5.598001110784167,0.06324586541401432,0.7217496785410168,-0.0914345960881307,-0.1748191536204904,4.641884813496143,-0.019126092358969022,11104.552319069826,0.3963741776153605,134.83871990649453,2.130298541335723,1.221523449499415,100969.98846720943,287.95763946510897,0.0724,-0.1312,-0.0508,401.6992105263158,0.21558905142848334,0.86,nominal,9390.58846184136,nan,pitch_program,11.695,0.0,0.0
2.6399999999999997,292.25632520523857,0.14367020504606476,29.66043603587004,135.43583187271236,0.08173488177838359,2.216919703251677,135.45399945595986,17.437746377454623,0.6055482929663557,5.60211722275382,0.05848743304910539,0.7280821003481683,-0.1388339583966434,-0.15642555532881497,4.642417088094967,-0.01737343333844225,11194.242124229855,0.3979732559044306,135.3825933503818,2.130805035039603,1.2215156449816795,100969.19177180009,287.9572071657668,0.0724,-0.1312,-0.0508,401.6652631578947,0.21557083212218495,0.86,nominal,9464.762499358752,nan,pitch_program,11.68,0.0,0.0
2.67,296.3356761406476,0.146062117511823,29.727539590862662,135.97836451363486,0.07973041552527478,2.2367851664207934,135.99678371425858,17.431279252490956,0.6280397378958963,5.60771910939566,0.053432651500529386,0.7332584379000328,-0.18852387055855757,-0.16566732406935494,4.643511824613159,-0.015356276697542888,11284.110888945761,0.3995691423532538,135.92537926345915,2.131384782536205,1.221507770567571,100968.38794248941,287.95677099265936,0.0724,-0.1312,-0.0508,401.63131578947366,0.21555261281588659,0.86,nominal,9539.09016644015,nan,pitch_program,11.665,0.0,0.0
2.6999999999999997,300.43126862807446,0.14838945767088357,29.7953084492733,136.51974958089664,0.07757800530201894,2.2589619470213065,136.53845961140667,17.42481267410648,0.6507018497634359,5.614607339842713,0.04781369887351514,0.7370902972054527,-0.23167341872567834,-0.183827186269428,4.644958634312138,-0.012845454926331589,11374.15300541784,0.401161778224753,136.4670575492812,2.132014133629171,1.2214998181213854,100967.5761488097,287.9563304950797,0.0724,-0.1312,-0.0508,401.59736842105264,0.21553439350958825,0.86,nominal,9613.567638131928,nan,pitch_program,11.65,0.0,0.0
2.73,304.54306773713927,0.15064621162015854,29.863813027513125,137.05997030216028,0.07522513164249876,2.2834859413275397,137.07901161772992,17.41834664230119,0.673486092071847,5.622737610560022,0.04161037069659677,0.7392297290421141,-0.273368866210266,-0.20263878261219737,4.646709746028616,-0.009838072301960004,11464.363570351814,0.40275111808414016,137.00761263331378,2.1326995248215983,1.221491779381222,100966.75554741635,287.95588521532113,0.0724,-0.1312,-0.0508,401.56342105263155,0.21551617420328986,0.86,nominal,9688.191675073127,nan,pitch_program,11.635,0.0,0.0
2.76,308.6710380384725,0.15282541992850737,29.933124896677278,137.5990100444413,0.07264027694496096,2.3103956388050424,137.61842452894123,17.411881157075094,0.6963216814926404,5.632004656121969,0.034921091439917985,0.7393216725052264,-0.31153196315785125,-0.21819306370370842,4.648654040454644,-0.006438125665598901,11554.737698568966,0.40433711752733115,137.54702928823667,2.133432644579669,1.2214836459498666,100965.92528115747,287.9554346881716,0.0724,-0.1312,-0.0508,401.52947368421053,0.21549795489699153,0.86,nominal,9762.959064181949,nan,pitch_program,11.620000000000001,0.0,0.0
2.79,312.8151436703723,0.154919522347163,30.00331650032536,138.13685439666145,0.0698034139551879,2.3397201216027397,138.15668534446127,17.405416218428183,0.7191233599463541,5.642340000591884,0.027903434179685094,0.7370781446967842,-0.3473605856372121,-0.22851755322473913,4.650720270835963,-0.0028029451619720493,11645.270839070383,0.40591973866014014,138.08529449826298,2.1342117522757222,1.2214754093279108,100965.08448245509,287.95497844274786,0.0724,-0.1312,-0.0508,401.49552631578945,0.21547973559069317,0.86,nominal,9837.866876442155,nan,pitch_program,11.605,0.0,0.0
2.82,316.9753483741071,0.15692059521163426,30.074461044328242,138.67349012449236,0.06670242881570884,2.3714848000960123,138.69378231441658,17.398951826360463,0.7434764353887903,5.653672444051799,0.02074477050382898,0.7882847826804847,-0.3807481627855987,-0.2326230537336072,4.652835363264205,0.0007483553769977963,11735.958620973175,0.40749894729230934,138.62239650475593,2.135032939572333,1.2214670609266884,100964.23227462579,287.95451600321184,0.0724,-0.1312,-0.0508,401.4615789473684,0.2154615162843948,0.86,nominal,9912.912339739749,nan,pitch_program,11.59,0.0,0.0
2.85,321.15161553586427,0.15882038277667293,30.146632341427868,139.20890539190475,0.0633262521679552,2.405709903320848,139.2297051306417,17.39248798087193,0.7682705388306639,5.665937774984274,0.013636433713178015,0.8031022603910145,-0.4119193553540899,-0.23037542859016985,4.654935152837803,0.004111718398511356,11826.796889186318,0.40907471347724206,139.158324990061,2.1358927423251375,1.221458592086523,100963.3677737438,287.95404688978067,0.0724,-0.1312,-0.0508,401.4276315789474,0.21544329697809647,0.86,nominal,9988.09286743378,nan,pitch_program,11.575,0.0,0.0
2.88,325.3439082240142,0.16061057929991385,30.219904678657148,139.74308960499954,0.059673217441363766,2.4424112409759644,139.76444478447962,17.38602468196259,0.7948261067186063,5.679079395667351,0.006764009375716294,0.8625427376158166,-0.44112268271163635,-0.22196269721934253,4.656964655018059,0.006995523582751892,11917.7816865227,0.41064701111736857,139.69307094345587,2.1367881935986297,1.2214499940922943,100962.49009023022,287.95357061958873,0.0724,-0.1312,-0.0508,401.3936842105263,0.21542507767179808,0.86,nominal,10063.406041173881,nan,pitch_program,11.56,0.0,0.0
2.9099999999999997,329.5521892221507,0.16228285009804816,30.294352701956864,140.27603327121534,0.055742359937810515,2.4816007766571717,140.29799342803344,17.379561929632434,0.8234871400763667,5.693042234614278,0.0002895962052463381,0.933985472376801,-0.4684142903296889,-0.20815773413331204,4.658871934349123,0.009211098460842341,12008.909233057604,0.41221581753203235,140.2266265143286,2.1377157498137187,1.221441258186982,100961.59833023579,287.95308670743725,0.0724,-0.1312,-0.0508,401.3597368421053,0.21540685836549975,0.86,nominal,10138.8495938909,nan,pitch_program,11.545,0.0,0.0
2.94,333.77642106244315,0.16382892914438046,30.370051295578314,140.80772800974964,0.051535968211076706,2.5232864540483355,140.83034437845006,17.37309972388147,0.8526590744496716,5.707778863658654,-0.005659853268031857,0.9526998236054487,-0.4940547704027601,-0.1901282854136404,4.660614010843106,0.010763676636198139,12100.175931279056,0.41378111347636654,140.75898501878598,2.1386726663031026,1.2214323755858323,100960.69159708732,287.9525946665787,0.0724,-0.1312,-0.0508,401.3257894736842,0.21538863905920136,0.86,nominal,10214.421412414202,nan,pitch_program,11.53,0.0,0.0
2.9699999999999998,338.0165660533123,0.16524089051755447,30.447075490043506,141.33816636230554,0.04706537910580027,2.5674731488397735,141.361491942391,17.366638064709694,0.8834257563483877,5.7232421507452615,-0.010993533968011207,1.0078502014599386,-0.5180638216858799,-0.16907644509063743,4.6621499534157715,0.011480835995984776,12191.578340763252,0.4153428826416287,141.2901407698245,2.139655555281298,1.2214233374871588,100959.76899239057,287.9520940093147,0.0724,-0.1312,-0.0508,401.29184210526313,0.215370419752903,0.86,nominal,10290.119514943775,nan,pitch_program,11.515,0.0,0.0
3.0,342.2725863084945,0.1665111115484895,30.525500357041167,141.86734183940658,0.042340701031167084,2.6141622332553878,141.8914314449459,17.360176952117108,0.9161735111519103,5.739391682342383,-0.015667477378666618,1.076033292141572,-0.5406857588771129,-0.14654654652290156,4.663447174998213,0.011292973563946748,12283.113184913962,0.41690111171085625,141.82008909643335,2.140661892980459,1.2214141350846885,100958.82961729067,287.9515842476792,0.0724,-0.1312,-0.0508,401.2578947368421,0.21535220044660466,0.86,nominal,10365.942056824271,nan,pitch_program,11.5,0.0,0.0
3.03,346.54444377063976,0.16763226928422592,30.60540093044953,142.39524873817575,0.03737192452454766,2.663352446945476,142.4201590580643,17.35371638610371,0.9493438649527842,5.756186306978738,-0.019689227921056745,1.0922525904809817,-0.5619180282594999,-0.12425337080210148,4.664473479395943,0.010340089735362065,12374.777324818635,0.41845578985820464,142.34882617341339,2.1416884159221574,1.221404759576839,100957.8725734194,287.95106489395204,0.0724,-0.1312,-0.0508,401.223947368421,0.21533398114030627,0.86,nominal,10441.887308096762,nan,pitch_program,11.485,0.0,0.0
3.06,350.83210023633825,0.16859750384444006,30.68685211832213,142.9218821899491,0.03217448534047117,2.715039595753335,142.94767183806002,17.3472563666695,0.9842860311810178,5.773591249643616,-0.02311137122507856,1.1532808195083117,-0.5819972192327111,-0.1036890739531504,4.665205325207779,0.008572908324652444,12466.567769558726,0.4200069088735002,142.87634906389678,2.1427328888531605,1.2213952021770498,100956.8969639503,287.95053546123086,0.0724,-0.1312,-0.0508,401.19,0.21531576183400794,0.86,nominal,10517.953660286994,nan,pitch_program,11.47,0.0,0.0
3.09,355.13551737569094,0.16940023210822486,30.769928637259934,143.44723797842258,0.026757608792826463,2.769217297926856,143.47396754830112,17.34079689381448,1.0215508092738905,5.791569558474432,-0.026034967847196812,1.2323405281722237,-0.600882267348678,-0.08645312601901957,4.665618268220767,0.006053020246349286,12558.48164630613,0.421554462609892,143.40265553156857,2.1437921619034483,1.2213854541215003,100955.9018943865,287.94999546385776,0.0724,-0.1312,-0.0508,401.156052631579,0.21529754252770958,0.86,nominal,10594.139602696068,nan,pitch_program,11.455,0.0,0.0
