time_s,x_m,y_m,altitude_m,vx_mps,vy_mps,vz_mps,speed_mps,mass_kg,roll_deg,pitch_deg,yaw_deg,p_dps,q_dps,r_dps,alpha_deg,beta_deg,qbar_pa,mach,airspeed_mps,load_factor_g,density_kgpm3,pressure_pa,temperature_k,wind_x_mps,wind_y_mps,wind_z_mps,thrust_n,mass_flow_kgps,propulsion_throttle_actual,propulsion_health,energy_j_per_kg,target_distance_m,guidance_mode,pitch_command_deg,heading_command_deg,roll_command_deg
0.0,0.0,0.0,20.0,85.0,0.0,8.0,85.37564055396598,18.01840612980101,0.0,6.000000000000002,0.0,0.0,0.0,0.0,0.5847293023782836,0.08812639075768053,4448.930224551213,0.2507468518283886,85.30839607150315,1.744808519279769,1.2226496753673843,101084.96761777384,288.02,0.07244880006198942,-0.1312124234412952,-0.05085528216073648,326.8,0.17539118863220368,0.86,nominal,3840.633,nan,pitch_program,13.0,0.0,0.0
0.03,2.565300013656036,-1.5995854320670036e-05,20.23292297419501,85.51000045520121,-0.0005331951440223345,7.764099139833623,85.86175757335727,18.013144394142046,-0.0008833951418279084,6.2686836314267,0.0018025132953637885,-0.023025932541746057,-8.956137920558614,0.059670861872501944,1.0423932244968555,0.08549222371719434,4499.657174343166,0.2521757983502875,85.79432278713517,1.7727564416992345,1.2226223232650353,101082.17487985633,288.01848600066774,0.07244880006198942,-0.1312124234412952,-0.05085528216073648,332.605,0.1785066900092231,0.86,nominal,3884.5379008778764,nan,pitch_program,12.985,0.0,0.0
0.06,5.146085009160741,-4.7264183060539695e-05,20.45926111051653,86.02616651682348,-0.001042277624662322,7.544604544050697,86.35636852249343,18.00778919344177,-0.00265197195853002,6.648225416033783,0.00537846460378699,-0.0455447269923663,-12.651442732121877,0.11805223450038575,1.5982916447606428,0.08114945858842824,4551.570854659456,0.2536297390472695,86.2887567622293,1.8012766796809763,1.2225957448674551,101079.46115375591,288.0170148027816,0.07244880006198942,-0.1312124234412952,-0.05085528216073648,338.40999999999997,0.18162219138624247,0.86,nominal,3929.348005165794,nan,pitch_program,12.97,0.0,0.0
0.09,7.742507771410416,-9.224079782151671e-05,20.67963823916306,86.54742540832251,-0.0014992204920325671,7.345904288217775,86.85861590463244,18.002340527700184,-0.005290636767429582,6.956242007347255,0.010653285092678004,-0.06712995595289462,-10.267256515731706,0.1738786655426542,2.067260905703073,0.07520772739762002,4604.595733279024,0.2551061629532768,86.79084316364376,1.8309251129684563,1.2225698668828233,101076.81895502596,288.0155823514454,0.07244880006198942,-0.1312124234412952,-0.05085528216073648,344.215,0.18473769276326188,0.86,nominal,3975.007552772322,nan,pitch_program,12.955,0.0,0.0
0.12,10.354741561556338,-0.0001484900217066759,20.894528263703688,87.07445967153075,-0.001874974129505307,7.163000818020858,87.3685876692735,17.996798396917285,-0.008749707484146578,7.136180644696805,0.017509034219469085,-0.08726920293897274,-5.997987253076024,0.22606442189709625,2.396279633363593,0.06780139867010987,4658.754713094996,0.25660531924325164,87.30066634160985,1.8610282850138173,1.2225446336299022,101074.24259746533,288.0141855662859,0.07244880006198942,-0.1312124234412952,-0.05085528216073648,350.02,0.1878531941402813,0.86,nominal,4021.540381259015,nan,pitch_program,12.94,0.0,0.0
0.15,12.98299639773427,-0.0002127247767445086,21.104214520746645,87.6084945392644,-0.0021411585012610897,6.989541901431934,87.88687055534946,17.991162801093076,-0.012950583492941654,7.231874960985693,0.0257998308632365,-0.10546854379939896,-3.1898631520065988,0.2735863871672967,2.6335459067559883,0.05908848821290439,4714.124670795521,0.2581289204101678,87.8188086661958,1.8914839957533125,1.2225200118084125,101071.72868012637,288.0128226056151,0.07244880006198942,-0.1312124234412952,-0.05085528216073648,355.825,0.1909686955173007,0.86,nominal,4069.0126533362563,nan,pitch_program,12.925,0.0,0.0
0.18,15.627503762725802,-0.0002808535751514698,21.30888954910479,88.15024549971773,-0.002270959946898708,6.8225009452715675,88.41386942084367,17.985433740227556,-0.01779941572562008,7.302297523576233,0.03535773975428683,-0.12132687733756363,-2.3475037720423915,0.3154078926779288,2.8401190762293824,0.049255218607720024,4770.764837836095,0.25967815083090295,88.34567291721807,1.9223948415918808,1.2224959787822913,101069.27489097006,288.0114922179308,0.07244880006198942,-0.1312124234412952,-0.05085528216073648,361.63,0.19408419689432013,0.86,nominal,4117.474974679726,nan,pitch_program,12.91,0.0,0.0
0.21,18.28849788242318,-0.00034803690380158064,21.508747012739928,88.69980398991254,-0.0022394442883370276,6.661915454504528,88.94962816328679,17.979611214320727,-0.02319235926984208,7.37230639333291,0.04598593587333987,-0.13452042263540676,-2.3337548273574678,0.3505374974330138,3.0408953281648254,0.038515940376707095,4828.6967485286905,0.26125313987815824,88.88130294353425,1.9536998552232694,1.2224725117853863,101066.8789047389,288.01019314441714,0.07244880006198942,-0.1312124234412952,-0.05085528216073648,367.435,0.19719969827133954,0.86,nominal,4166.946929085977,nan,pitch_program,12.895,0.0,0.0
0.24,20.966209557668492,-0.0004087585587998338,21.704004136632033,89.25705584151042,-0.0020240551666084374,6.5085707964035215,89.49404178716651,17.973695223372587,-0.02901313989841858,7.436116736682337,0.057454445946850875,-0.14476169415032172,-2.127184153649439,0.37812706961841,3.2296421796620205,0.027107045220863546,4887.926094361478,0.26285358073987974,89.425594173325,1.9852178338515627,1.2224495852870592,101064.53811398393,288.00892397311185,0.07244880006198942,-0.1312124234412952,-0.05085528216073648,373.24,0.20031519964835895,0.86,nominal,4217.435329868055,nan,pitch_program,12.88,0.0,0.0
0.27,23.660870019143292,-0.000456921575323078,21.894878482067526,89.82201538249336,-0.001605433884108142,6.362478181183048,90.04707423651432,17.967685767383138,-0.035131598847139095,7.481705198145396,0.06950741775088265,-0.15179334727518776,-1.5198382180149381,0.39751540844756955,3.394400595957673,0.015279576553880058,4948.466090777544,0.264479367756299,89.97851046676685,2.016788793195143,1.2224271737192132,101062.24990749525,288.0076832898665,0.07244880006198942,-0.1312124234412952,-0.05085528216073648,379.045,0.20343070102537836,0.86,nominal,4268.953199344329,nan,pitch_program,12.865,0.0,0.0
0.3,26.372715939250334,-0.0004888641156353419,22.08156425215589,90.39486400356802,-0.0010647513437421288,6.222859002945506,90.60880428262914,17.961582846352375,-0.04148601836309466,7.505958131779231,0.08248085651464936,-0.1554143554638962,-0.808717624606519,0.42821376778950004,3.5326292637977956,0.0026339650834016474,5010.34277577252,0.26613073085024175,90.54012987367665,2.0483677345267304,1.2224052542582473,101060.01195433368,288.00646983236095,0.07244880006198942,-0.1312124234412952,-0.05085528216073648,384.84999999999997,0.20654620240239774,0.86,nominal,4321.523878837301,nan,pitch_program,12.850000000000001,0.0,0.0
0.32999999999999996,29.101990601832714,-0.0004989586762890124,22.264228652873037,90.97582208607939,-0.0003364853551223487,6.088813357238227,91.17934992338164,17.9553864602803,-0.047966771590265175,7.514026412207719,0.09641666170496867,-0.15531186906925398,-0.2693021093468153,0.460332087533032,3.6501173961106965,-0.010841118989305721,5073.587073937002,0.2678080156351947,91.11056982748934,2.079991452665433,1.2223838072520525,101057.82224741767,288.0052825137563,0.07244880006198942,-0.1312124234412952,-0.05085528216073648,390.655,0.20966170377941715,0.86,nominal,4375.174424143935,nan,pitch_program,12.835,0.0,0.0
0.36,31.848941995599343,-0.00048039312864627334,22.443021677737764,91.56504645888762,0.0006188515880913018,5.959767495490908,91.75879555661973,17.94909660916692,-0.05443858206985908,7.512205223517861,0.11122902534534561,-0.15116824486701547,0.06026881532978987,0.4895606864011384,3.753578529904447,-0.02504634312939885,5138.226780002236,0.2695114694473036,91.6899143418732,2.1116906874571657,1.2223628150709105,101055.67898619424,288.00412035909466,0.07244880006198942,-0.1312124234412952,-0.05085528216073648,396.46,0.21277720515643656,0.86,nominal,4429.9291395367545,nan,pitch_program,12.82,0.0,0.0
0.39,34.613820694759106,-0.00042551358047643767,22.61808545924243,92.16262330532538,0.0018293182723278555,5.83545938348881,92.34718037970654,17.942713293012226,-0.060749544853322734,7.503643799568105,0.12676751228755287,-0.1426884176568036,0.2848644724862783,0.5137956908741753,3.8463755589030533,-0.039828194983138006,5204.285139442026,0.2712412072859984,92.27820241453527,2.1434536157125645,1.2223422610093806,101053.5804645182,288.0029824445149,0.07244880006198942,-0.1312124234412952,-0.05085528216073648,402.265,0.21589270653345596,0.86,nominal,4485.808509809909,nan,pitch_program,12.805,0.0,0.0
0.42,37.396879048035444,-0.00032600813876519543,22.789557083314715,92.76861177587789,0.003316848057041407,5.715720802409531,92.94452542305075,17.936236511816222,-0.06673515183489236,7.48881451540256,0.142843305847559,-0.1296114596985069,0.49371811296318924,0.5318296380818625,3.9291320939960546,-0.05500242146764915,5271.783746440298,0.2729972908963364,92.87545492918487,2.153376339862341,1.222322128955748,101051.52503690062,288.0018678789584,0.07244880006198942,-0.1312124234412952,-0.05085528216073648,404.1773684210526,0.21691906078826353,0.86,nominal,4542.831613029151,nan,pitch_program,12.79,0.0,0.0
0.44999999999999996,40.19817766780443,-0.00017352236176600597,22.957541817411233,93.37662065896613,0.005082859233306316,5.599491136550575,93.54436173555426,17.929728939992575,-0.07222116857765597,7.467745641234056,0.15924254355709083,-0.1117216766605343,0.7016380661252655,0.5428429084603593,4.002332507026667,-0.07036813057958445,5340.00299035792,0.2747607043726025,93.47520247280262,2.152396036265919,1.2223024065351105,101049.51143940496,288.0007759781868,0.07244880006198942,-0.1312124234412952,-0.05085528216073648,404.14342105263154,0.21690084148196515,0.86,nominal,4600.41038371983,nan,pitch_program,12.775,0.0,0.0
0.48,43.01768238789384,4.032152436927238e-05,23.12212471821421,93.98349066964715,0.007128129537842612,5.486096693432527,94.14347468726432,17.923221914748115,-0.07702655881094721,7.44118344725938,0.17573355282953046,-0.08886253979450782,0.8846958346161149,0.5462071353771143,4.067074770084882,-0.08570977766473331,5408.578664578681,0.2765219976620224,94.0742300543544,2.151449104518324,1.2222830837463199,101047.53865047536,287.99970618933156,0.07244880006198942,-0.1312124234412952,-0.05085528216073648,404.1094736842105,0.2168826221756668,0.86,nominal,4658.247497463663,nan,pitch_program,12.76,0.0,0.0
0.51,45.85536092794591,0.0003240108677267776,23.283384107166547,94.5892846684023,0.009456311445250174,5.375312965077967,94.74189597519361,17.916715436082846,-0.08096641303527163,7.4103480221324425,0.19207076545640475,-0.06094692321952984,1.0271020189673212,0.5414231450974322,4.124774264481971,-0.1007986571732028,5477.512840721907,0.2782812633581252,94.67256916395105,2.1505372151292197,1.222264151379752,101045.60572939213,287.9986580033034,0.07244880006198942,-0.1312124234412952,-0.05085528216073648,404.0755263157895,0.21686440286936848,0.86,nominal,4716.345425241749,nan,pitch_program,12.745,0.0,0.0
0.54,48.71118248785534,0.0006860097169223973,23.441393257237056,95.19405199698112,0.012066628306520659,5.26697166901698,95.33964900171225,17.910209503996764,-0.08385475724069658,7.376302595863018,0.20799746634215716,-0.02796317023226493,1.1340891520511418,0.5281080682055591,4.176649834702135,-0.11539758394070301,5546.806723547576,0.2800385697632385,95.27024303066239,2.1496598887481655,1.2222456008192044,101043.71179604402,287.9976309438279,0.07244880006198942,-0.1312124234412952,-0.05085528216073648,404.0415789473684,0.2168461835630701,0.86,nominal,4774.705875070929,nan,pitch_program,12.73,0.0,0.0
0.57,51.585117414031245,0.001134619302038706,23.59622167143672,95.79783087253033,0.014953652837210289,5.160947139988808,95.93674999120731,17.903704118489873,-0.0855073921710252,7.339710936742071,0.2232489131974013,0.010019961918932686,1.2189754979259655,0.50599737056975,4.223490735919786,-0.12926426779124883,5616.460749792399,0.2817939641458249,95.86726772955106,2.1488119216857173,1.2222274238917434,101041.85601559676,287.9966245591356,0.07244880006198942,-0.1312124234412952,-0.05085528216073648,404.0076315789474,0.21682796425677175,0.86,nominal,4833.329886691903,nan,pitch_program,12.715,0.0,0.0
0.6,54.47713702365056,0.0016778322071797746,23.74793564419551,96.40065365397733,0.01810709683803562,5.057132425293026,96.53321159656917,17.89719927956217,-0.08574493145867013,7.300995854636768,0.2375562525233782,0.05284861455224897,1.2897944301194377,0.4749522256457971,4.265830540700045,-0.1421548681219261,5686.4749851934375,0.28354748329849094,96.46365577312791,2.147987326150626,1.2222096128017563,101040.03759175849,287.9956384183127,0.07244880006198942,-0.1312124234412952,-0.05085528216073648,403.9736842105263,0.21680974495047337,0.86,nominal,4892.2181636591495,nan,pitch_program,12.7,0.0,0.0
0.63,57.387213506610465,0.0023231819740111765,23.89659852235488,97.00254943199674,0.021511658894380066,4.955429271978901,97.12904477203523,17.890694987213656,-0.08439604823799912,7.260546847812694,0.2506508537010547,0.10027948805997558,1.347655945181354,0.43496878022688495,4.30416134983652,-0.15382776749896124,5756.849332773896,0.2852991590248317,97.0594179778518,2.1471827286495966,1.222192160100271,101038.2557636464,287.99467210960466,0.07244880006198942,-0.1312124234412952,-0.05085528216073648,403.9397368421053,0.21679152564417503,0.86,nominal,4951.371247063264,nan,pitch_program,12.685,0.0,0.0
0.6599999999999999,60.315319818932686,0.003077590355746585,24.042271050159147,97.60354374407409,0.025146946057846942,4.855750926808922,97.72425850746316,17.88419124144433,-0.08130083081225226,7.2187728266524,0.2622687185063009,0.15197667189265326,1.3919104707960877,0.38618789553478144,4.338985255641979,-0.1640475911486259,5827.583494911727,0.2870490173628577,97.65456319967967,2.1463971815733665,1.222175058644418,101036.50980164688,287.99372523817397,0.07244880006198942,-0.1312124234412952,-0.05085528216073648,403.9057894736842,0.21677330633787664,0.86,nominal,5010.789487810786,nan,pitch_program,12.67,0.0,0.0
0.69,63.261429554792,0.003947214483073465,24.185011828793584,98.2036578619773,0.028987470910896,4.758025954481279,98.31885917121538,17.877688042254196,-0.07631415962156039,7.176048037510074,0.2721549785220242,0.20751016398076097,1.4237086619981099,0.32890390477883524,4.370758460927491,-0.17258944756240663,5898.676887278898,0.28879707666018756,98.24909767884694,2.1456302509455982,1.2221583015434534,101034.79900190367,287.99279742311285,0.07244880006198942,-0.1312124234412952,-0.05085528216073648,403.8718421052631,0.21675508703157828,0.86,nominal,5070.47298061548,nan,pitch_program,12.655,0.0,0.0
0.72,66.22551682709704,0.004937296320377073,24.324877741604134,98.80290907683434,0.03300272791012025,4.6621970936849335,98.9128505956916,17.871185389643248,-0.06930906291554936,7.132669963027845,0.280068612130063,0.2663561195650587,1.4456021089421758,0.2635713013137763,4.3998503502765045,-0.17924332208195806,5970.128639341148,0.29054334782413305,98.84302512457175,2.1448809777932225,1.222141882108808,101033.1226812174,287.99188829467954,0.07244880006198942,-0.1312124234412952,-0.05085528216073648,403.8378947368421,0.21673686772527995,0.86,nominal,5130.421568787506,nan,pitch_program,12.64,0.0,0.0
0.75,69.20755617577237,0.006052017061339849,24.461924261928772,99.40131162251082,0.03715735803209253,4.568217344154667,99.50623469234577,17.86468328361149,-0.060180013986689644,7.088869733031301,0.2857873759710047,0.3278987785991409,1.4597930598572382,0.19080901142435786,4.426556639064581,-0.18381854937210623,6041.937659485958,0.29228783612384407,99.43634732788281,2.144148186902253,1.222125793817933,101031.48017335367,287.9909974922974,0.07244880006198942,-0.1312124234412952,-0.05085528216073648,403.80394736842106,0.21671864841898159,0.86,nominal,5190.634900887342,nan,pitch_program,12.625,0.0,0.0
0.78,72.20752249802607,0.007294359350965927,24.59620567565909,99.99887740845658,0.041411409654202605,4.476047124343919,100.09901196173578,17.85818172415892,-0.04884610907779926,7.044842115358556,0.28911281655335874,0.3914341783632394,1.4674820082162614,0.11140220603964188,4.451131374066362,-0.18614829828079982,6114.102690142155,0.2940305426860829,100.02906467029645,2.1434310849215112,1.2221100302881416,101029.87082637179,287.9901246631082,0.07244880006198942,-0.1312124234412952,-0.05085528216073648,403.77,0.21670042911268322,0.86,nominal,5251.112478247064,nan,pitch_program,12.61,0.0,0.0
0.8099999999999999,75.22539098752748,0.008665980326658851,24.727775277674308,100.59561631671389,0.04572069918976417,4.38565340050733,100.69118168077695,17.851680711285542,-0.03525404955119837,7.00076060832356,0.2898752269898016,0.4561758398968612,1.4693647435837685,0.026301410896321254,4.473802809266579,-0.18609399706296967,6186.622325593403,0.29577146504583096,100.62117631096415,2.1427293576319366,1.222094585253536,101028.29400026854,287.9892694606951,0.07244880006198942,-0.1312124234412952,-0.05085528216073648,403.73605263157896,0.21668220980638486,0.86,nominal,5311.8536715624205,nan,pitch_program,12.595,0.0,0.0
0.84,78.26113707732554,0.010167098498088358,24.85668556111577,101.19153632660226,0.050037272380983586,4.297009448048733,101.28274195569209,17.84518024499135,-0.019380853048118592,6.956776023221942,0.28793846184960786,0.5212625548850158,1.466183308017045,-0.06338150376648435,4.494772350201322,-0.18354961137828016,6259.495014061631,0.2975105973035444,101.2126802400003,2.1420428899798636,1.2220794525427678,101026.7490647071,287.9884315438527,0.07244880006198942,-0.1312124234412952,-0.05085528216073648,403.7021052631579,0.2166639905000865,0.86,nominal,5372.857724489571,nan,pitch_program,12.58,0.0,0.0
0.87,81.31473638860753,0.01179639749297986,24.982988386287634,101.78664370939956,0.05430996649638341,4.210094172395443,101.87368983273919,17.83868032527635,-0.001236222247312944,6.91301346081513,0.2832045315437094,0.5857683121504135,1.4587803275967304,-0.15638078281350903,4.514212086969049,-0.17844567729343577,6332.719067213582,0.29924793045187015,101.8035733894747,2.141371557901854,1.2220646260591967,101025.23539699093,287.9876105754891,0.07244880006198942,-0.1312124234412952,-0.05085528216073648,403.66815789473685,0.21664577119378817,0.86,nominal,5434.123763126961,nan,pitch_program,12.565,0.0,0.0
0.8999999999999999,84.38616468733753,0.013550949667281906,25.106735118728597,102.38094329099995,0.05848507247673491,4.124891081365405,102.46402147140125,17.832180952140536,0.01913550130633454,6.869575284093934,0.2756178726829186,0.6487143617987357,1.4479000805614786,-0.25128784416432237,4.532268449285408,-0.1707529902072455,6406.2926779805775,0.3009834528857151,102.39385180680891,2.140715242777723,1.2220500997646637,101023.75238040659,287.9868062217282,0.07244880006198942,-0.1312124234412952,-0.05085528216073648,403.6342105263158,0.2166275518874898,0.86,nominal,5495.650811997969,nan,pitch_program,12.55,0.0,0.0
0.9299999999999999,87.47539784766661,0.01542616247456725,25.22797674128876,102.9744386776362,0.06250709357617812,4.0413874186721195,103.05373229717983,17.82568212558391,0.041653872701012874,6.826546834985448,0.26516917513335797,0.7090833923242109,1.434098081895576,-0.34656601278408217,4.549068433043289,-0.16048585092372972,6480.213936608353,0.30271715085290524,102.9835108079841,2.140073916270196,1.2220358676663248,101022.2994028792,287.9860181511816,0.07244880006198942,-0.1312124234412952,-0.05085528216073648,403.6002631578947,0.21660933258119142,0.86,nominal,5557.4378082993635,nan,pitch_program,12.535000000000002,0.0,0.0
0.96,90.58241181983206,0.017415750305336392,25.34676394993126,103.56713240551476,0.06631959435897139,3.959573621416575,103.64281709917691,17.819183845606474,0.06620144081548657,6.784000181917002,0.25189864956114494,0.7658357532054366,1.4178078203198983,-0.44056901456307246,4.564723597052983,-0.14770476792182402,6554.480840430044,0.30444900874332614,103.57254507581379,2.139447652467568,1.2220219238053878,101020.87585582215,287.9852460343254,0.07244880006198942,-0.1312124234412952,-0.05085528216073648,403.56631578947366,0.21659111327489305,0.86,nominal,5619.483610816313,nan,pitch_program,12.520000000000001,0.0,0.0
0.99,93.7071826013418,0.019511734255959423,25.463147237662042,104.15902605032478,0.06986613168743432,3.879442924359477,104.23127009891013,17.812686112208226,0.09363050598130135,6.741995342951291,0.23589899623435706,0.8514967821235208,1.3994213348765117,-0.5315632777180523,4.5793290595977565,-0.1325992851338541,6629.091300433396,0.3061790092939481,104.16094872960996,2.1388372559396482,1.2220082622472508,101019.48113312988,287.98448954295515,0.07244880006198942,-0.1312124234412952,-0.05085528216073648,403.53236842105264,0.21657289396859472,0.86,nominal,5681.787006074197,nan,pitch_program,12.505,0.0,0.0
1.02,96.84968619670516,0.021708019705438335,25.577176969790877,104.75011984544533,0.07320951498263034,3.8009910709611097,104.81908461911775,17.80618892538917,0.1244796752047383,6.70058026797584,0.21656583907554253,0.9528807359121718,1.379281926799793,-0.6426360102707133,4.5929693632475255,-0.11457211917537188,6704.043115920308,0.3079071330539912,104.74871514315798,2.1382414182262277,1.221994877072659,101018.11463027477,287.9837483496963,0.07244880006198942,-0.1312124234412952,-0.05085528216073648,403.49842105263156,0.21655467466229633,0.86,nominal,5744.346672725683,nan,pitch_program,12.49,0.0,0.0
1.05,100.00989862721929,0.02399329780708,25.688903432630475,105.34041435047077,0.07617593672138888,3.7242154279866058,105.40625445796022,17.7996922851493,0.15905500891055174,6.659795481043812,0.1940068069286432,1.0650367641804768,1.357640880537693,-0.750224178203036,4.605720996925846,-0.09384866655145681,6779.3340910254365,0.30963336110695483,105.33583787069144,2.137660786935261,1.2219817623719702,101016.77574372131,287.9830221276879,0.07244880006198942,-0.1312124234412952,-0.05085528216073648,403.46447368421053,0.216536455355998,0.86,nominal,5807.161324275734,nan,pitch_program,12.475,0.0,0.0
1.08,103.18779590079156,0.02635282665531206,25.79837688599349,105.92990911907552,0.07865096160773535,3.6491151121005845,105.99277273970486,17.79319619148862,0.19757608257051812,6.619673988040543,0.16867316889956377,1.1863948872976806,1.3347662671109892,-0.8429489215151736,4.617651383704806,-0.07095674210582671,6854.96193514374,0.31135767279481164,105.92230987261523,2.137095838794666,1.2219689122389872,101015.46387029621,287.98231055024104,0.07244880006198942,-0.1312124234412952,-0.05085528216073648,403.43052631578945,0.21651823604969964,0.86,nominal,5870.229589214389,nan,pitch_program,12.46,0.0,0.0
1.1099999999999999,106.38335398835503,0.028769377543511897,25.905647607207072,106.5186029187822,0.08055169627332794,3.5756907071193904,106.57863210033214,17.786700644407127,0.24024106218438102,6.580241500814305,0.14119840273755022,1.316904324256598,1.3109309015438009,-0.9147716567723271,4.628818561130679,-0.04658634304604904,6930.924280195807,0.31308004615595647,106.50812366444681,2.1365469102839056,1.22195632076578,101014.17840665932,287.9816132905531,0.07244880006198942,-0.1312124234412952,-0.05085528216073648,403.3965789473684,0.21650001674340127,0.86,nominal,5933.5500292961915,nan,pitch_program,12.445,0.0,0.0
1.14,109.59654880505076,0.03122387247412778,26.01076592527581,107.10649388985773,0.08181649768719608,3.5039439356245574,107.1638248217253,17.780205643904825,0.28726157844228734,6.5415178668951395,0.11231860407400575,1.457358165011275,1.2863718594717182,-0.9622874173375888,4.639272198496317,-0.021518912524127513,7007.218694783574,0.31480045827867087,107.09327143702555,2.1360142484634967,1.2219439820386684,101012.91874889335,287.9809300214857,0.07244880006198942,-0.1312124234412952,-0.05085528216073648,403.3626315789474,0.21648179743710294,0.86,nominal,5997.1211528718195,nan,pitch_program,12.43,0.0,0.0
1.17,112.82735619521392,0.0336959170204662,26.113782247146506,107.69357967210537,0.08240148487794734,3.433877395689883,107.74834294115826,17.77371118998171,0.33888715049029206,6.50351856580511,0.08282451000555212,1.6091743833752357,1.2612873829364204,-0.9836796214176707,4.649054714812949,0.00341643893839637,7083.842696776032,0.3165188856077798,107.67774516080561,2.135498032511338,1.2219318901351242,101011.68429218732,287.9802604153935,0.07244880006198942,-0.1312124234412952,-0.05085528216073648,403.3286842105263,0.21646357813080455,0.86,nominal,6060.941425956704,nan,pitch_program,12.415,0.0,0.0
1.2,116.07575192071833,0.03616430107701182,26.214747077972504,108.27985751681372,0.08227946855152078,3.3654943608665917,108.33217835004267,17.767217282637787,0.3954268049233685,6.466255551133828,0.05352527013852615,1.7743522872116555,1.2358568350438455,-0.9783321672578933,4.6582017896226775,0.02737653962345004,7160.793765342152,0.31823530422893354,108.2615366825426,2.1349983594142183,1.2219200391213918,101010.4744305932,287.97960414399313,0.07244880006198942,-0.1312124234412952,-0.05085528216073648,403.2947368421053,0.21644535882450622,0.86,nominal,6125.009282464925,nan,pitch_program,12.4,0.0,0.0
1.23,119.34171165266558,0.03860748581045306,26.313711035726136,108.86532439824153,0.08143949111470807,3.2987985917877496,108.91532289294402,17.76072392187305,0.45727081650097856,6.429737744787757,0.025216433431643807,1.9554965092584853,1.2102494773846832,-0.9466906949814181,4.666742621711034,0.049533883134018276,7238.069353546528,0.3199496901560459,108.84463782305949,2.1345148633161743,1.2219084230507564,101009.28855684907,287.97896087826774,0.07244880006198942,-0.1312124234412952,-0.05085528216073648,403.26078947368416,0.2164271395182078,0.86,nominal,6189.323134765631,nan,pitch_program,12.385,0.0,0.0
1.26,122.62521096040278,0.04100860908043102,26.410724895982455,109.44997692457348,0.08003744233259859,3.2337953418772187,109.49776841148403,17.754231107687506,0.5250188244465956,6.393963553199913,-0.0022920408499524387,2.1558673406163478,1.1846185555652582,-0.9214020780847989,4.674701088990747,0.07011638960924528,7315.666918287738,0.32166201999137833,109.42704060174562,2.134047571936059,1.2218970359582848,101008.12606184179,287.9783302881761,0.07244880006198942,-0.1312124234412952,-0.05085528216073648,403.22684210526313,0.21640892021190947,0.86,nominal,6253.8813788486805,nan,pitch_program,12.37,0.0,0.0
1.29,125.92622532176391,0.04334878354723806,26.505839540307665,110.03381204537091,0.07800581556023473,3.1704881441736754,110.07950705383641,17.747738840081148,0.5993380706559756,6.358939378730698,-0.028814053165120528,2.3791235901923384,1.1587959992449728,-0.8900107635650917,4.682105776648322,0.08885216426287339,7393.583899166989,0.3233722704460863,110.00873707351019,2.1335967137739655,1.2218858718668726,101006.98633522417,287.977712042988,0.07244880006198942,-0.1312124234412952,-0.05085528216073648,403.1928947368421,0.21639070090561113,0.86,nominal,6318.682427935768,nan,pitch_program,12.355,0.0,0.0
1.3199999999999998,129.24473011507234,0.04560831062648733,26.59910597590205,110.61682644361477,0.07531756930830899,3.1088811864794375,110.66053093774981,17.74124711905398,0.681009112515162,6.324670244694891,-0.05403461329751333,2.6295067836393495,1.1328980497980143,-0.848251826321417,4.6889807712149505,0.10535275300698707,7471.817716549928,0.3250804182947196,110.58971931327781,2.133162382123777,1.2218749247849299,101005.86876517843,287.9771058111566,0.07244880006198942,-0.1312124234412952,-0.05085528216073648,403.158947368421,0.21637248159931274,0.86,nominal,6383.724676330921,nan,pitch_program,12.34,0.0,0.0
1.3499999999999999,132.5807006150708,0.04776725063949548,26.690575345253738,111.19901666661553,0.07196466710027162,3.0489789783896377,111.24083224853278,17.734755944606,0.7709584504015391,6.291155497442611,-0.077613193610078,2.9119579583512616,1.107170817876857,-0.7952868398382068,4.695341660880695,0.11920219762871756,7550.3657813412965,0.32678644058443596,111.16997948714722,2.1327443673957194,1.2218641887052442,101004.77273829994,287.97651126025585,0.07244880006198942,-0.1312124234412952,-0.05085528216073648,403.125,0.2163542622930144,0.86,nominal,6449.006510382638,nan,pitch_program,12.325,0.0,0.0
1.38,135.93411199360148,0.049805728531871665,26.780298918462606,111.78037928435515,0.0679492630792062,2.9907857736289936,111.8204033689755,17.72826531673721,0.8702883647375245,6.258392437684148,-0.09923240857239847,3.2322342964415776,1.081731148458851,-0.7318912790995138,4.701199444066743,0.12999844440946057,7629.225511562158,0.3284903149838258,111.74950997106572,2.1323423841534486,1.2218536576058716,101003.69763968779,287.97592805703,0.07244880006198942,-0.1312124234412952,-0.05085528216073648,403.0910526315789,0.21633604298671602,0.86,nominal,6514.526323188936,nan,pitch_program,12.31,0.0,0.0
1.41,139.30493932237155,0.05170411401369602,26.868328079868817,112.36091095900261,0.06327951606081188,2.9343053802070482,112.39923693645957,17.72177523544761,0.9803079710423566,6.226379223383635,-0.11862605609866309,3.5970291423353884,1.0565909158893063,-0.659770978382207,4.706563450617983,0.13737652299584455,7708.394340256593,0.33019201993515573,112.32830340263543,2.1319561895900576,1.221843325451696,101002.64285310397,287.97535586748086,0.07244880006198942,-0.1312124234412952,-0.05085528216073648,403.0571052631579,0.2163178236804177,0.86,nominal,6580.2825215136345,nan,pitch_program,12.295,0.0,0.0
1.44,142.6931575760993,0.05344312211828624,26.954714315357023,112.94060845759218,0.057966936819673846,2.879541182940205,112.97732585063764,17.715285700737198,1.102567230855138,6.195114129009962,-0.13559942027377428,4.014100890424292,1.0317752884557971,-0.5813074815974195,4.711440511333888,0.14102464209972781,7787.869717079195,0.33189153466733007,112.90635268553648,2.131585502313698,1.221833186195917,101001.60776112485,287.97479435695016,0.07244880006198942,-0.1312124234412952,-0.05085528216073648,403.02315789473687,0.21629960437411935,0.86,nominal,6646.273527321274,nan,pitch_program,12.28,0.0,0.0
1.47,146.09874163642954,0.05500384413953653,27.039509196651885,113.51946867767401,0.05202406737500982,2.8264960431620567,113.55466329150471,17.708796712605974,1.2388948825269028,6.164594425076794,-0.1500466891244137,4.492415606623071,1.0073295938224025,-0.4994631913979362,4.715833858557961,0.14069731395044557,7867.649111401467,0.33358883924064,113.48365100476896,2.1312299363116876,1.2218232337818853,101000.5917453284,287.9742431902217,0.07244880006198942,-0.1312124234412952,-0.05085528216073648,402.9892105263158,0.21628138506782096,0.86,nominal,6712.49778048685,nan,pitch_program,12.265,0.0,0.0
1.5,149.52166629706778,0.05636770460858516,27.12276435910087,114.0974886879411,0.04546201563495416,2.775172081632844,114.13124275049485,17.70230827105394,1.3914410329919238,6.134816679631547,-0.1619672227188597,5.042307717195485,0.98326339439748,-0.41774277898745177,4.719743607406986,0.1362269012512926,7947.730017281962,0.33528391462938384,114.06019185478668,2.130889029974478,1.2218134621456989,100999.59418655913,287.9737020316658,0.07244880006198942,-0.1312124234412952,-0.05085528216073648,402.9552631578947,0.2162631657615226,0.86,nominal,6778.9537429883685,nan,pitch_program,12.25,0.0,0.0
1.53,152.96190626971313,0.05751633401061092,27.204531473610313,114.67466575484518,0.03828764673419195,2.725570483648063,114.70705804958423,17.695820376081095,1.5627251402554974,6.105777309883108,-0.1714811632009494,5.675663044254525,0.9595302915751083,-0.3401710844021925,4.723167649131826,0.12753393033652485,8028.109956836711,0.33697674276834594,114.63596905534507,2.1305622836746916,1.2218038652194956,100998.61446526374,287.9731705454215,0.07244880006198942,-0.1312124234412952,-0.05085528216073648,402.9213157894737,0.21624494645522424,0.86,nominal,6845.639901771025,nan,pitch_program,12.235,0.0,0.0
1.56,156.41943619023044,0.0584313442875748,27.284862213678487,115.25099735057711,0.030500342565462708,2.677691335605851,115.28210334419826,17.68933302768744,1.7556902036842266,6.077472411189351,-0.17884441404945597,6.406128826856179,0.9360358412043644,-0.2712724217394769,4.726102089929893,0.11463611213591646,8108.78648134464,0.3386673065505313,115.21097675077398,2.1302491575640943,1.2217944369353129,100997.6519618852,287.9726483956111,0.07244880006198942,-0.1312124234412952,-0.05085528216073648,402.8873684210526,0.21622672714892588,0.86,nominal,6912.554769758974,nan,pitch_program,12.220000000000002,0.0,0.0
1.5899999999999999,159.8942306248541,0.05909399285925366,27.36380821646405,115.82648115412165,0.02208828572262873,2.6315334261855083,115.85637312039245,17.68284622587297,1.9737641234447794,6.049897208970966,-0.184462876531568,7.249356040332832,0.9126282678734161,-0.21604582572722747,4.728541773985734,0.0976558603953539,8189.757171479238,0.3403555898067304,115.78520940307871,2.129949065275021,1.2217851712296504,100996.70605732813,287.972135246593,0.07244880006198942,-0.1312124234412952,-0.05085528216073648,402.8534210526316,0.21620850784262752,0.86,nominal,6979.696886151784,nan,pitch_program,12.205000000000002,0.0,0.0
1.6199999999999999,163.3862640762665,0.05948472009049059,27.441421036293576,116.40111504708096,0.013024241041231104,2.5870939943175357,116.42986218822931,17.676359970637694,2.2209293737124067,6.023045521715553,-0.1889057958028833,8.223280244209201,0.8890687826608763,-0.17993465232218198,4.730481510905123,0.07682604228397012,8271.019636907577,0.34204157727248724,116.35866178076724,2.1296613935427935,1.2217760620489213,100995.77613351529,287.97163076326405,0.07244880006198942,-0.1312124234412952,-0.05085528216073648,402.8194736842105,0.21619028853632916,0.86,nominal,7047.064816190602,nan,pitch_program,12.19,0.0,0.0
1.65,166.89551098912935,0.05958254450339655,27.517752089676453,116.97489709542778,0.0032608137635317547,2.5443684460958544,117.00256566378496,17.669874261981604,2.5018023548545667,5.996909020317897,-0.19291806785091387,9.348448320268519,0.8649993563055892,-0.16879069662682675,4.7319180866140265,0.05249368532094345,8352.571514156662,0.34372525452023467,116.93132893584124,2.129385540939438,1.2217671033559019,100994.86157404563,287.9711346114171,0.07244880006198942,-0.1312124234412952,-0.05085528216073648,402.78552631578947,0.21617206923003082,0.86,nominal,7114.657149484382,nan,pitch_program,12.175,0.0,0.0
1.68,170.42194575437117,0.059364299458586206,27.592852591061764,117.54782550806055,-0.007274834827011453,2.503350046177061,117.57447893165578,17.663389099904702,2.8217240544227273,5.971475961935695,-0.19743139502943616,10.648399811103673,0.8399086918374868,-0.18883395414788146,4.7328531409350205,0.02512137523503558,8434.410461522732,0.34540660783268345,117.50320616081653,2.1291209720805226,1.2217582891372583,100993.96176496249,287.97064645815806,0.07244880006198942,-0.1312124234412952,-0.05085528216073648,402.75157894736844,0.21615384992373246,0.86,nominal,7182.47249588732,nan,pitch_program,12.16,0.0,0.0
1.71,173.96554271122844,0.058803694417565715,27.666773478229803,118.11989856190881,-0.018686834700683063,2.4640295722680126,118.14559757860819,17.65690448440699,3.1868639622086827,5.946729284387746,-0.2035742498610619,12.150113160678105,0.8130859184740434,-0.24660980194410376,4.733297338852929,-0.004713899421254523,8516.534149576846,0.3470856239899215,118.07428891640596,2.128867306039989,1.2217496134123036,100993.0760956476,287.9701659723915,0.07244880006198942,-0.1312124234412952,-0.05085528216073648,402.71763157894736,0.2161356306174341,0.86,nominal,7250.509477733497,nan,pitch_program,12.145,0.0,0.0
1.74,177.52627614548172,0.05787018312658031,27.739565326133988,118.69111447510886,-0.031117043032846826,2.4263949301394554,118.71591728142764,17.650420415488465,3.6043395570756522,5.922643942609683,-0.212680697932807,13.884529028590137,0.7835576956988436,-0.34894591468619707,4.733276411072662,-0.0363246751603087,8598.940244667918,0.3487622899203697,118.6445727129061,2.1286244642118137,1.2217410702430984,100992.20395985164,287.9696928253801,0.07244880006198942,-0.1312124234412952,-0.05085528216073648,402.68368421052634,0.21611741131113574,0.86,nominal,7318.7667162909165,nan,pitch_program,12.13,0.0,0.0
1.77,181.1041202814347,0.05652761999007436,27.811278248255505,119.26147119843216,-0.044752104550198284,2.390430737383921,119.2854336215263,17.64393689314913,4.082354121768348,5.899183197661385,-0.22629823877843036,15.887165045504803,0.750008791196512,-0.502911750765185,4.732839657776291,-0.06891990949018659,8681.626381201922,0.35043659213487033,119.21405291782993,2.128392901418962,1.2217326537460274,100991.34475687619,287.9692266913863,0.07244880006198942,-0.1312124234412952,-0.05085528216073648,402.64973684210526,0.21609919200483738,0.86,nominal,7387.242808971032,nan,pitch_program,12.115,0.0,0.0
1.7999999999999998,184.69904926392655,0.054732684358847726,27.881961784758516,119.83096608306177,-0.05983118770755434,2.3561178834337224,119.85414178763935,17.637453917388985,4.630356158452134,5.876293463620593,-0.2461949602255102,18.198838957962415,0.7106824394117024,-0.7157839663141911,4.732071646295198,-0.1016150248425923,8764.590116678433,0.35210851583012875,119.7827244510796,2.1281739520179808,1.221724358104913,100990.497892912,287.96876724839905,0.07244880006198942,-0.1312124234412952,-0.05085528216073648,402.6157894736842,0.216080972698539,0.86,nominal,7455.936292362281,nan,pitch_program,12.1,0.0,0.0
1.8299999999999998,188.31103712495118,0.05243305019813578,27.951664776876584,120.39959536748728,-0.07665447202373155,2.3234330706022313,120.4220361138123,17.63097148820803,5.259224285788215,5.853897257786287,-0.27436647439946354,20.86652015211103,0.6632531641356153,-0.995021631484487,4.731108077212505,-0.13344528441825346,8847.828861172702,0.35377804350612113,120.35058131480203,2.127970337571765,1.2217161775857575,100989.66278254386,287.96831417895027,0.07244880006198942,-0.1312124234412952,-0.05085528216073648,402.58184210526315,0.21606275339224065,0.86,nominal,7524.845584282314,nan,pitch_program,12.085,0.0,0.0
1.8599999999999999,191.94005772712032,0.049565275266084,28.020435227103633,120.96735340563798,-0.09559249773505939,2.2923483409016097,120.98910938099418,17.62448960560626,5.981482213204344,5.831883671819069,-0.3130433154608046,23.944333142840136,0.6046641001637826,-1.3482556331689397,4.730157048107916,-0.16338272417011165,8931.339769866265,0.35544515288646,120.91761588614604,2.1277868973244574,1.221708106553141,100988.83885042442,287.9678671710238,0.07244880006198942,-0.1312124234412952,-0.05085528216073648,402.54789473684207,0.2160445340859423,0.86,nominal,7593.968895522962,nan,pitch_program,12.07,0.0,0.0
1.89,195.58608467308622,0.04605237902100886,28.08832014478861,121.534231532197,-0.11709654150250466,2.2628305894992313,121.55535178674147,17.618008269583683,6.811549228427825,5.810095581309467,-0.36469974038136904,27.494740886475128,0.5309191802203793,-1.783297159180531,4.729527236014972,-0.19035696610940883,9015.119583295673,0.3571098138605546,121.48381787727621,2.12763162026025,1.2217001394883371,100988.02553312325,287.9674259190588,0.07244880006198942,-0.1312124234412952,-0.05085528216073648,402.51394736842104,0.21602631477964393,0.86,nominal,7663.304098747128,nan,pitch_program,12.055,0.0,0.0
1.92,199.24909116593935,0.04180107127827824,28.15536537634144,122.1002164284376,-0.14171025809102056,2.234841051760948,122.12074945804743,17.611527480140293,7.766032623361712,5.788312568403841,-0.4320652051135585,31.589940873543224,0.43681615866869095,-2.3081706735712024,4.729664920503983,-0.21328043621689044,9099.16439505943,0.35877198407947564,122.04917283742759,2.1275170843666897,1.2216922710092362,100987.22228116044,287.96699012505377,0.07244880006198942,-0.1312124234412952,-0.05085528216073648,402.48,0.2160080954733456,0.86,nominal,7732.848537965494,nan,pitch_program,12.040000000000001,0.0,0.0
1.95,202.9290498002492,0.03669858314004207,28.221615418035352,122.66528781032883,-0.17008293794120574,2.2083347231303683,122.68528234489241,17.605047237276093,8.864069648750592,5.766228216744934,-0.5181402181134942,36.31351307992455,0.3156004339264172,-2.9311773146703106,4.731202307352786,-0.23107886044216927,9183.469320421937,0.3604316027270833,122.61366003424784,2.1274624486596054,1.2216844958923003,100986.42856124786,287.96655949978276,0.07244880006198942,-0.1312124234412952,-0.05085528216073648,402.44605263157894,0.2159898761670472,0.86,nominal,7802.59875686226,nan,pitch_program,12.025,0.0,0.0
1.98,206.62593225644517,0.030609036467473358,28.287113206659836,123.22941520653228,-0.20298488908562373,2.1832596208161763,123.2489212836405,17.59856754099108,10.12772796350604,5.743419991787102,-0.6262188447341424,41.762366257462084,0.15851159860493896,-3.6609951899021285,4.7350203151086845,-0.24272849704696364,9268.028031055886,0.3620885818449622,123.17724950302706,2.1274962027127535,1.2216768090971348,100985.64385879699,287.96613376415667,0.07244880006198942,-0.1312124234412952,-0.05085528216073648,402.4121052631579,0.21597165686074887,0.86,nominal,7872.550117518597,nan,pitch_program,12.01,0.0,0.0
2.01,210.33970886211574,0.023369266075236247,28.3518998778291,123.79255352235222,-0.24132567974123703,2.1595557056421884,123.81162395556369,17.59208839128526,11.582475171698873,5.719309286730395,-0.7599209223130681,48.04903807004816,-0.045817677315001644,-4.506823621931744,4.742329925317318,-0.24730250729970293,9352.8321103416,0.3637427944012539,123.73989798831528,2.1276599705938555,1.2216692057948404,100984.86768081339,287.9657126507941,0.07244880006198942,-0.1312124234412952,-0.05085528216073648,402.37815789473683,0.2159534375544505,0.86,nominal,7942.696272193869,nan,pitch_program,11.995000000000001,0.0,0.0
2.04,214.07034797178113,0.014783976940847644,28.41601447150314,124.35463698884594,-0.2861763044796201,2.1371531224679647,124.37332937962934,17.585609788158624,13.257729970789724,5.693108309213668,-0.9232381684767763,55.30441568806577,-0.31217003075889715,-5.478579022404878,4.75477747861311,-0.2440303588844404,9437.870169037673,0.36539405803908276,124.30154341590236,2.1280138143700444,1.221661681402563,100984.09955942306,287.9652959059352,0.07244880006198942,-0.1312124234412952,-0.05085528216073648,402.3442105263158,0.21593521824815215,0.86,nominal,8013.028438803852,nan,pitch_program,11.98,0.0,0.0
2.07,217.81781510062552,0.004620072858565088,28.479493545702116,124.91557096147926,-0.33879680274275187,2.115969139965951,124.93395045906136,17.57913173161118,15.187509732927428,5.663749149841939,-1.1206000272030852,63.680957272886225,-0.6598484224216826,-6.587150689702238,4.774581065327225,-0.23237648919923848,9523.126640897362,0.367042113086894,124.86209741295157,2.12864372429033,1.2216542316288244,100983.33905649997,287.9648832919529,0.07244880006198942,-0.1312124234412952,-0.05085528216073648,402.3102631578947,0.2159169989418538,0.86,nominal,8083.534414033559,nan,pitch_program,11.965,0.0,0.0
2.1,221.58207172581749,-0.007400072672655647,28.542370626462667,125.47522083973249,-0.40067151770735787,2.095902692018347,125.49336393028577,17.572654221642924,17.41119208720258,5.629788345888584,-1.3569676453531432,73.35651219246135,-1.1142143598747705,-7.844725280384423,4.804707627887716,-0.21214808317773068,9608.580148983023,0.3686865929080969,125.42143522236042,2.1296723820851335,1.2216468525380617,100982.58577025415,287.964474590928,0.07244880006198942,-0.1312124234412952,-0.05085528216073648,402.27631578947364,0.2158987796355554,0.86,nominal,8154.197234173575,nan,pitch_program,11.95,0.0,0.0
2.13,225.3630736386726,-0.021606725785019917,28.60467536450609,126.03339709517036,-0.47355510374547577,2.0768246014474516,126.05139681181782,17.56617725825386,19.97441136414542,5.589277075164721,-1.6379684139295887,84.53886005744945,-1.708872913327476,-9.265188519997437,4.849103917221984,-0.18364745935613971,9694.20129125295,0.37032698392563185,125.97938210517162,2.1312749488896165,1.2216395406495866,100981.8393453334,287.9640696101307,0.07244880006198942,-0.1312124234412952,-0.05085528216073648,402.2423684210526,0.21588056032925707,0.86,nominal,8224.993358768512,nan,pitch_program,11.935,0.0,0.0
2.16,229.16076868766456,-0.03839273519482257,28.666432169366665,126.58983496639837,-0.5595336469934219,2.0585601620191776,126.60780807147222,17.55970084144398,22.930114725724902,5.5395819510100655,-1.9700901295520146,97.47111756614744,-2.4888470329497974,-10.86461071634767,4.912999625083799,-0.14789336094482514,9779.949630544446,0.37196257153692047,126.5356949439508,2.133702743020382,1.2216322930978696,100981.09948918548,287.9636681908991,0.07244880006198942,-0.1312124234412952,-0.05085528216073648,402.2084210526316,0.2158623410229587,0.86,nominal,8295.890199365092,nan,pitch_program,11.92,0.0,0.0
2.19,232.97509368906105,-0.05822594268331595,28.727657920288163,127.14416671321644,-0.6611069162831127,2.0408583640499307,127.16226364143981,17.553224971213293,26.339807573559536,5.47713264733126,-2.3609650240693667,112.4382003822907,-3.515305779813208,-12.661816026838373,5.0033089281500835,-0.1069493102462319,9865.769575917044,0.3735923663956838,127.0900371687395,2.1373195438100026,1.2216251079011635,100980.36599947941,287.9632702235181,0.07244880006198942,-0.1312124234412952,-0.05085528216073648,402.1744736842105,0.21584412171666034,0.86,nominal,8366.842733751515,nan,pitch_program,11.905,0.0,0.0
2.2199999999999998,236.80597018686132,-0.0816649366851249,28.788358060485717,127.69588326000861,-0.7812998000602985,2.023338006585104,127.71430196974892,17.546749647561793,30.261225088143448,5.397111770632635,-2.8198050015218556,129.31405774907597,-4.872806343195093,-14.679017797045642,5.129237760493143,-0.0632031411417034,9951.584686002045,0.37521500275947056,127.64194418273568,2.142663642424703,1.2216179844198367,100979.63881089319,287.9628756726068,0.07244880006198942,-0.1312124234412952,-0.05085528216073648,402.1405263157895,0.215825902410362,0.86,nominal,8437.788815383969,nan,pitch_program,11.890000000000002,0.0,0.0
2.25,240.6532985564232,-0.1093782693114755,28.848520618579517,128.24427898539656,-0.9237777542116868,2.0054186031266696,128.26328454237077,17.540274870489483,34.7178038586213,5.293114854356039,-3.358015176381075,146.95382739677095,-6.675661796207914,-16.941379174576188,5.303123847607074,-0.017082363429461934,10037.28948626013,0.3768285926281174,128.19077375206493,2.1505515299160334,1.2216109240579611,100978.91806673292,287.96248461597924,0.07244880006198942,-0.1312124234412952,-0.05085528216073648,402.1065789473684,0.21580768310406362,0.86,nominal,8508.642425522778,nan,pitch_program,11.875,0.0,0.0
2.28,244.51694967602126,-0.1421662081191665,28.90810860653316,128.78837065326837,-1.0929312935896998,1.986266265121332,128.80832336464948,17.53380063999636,39.719103035039474,5.156504813056416,-3.989848301212395,164.8943647687667,-9.068324618806791,-19.474624857369836,5.541190982448129,0.03066320055623039,10122.73748249683,0.37843051226513796,128.73563339613602,2.162217688843854,1.2216039311553908,100978.20420999752,287.9620972940575,0.07244880006198942,-0.1312124234412952,-0.05085528216073648,402.0726315789474,0.21578946379776529,0.86,nominal,8579.28378727231,nan,pitch_program,11.86,0.0,0.0
2.31,248.39675320984065,-0.18098833915147994,28.967048444869324,129.32678446064685,-1.2940710344104478,1.9646612778721253,129.3481800904422,17.52732695608243,45.2690228311899,4.975552931622758,-4.733402230695941,182.94837665055744,-12.244083859248384,-22.30419328123316,5.864762214833863,0.07738303914078651,10207.724408866217,0.3800171049425575,129.2752792849894,2.1795577342791765,1.221597014346047,100977.49812203442,287.96171418510835,0.07244880006198942,-0.1312124234412952,-0.05085528216073648,402.03868421052636,0.21577124449146692,0.86,nominal,8649.545551986615,nan,pitch_program,11.845,0.0,0.0
2.34,252.29248089379956,-0.22699976931705068,29.02521146151014,129.85758946529702,-1.5337143388523586,1.9387672213604643,129.88111733331155,17.520853818747685,51.36909518443386,4.734127650291363,-5.612222143574834,201.04182738356766,-16.471788198135254,-25.45606274599912,6.302062058840701,0.11700663838183815,10291.963517750404,0.381583242719141,129.80796719317385,2.2055268508707475,1.2215901887289917,100976.80134416552,287.96133612550017,0.07244880006198942,-0.1312124234412952,-0.05085528216073648,402.0047368421053,0.21575302518516856,0.86,nominal,8719.19240985374,nan,pitch_program,11.83,0.0,0.0
2.37,256.20382219832834,-0.28159856502178005,29.08238407594333,130.37804348429225,-1.8199598568243116,1.9057538144397856,130.40467159681705,17.514381227992132,58.019756723848666,4.409526665267109,-6.657914997814596,219.1502521657763,-22.13910195439568,-28.958949460165822,6.890978767356582,0.13820759124791754,10375.047868703152,0.3831216573530775,130.3312249350153,2.2447877433097303,1.2215834793672553,100976.11643485274,287.9609645035063,0.07244880006198942,-0.1312124234412952,-0.05085528216073648,401.9707894736842,0.21573480587887017,0.86,nominal,8787.8899489352,nan,pitch_program,11.815,0.0,0.0
2.4,260.1303479667368,-0.34648699535070404,29.138220056069148,130.88419228028107,-2.162947677630799,1.8611993375272642,130.9152939670983,17.507909183815766,65.22070290245422,3.968749563505363,-7.914554747321689,237.27600369388776,-29.830795157487636,-32.84769286034881,7.683658426912335,0.12187208009756234,10456.390738242711,0.38462188192767444,130.8414923995688,2.3047787097272137,1.2215769268904009,100975.4475416149,287.9606015696355,0.07244880006198942,-0.1312124234412952,-0.05085528216073648,401.9368421052631,0.2157165865725718,0.86,nominal,8855.155422958733,nan,pitch_program,11.8,0.0,0.0
2.4299999999999997,264.0714542533199,-0.4237491214453052,29.19216517069604,131.37020955277058,-2.5754042031533726,1.7981704875630755,131.4077550293392,17.501437686218587,72.97054406000234,3.3617342350785977,-9.446305750998683,255.44358011946264,-40.47400043018977,-37.16717005797075,8.754641819461968,0.03724583537959126,10535.1271300284,0.3860684986667499,131.333525607244,2.3973402799607486,1.2215705963363692,100974.80130361501,287.9602509263905,0.07244880006198942,-0.1312124234412952,-0.05085528216073648,401.9028947368421,0.21569836726627348,0.86,nominal,8920.276387496617,nan,pitch_program,11.785,0.0,0.0
2.46,268.0262722741644,-0.515944748990949,29.243340574621964,131.8272673614833,-3.0731875848547947,1.7058467975308185,131.8741173059534,17.4949667352006,81.26536065267561,2.5087021442921023,-11.35366389781827,273.7048506960446,-55.707553730519486,-41.9842246226356,10.218768430363372,-0.1643922926502962,10609.944106015064,0.38743811472017076,131.79936811001872,2.5203702428942503,1.2215645908359556,100974.18824858825,287.95991828626495,0.07244880006198942,-0.1312124234412952,-0.05085528216073648,401.86894736842106,0.21568014795997512,0.86,nominal,8982.170613458295,nan,pitch_program,11.77,0.0,0.0
2.4899999999999998,271.9934624595131,-0.6260343383356809,29.2903338423304,132.23967284495782,-3.6696529781577287,1.5664422569479093,132.29985324430987,17.488496330761798,90.09437287580398,1.2737028672207402,-13.821034558605483,292.15329318457464,-79.11397710437538,-47.38268223895226,12.286189525075184,-0.5637829705467629,10678.448814739806,0.38868796215667484,132.22447324388543,2.55374885214179,1.2215590761345763,100973.62529605757,287.9596128300248,0.07244880006198942,-0.1312124234412952,-0.05085528216073648,401.835,0.21566192865367675,0.86,nominal,9038.865636607854,nan,pitch_program,11.755,0.0,0.0
2.52,275.97057602627604,-0.7562048450149248,29.331012285123602,132.57045222543024,-4.33901688930813,1.3559480931067045,132.64837151677355,17.482026472902188,99.42148394704842,-0.5954793949089453,-17.028156315688854,310.95493742422605,-112.11397710437537,-53.402341390776535,15.202789049819282,-1.2939234285827765,10734.65618022106,0.3897105140721277,132.57226567373937,2.6782430392854013,1.2215543024988456,100973.13799357803,287.9593484201467,0.07244880006198942,-0.1312124234412952,-0.05085528216073648,401.80105263157895,0.2156437093473784,0.86,nominal,9085.434204651898,nan,pitch_program,11.74,0.0,0.0
2.55,279.95390541538103,-0.9091780528098086,29.36246270371228,132.77764630349938,-5.099106926496126,1.0483472862891896,132.87965713899814,17.475557161621765,109.17749574500182,-3.3759289094456952,-20.795014498248076,330.3741244112486,-145.11397710437538,-59.03308231409209,18.86926685991429,-2.5533979745962974,10771.973903661505,0.3903880452378605,132.80270203014055,2.913578196974653,1.2215506117861799,100972.76123840218,287.9591439924258,0.07244880006198942,-0.1312124234412952,-0.05085528216073648,401.7671052631579,0.21562549004108003,0.86,nominal,9116.449035562207,nan,pitch_program,11.725000000000001,0.0,0.0
2.58,283.93848584105973,-1.087443939566175,29.380616572463143,132.81934752262376,-5.942196225212214,0.605128958362215,132.9535819501328,17.469088396920533,119.29023499142413,-7.282254852016904,-24.88484524347421,350.7464542503518,-178.11397710437535,-63.275584802467634,23.143388850171505,-4.5749596549650855,10783.79149606425,0.39060254836810454,132.87564475300331,2.885533876309108,1.2215484814300768,100972.5437676014,287.95902599227895,0.07244880006198942,-0.1312124234412952,-0.05085528216073648,401.73315789473685,0.2156072707347817,0.86,nominal,9126.452900195683,nan,pitch_program,11.71,0.0,0.0
2.61,287.92164844831086,-1.2899310577088874,29.382203452612664,132.77208690837122,-6.749570604757076,0.05289600498400604,132.9435465276146,17.46262017879849,129.72114658605815,-12.481116681200975,-29.013240079752677,372.5220491154316,-211.11397710437535,-66.30535202498949,27.880205930688245,-7.581315052341094,10782.000537273128,0.3905701483921154,132.86462051058592,2.807228973020663,1.2215482952098617,100972.52475789207,287.959015677558,0.07244880006198942,-0.1312124234412952,-0.05085528216073648,401.6992105263158,0.21558905142848334,0.86,nominal,9125.134267158577,nan,pitch_program,11.695,0.0,0.0
2.6399999999999997,291.90137472967297,-1.5147819575781576,29.364868346116037,132.6575427120709,-7.4950299956423425,-0.5778368832209472,132.87036166317944,17.456152507255634,140.52713372519565,-19.0878493898718,-32.83135181975002,396.3019923954568,-244.11397710437532,-68.95786430893764,32.84365752366091,-11.748606705973943,10769.988215062765,0.39035211752658994,132.79047649022402,2.7993058593479607,1.2215503294839336,100972.73242044711,287.95912835575024,0.07244880006198942,-0.1312124234412952,-0.05085528216073648,401.6652631578947,0.21557083212218495,0.86,nominal,9115.23749041849,nan,pitch_program,11.68,0.0,0.0
2.67,295.87509970886896,-1.7603957384448368,29.326736338445738,132.45749930653398,-8.187126028889304,-1.2710669223432924,132.7163658569449,17.449685382291968,151.96618068477324,-27.144470049082685,-35.8637236174014,422.8051797253536,-277.1139771043753,-72.3927101161813,35.0,-17.185605128557462,10744.911042243088,0.3898965167840979,132.63554673641008,3.0003110359200194,1.2215548042826678,100973.18921667383,287.95937621380006,0.07244880006198942,-0.1312124234412952,-0.05085528216073648,401.63131578947366,0.21555261281588659,0.86,nominal,9094.41392205064,nan,pitch_program,11.665,0.0,0.0
2.6999999999999997,299.8394372761734,-2.025816582110087,29.264919616886914,132.14458557681508,-8.847361455508349,-2.060557385294116,132.45645774642588,17.44321880390749,164.70758755301185,-36.56552645864762,-37.33691161006129,452.82289581275194,-310.1139771043753,-77.8292049915799,35.0,-23.921888290485274,10702.752298371983,0.3891294389192329,132.374693462421,3.34413172106564,1.2215620585139633,100973.92974366026,287.9597780224902,0.07244880006198942,-0.1312124234412952,-0.05085528216073648,401.59736842105264,0.21553439350958825,0.86,nominal,9059.347423326299,nan,pitch_program,11.65,0.0,0.0
2.73,303.79020429327335,-2.309390785446981,29.175370747634155,131.69223390333298,-9.452473444563125,-2.9849623084253194,132.06477094461283,17.436752772102203,-179.71132094111957,-46.99620012497862,-35.71641085186235,485.8228958127519,-343.1139771043753,-86.30955809574112,35.0,-29.999999999999996,10639.44674073915,0.38797484309543956,131.9820545441565,3.6455491322497284,1.2215725671887478,100975.00249282512,287.96036009014034,0.07244880006198942,-0.1312124234412952,-0.05085528216073648,401.56342105263155,0.21551617420328986,0.86,nominal,9006.664511868814,nan,pitch_program,11.635,0.0,0.0
2.76,307.7233223647553,-2.6067262501532866,29.053878682354195,131.10393571606454,-9.911182156876857,-4.049735509332011,131.54038866327073,17.430287286876105,-157.95759327923233,-57.39172288505062,-27.800624112024533,518.8228958127519,-375.2488658399351,-93.0127034158305,35.0,-29.999999999999996,10555.053412607964,0.3864302638696798,131.45679676029206,3.71684383582047,1.221586824549166,100976.45791972005,287.9611497885647,0.07244880006198942,-0.1312124234412952,-0.05085528216073648,401.52947368421053,0.21549795489699153,0.86,nominal,8936.35814422247,nan,pitch_program,11.620000000000001,0.0,0.0
2.79,311.63687588232,-2.909248310175866,28.897744382975397,130.45178391882294,-10.084068667419313,-5.204476645960019,130.9444269362039,17.423822348229194,-125.03224420105325,-65.27237831490113,-8.03731518914171,520.0,-404.11848232639323,-86.3759691146465,35.0,-29.999999999999996,10459.621599340324,0.3846758110468486,130.86019328498978,3.7383573949674234,1.221605147438688,100978.328371822,287.96216466151066,0.07244880006198942,-0.1312124234412952,-0.05085528216073648,401.49552631578945,0.21547973559069317,0.86,nominal,8856.611537778728,nan,pitch_program,11.605,0.0,0.0
2.82,315.5301347147145,-3.2076552257472684,28.707096814953122,129.77529441315087,-9.946897185713405,-6.354918934075813,130.31098494870574,17.417357956161474,-80.78470524257729,-66.08653278597342,23.371537744123874,520.0,-427.43493150780125,-70.74213179477886,35.0,-29.999999999999996,10358.739893715923,0.38281191274589615,130.22640686900823,3.707291111384727,1.2216275208624314,100980.61232278985,287.9634038707028,0.07244880006198942,-0.1312124234412952,-0.05085528216073648,401.4615789473684,0.2154615162843948,0.86,nominal,8771.996850131269,nan,pitch_program,11.59,0.0,0.0
2.85,319.40363032438916,-3.4930975477080057,28.484996694044845,129.11652032248764,-9.51474406535791,-7.403337363609168,129.67812297737828,17.410894110672942,-44.0446080110292,-58.60139209300563,47.222094313112805,520.0,-444.67551091921496,-47.30989517131254,25.910524944248156,-29.999999999999996,10258.519611346366,0.3809505499936185,129.59352628089795,3.7984770350292583,1.2216535857922783,100983.2731269542,287.9648475214887,0.07244880006198942,-0.1312124234412952,-0.05085528216073648,401.4276315789474,0.21544329697809647,0.86,nominal,8687.550182297675,nan,pitch_program,11.575,0.0,0.0
2.88,323.2601914597548,-3.7539683853549097,28.238792854301952,128.55203784552202,-8.69569458823014,-8.206794658096461,129.10690538142592,17.4044308117636,-20.08429804837804,-47.49571457314394,57.74277268883033,520.0,-430.23165032917785,-17.25023819159985,1.9210232020767641,-29.999999999999996,10168.597463221407,0.37927170462573667,129.02276738291278,2.7447615289343648,1.2216824799514379,100986.22276487053,287.966447846447,0.07244880006198942,-0.1312124234412952,-0.05085528216073648,401.3936842105263,0.21542507767179808,0.86,nominal,8611.224466528873,nan,pitch_program,11.56,0.0,0.0
2.9099999999999997,327.1108985058025,-3.999643177064459,27.96582791051239,128.35690153492135,-8.189159723651645,-9.09883145965196,128.93930836853488,17.397968059433445,-1.962552846973228,-34.11504002755318,61.71932816629163,520.0,-463.23165032917785,13.644116362456444,-20.59158916976062,-29.999999999999996,10142.48893968411,0.37877835640640306,128.85533439126135,3.8159138207403442,1.2217145153697546,100989.4930949632,287.96822211858165,0.07244880006198942,-0.1312124234412952,-0.05085528216073648,401.3597368421053,0.21540685836549975,0.86,nominal,8586.923707556689,nan,pitch_program,11.545,0.0,0.0
