time_s,x_m,y_m,altitude_m,vx_mps,vy_mps,vz_mps,speed_mps,mass_kg,roll_deg,pitch_deg,yaw_deg,p_dps,q_dps,r_dps,alpha_deg,beta_deg,qbar_pa,mach,airspeed_mps,load_factor_g,density_kgpm3,pressure_pa,temperature_k,wind_x_mps,wind_y_mps,wind_z_mps,thrust_n,mass_flow_kgps,propulsion_throttle_actual,propulsion_health,energy_j_per_kg,target_distance_m,guidance_mode,pitch_command_deg,heading_command_deg,roll_command_deg,elevator_command_deg,aileron_command_deg,rudder_command_deg,elevator_deg,aileron_deg,rudder_deg,throttle,elevator_saturated,aileron_saturated,rudder_saturated,elevator_failed,aileron_failed,rudder_failed,elevator_raw_rad,aileron_raw_rad,rudder_raw_rad,elevator_effective_rad,aileron_effective_rad,rudder_effective_rad,imu_ax_mps2,imu_ay_mps2,imu_az_mps2,gyro_p_rps,gyro_q_rps,gyro_r_rps,gps_valid,gps_x_m,gps_y_m,gps_z_m,gps_vx_mps,gps_vy_mps,gps_vz_mps,baro_alt_m,pitot_airspeed_mps,pitot_qbar_pa,mag_heading_deg
0.0,0.0,0.0,1000.0,83.0,1.5,14.0,84.18580640464282,18.0,1.0000000000000002,8.000000000000004,1.0000000000000002,0.0,0.0,0.0,-1.0827684347795592,-6.349201456408931,4114.848473868095,0.2557463875601956,86.0417728600201,1.7180181447872964,1.1116425003060326,89874.56291621955,281.65,-1.6186018662344348,9.566354501788709,0.6653526424403756,319.2,0.17131232378029196,0.84,nominal,13350.275,nan,altitude_hold,20.0,2.0,0.0,-20.05352282957881,2.016666666666644,3.086666666666632,-2.6999999999999997,1.2099999999999864,1.851999999999979,0.84,0.0,0.0,0.0,0.0,0.0,0.0,-0.047123889803846894,0.02111848394913115,0.03232349774693462,-0.047123889803846894,0.02111848394913115,0.03232349774693462,16.864680307905445,1.4265596267816167,-0.8404404528891686,-0.005526002259025985,-0.0024404616361534746,-0.0006126780109707863,1.0,-5.12475906770303,4.333339046228245,1006.1844569493729,82.72589914784164,1.4631960598078957,14.027873835128696,1002.0904441399286,85.79311618127807,4168.7033634385725,-0.10896602917947859
0.03,2.505038713561053,0.04646735758959711,1000.4124443331036,83.5012904520351,1.548911919653237,13.748144436787165,84.63968401845987,17.994860630286592,1.0875168236479114,8.37351009423599,0.8472756551265401,2.1922912294498413,-12.540106365730965,-4.811329997703332,-0.594620422282416,-6.20649547405588,4172.776557131109,0.2575467137790701,86.64705138147676,1.750680619766894,1.1115974687753443,89870.06674995969,281.6473191118348,-1.740218816714953,9.672186404383423,0.4963889932391711,324.87,0.17435537163691558,0.84,nominal,13392.632752591597,nan,altitude_hold,19.907233145759406,2.0,0.0,-2.583763905379243,0.5264922610233325,0.8914091445094425,-2.630258343227546,0.799895356613994,1.2756454867056572,0.84,0.0,0.0,0.0,0.0,0.0,0.0,-0.04590666826737177,0.013960807644328397,0.022264213831219272,-0.04590666826737177,0.013960807644328397,0.022264213831219272,17.016322202294447,1.3495403719921357,-0.7597351710443117,0.029565530846473433,-0.22751876509225957,-0.08321179718378187,1.0,-5.12475906770303,4.333339046228245,1006.1844569493729,82.72589914784164,1.4631960598078957,14.027873835128696,1002.0904441399286,86.27347192879708,4219.611927546416,-0.10896602917947859
0.06,5.025374712521403,0.09431291798105614,1000.8177512456737,84.011199965345,1.5948520130486343,13.510230418999873,85.10553212650268,17.989629969137486,1.2569634042162854,9.049904216067407,0.5503644567386852,4.149158264784902,-22.742167352265664,-9.319745467947284,0.34378650787854925,-6.361791328838518,4177.459311671509,0.25769751924171164,86.6973817394765,1.782984278154329,1.1115532178826377,89865.64856807032,281.6446846169031,-1.280845437094381,10.368936426153304,0.6759624515447424,330.53999999999996,0.17739841949353916,0.84,nominal,13436.145199520975,nan,altitude_hold,19.907233145759406,2.0,0.0,-0.46052114988769044,0.7223481590896381,1.4006101238706596,-1.3284160272236325,0.7533670380993804,1.3506242690046588,0.84,0.0,0.0,0.0,0.0,0.0,0.0,-0.023185233511315014,0.013148735290831753,0.02357284045147289,-0.023185233511315014,0.013148735290831753,0.02357284045147289,17.44592515542346,1.202403239947953,0.15447685801648708,0.06587504136182844,-0.4071319515232673,-0.16896079981985263,1.0,-5.12475906770303,4.333339046228245,1006.1844569493729,82.72589914784164,1.4631960598078957,14.027873835128696,1006.2967473741077,86.9806016620667,4106.631459685758,0.9247503330973007
0.09,7.561175895979629,0.14347783619651858,1001.2168287340543,84.52670611527418,1.6388306071820813,13.302582946021593,85.58275834239483,17.984308016552678,1.513018674540333,9.783403660434836,0.10846066553847471,6.12508390842677,-24.794442186646826,-13.936800706186428,1.2318487320431573,-6.261416424564768,4218.993072799808,0.25898167851498766,87.1290112264904,1.8076160464562205,1.1115096484272804,89861.29846392456,281.6420906132286,-1.179927649727103,10.92684973224732,0.6704720095922982,336.21,0.18044146735016278,0.84,nominal,13480.787276251187,nan,altitude_hold,19.907233145759406,2.0,0.0,0.4200419290669085,0.9563153199625398,1.9728566303410884,-0.27934125344930805,0.8751360072172761,1.7239636858065166,0.84,0.0,0.0,0.0,0.0,0.0,0.0,-0.004875424609338392,0.015274004728698326,0.03008884250214075,-0.004875424609338392,0.015274004728698326,0.03008884250214075,17.429353139670365,1.2349208530212605,0.8479852528571269,0.10371482912789459,-0.4410457472021445,-0.24208620448191823,1.0,-5.12475906770303,4.333339046228245,1006.1844569493729,82.72589914784164,1.4631960598078957,14.027873835128696,1006.2967473741077,86.93145208932675,4146.7596011799005,0.9247503330973007
0.12,10.112495149768863,0.19385324382202296,1001.6105835988296,85.0439751263078,1.6791802541834795,13.125162159179917,86.06722508199546,17.978894772532172,1.860739865433513,10.372283728486734,-0.4786263164014617,8.166244354668777,-20.188239713830868,-18.68189303276027,1.8474647363329448,-5.883273810204035,4239.199224058257,0.2596073118325397,87.33909572548417,1.8357162169312347,1.1114666613521311,89857.00654561906,281.63953120660756,-0.8503103090930855,11.253812274755672,0.5308859450499558,341.88,0.18348451520678638,0.84,nominal,13526.228046306896,nan,altitude_hold,19.907233145759406,2.0,0.0,-0.46106767177048597,1.2307942710570257,2.606588338061795,-0.3883771044420148,1.0885309655211257,2.2535384771596836,0.84,0.0,0.0,0.0,0.0,0.0,0.0,-0.006778459211875053,0.018998449358256515,0.03933166624681551,-0.006778459211875053,0.018998449358256515,0.03933166624681551,17.78323848696502,1.4299968242303411,1.2231152501272615,0.1383132478664843,-0.3503117444083498,-0.3339161693151763,1.0,-5.12475906770303,4.333339046228245,1006.1844569493729,82.72589914784164,1.4631960598078957,14.027873835128696,1012.299193316238,87.12569716968277,4248.4403075790815,0.18742764544669627
0.15,12.679455828744132,0.24524301907600252,1001.9996166984897,85.56535596584227,1.7129925084659852,12.967769988669959,86.55938737869168,17.973390237075968,2.302014308679922,10.784469908633898,-1.2097009029891939,10.235386618022744,-14.600612557669448,-23.440728310232032,2.435150001513484,-4.772140268454287,4293.773743740977,0.26127919656623494,87.90116947741522,1.8624042388776325,1.1114241910114429,89852.76625745157,281.6370024914598,-0.9866438459147318,10.69964597013885,0.5336643255072612,347.55,0.18652756306341,0.84,nominal,13572.523312783449,nan,altitude_hold,19.907233145759406,2.0,0.0,-1.7081661347033203,1.5411624134486335,3.297606610156038,-1.1802505225987983,1.36010983427763,2.879979356957496,0.84,0.0,0.0,0.0,0.0,0.0,0.0,-0.02059925761773277,0.023738394796899077,0.05026512216837737,-0.02059925761773277,0.023738394796899077,0.05026512216837737,18.09922542139916,1.2574420790668106,1.8361084527921956,0.17935277002573707,-0.25937961270068205,-0.4045209412263785,1.0,-5.12475906770303,4.333339046228245,1006.1844569493729,82.72589914784164,1.4631960598078957,14.027873835128696,1012.299193316238,88.01822082474241,4312.0347129040165,0.18742764544669627
0.18,15.262186917633834,0.2972877942308745,1002.3844155226793,86.09103629632338,1.7348258384957322,12.826627472986592,87.05859247423862,17.967794410184066,2.831556443673565,11.06963787354055,-2.0738192949754097,12.191279555242419,-10.762717762808082,-27.828374026294135,2.7222124015025195,-4.115407053150833,4298.918550421236,0.26144178389708883,87.95547755183378,1.8924183895174391,1.1113821841435603,89848.57228039898,281.63450129910257,-0.48956094193841726,10.972623123869754,0.3916238722083025,353.21999999999997,0.18957061092003358,0.84,nominal,13619.632390283261,nan,altitude_hold,19.907233145759406,2.0,0.0,-2.6122597585229483,1.873614980275153,4.015319815852971,-2.039456064153288,1.6682129218761437,3.561183632294781,0.84,0.0,0.0,0.0,0.0,0.0,0.0,-0.03559522326923958,0.02911580811105365,0.062154379651675,-0.03559522326923958,0.02911580811105365,0.062154379651675,18.47571879993243,1.2096398747798844,1.7242048100099086,0.21122443086369655,-0.20822942472132133,-0.4882983034770166,1.0,-5.12475906770303,4.333339046228245,1006.1844569493729,82.72589914784164,1.4631960598078957,14.027873835128696,996.0938554856759,87.39709809836332,4300.8488699521895,-2.1296413673711134
0.21,17.860901783838965,0.34965469366637253,1002.7652271705366,86.62382887350442,1.745563314516602,12.693721595242788,87.56634791932741,17.962107291856466,3.4493474961582495,11.308528682212435,-3.0706623607514625,14.14510091864037,-9.736941832482671,-32.112375944499156,3.235018266411452,-2.825311216387391,4441.528614389329,0.2657490084950094,89.40414147071769,1.9184322354916319,1.1113406137347506,89844.4219162068,281.6320260233915,-1.4904025160336098,10.57395272894038,0.4037956762495189,358.89,0.1926136587766572,0.84,nominal,13667.70025899629,nan,altitude_hold,19.907233145759406,2.0,0.0,-2.8692830969680165,2.236923377796515,4.787926366918363,-2.537352283842125,2.009439195428367,4.29722927306893,0.84,0.0,0.0,0.0,0.0,0.0,0.0,-0.0442851516360428,0.035071330078850785,0.07500079952813532,-0.0442851516360428,0.035071330078850785,0.07500079952813532,18.551292750013157,1.006702487623771,2.263250269731212,0.24917033047933926,-0.17298607468744162,-0.5626586160367226,1.0,-5.12475906770303,4.333339046228245,1006.1844569493729,82.72589914784164,1.4631960598078957,14.027873835128696,996.0938554856759,89.84370759651644,4420.7204761190405,-2.1296413673711134
0.24,20.47569639325121,0.40186853302923525,1003.1425177761176,87.15982031374146,1.7404613120954238,12.576353519366783,88.07966933717843,17.956328882093167,4.151202850892727,11.512559526226633,-4.189189586345417,16.01880581881436,-9.208533346856584,-36.017649534207706,3.6339137592840065,-1.6447701464045386,4482.80221660867,0.26698701996022556,89.82024622447213,1.9482160681126366,1.1112994288653637,89840.31008000704,281.6295736344552,-1.4147421310944146,10.393340716460905,0.43752336386267987,364.56,0.19565670663328083,0.84,nominal,13716.481647222508,nan,altitude_hold,19.907233145759406,2.0,0.0,-3.050562333972456,2.6226799223699144,5.582198894515692,-2.845278313920324,2.3773836315932955,5.0682110459369865,0.84,0.0,0.0,0.0,0.0,0.0,0.0,-0.04965947471350246,0.04149317195432289,0.088456969937546,-0.04965947471350246,0.04149317195432289,0.088456969937546,18.87416815739605,0.8719832715345893,2.3707988292499578,0.2849582749420814,-0.15980173103007195,-0.6272499999068307,1.0,-5.12475906770303,4.333339046228245,1006.1844569493729,82.72589914784164,1.4631960598078957,14.027873835128696,999.9581225997366,90.2101623393689,4401.279094523195,-6.300775447571523
0.27,23.106709810548402,0.45340178474590276,1003.516655503003,87.70044724323985,1.7177750572222503,12.471257562845178,88.59938748665441,17.950459180894168,4.932295827613947,11.68060345784134,-5.416978527253606,17.809267695458537,-8.758695030472852,-39.52334536083139,3.8959493416404136,-0.5577902637018542,4566.279309100406,0.2694675355894241,90.65435428014955,1.9777241175550273,1.1112585893158196,89836.23275538409,281.62714173923047,-1.6907683546029684,10.545733117689835,0.24466031040100292,370.22999999999996,0.1986997544899044,0.84,nominal,13766.06234119369,nan,altitude_hold,19.907233145759406,2.0,0.0,-3.2612846467433965,3.0281251675336156,6.389234823868328,-3.0948821136141675,2.7678285531574875,5.860825312695791,0.84,0.0,0.0,0.0,0.0,0.0,0.0,-0.054015882843648444,0.04830772138330905,0.10229069859076778,-0.054015882843648444,0.04830772138330905,0.10229069859076778,19.30574330243626,0.6239857103699881,2.6158753791892173,0.30909192658274487,-0.14600599028148348,-0.6837958784281202,1.0,-5.12475906770303,4.333339046228245,1006.1844569493729,82.72589914784164,1.4631960598078957,14.027873835128696,999.9581225997366,90.97745045554232,4523.991258654199,-6.300775447571523
0.3,25.754081183340116,0.5037035366005226,1003.8879358008487,88.24571242639041,1.6767250618206593,12.376009928192156,89.1250962990607,17.94449818825947,5.789790856874851,11.8166586063061,-6.744973173780968,19.569476023878174,-8.564842448826354,-42.72821926986763,4.374256874771581,0.8013302435134182,4597.638785961814,0.27039734199061694,90.96677028708261,2.009140423879057,1.1112180628081814,89832.18671893406,281.6247284172945,-1.5192153270894353,10.313860043889862,0.43402763139927947,375.9,0.20174280234652803,0.84,nominal,13816.419020779815,nan,altitude_hold,19.907233145759406,2.0,0.0,-3.4565213012429203,3.4555851820076793,7.214207790394285,-3.311865626191419,3.1804825304676023,6.672854799314887,0.84,0.0,0.0,0.0,0.0,0.0,0.0,-0.057802959560664016,0.05550989195882053,0.11646328675555025,-0.057802959560664016,0.05550989195882053,0.11646328675555025,19.350569649288843,0.2423511530679727,2.9735006952623793,0.3420778044875759,-0.15676409279418202,-0.740902924643309,1.0,-5.12475906770303,4.333339046228245,1006.1844569493729,82.72589914784164,1.4631960598078957,14.027873835128696,1006.3991233021345,90.33233520631478,4559.883375054105,-7.685659107453199
0.32999999999999996,28.41789075601646,0.5521064792588803,1004.2567668119585,88.79365242254482,1.6134314219452577,12.294367036994737,89.65526940637322,17.938445904189074,6.715991736774775,11.900837219044202,-8.154459336054733,21.218149545181415,-7.797629600463864,-45.40383953923771,4.737515080651906,2.029954436125203,4657.432319912108,0.2721560456755156,91.5580416987569,2.0403945884460892,1.1111778047680547,89828.1675197469,281.62233101572224,-1.5690396458418359,10.414959373875428,0.4625460623253942,381.57,0.20478585020315163,0.84,nominal,13867.428288421173,nan,altitude_hold,19.907233145759406,2.0,0.0,-3.8464895800544525,3.8942652410377088,8.023502687206388,-3.632639998509239,3.6087521568096657,7.483243532049788,0.84,0.0,0.0,0.0,0.0,0.0,0.0,-0.06340152851362812,0.06298460702477537,0.1306072383628386,-0.06340152851362812,0.06298460702477537,0.1306072383628386,19.783072820860937,0.2988197969203952,3.7275041799612336,0.3716468258311662,-0.14089490915722405,-0.7921046792863267,1.0,-5.12475906770303,4.333339046228245,1006.1844569493729,82.72589914784164,1.4631960598078957,14.027873835128696,1006.3991233021345,91.34746657992099,4655.898181598159,-7.685659107453199
0.36,31.098217624504475,0.5979284532546032,1004.6234696485185,89.34422894960046,1.5273991331907613,12.22342788533324,90.18944718745448,17.93230232868298,7.705348816537257,11.93828841640467,-9.63196570009545,22.806246434843942,-7.287439278483728,-47.65383910310698,5.069297499763925,3.1253195607713837,4689.733714493786,0.273104251830585,91.87664598047597,2.0726899072302944,1.111137780125129,89824.17165590628,281.61994744728463,-1.3137944732096711,10.775807891156107,0.5226671777334557,387.24,0.20782889805977525,0.84,nominal,13919.058940617962,nan,altitude_hold,19.907233145759406,2.0,0.0,-4.219693404517284,4.345800552058829,8.82544256481532,-3.984872042114066,4.050981193959164,8.288562951709107,0.84,0.0,0.0,0.0,0.0,0.0,0.0,-0.0695491374055606,0.07070295977095843,0.14466271376614367,-0.0695491374055606,0.07070295977095843,0.14466271376614367,19.921026424774045,-0.3026095643091204,3.663363623873948,0.40098628044838786,-0.12069678520539975,-0.8245598599673789,1.0,-5.12475906770303,4.333339046228245,1006.1844569493729,82.72589914784164,1.4631960598078957,14.027873835128696,999.6933071456597,91.70104396543839,4747.0745659938475,-9.347348340561124
0.39,33.79514121718178,0.6404718702367418,1004.9883101117218,89.89745308924361,1.4181138994046194,12.161348773443612,90.72740227160578,17.926067461741187,8.754065257014295,11.940912547857431,-11.167339315756035,24.368979736622236,-7.254519193324085,-49.54755285251231,5.409779614228581,4.591644644165923,4761.020011530686,0.27517817349631873,92.57395668163295,2.105042473092437,1.1110979598498767,89820.19622869261,281.6175759842738,-1.4701769577954693,10.63977642219087,0.46286273481051515,392.90999999999997,0.21087194591639885,0.84,nominal,13971.299372834004,nan,altitude_hold,19.907233145759406,2.0,0.0,-4.513229232493396,4.811783574083422,9.624612154379097,-4.301886356341664,4.507462622033719,9.0901924733111,0.84,0.0,0.0,0.0,0.0,0.0,0.0,-0.07508208096478408,0.0786700636650651,0.15865378829928548,-0.07508208096478408,0.0786700636650651,0.15865378829928548,20.35351965394747,0.06824105835120164,3.762502854700465,0.4173221300446742,-0.13247033391145727,-0.8558885222919579,1.0,-5.12475906770303,4.333339046228245,1006.1844569493729,82.72589914784164,1.4631960598078957,14.027873835128696,999.6933071456597,92.20024544816994,4821.209158580729,-9.347348340561124
0.42,36.50867995542982,0.6789231615924636,1005.3515643275489,90.45129127493463,1.281709711857392,12.108473860900892,91.26715735865041,17.919741303363697,9.854305225555585,11.91575167742219,-12.741985059257962,25.825724704531673,-7.47583706803315,-50.81892486001312,5.815931102943034,6.164075480334256,4819.435102590824,0.27686726938690986,93.14180274475908,2.1180466894017824,1.1110583137892038,89816.23822731785,281.6152148318709,-1.5150602280324668,10.329101117275348,0.4581383063564667,394.7778947368421,0.21187443146760623,0.84,nominal,14023.977924477083,nan,altitude_hold,19.907233145759406,2.0,0.0,-4.7636558912180975,5.282740109846577,10.3906890408935,-4.578948077267524,4.9726291147214345,9.87049041386054,0.84,0.0,0.0,0.0,0.0,0.0,0.0,-0.07991772022618202,0.08678875053241986,0.17227255650840417,-0.07991772022618202,0.08678875053241986,0.17227255650840417,20.449152686898582,-0.5284292681718188,4.4608341643527964,0.4603162798854304,-0.13020959923187475,-0.8755031404849476,1.0,-5.12475906770303,4.333339046228245,1006.1844569493729,82.72589914784164,1.4631960598078957,14.027873835128696,1007.2356966227239,93.14654252111625,4927.094926547733,-13.360793742928964
0.44999999999999996,39.238618552134554,0.712445268587731,1005.713492532176,90.99795322349108,1.1174035665089161,12.064273487572512,91.80099550864392,17.913385070419668,10.996238767123103,11.859383053808036,-14.332125678210515,27.145702139516477,-7.538483238833357,-51.35605453300859,6.049331028130927,7.142730737142822,4849.459829261765,0.2777344587893355,93.43314644308745,2.12002494638106,1.1110188135275412,89812.29481455787,281.61286229854085,-1.1707466548475631,10.971862539431743,0.33511088561556274,394.7447368421052,0.2118566358661055,0.84,nominal,14076.391609729695,nan,altitude_hold,19.907233145759406,2.0,0.0,-5.060115640321331,5.75190613777232,11.099867768721893,-4.867648615099808,5.440195328551965,10.608116826777351,0.84,0.0,0.0,0.0,0.0,0.0,0.0,-0.08495649516363382,0.09494932043484647,0.18514656606347776,-0.08495649516363382,0.09494932043484647,0.18514656606347776,20.452890664054227,-0.7196502628088641,4.662788728837353,0.4708387385609617,-0.13606090437386492,-0.9028341555299668,1.0,-5.12475906770303,4.333339046228245,1006.1844569493729,82.72589914784164,1.4631960598078957,14.027873835128696,1007.2356966227239,93.70775564182891,4851.843840147309,-13.360793742928964
0.48,41.98470709110552,0.7403430617105295,1006.0741909304431,91.53628463236542,0.9299264374266183,12.023279942237165,92.32721932369589,17.907029371343686,12.178267920305787,11.78623835053231,-15.929894334137984,28.488819609366942,-8.083058490565373,-51.56099257402588,6.474128141858092,8.584736826326074,4959.155851184444,0.28086425029001494,94.48565188649398,2.124251158501421,1.1109794485538447,89808.36494071735,281.6105177589521,-1.68001635833954,10.887639626445766,0.22906144030769543,394.7115789473684,0.2118388402646048,0.84,nominal,14128.37517851095,nan,altitude_hold,19.907233145759406,2.0,0.0,-5.245749934879515,6.232442360744814,11.791272036144488,-5.094509406967632,5.915543547867674,11.318009952397633,0.84,0.0,0.0,0.0,0.0,0.0,0.0,-0.08891596292540893,0.10324571195539771,0.19753653844282537,-0.08891596292540893,0.10324571195539771,0.19753653844282537,20.106842852597165,-1.064786617783229,5.189293230554321,0.507545531632495,-0.14019221190461711,-0.9071570421121995,1.0,-5.12475906770303,4.333339046228245,1006.1844569493729,82.72589914784164,1.4631960598078957,14.027873835128696,1006.4690294325451,94.38898176043479,4907.882811746201,-15.39826493359047
0.51,44.74654144211143,0.7617825264091486,1006.4339318682632,92.06114503353031,0.7146488232873007,11.991364594002532,92.84157459162154,17.900674206135747,13.392269369337617,11.685112997717304,-17.510559668073196,29.749909017844335,-8.129861767990475,-51.058929679012074,6.823828508663773,9.816787904258776,5030.277481850477,0.2828772576199307,95.1624533798223,2.129299113533581,1.1109401891358,89804.44563726813,281.6081794428563,-1.7822732339529619,11.065708901583168,0.0682384772263725,394.67842105263156,0.21182104466310406,0.84,nominal,14179.524304281716,nan,altitude_hold,19.907233145759406,2.0,0.0,-5.5404854840386095,6.7106300276545365,12.409542617751347,-5.362095053210219,6.392595435739792,11.97292955160986,0.84,0.0,0.0,0.0,0.0,0.0,0.0,-0.09358621348341886,0.11157183810162095,0.20896704178492043,-0.09358621348341886,0.11157183810162095,0.20896704178492043,20.071147324579425,-1.233306536549116,5.308918924700394,0.5183084655350545,-0.1379197931304175,-0.880050698845533,1.0,47.976504993257585,10.74230857819901,998.654551611364,91.96002690494525,0.7033030446835259,12.0682633642331,1006.4690294325451,95.28925555950963,4993.119613126432,-15.39826493359047
0.54,47.52374085673945,0.7759795696212184,1006.7928898322162,92.57331382093399,0.47323477373566,11.965265465101757,93.34457649264127,17.894319574795855,14.632808904232881,11.559506964682985,-19.055640047398143,30.975691741347124,-8.153582445623682,-49.96379724925379,7.321050881139745,10.958671490727196,5083.2895069333645,0.2843701062690095,95.66426478139287,2.1355472880849304,1.1109010162235298,89800.53500220568,281.6058462160906,-1.745338348845785,11.23740714312883,0.1425753210384127,394.6452631578947,0.21180324906160333,0.84,nominal,14229.87047336838,nan,altitude_hold,20.020181725829538,2.0,0.0,-6.824396307979194,7.189049007973629,12.963583164773762,-6.239475806071604,6.870467579080094,12.567321719508202,0.84,0.0,0.0,0.0,0.0,0.0,0.0,-0.10889939641447668,0.11991228040647152,0.21934114216281342,-0.10889939641447668,0.11991228040647152,0.21934114216281342,20.134694661824557,-1.4166841805162316,5.803257553055623,0.54257082694652,-0.13578683649072895,-0.8757431358173757,1.0,47.976504993257585,10.74230857819901,998.654551611364,91.96002690494525,0.7033030446835259,12.0682633642331,1007.4907324104474,96.16766643780352,5154.558520364467,-18.79195132781548
0.57,50.31588378446914,0.7821656975833242,1007.1512571866443,93.07143092432311,0.2062042654035267,11.945578480937552,93.835124658863,17.887965477324006,15.900071190516355,11.479335819247636,-20.566112708805132,32.18755912960921,-10.413298647935594,-48.30194367859677,8.179752379116763,12.048309862121272,5145.04591868299,0.2860985035191595,96.24531268751169,2.1547256264786188,1.1108619088183191,89796.63093903876,281.6035168282868,-1.8640194611267207,11.27089656803097,0.6321767521528283,394.6121052631579,0.21178545346010264,0.84,nominal,14279.295186161584,nan,altitude_hold,20.020181725829538,2.0,0.0,-5.55455442639111,7.677128727153167,13.505694434783415,-5.828522978263308,7.354464267923938,13.130345348673329,0.84,0.0,0.0,0.0,0.0,0.0,0.0,-0.10172691649884061,0.12835961619554712,0.22916775825827246,-0.10172691649884061,0.12835961619554712,0.22916775825827246,19.919125630809752,-1.9097637512538228,6.746004829039521,0.5689342217842409,-0.18560011223507916,-0.8407947585718043,1.0,47.976504993257585,10.74230857819901,998.654551611364,91.96002690494525,0.7033030446835259,12.0682633642331,1007.4907324104474,96.22251160433926,5233.7719535706065,-18.79195132781548
0.6,53.12234701790253,0.77950459858416,1007.5096514153531,93.54877444777935,-0.08870329997214033,11.946474290294022,94.30853257752226,17.881611913720203,17.182281054728403,11.30152207625124,-21.982452443979103,33.41677995064186,-7.4956458292326715,-46.05753544914771,8.718282033464668,13.403861078091737,5231.927412427491,0.2885102552709317,97.05623949808555,2.1696529548031025,1.1108227995337643,89792.72672055484,281.6011872658002,-2.2153571419419062,10.829371187691141,0.5473350307653599,394.57894736842104,0.2117676578586019,0.84,nominal,14327.344181515162,nan,altitude_hold,20.020181725829538,2.0,0.0,-6.473049631267541,8.150814809508361,13.849535986935182,-6.215238970065848,7.832274592874592,13.561859731630442,0.84,0.0,0.0,0.0,0.0,0.0,0.0,-0.10847638382591034,0.13669897956596003,0.23669910501058578,-0.10847638382591034,0.13669897956596003,0.23669910501058578,19.964628029771212,-2.367607497912931,7.330450217059975,0.5787651513978416,-0.12300019326347322,-0.8055769384941601,1.0,47.976504993257585,10.74230857819901,998.654551611364,91.96002690494525,0.7033030446835259,12.0682633642331,1012.0336280734457,97.31083082814735,5224.55178848615,-22.46740059504326
0.63,55.942585425456514,0.7671499505043627,1007.8683315894832,94.00794691846625,-0.4118216026599099,11.956005804335716,94.76607914043345,17.875258883984444,18.4697903968727,11.039086035703754,-23.27673618883479,34.559680766910674,-4.6298745517767825,-42.97489771904683,9.248866133887567,14.50347305750235,5285.112476120207,0.289979279341585,97.55002245248288,2.1844062717501647,1.1107836601004364,89788.81952470176,281.5988558446683,-2.2624941527697358,10.542565556157586,0.6418351142528593,394.54578947368424,0.2117498622571012,0.84,nominal,14374.116851807452,nan,altitude_hold,20.020181725829538,2.0,0.0,-7.330588284314002,8.61027554247927,14.067652518925785,-6.88444855861474,8.299075162637399,13.865335404007649,0.84,0.0,0.0,0.0,0.0,0.0,0.0,-0.12015629453200505,0.1448461864585065,0.24199575469327164,-0.12015629453200505,0.1448461864585065,0.24199575469327164,19.927391686792195,-2.3457097854415876,7.764392058356886,0.5910896118082276,-0.06900298817015185,-0.7545832536324617,1.0,47.976504993257585,10.74230857819901,998.654551611364,91.96002690494525,0.7033030446835259,12.0682633642331,1012.0336280734457,97.82221684726653,5297.0103177441615,-22.46740059504326
0.6599999999999999,58.77610381139398,0.7443387810206159,1008.2274624044053,94.45061286458215,-0.760372316124895,11.971027164070408,95.2092533733839,17.86890638811673,19.75992468575265,10.744783237608333,-24.439781577191354,35.679720038426765,-3.1978208094474874,-39.18620894094033,9.714184380201456,15.49013670061352,5326.462994306451,0.2911178043772606,97.93262025765357,2.1994804752235764,1.1107444725498923,89784.90755783083,281.59652149437136,-2.206075460724099,10.214744133683329,0.6648548928049864,394.5126315789473,0.21173206665560043,0.84,nominal,14419.734808146768,nan,altitude_hold,20.020181725829538,2.0,0.0,-7.766519403239708,9.066197454813345,14.206162631371164,-7.41369106538972,8.759348537942968,14.069831740425759,0.84,0.0,0.0,0.0,0.0,0.0,0.0,-0.12939331881673685,0.15287947231685622,0.24556488907203364,-0.12939331881673685,0.15287947231685622,0.24556488907203364,19.569430256049266,-2.756854979192954,8.174722592340098,0.6166572284014352,-0.06281613258819414,-0.6843591470043635,1.0,47.976504993257585,10.74230857819901,998.654551611364,91.96002690494525,0.7033030446835259,12.0682633642331,1021.5653363073583,98.27814277444536,5308.126470368695,-23.81815519601779
0.69,61.62244086555953,0.7103614693210616,1008.5871427245929,94.87790180551839,-1.132577056651809,11.989344006254749,95.6391308592208,17.86255442611706,21.05206302066528,10.456393535626486,-25.460753426107242,36.81158898341105,-2.6542799153846377,-34.70660638233489,9.958865138250786,16.20429867880048,5367.583380598901,0.2922457373898219,98.31165109936462,2.2098648609747165,1.1107052260986607,89780.98974359658,281.59418357229015,-2.090933270395813,10.183887815752621,0.4064519366983924,394.4794736842105,0.21171427105409973,0.84,nominal,14464.282778953708,nan,altitude_hold,20.020181725829538,2.0,0.0,-7.884480108317331,9.521785948753916,14.25610803607405,-7.696164491146288,9.216810984429536,14.181597517814733,0.84,0.0,0.0,0.0,0.0,0.0,0.0,-0.1343234101455767,0.16086369821227522,0.2475155698785223,-0.1343234101455767,0.16086369821227522,0.2475155698785223,19.68554812285887,-2.9054957165007145,8.604127263683782,0.6463213073343738,-0.03908766936763511,-0.5978868338778088,1.0,47.976504993257585,10.74230857819901,998.654551611364,91.96002690494525,0.7033030446835259,12.0682633642331,1021.5653363073583,98.08784988424712,5347.9046134068085,-23.81815519601779
0.72,64.48122885739707,0.6646246108418604,1008.9473327242991,95.2929330612514,-1.5245619493067057,12.00633332353888,96.05841670790403,17.856202997985438,22.349260386509012,10.19824557252245,-26.330540420108587,38.043464626788214,-2.551922755309971,-29.685481682104033,10.343304532851862,16.391823178980047,5367.480528606836,0.29224932280325217,98.31244853667496,2.210044508524693,1.1106659250969855,89777.06651640814,281.591842337292,-1.5996439729172225,10.611800973702568,0.6100730617220219,394.44631578947366,0.211696475452599,0.84,nominal,14508.003070675415,nan,altitude_hold,20.020181725829538,2.0,0.0,-7.7829216386990465,9.984236745017677,14.218258960449253,-7.748218779677943,9.677266440782422,14.203594383395446,0.84,0.0,0.0,0.0,0.0,0.0,0.0,-0.13523192887023722,0.1689001619844061,0.24789948760802433,-0.13523192887023722,0.1689001619844061,0.24789948760802433,19.565345545951082,-2.956577569868618,8.480120483618174,0.6633668841951681,-0.04774560385135985,-0.5186708489126294,1.0,47.976504993257585,10.74230857819901,998.654551611364,91.96002690494525,0.7033030446835259,12.0682633642331,1008.7855847325735,98.41851756775135,5336.99183665745,-26.148176859352965
0.75,67.35210690624689,0.6067115162670605,1009.3079756813639,95.6959349616608,-1.9304364858266614,12.021431902160513,96.46736949969407,17.84985210372186,23.659413221716356,9.95980255297054,-27.03973461298307,39.53599800579193,-1.7800705679610238,-24.531792423609943,10.6415862437499,16.75377440883869,5393.287623334092,0.292957463421614,98.55025629350953,2.2118260566247963,1.1106265757381748,89773.13849464225,281.58949815807114,-1.3763403609145661,10.550276838539117,0.4733509304346032,394.4131578947368,0.21167867985109828,0.84,nominal,14550.9067488109,nan,altitude_hold,20.020181725829538,2.0,0.0,-7.758278094217644,10.464382686279661,14.087873051784852,-7.754254368401764,10.149536188080765,14.134161584429089,0.84,0.0,0.0,0.0,0.0,0.0,0.0,-0.13533726976576413,0.1771428240323238,0.2466876566571861,-0.13533726976576413,0.1771428240323238,0.2466876566571861,19.531862755826467,-3.179114068753352,8.9032222211994,0.6940134454515471,-0.03097818404683596,-0.4392608760974724,1.0,47.976504993257585,10.74230857819901,998.654551611364,91.96002690494525,0.7033030446835259,12.0682633642331,1008.7855847325735,99.05220372761002,5268.305294617871,-26.148176859352965
0.78,70.23472559427755,0.5361914696466846,1009.6689776565422,96.08728960102222,-2.350668220679197,12.033399172609364,96.86637992410876,17.84350174332633,24.987998559941868,9.735883128251167,-27.57288415962076,41.24822818760441,-0.41078954118288324,-19.031103505335174,11.187527656387045,17.34336375962634,5436.028930619466,0.29412244397684,98.9417409813332,2.215325898853215,1.1105871882754146,89769.20670192456,281.58715164523244,-1.4351166653823748,9.68282784166555,0.4556896864851515,394.38,0.21166088424959756,0.84,nominal,14593.018059536418,nan,altitude_hold,20.020181725829538,2.0,0.0,-7.768813594280912,10.96010839302215,13.842343471407881,-7.7629899039292525,10.635879511045596,13.959070716616365,0.84,0.0,0.0,0.0,0.0,0.0,0.0,-0.13548973362264374,0.18563111631315024,0.2436317445236799,-0.13548973362264374,0.18563111631315024,0.2436317445236799,19.275082257390928,-3.4873176313071395,9.277301883301359,0.7106252499157205,-0.014259275313644269,-0.3251405292721658,1.0,47.976504993257585,10.74230857819901,998.654551611364,91.96002690494525,0.7033030446835259,12.0682633642331,1011.1850091228374,98.91604153537477,5510.656547015781,-25.287776565907407
0.8099999999999999,73.12860988474583,0.4525763323263303,1010.0303162774813,96.46280968227572,-2.7871712440118093,12.04462069796934,97.25181161860351,17.83715191679884,26.336392223539796,9.512673301517243,-27.9001987597998,43.124192820829926,2.048111306768596,-12.918905401353996,11.440240942773652,17.15939727261767,5504.60855410568,0.29597840551458293,99.56566458405081,2.2171013038344376,1.1105477651527342,89765.27138231942,281.5848029441963,-1.611927764397697,9.880455436453214,0.460205602067534,394.34684210526314,0.21164308864809683,0.84,nominal,14633.971232672735,nan,altitude_hold,20.020181725829538,2.0,0.0,-7.8942022857614855,11.465060050902135,13.430922412926673,-7.841717333028591,11.133387834959521,13.642181734402548,0.84,0.0,0.0,0.0,0.0,0.0,0.0,-0.1368637864720576,0.19431427462152667,0.23810098842075506,-0.1368637864720576,0.19431427462152667,0.23810098842075506,19.24726001088198,-3.3867841916068016,9.853960267177845,0.7513115041041957,0.030203892431346538,-0.22564414765605942,1.0,47.976504993257585,10.74230857819901,998.654551611364,91.96002690494525,0.7033030446835259,12.0682633642331,1011.1850091228374,99.22877939919742,5574.056267262317,-25.287776565907407
0.84,76.03348101026495,0.3555784996606334,1010.3919478334361,96.82903751730406,-3.2332610888565645,12.054385198492662,97.63003987661702,17.830802624139398,27.718939087853556,9.299014437549385,-28.01975082523871,45.435770672489646,4.557927656598103,-6.738976968328374,11.623223884017301,16.67621367992623,5534.638489656388,0.29679116102824055,99.83865478173732,2.216152374672124,1.1105083111418823,89761.33301223935,281.58245233908264,-1.4393872025573062,10.178094190117138,0.5997249553861025,394.31368421052633,0.21162529304659614,0.84,nominal,14674.37253837568,nan,altitude_hold,20.020181725829538,2.0,0.0,-7.940692593572361,12.005873454605002,12.927100854437388,-7.901102489354854,11.65687920674681,13.213133206423452,0.84,0.0,0.0,0.0,0.0,0.0,0.0,-0.13790025297676242,0.20345092266499662,0.2306126789566848,-0.13790025297676242,0.20345092266499662,0.2306126789566848,19.086385053062706,-3.637209730440742,9.660039095629596,0.7946953217899747,0.0752554727149934,-0.11484783056459748,1.0,47.976504993257585,10.74230857819901,998.654551611364,91.96002690494525,0.7033030446835259,12.0682633642331,1001.571715593936,99.37982350406212,5483.078252663514,-27.358586443117968
0.87,78.94919896503565,0.24503843966740324,1010.7537860111521,97.1905984923568,-3.684668666441004,12.061272590534596,98.00542594666452,17.824453865348,29.154420923553975,9.10330257029357,-27.93741136154681,48.290840305880536,7.027320478701693,-0.7241376481598879,11.749622714206158,16.150605513739833,5608.939305971235,0.2987832427207006,100.5083586091298,2.2176101692634806,1.1104688356618397,89757.39253197022,281.5801003909275,-1.6832412364131741,10.271808012957687,0.6109133696041797,394.2805263157895,0.2116074974450954,0.84,nominal,14714.640373079836,nan,altitude_hold,20.020181725829538,2.0,0.0,-7.907283060795252,12.596517049411299,12.354140868671251,-7.904810832219093,12.220661912345504,12.697737803772133,0.84,0.0,0.0,0.0,0.0,0.0,0.0,-0.13796497576953623,0.2132907871434957,0.22161733223077737,-0.13796497576953623,0.2132907871434957,0.22161733223077737,18.94722389149135,-3.5111436429157705,10.031940929516354,0.8418352672433548,0.12407957458416936,-0.01906924925170217,1.0,47.976504993257585,10.74230857819901,998.654551611364,91.96002690494525,0.7033030446835259,12.0682633642331,1001.571715593936,100.66131216522868,5674.144577136355,-27.358586443117968
0.8999999999999999,81.8756355395907,0.12080016999727683,1011.1157763473134,97.5478858185019,-4.1412756556708805,12.066344538708796,98.3785386262805,17.818105640424648,30.663026018855454,8.929589532362096,-27.654597323987613,51.767411568651035,9.662646881671305,5.183937261243931,11.758832513049422,15.765622200998365,5655.310000817202,0.3000223518594253,100.92476360837813,2.219321004968046,1.1104293446559688,89753.45053483131,281.57774745374246,-1.7096252459319263,9.843527331266925,0.3113586979119128,394.2473684210526,0.21158970184359466,0.84,nominal,14754.826959237664,nan,altitude_hold,20.020181725829538,2.0,0.0,-7.82789313965002,13.246400932101853,11.700760109250231,-7.858660216677649,12.836105324199313,12.099551187058992,0.84,0.0,0.0,0.0,0.0,0.0,0.0,-0.13715949557651597,0.22403230104005217,0.21117700622776772,-0.13715949557651597,0.22403230104005217,0.21117700622776772,18.83349082308614,-3.315652987384858,9.968356412456446,0.90394780601107,0.17616287196841907,0.08783105940017832,1.0,47.976504993257585,10.74230857819901,998.654551611364,91.96002690494525,0.7033030446835259,12.0682633642331,1002.9518771660225,100.62085472685519,5587.619185244978,-28.290577333822203
0.9299999999999999,84.81278030560637,-0.017263219436074784,1011.4777683824055,97.90482553385534,-4.602112981111721,12.066401169738478,98.75288524339243,17.81175794936934,32.26381220197129,8.785819320444794,-27.16991848526195,55.8512473009897,12.42122341755765,11.116152666322975,11.78241842610598,14.975023172387363,5682.372958600584,0.300745963853583,101.16775734046207,2.218436182834096,1.1103898545391782,89749.50865938008,281.57539450551434,-1.5676257212438296,9.632390346132512,0.33927528027996645,394.21421052631575,0.21157190624209393,0.84,nominal,14795.274629254634,nan,altitude_hold,20.020181725829538,2.0,0.0,-7.665621525649078,13.960311242549677,10.958888860541629,-7.742837002060506,13.510628875209532,11.415153791148574,0.84,0.0,0.0,0.0,0.0,0.0,0.0,-0.1351379991312028,0.23580495788742442,0.19923201827705575,-0.1351379991312028,0.23580495788742442,0.19923201827705575,18.816820264800693,-3.1753231002257216,10.17326992474117,0.9814334202032873,0.209078403407298,0.19786719140634865,1.0,47.976504993257585,10.74230857819901,998.654551611364,91.96002690494525,0.7033030446835259,12.0682633642331,1002.9518771660225,100.495802145893,5732.681302090406,-28.290577333822203
0.96,87.76070668894083,-0.1691561077650604,1011.8396477838609,98.26421277781533,-5.063096277632854,12.06264671517793,99.13121558084283,17.805410792182077,33.98115397346311,8.66641606047538,-26.484470022203865,60.71622570466984,15.675972522289081,16.74152829811785,11.840251526452994,14.198863785506557,5752.415141433495,0.30260046058843426,101.7911652302851,2.219938520899316,1.1103503777836234,89745.56815056126,281.5730422894049,-1.8571613450902675,9.046189663382073,0.31191001848311894,394.1810526315789,0.2115541106405932,0.84,nominal,14836.256233207368,nan,altitude_hold,20.020181725829538,2.0,0.0,-7.536241677731868,14.32394487827058,10.135614841170687,-7.618879807463324,13.998618477046161,10.647430421161841,0.84,0.0,0.0,0.0,0.0,0.0,0.0,-0.13297453795394665,0.24432198315496978,0.18583271772628066,-0.13297453795394665,0.24432198315496978,0.18583271772628066,18.513602317673065,-3.1313458235935294,10.33030579964219,1.0572026625585924,0.2729452748051303,0.29430267689238243,1.0,47.976504993257585,10.74230857819901,998.654551611364,91.96002690494525,0.7033030446835259,12.0682633642331,1020.1750111566033,101.59411506677779,5774.415932544152,-26.421699588835793
0.99,90.71945654588662,-0.33490946463637766,1012.2013429402361,98.62499523152619,-5.525111895710576,12.056505212509505,99.51269197352644,17.79906416886286,35.835470704116254,8.565226643751197,-25.59387217010722,66.2645936420048,19.566231688512467,22.14389126274737,11.561732401195671,13.073559506356268,5745.4676654013465,0.302424308429529,101.73148504640105,2.216437401499315,1.110310922199921,89741.62978797632,281.57069127088846,-1.3916681267296676,8.80345193459552,0.19672616784409147,394.1478947368421,0.2115363150390925,0.84,nominal,14877.692231653844,nan,altitude_hold,20.020181725829538,2.0,0.0,-7.447998697103088,14.32394487827058,9.214498705853979,-7.516351141247182,14.193814317780813,9.787671391977124,0.84,0.0,0.0,0.0,0.0,0.0,0.0,-0.1311850751507967,0.2477287932619879,0.17082709189325732,-0.1311850751507967,0.2477287932619879,0.17082709189325732,18.708272077423626,-2.6712763669372843,10.145680278470516,1.1602809921839414,0.3478182304138968,0.37959509901617633,1.0,47.976504993257585,10.74230857819901,998.654551611364,91.96002690494525,0.7033030446835259,12.0682633642331,1020.1750111566033,101.46992415577638,5620.726231303189,-26.421699588835793
1.02,93.68939879635819,-0.514328799827101,1012.5626204392379,98.99807501571937,-5.980644506357444,12.042583300056874,99.90701065524998,17.792718079411685,37.84553564068322,8.49635487794644,-24.519792625970297,72.32195508928858,23.071414901579384,26.965275969102063,11.181469810687943,11.914593960237783,5745.062595130151,0.3024202755128791,101.7297042110039,2.21465075913037,1.1102715132471987,89737.69611281095,281.56834296714493,-0.9837847008416405,8.380188503964385,-0.053983226272572654,394.11473684210523,0.21151851943759178,0.84,nominal,14920.552610764567,nan,altitude_hold,20.020181725829538,2.0,0.0,-7.224167424400644,14.32394487827058,8.274100785209104,-7.341040911139259,14.271892654074675,8.87952902791631,0.84,0.0,0.0,0.0,0.0,0.0,0.0,-0.12812533442298454,0.24909151730479517,0.15497701756355112,-0.12812533442298454,0.24909151730479517,0.15497701756355112,19.032884186039173,-2.591990942927011,9.893118135126787,1.260069901130055,0.398338237112963,0.4607434591804513,1.0,97.66664448759037,10.353176141038434,1014.6592084922248,98.92649715514004,-5.993258467838753,12.272842919994378,1017.021961477038,102.63658506162898,5724.046959366491,-24.343998676354744
1.05,96.67097527752098,-0.7071727663011129,1012.9232288192636,99.38588270542644,-6.428132215800397,12.020279334192479,100.31630814674455,17.786372523828557,40.02689400298186,8.468860373757659,-23.28081825761788,78.81536357391752,26.390188388661223,31.204831352609528,10.85417398551673,10.393905379787975,5812.9102509791965,0.30420744046728004,102.33045411313094,2.224112550854224,1.1102321783505988,89733.76986240513,281.56599901267475,-1.188645055855948,8.185564068779856,0.07347702157822916,394.0815789473684,0.21150072383609106,0.84,nominal,14965.064421996734,nan,altitude_hold,19.78011187261663,2.0,0.0,-4.766519356272558,14.32394487827058,7.314012019259733,-5.796327978219238,14.303123988592219,7.940218822722364,0.84,0.0,0.0,0.0,0.0,0.0,0.0,-0.10116500774539187,0.24963660692191808,0.1385829617853332,-0.10116500774539187,0.24963660692191808,0.1385829617853332,19.19635338238674,-2.076383698312419,10.17127087248307,1.3750769156686475,0.46307088734691765,0.5414495869968015,1.0,97.66664448759037,10.353176141038434,1014.6592084922248,98.92649715514004,-5.993258467838753,12.272842919994378,1017.021961477038,102.35200717778505,5743.032489414075,-24.343998676354744
1.08,99.66450630015896,-0.913266896994198,1013.2831907224513,99.78436742126597,-6.8698043564361715,11.998730106258073,100.7376975998595,17.780027502113473,42.3810872607037,8.31928940064545,-21.754323037413023,85.915992152072,36.922147841131284,34.59948160176456,9.984488577862495,8.872595378967038,5809.978083086451,0.3041373477032892,102.30645096813225,2.2159311247428435,1.1101929150344803,89729.85078946967,281.56365926030406,-0.7128749361126445,7.964302575216562,-0.11999341552612583,394.04842105263157,0.21148292823459033,0.84,nominal,15010.955461158694,nan,altitude_hold,19.78011187261663,2.0,0.0,-7.875041612501184,14.32394487827058,5.906161755167121,-7.043556158788405,14.315616522399235,6.719784582189218,0.84,0.0,0.0,0.0,0.0,0.0,0.0,-0.1229332460199822,0.24985464276876723,0.11728236598395336,-0.1229332460199822,0.24985464276876723,0.11728236598395336,19.531322375349287,-1.8181357687096036,9.602626366382946,1.4943506531249948,0.645398411619455,0.6026473338434143,1.0,97.66664448759037,10.353176141038434,1014.6592084922248,98.92649715514004,-5.993258467838753,12.272842919994378,1005.087355377235,102.33124017308981,5776.616826837176,-21.36619361935662
1.1099999999999999,102.67085320627896,-1.1320110704374309,1013.6419607122632,100.21156353733343,-7.291472448107761,11.95899966039784,101.18567443040504,17.773683014266435,44.955375865655164,8.263437852785424,-20.148727304164606,93.54675210013013,37.92856727799429,37.036998468271854,9.16234007413988,7.207192960141678,5843.130387781328,0.3050104708209936,102.59972933263911,2.1855729150180663,1.110153782784892,89725.94483136108,281.56132725537026,-0.5523103656618873,7.778900047826097,-0.13356202130828196,394.0152631578947,0.2114651326330896,0.84,nominal,15059.702288986879,nan,altitude_hold,19.78011187261663,2.0,0.0,-7.13223327328001,14.32394487827058,5.020876845753409,-7.096762427483368,14.320613535922043,5.700439940327732,0.84,0.0,0.0,0.0,0.0,0.0,0.0,-0.12386187059141009,0.24994185710750688,0.09949144577090802,-0.12386187059141009,0.24994185710750688,0.09949144577090802,19.441344235290057,-1.409012571551565,8.822049292214633,1.6332373706040655,0.661853531076874,0.6521595709628734,1.0,97.66664448759037,10.353176141038434,1014.6592084922248,98.92649715514004,-5.993258467838753,12.272842919994378,1005.087355377235,103.63028248418847,5826.444863304512,-21.36619361935662
1.14,105.69071899617097,-1.362584974272513,1013.9989356850509,100.66219299640042,-7.685796794502732,11.899165759591998,101.65401476078159,17.767339060287444,47.77911429028126,8.368500350490276,-18.568045622054864,101.76973243622467,35.33273849689679,38.525777099798795,8.560591555116003,5.575014138477328,5893.826004374158,0.3063373990204949,103.04565817615094,2.1702859970948647,1.1101148473711895,89722.058552396,281.55900691804715,-0.5854835065688628,7.301967814191296,-0.04581576992909149,393.9821052631579,0.2114473370315889,0.84,nominal,15110.702021128403,nan,altitude_hold,19.78011187261663,2.0,0.0,-5.739294861771088,14.32394487827058,4.423428008970388,-6.2822818880560005,14.322612341331165,4.934232781513326,0.84,0.0,0.0,0.0,0.0,0.0,0.0,-0.10964650348498303,0.24997674284300275,0.08611860809724553,-0.10964650348498303,0.24997674284300275,0.08611860809724553,19.589853382577658,-1.0142188074380072,8.15000356359114,1.7693564975132126,0.618620782229153,0.6706043132701912,1.0,97.66664448759037,10.353176141038434,1014.6592084922248,98.92649715514004,-5.993258467838753,12.272842919994378,1014.6440892443783,102.30629704774542,5947.215694760375,-19.709582832221646
1.17,108.72460976800151,-1.6043323186623546,1014.3538228237179,101.12969239435138,-8.058244812994722,11.829571288899455,102.13759714288095,17.760995640176496,50.86365547046112,8.572856366575058,-16.99256957108457,110.58516758820518,34.969440163333985,39.041674359540146,7.809217286720506,3.9484426380530073,5966.689279469066,0.30823178897329184,103.68246762120229,2.1532792430305423,1.1100761407139983,89718.19513815898,281.5567001516458,-0.756490459922432,6.966242441785227,-0.15060475897627187,393.94894736842105,0.21142954143008816,0.84,nominal,15163.457291654933,nan,altitude_hold,19.78011187261663,2.0,0.0,-4.804133859567828,14.32394487827058,3.775609750601384,-5.395393070963097,14.323411863494814,4.23905896296616,0.84,0.0,0.0,0.0,0.0,0.0,0.0,-0.0941673735275941,0.2499906971372011,0.07398553608993587,-0.0941673735275941,0.2499906971372011,0.07398553608993587,19.567491081102478,-0.8535331048723527,7.596336213457401,1.9338160460312814,0.6120039758216187,0.6797571338236924,1.0,97.66664448759037,10.353176141038434,1014.6592084922248,98.92649715514004,-5.993258467838753,12.272842919994378,1014.6440892443783,103.94404422691905,6135.341407220376,-19.709582832221646
1.2,111.77304389271598,-1.8564928761256203,1014.7063085295778,101.6144708238154,-8.405351915442195,11.74952352866374,102.63626028249998,17.754652753933595,54.223727977044675,8.824420614918134,-15.40683605496412,120.03649598446356,36.39772557226284,38.453575480562215,6.997332247031272,2.3865169153865087,6023.38864489898,0.3096994585792609,104.1757358789497,2.1361859322798313,1.1100376969971424,89714.35800002607,281.5544089945577,-0.7868071281412292,6.512385147687777,-0.25144895868615463,393.91578947368424,0.21141174582858746,0.84,nominal,15217.970582930124,nan,altitude_hold,19.78011187261663,2.0,0.0,-4.276429359764701,14.32394487827058,3.0822484334304248,-4.72401484424406,14.323731672360275,3.544972645244719,0.84,0.0,0.0,0.0,0.0,0.0,0.0,-0.08244961294514594,0.24999627885488043,0.06187144455265325,-0.08244961294514594,0.24999627885488043,0.06187144455265325,20.010136910666496,-0.5559757484392975,6.52479972364408,2.0909460085227463,0.6379759373870648,0.6689544649180367,1.0,97.66664448759037,10.353176141038434,1014.6592084922248,98.92649715514004,-5.993258467838753,12.272842919994378,1016.3587987896249,103.95984485997845,6027.032533635287,-13.909801001442116
1.23,114.83655893414416,-2.118197769109632,1015.056049130694,102.11716804760634,-8.723496432800387,11.65802003720471,103.15001130035819,17.748310401558737,57.87876034430686,9.101485959566459,-13.827852112906786,130.08516889210892,37.994932695695795,36.718271494167546,6.126217344893709,0.8760441758462382,6116.839939692566,0.3120992869474382,104.98255881923677,2.1201640159038657,1.1099995536807485,89710.55087627623,281.55213568065045,-1.1304787143886112,6.04015072742748,-0.3126030406937149,393.8826315789473,0.2113939502270867,0.84,nominal,15274.26181983953,nan,altitude_hold,19.78011187261663,2.0,0.0,-3.9151708064321062,14.32394487827058,2.4370740419345847,-4.238708421556887,14.323859595906459,2.880233483258638,0.84,0.0,0.0,0.0,0.0,0.0,0.0,-0.07397941798817947,0.24999851154195218,0.05026955750904821,-0.07397941798817947,0.24999851154195218,0.05026955750904821,19.828687746968022,-0.08987446444628751,6.156813390505745,2.276273366163537,0.6627199802947038,0.6395495020619061,1.0,97.66664448759037,10.353176141038434,1014.6592084922248,98.92649715514004,-5.993258467838753,12.272842919994378,1016.3587987896249,104.77589553443778,5995.088447535399,-13.909801001442116
1.26,117.9156676692428,-2.3884996678806907,1015.4027187127128,102.63695783662091,-9.010063292368633,11.555652733963642,103.6776710029539,17.741968583051925,61.855063940928495,9.399718521357121,-12.302447992176203,140.78141845311274,38.441704005900704,33.8157724695882,5.087324238731526,-0.5331314256367685,6183.363912691859,0.31379842246944895,105.55368401533576,2.1055580017444333,1.1099617462845794,89706.77731140544,281.54988232836735,-1.2053226228540874,5.6633024356921515,-0.4048379079649874,393.8494736842105,0.211376154625586,0.84,nominal,15332.228803762398,nan,altitude_hold,19.78011187261663,2.0,0.0,-3.577995331654244,14.32394487827058,1.9392838347658061,-3.8422805676153016,14.323910765324932,2.315663694162939,0.84,0.0,0.0,0.0,0.0,0.0,0.0,-0.06706044669028362,0.24999940461678088,0.04041595583203828,-0.06706044669028362,0.24999940461678088,0.04041595583203828,19.897018880059026,0.49884088805409926,5.1636349027896715,2.4639039084197956,0.6753321123636318,0.5851493709560784,1.0,97.66664448759037,10.353176141038434,1014.6592084922248,98.92649715514004,-5.993258467838753,12.272842919994378,1012.2160735969558,105.31930832402507,6159.717389850448,-12.820245727174994
1.29,121.01092649364965,-2.666252587699995,1015.7459510322632,103.17529414689527,-9.258430660643478,11.441077318344314,104.21975873509129,17.735627298413156,66.18218462826567,9.722777912164197,-10.90753429181106,152.04123628423181,36.5308292974969,29.79139066062645,4.120191098321829,-1.884976379535876,6264.357652938046,0.31585348183040746,106.24453195789896,2.097352059653766,1.1099243147229743,89703.04128842126,281.54765131829026,-1.424842990631158,5.227805253139719,-0.2576769236206971,393.81631578947366,0.21135835902408526,0.84,nominal,15391.944086090862,nan,altitude_hold,19.78011187261663,2.0,0.0,-3.196226231374924,14.32394487827058,1.701394534920273,-3.454647965871075,14.323931233092322,1.9471021986173394,0.84,0.0,0.0,0.0,0.0,0.0,0.0,-0.06029498150177495,0.24999976184671235,0.033983344238693154,-0.06029498150177495,0.24999976184671235,0.033983344238693154,20.04009344953695,0.7872725329652643,4.243101758932651,2.6584485583767097,0.6453032989987596,0.5172480039006365,1.0,97.66664448759037,10.353176141038434,1014.6592084922248,98.92649715514004,-5.993258467838753,12.272842919994378,1012.2160735969558,106.09181282684818,6228.811790116957,-12.820245727174994
1.3199999999999998,124.1227926541998,-2.950347204455988,1016.0855219413704,103.7288720183384,-9.469820558533096,11.31903030357445,104.7734548376681,17.729286547642435,70.88930708757319,10.05221550915737,-9.708457735642535,163.86805260407016,32.65786722166686,24.651214846252675,3.118088713623617,-2.954010685260559,6331.849225481532,0.3175569528322508,106.81711463032582,2.0944515121524487,1.1098872834106563,89699.3452432237,281.54544410738106,-1.4935510646368477,4.798205755279887,-0.28101640339475603,393.7831578947368,0.21134056342258453,0.84,nominal,15453.133503056779,nan,altitude_hold,19.78011187261663,2.0,0.0,-2.9644261966595304,14.32394487827058,1.7200147658538119,-3.160514904344148,14.323939420199277,1.8108497389592229,0.84,0.0,0.0,0.0,0.0,0.0,0.0,-0.05516139113915902,0.24999990473868494,0.03160529020371827,-0.05516139113915902,0.24999990473868494,0.03160529020371827,20.276992242213556,1.2116701017457676,2.7208811641713484,2.852913632132547,0.5699324689331913,0.43265897259216834,1.0,97.66664448759037,10.353176141038434,1014.6592084922248,98.92649715514004,-5.993258467838753,12.272842919994378,1020.8324513878349,106.62147359345491,6392.387348425688,-10.1246375446422
1.3499999999999999,127.25168175931579,-3.2396501386848664,1016.4212506608638,104.2963035038664,-9.643431140962619,11.190957316447683,105.3373258365697,17.722946330739756,76.00525180983688,10.362973717349611,-8.781753808397323,176.13049823203843,26.21871504805763,18.61053177915763,2.1603408932494776,-3.6372120021484373,6478.557112080986,0.32122130010103805,108.04927794452193,2.0947971175086972,1.1098506720308416,89695.69113940613,281.5432618707044,-2.1646157633454477,4.489215965010292,-0.682854998507858,393.75,0.21132276782108383,0.84,nominal,15515.663564993189,nan,altitude_hold,19.78011187261663,2.0,0.0,-2.9517134563060297,14.32394487827058,2.0571261268729164,-3.035234035521277,14.323942695042058,1.958615571707439,0.84,0.0,0.0,0.0,0.0,0.0,0.0,-0.052974827488440804,0.24999996189547397,0.0341842905071259,-0.052974827488440804,0.24999996189547397,0.0341842905071259,20.526141425600066,1.1734614466070337,1.8370503858064215,3.0660647734314597,0.45980190192114706,0.3328498279376602,1.0,97.66664448759037,10.353176141038434,1014.6592084922248,98.92649715514004,-5.993258467838753,12.272842919994378,1020.8324513878349,108.43666422353049,6445.712774534808,-10.1246375446422
1.38,130.3979102716027,-3.533120628007729,1016.7530354123843,104.87428374289766,-9.78234964409542,11.059491717348752,105.90855542491006,17.716606647705124,81.56349389397685,10.618228601464649,-8.21865705774055,188.84592416087224,16.469029468931463,11.950383235429765,0.9706131654365463,-4.357073349861908,6487.238741195321,0.3214429258556687,108.12341213626084,2.1078693164323696,1.1098144916503536,89692.0800805381,281.54110526981947,-1.6039233789053329,4.989192460607496,-0.5536561747228824,393.71684210526314,0.2113049722195831,0.84,nominal,15579.25221082248,nan,altitude_hold,19.78011187261663,2.0,0.0,-3.276795551807635,14.32394487827058,2.790244629166371,-3.1801709452930913,14.323944004979172,2.457593006182798,0.84,0.0,0.0,0.0,0.0,0.0,0.0,-0.05550445377162491,0.24999998475818958,0.042893089631875186,-0.05550445377162491,0.24999998475818958,0.042893089631875186,20.45831929288145,1.6235949209024412,0.6401149747293972,3.299329346677981,0.28801408180554955,0.21281070554477946,1.0,97.66664448759037,10.353176141038434,1014.6592084922248,98.92649715514004,-5.993258467838753,12.272842919994378,1020.2896308672733,107.90060181187465,6427.824007548052,-8.064973652629467
1.41,133.56185218268377,-3.8294894750044732,1017.080890333476,105.46473036936818,-9.878961566558141,10.928497369724198,106.48866272179933,17.710267498538535,87.60146910773953,10.756312617440347,-8.170380117278647,201.75157116010328,1.141280942986586,4.738134684579762,0.5422069272708318,-4.6323529810227715,6575.860513564578,0.32363752183608285,108.86119403038215,2.1143025055783844,1.10977874069539,89688.51190855687,281.5389742128324,-1.771884206642585,4.852771601906646,-0.649244113388067,393.68368421052634,0.2112871766180824,0.84,nominal,15644.07395732735,nan,altitude_hold,19.78011187261663,2.0,0.0,-4.181306683575559,14.32394487827058,4.14282114135863,-3.7808523882625718,14.323944528954016,3.4687298872882972,0.84,0.0,0.0,0.0,0.0,0.0,0.0,-0.06598832270707289,0.24999999390327582,0.06054075739551259,-0.06598832270707289,0.24999999390327582,0.06054075739551259,20.66296685188343,1.708444806221397,-0.0025058690018492924,3.5258422418401256,0.030782130312737264,0.08209279652908068,1.0,97.66664448759037,10.353176141038434,1014.6592084922248,98.92649715514004,-5.993258467838753,12.272842919994378,1020.2896308672733,108.39615180143207,6699.160128721184,-8.064973652629467
1.44,136.74357586281727,-4.1283637733778,1017.4049972229035,106.05745600444963,-9.96247661244423,10.803562980917054,107.0707798022967,17.703928883239993,94.14572470301368,10.670888418065255,-8.737837654665343,214.8516382382834,-18.656379853767543,-2.567826565620265,0.866698947210661,-4.685445084525169,6679.7297200194225,0.32618993483676034,109.71933269873377,2.108903808808805,1.1097433993107244,89684.98464083471,281.5368675180511,-2.1079692601653712,4.33760400809052,-0.7757478546473559,393.6505263157895,0.21126938101658166,0.84,nominal,15709.41065975194,nan,altitude_hold,19.78011187261663,2.0,0.0,-6.097178230554723,14.32394487827058,6.023111914657263,-5.170647893637862,14.323944738543956,5.001359103709676,0.84,0.0,0.0,0.0,0.0,0.0,0.0,-0.09024483020529026,0.24999999756131033,0.0872901834343264,-0.09024483020529026,0.24999999756131033,0.0872901834343264,20.635589115908694,2.187820371656719,0.19553493764575497,3.7553331055208794,-0.315609508022162,-0.05405001732840594,1.0,97.66664448759037,10.353176141038434,1014.6592084922248,98.92649715514004,-5.993258467838753,12.272842919994378,1009.8817678478127,110.19423225192641,6759.536801462179,-7.749352239133473
1.47,139.94290865019963,-4.4302463363802875,1017.7255077256941,106.64442624607878,-10.062752100082916,10.683683426355282,107.64958764778265,17.697590801809493,101.21363523319684,10.20737794791169,-10.021875942395754,228.1120421977371,-43.85999680458874,-9.70374598285725,1.729351867720696,-4.695375506805718,6782.00868111657,0.328684123710012,110.55788496452207,2.0964402169344205,1.1097084509313364,89681.49662319144,281.53478419978296,-2.4053538735295605,4.109074546396289,-0.7334402567669529,393.6173684210526,0.21125158541508093,0.84,nominal,15774.694710706997,nan,altitude_hold,19.78011187261663,2.0,0.0,-9.5132066573497,14.32394487827058,8.47328999642066,-7.776183151864965,14.32394482237993,7.084517639336266,0.84,0.0,0.0,0.0,0.0,0.0,0.0,-0.13571999923815387,0.24999999902452413,0.12364815872203398,-0.13571999923815387,0.24999999902452413,0.12364815872203398,20.43643610184751,2.2959918196837306,0.7849069422800151,3.980066698281204,-0.7683167155103015,-0.1708630239501992,1.0,97.66664448759037,10.353176141038434,1014.6592084922248,98.92649715514004,-5.993258467838753,12.272842919994378,1009.8817678478127,109.71197433034617,6805.057478631902,-7.749352239133473
