time_s,x_m,y_m,altitude_m,vx_mps,vy_mps,vz_mps,speed_mps,mass_kg,roll_deg,pitch_deg,yaw_deg,p_dps,q_dps,r_dps,alpha_deg,beta_deg,qbar_pa,mach,airspeed_mps,load_factor_g,density_kgpm3,pressure_pa,temperature_k,wind_x_mps,wind_y_mps,wind_z_mps,thrust_n,mass_flow_kgps,propulsion_throttle_actual,propulsion_health,energy_j_per_kg,target_distance_m,guidance_mode,pitch_command_deg,heading_command_deg,roll_command_deg
0.0,0.0,0.0,1000.0,83.0,1.5,14.0,84.18580640464282,18.0,1.0000000000000002,8.000000000000004,1.0000000000000002,0.0,0.0,0.0,-1.0827684347795592,-6.349201456408931,4114.848473868095,0.2557463875601956,86.0417728600201,1.7180181447872964,1.1116425003060326,89874.56291621955,281.65,-1.6186018662344348,9.566354501788709,0.6653526424403756,319.2,0.17131232378029196,0.84,nominal,13350.275,nan,altitude_hold,20.0,2.0,0.0
0.03,2.505038713561053,0.04646735758959711,1000.4124443331036,83.5012904520351,1.548911919653237,13.748144436787165,84.63968401845987,17.994860630286592,1.0875168236479114,8.37351009423599,0.8472756551265401,2.1922912294498413,-12.540106365730965,-4.811329997703332,-0.594620422282416,-6.20649547405588,4172.776557131109,0.2575467137790701,86.64705138147676,1.750680619766894,1.1115974687753443,89870.06674995969,281.6473191118348,-1.740218816714953,9.672186404383423,0.4963889932391711,324.87,0.17435537163691558,0.84,nominal,13392.632752591597,nan,altitude_hold,19.907233145759406,2.0,0.0
0.06,5.025374712521403,0.09431291798105614,1000.8177512456737,84.011199965345,1.5948520130486343,13.510230418999873,85.10553212650268,17.989629969137486,1.2569634042162854,9.049904216067407,0.5503644567386852,4.149158264784902,-22.742167352265664,-9.319745467947284,0.34378650787854925,-6.361791328838518,4177.459311671509,0.25769751924171164,86.6973817394765,1.782984278154329,1.1115532178826377,89865.64856807032,281.6446846169031,-1.280845437094381,10.368936426153304,0.6759624515447424,330.53999999999996,0.17739841949353916,0.84,nominal,13436.145199520975,nan,altitude_hold,19.907233145759406,2.0,0.0
0.09,7.561175895979629,0.14347783619651858,1001.2168287340543,84.52670611527418,1.6388306071820813,13.302582946021593,85.58275834239483,17.984308016552678,1.513018674540333,9.783403660434836,0.10846066553847471,6.12508390842677,-24.794442186646826,-13.936800706186428,1.2318487320431573,-6.261416424564768,4218.993072799808,0.25898167851498766,87.1290112264904,1.8076160464562205,1.1115096484272804,89861.29846392456,281.6420906132286,-1.179927649727103,10.92684973224732,0.6704720095922982,336.21,0.18044146735016278,0.84,nominal,13480.787276251187,nan,altitude_hold,19.907233145759406,2.0,0.0
0.12,10.112495149768863,0.19385324382202296,1001.6105835988296,85.0439751263078,1.6791802541834795,13.125162159179917,86.06722508199546,17.978894772532172,1.860739865433513,10.372283728486734,-0.4786263164014617,8.166244354668777,-20.188239713830868,-18.68189303276027,1.8474647363329448,-5.883273810204035,4239.199224058257,0.2596073118325397,87.33909572548417,1.8357162169312347,1.1114666613521311,89857.00654561906,281.63953120660756,-0.8503103090930855,11.253812274755672,0.5308859450499558,341.88,0.18348451520678638,0.84,nominal,13526.228046306896,nan,altitude_hold,19.907233145759406,2.0,0.0
0.15,12.679455828744132,0.24524301907600252,1001.9996166984897,85.56535596584227,1.7129925084659852,12.967769988669959,86.55938737869168,17.973390237075968,2.302014308679922,10.784469908633898,-1.2097009029891939,10.235386618022744,-14.600612557669448,-23.440728310232032,2.435150001513484,-4.772140268454287,4293.773743740977,0.26127919656623494,87.90116947741522,1.8624042388776325,1.1114241910114429,89852.76625745157,281.6370024914598,-0.9866438459147318,10.69964597013885,0.5336643255072612,347.55,0.18652756306341,0.84,nominal,13572.523312783449,nan,altitude_hold,19.907233145759406,2.0,0.0
0.18,15.262186917633834,0.2972877942308745,1002.3844155226793,86.09103629632338,1.7348258384957322,12.826627472986592,87.05859247423862,17.967794410184066,2.831556443673565,11.06963787354055,-2.0738192949754097,12.191279555242419,-10.762717762808082,-27.828374026294135,2.7222124015025195,-4.115407053150833,4298.918550421236,0.26144178389708883,87.95547755183378,1.8924183895174391,1.1113821841435603,89848.57228039898,281.63450129910257,-0.48956094193841726,10.972623123869754,0.3916238722083025,353.21999999999997,0.18957061092003358,0.84,nominal,13619.632390283261,nan,altitude_hold,19.907233145759406,2.0,0.0
0.21,17.860901783838965,0.34965469366637253,1002.7652271705366,86.62382887350442,1.745563314516602,12.693721595242788,87.56634791932741,17.962107291856466,3.4493474961582495,11.308528682212435,-3.0706623607514625,14.14510091864037,-9.736941832482671,-32.112375944499156,3.235018266411452,-2.825311216387391,4441.528614389329,0.2657490084950094,89.40414147071769,1.9184322354916319,1.1113406137347506,89844.4219162068,281.6320260233915,-1.4904025160336098,10.57395272894038,0.4037956762495189,358.89,0.1926136587766572,0.84,nominal,13667.70025899629,nan,altitude_hold,19.907233145759406,2.0,0.0
0.24,20.47569639325121,0.40186853302923525,1003.1425177761176,87.15982031374146,1.7404613120954238,12.576353519366783,88.07966933717843,17.956328882093167,4.151202850892727,11.512559526226633,-4.189189586345417,16.01880581881436,-9.208533346856584,-36.017649534207706,3.6339137592840065,-1.6447701464045386,4482.80221660867,0.26698701996022556,89.82024622447213,1.9482160681126366,1.1112994288653637,89840.31008000704,281.6295736344552,-1.4147421310944146,10.393340716460905,0.43752336386267987,364.56,0.19565670663328083,0.84,nominal,13716.481647222508,nan,altitude_hold,19.907233145759406,2.0,0.0
0.27,23.106709810548402,0.45340178474590276,1003.516655503003,87.70044724323985,1.7177750572222503,12.471257562845178,88.59938748665441,17.950459180894168,4.932295827613947,11.68060345784134,-5.416978527253606,17.809267695458537,-8.758695030472852,-39.52334536083139,3.8959493416404136,-0.5577902637018542,4566.279309100406,0.2694675355894241,90.65435428014955,1.9777241175550273,1.1112585893158196,89836.23275538409,281.62714173923047,-1.6907683546029684,10.545733117689835,0.24466031040100292,370.22999999999996,0.1986997544899044,0.84,nominal,13766.06234119369,nan,altitude_hold,19.907233145759406,2.0,0.0
0.3,25.754081183340116,0.5037035366005226,1003.8879358008487,88.24571242639041,1.6767250618206593,12.376009928192156,89.1250962990607,17.94449818825947,5.789790856874851,11.8166586063061,-6.744973173780968,19.569476023878174,-8.564842448826354,-42.72821926986763,4.374256874771581,0.8013302435134182,4597.638785961814,0.27039734199061694,90.96677028708261,2.009140423879057,1.1112180628081814,89832.18671893406,281.6247284172945,-1.5192153270894353,10.313860043889862,0.43402763139927947,375.9,0.20174280234652803,0.84,nominal,13816.419020779815,nan,altitude_hold,19.907233145759406,2.0,0.0
0.32999999999999996,28.41789075601646,0.5521064792588803,1004.2567668119585,88.79365242254482,1.6134314219452577,12.294367036994737,89.65526940637322,17.938445904189074,6.715991736774775,11.900837219044202,-8.154459336054733,21.218149545181415,-7.797629600463864,-45.40383953923771,4.737515080651906,2.029954436125203,4657.432319912108,0.2721560456755156,91.5580416987569,2.0403945884460892,1.1111778047680547,89828.1675197469,281.62233101572224,-1.5690396458418359,10.414959373875428,0.4625460623253942,381.57,0.20478585020315163,0.84,nominal,13867.428288421173,nan,altitude_hold,19.907233145759406,2.0,0.0
0.36,31.098217624504475,0.5979284532546032,1004.6234696485185,89.34422894960046,1.5273991331907613,12.22342788533324,90.18944718745448,17.93230232868298,7.705348816537257,11.93828841640467,-9.63196570009545,22.806246434843942,-7.287439278483728,-47.65383910310698,5.069297499763925,3.1253195607713837,4689.733714493786,0.273104251830585,91.87664598047597,2.0726899072302944,1.111137780125129,89824.17165590628,281.61994744728463,-1.3137944732096711,10.775807891156107,0.5226671777334557,387.24,0.20782889805977525,0.84,nominal,13919.058940617962,nan,altitude_hold,19.907233145759406,2.0,0.0
0.39,33.79514121718178,0.6404718702367418,1004.9883101117218,89.89745308924361,1.4181138994046194,12.161348773443612,90.72740227160578,17.926067461741187,8.754065257014295,11.940912547857431,-11.167339315756035,24.368979736622236,-7.254519193324085,-49.54755285251231,5.409779614228581,4.591644644165923,4761.020011530686,0.27517817349631873,92.57395668163295,2.105042473092437,1.1110979598498767,89820.19622869261,281.6175759842738,-1.4701769577954693,10.63977642219087,0.46286273481051515,392.90999999999997,0.21087194591639885,0.84,nominal,13971.299372834004,nan,altitude_hold,19.907233145759406,2.0,0.0
0.42,36.50867995542982,0.6789231615924636,1005.3515643275489,90.45129127493463,1.281709711857392,12.108473860900892,91.26715735865041,17.919741303363697,9.854305225555585,11.91575167742219,-12.741985059257962,25.825724704531673,-7.47583706803315,-50.81892486001312,5.815931102943034,6.164075480334256,4819.435102590824,0.27686726938690986,93.14180274475908,2.1180466894017824,1.1110583137892038,89816.23822731785,281.6152148318709,-1.5150602280324668,10.329101117275348,0.4581383063564667,394.7778947368421,0.21187443146760623,0.84,nominal,14023.977924477083,nan,altitude_hold,19.907233145759406,2.0,0.0
0.44999999999999996,39.238618552134554,0.712445268587731,1005.713492532176,90.99795322349108,1.1174035665089161,12.064273487572512,91.80099550864392,17.913385070419668,10.996238767123103,11.859383053808036,-14.332125678210515,27.145702139516477,-7.538483238833357,-51.35605453300859,6.049331028130927,7.142730737142822,4849.459829261765,0.2777344587893355,93.43314644308745,2.12002494638106,1.1110188135275412,89812.29481455787,281.61286229854085,-1.1707466548475631,10.971862539431743,0.33511088561556274,394.7447368421052,0.2118566358661055,0.84,nominal,14076.391609729695,nan,altitude_hold,19.907233145759406,2.0,0.0
0.48,41.98470709110552,0.7403430617105295,1006.0741909304431,91.53628463236542,0.9299264374266183,12.023279942237165,92.32721932369589,17.907029371343686,12.178267920305787,11.78623835053231,-15.929894334137984,28.488819609366942,-8.083058490565373,-51.56099257402588,6.474128141858092,8.584736826326074,4959.155851184444,0.28086425029001494,94.48565188649398,2.124251158501421,1.1109794485538447,89808.36494071735,281.6105177589521,-1.68001635833954,10.887639626445766,0.22906144030769543,394.7115789473684,0.2118388402646048,0.84,nominal,14128.37517851095,nan,altitude_hold,19.907233145759406,2.0,0.0
0.51,44.74654144211143,0.7617825264091486,1006.4339318682632,92.06114503353031,0.7146488232873007,11.991364594002532,92.84157459162154,17.900674206135747,13.392269369337617,11.685112997717304,-17.510559668073196,29.749909017844335,-8.129861767990475,-51.058929679012074,6.823828508663773,9.816787904258776,5030.277481850477,0.2828772576199307,95.1624533798223,2.129299113533581,1.1109401891358,89804.44563726813,281.6081794428563,-1.7822732339529619,11.065708901583168,0.0682384772263725,394.67842105263156,0.21182104466310406,0.84,nominal,14179.524304281716,nan,altitude_hold,19.907233145759406,2.0,0.0
0.54,47.52374085673945,0.7759795696212184,1006.7928898322162,92.57331382093399,0.47323477373566,11.965265465101757,93.34457649264127,17.894319574795855,14.632808904232881,11.559506964682985,-19.055640047398143,30.975691741347124,-8.153582445623682,-49.96379724925379,7.321050881139745,10.958671490727196,5083.2895069333645,0.2843701062690095,95.66426478139287,2.1355472880849304,1.1109010162235298,89800.53500220568,281.6058462160906,-1.745338348845785,11.23740714312883,0.1425753210384127,394.6452631578947,0.21180324906160333,0.84,nominal,14229.87047336838,nan,altitude_hold,20.020181725829538,2.0,0.0
0.57,50.31588378446914,0.7821656975833242,1007.1512571866443,93.07143092432311,0.2062042654035267,11.945578480937552,93.835124658863,17.887965477324006,15.900071190516355,11.479335819247636,-20.566112708805132,32.18755912960921,-10.413298647935594,-48.30194367859677,8.179752379116763,12.048309862121272,5145.04591868299,0.2860985035191595,96.24531268751169,2.1547256264786188,1.1108619088183191,89796.63093903876,281.6035168282868,-1.8640194611267207,11.27089656803097,0.6321767521528283,394.6121052631579,0.21178545346010264,0.84,nominal,14279.295186161584,nan,altitude_hold,20.020181725829538,2.0,0.0
0.6,53.12234701790253,0.77950459858416,1007.5096514153531,93.54877444777935,-0.08870329997214033,11.946474290294022,94.30853257752226,17.881611913720203,17.182281054728403,11.30152207625124,-21.982452443979103,33.41677995064186,-7.4956458292326715,-46.05753544914771,8.718282033464668,13.403861078091737,5231.927412427491,0.2885102552709317,97.05623949808555,2.1696529548031025,1.1108227995337643,89792.72672055484,281.6011872658002,-2.2153571419419062,10.829371187691141,0.5473350307653599,394.57894736842104,0.2117676578586019,0.84,nominal,14327.344181515162,nan,altitude_hold,20.020181725829538,2.0,0.0
0.63,55.942585425456514,0.7671499505043627,1007.8683315894832,94.00794691846625,-0.4118216026599099,11.956005804335716,94.76607914043345,17.875258883984444,18.4697903968727,11.039086035703754,-23.27673618883479,34.559680766910674,-4.6298745517767825,-42.97489771904683,9.248866133887567,14.50347305750235,5285.112476120207,0.289979279341585,97.55002245248288,2.1844062717501647,1.1107836601004364,89788.81952470176,281.5988558446683,-2.2624941527697358,10.542565556157586,0.6418351142528593,394.54578947368424,0.2117498622571012,0.84,nominal,14374.116851807452,nan,altitude_hold,20.020181725829538,2.0,0.0
0.6599999999999999,58.77610381139398,0.7443387810206159,1008.2274624044053,94.45061286458215,-0.760372316124895,11.971027164070408,95.2092533733839,17.86890638811673,19.75992468575265,10.744783237608333,-24.439781577191354,35.679720038426765,-3.1978208094474874,-39.18620894094033,9.714184380201456,15.49013670061352,5326.462994306451,0.2911178043772606,97.93262025765357,2.1994804752235764,1.1107444725498923,89784.90755783083,281.59652149437136,-2.206075460724099,10.214744133683329,0.6648548928049864,394.5126315789473,0.21173206665560043,0.84,nominal,14419.734808146768,nan,altitude_hold,20.020181725829538,2.0,0.0
0.69,61.62244086555953,0.7103614693210616,1008.5871427245929,94.87790180551839,-1.132577056651809,11.989344006254749,95.6391308592208,17.86255442611706,21.05206302066528,10.456393535626486,-25.460753426107242,36.81158898341105,-2.6542799153846377,-34.70660638233489,9.958865138250786,16.20429867880048,5367.583380598901,0.2922457373898219,98.31165109936462,2.2098648609747165,1.1107052260986607,89780.98974359658,281.59418357229015,-2.090933270395813,10.183887815752621,0.4064519366983924,394.4794736842105,0.21171427105409973,0.84,nominal,14464.282778953708,nan,altitude_hold,20.020181725829538,2.0,0.0
0.72,64.48122885739707,0.6646246108418604,1008.9473327242991,95.2929330612514,-1.5245619493067057,12.00633332353888,96.05841670790403,17.856202997985438,22.349260386509012,10.19824557252245,-26.330540420108587,38.043464626788214,-2.551922755309971,-29.685481682104033,10.343304532851862,16.391823178980047,5367.480528606836,0.29224932280325217,98.31244853667496,2.210044508524693,1.1106659250969855,89777.06651640814,281.591842337292,-1.5996439729172225,10.611800973702568,0.6100730617220219,394.44631578947366,0.211696475452599,0.84,nominal,14508.003070675415,nan,altitude_hold,20.020181725829538,2.0,0.0
0.75,67.35210690624689,0.6067115162670605,1009.3079756813639,95.6959349616608,-1.9304364858266614,12.021431902160513,96.46736949969407,17.84985210372186,23.659413221716356,9.95980255297054,-27.03973461298307,39.53599800579193,-1.7800705679610238,-24.531792423609943,10.6415862437499,16.75377440883869,5393.287623334092,0.292957463421614,98.55025629350953,2.2118260566247963,1.1106265757381748,89773.13849464225,281.58949815807114,-1.3763403609145661,10.550276838539117,0.4733509304346032,394.4131578947368,0.21167867985109828,0.84,nominal,14550.9067488109,nan,altitude_hold,20.020181725829538,2.0,0.0
0.78,70.23472559427755,0.5361914696466846,1009.6689776565422,96.08728960102222,-2.350668220679197,12.033399172609364,96.86637992410876,17.84350174332633,24.987998559941868,9.735883128251167,-27.57288415962076,41.24822818760441,-0.41078954118288324,-19.031103505335174,11.187527656387045,17.34336375962634,5436.028930619466,0.29412244397684,98.9417409813332,2.215325898853215,1.1105871882754146,89769.20670192456,281.58715164523244,-1.4351166653823748,9.68282784166555,0.4556896864851515,394.38,0.21166088424959756,0.84,nominal,14593.018059536418,nan,altitude_hold,20.020181725829538,2.0,0.0
0.8099999999999999,73.12860988474583,0.4525763323263303,1010.0303162774813,96.46280968227572,-2.7871712440118093,12.04462069796934,97.25181161860351,17.83715191679884,26.336392223539796,9.512673301517243,-27.9001987597998,43.124192820829926,2.048111306768596,-12.918905401353996,11.440240942773652,17.15939727261767,5504.60855410568,0.29597840551458293,99.56566458405081,2.2171013038344376,1.1105477651527342,89765.27138231942,281.5848029441963,-1.611927764397697,9.880455436453214,0.460205602067534,394.34684210526314,0.21164308864809683,0.84,nominal,14633.971232672735,nan,altitude_hold,20.020181725829538,2.0,0.0
0.84,76.03348101026495,0.3555784996606334,1010.3919478334361,96.82903751730406,-3.2332610888565645,12.054385198492662,97.63003987661702,17.830802624139398,27.718939087853556,9.299014437549385,-28.01975082523871,45.435770672489646,4.557927656598103,-6.738976968328374,11.623223884017301,16.67621367992623,5534.638489656388,0.29679116102824055,99.83865478173732,2.216152374672124,1.1105083111418823,89761.33301223935,281.58245233908264,-1.4393872025573062,10.178094190117138,0.5997249553861025,394.31368421052633,0.21162529304659614,0.84,nominal,14674.37253837568,nan,altitude_hold,20.020181725829538,2.0,0.0
0.87,78.94919896503565,0.24503843966740324,1010.7537860111521,97.1905984923568,-3.684668666441004,12.061272590534596,98.00542594666452,17.824453865348,29.154420923553975,9.10330257029357,-27.93741136154681,48.290840305880536,7.027320478701693,-0.7241376481598879,11.749622714206158,16.150605513739833,5608.939305971235,0.2987832427207006,100.5083586091298,2.2176101692634806,1.1104688356618397,89757.39253197022,281.5801003909275,-1.6832412364131741,10.271808012957687,0.6109133696041797,394.2805263157895,0.2116074974450954,0.84,nominal,14714.640373079836,nan,altitude_hold,20.020181725829538,2.0,0.0
0.8999999999999999,81.8756355395907,0.12080016999727683,1011.1157763473134,97.5478858185019,-4.1412756556708805,12.066344538708796,98.3785386262805,17.818105640424648,30.663026018855454,8.929589532362096,-27.654597323987613,51.767411568651035,9.662646881671305,5.183937261243931,11.758832513049422,15.765622200998365,5655.310000817202,0.3000223518594253,100.92476360837813,2.219321004968046,1.1104293446559688,89753.45053483131,281.57774745374246,-1.7096252459319263,9.843527331266925,0.3113586979119128,394.2473684210526,0.21158970184359466,0.84,nominal,14754.826959237664,nan,altitude_hold,20.020181725829538,2.0,0.0
0.9299999999999999,84.81278030560637,-0.017263219436074784,1011.4777683824055,97.90482553385534,-4.602112981111721,12.066401169738478,98.75288524339243,17.81175794936934,32.26381220197129,8.785819320444794,-27.16991848526195,55.8512473009897,12.42122341755765,11.116152666322975,11.78241842610598,14.975023172387363,5682.372958600584,0.300745963853583,101.16775734046207,2.218436182834096,1.1103898545391782,89749.50865938008,281.57539450551434,-1.5676257212438296,9.632390346132512,0.33927528027996645,394.21421052631575,0.21157190624209393,0.84,nominal,14795.274629254634,nan,altitude_hold,20.020181725829538,2.0,0.0
0.96,87.76070668894083,-0.1691561077650604,1011.8396477838609,98.26421277781533,-5.063096277632854,12.06264671517793,99.13121558084283,17.805410792182077,33.98115397346311,8.66641606047538,-26.484470022203865,60.71622570466984,15.675972522289081,16.74152829811785,11.840251526452994,14.198863785506557,5752.415141433495,0.30260046058843426,101.7911652302851,2.219938520899316,1.1103503777836234,89745.56815056126,281.5730422894049,-1.8571613450902675,9.046189663382073,0.31191001848311894,394.1810526315789,0.2115541106405932,0.84,nominal,14836.256233207368,nan,altitude_hold,20.020181725829538,2.0,0.0
0.99,90.71945654588662,-0.33490946463637766,1012.2013429402361,98.62499523152619,-5.525111895710576,12.056505212509505,99.51269197352644,17.79906416886286,35.835470704116254,8.565226643751197,-25.59387217010722,66.2645936420048,19.566231688512467,22.14389126274737,11.561732401195671,13.073559506356268,5745.4676654013465,0.302424308429529,101.73148504640105,2.216437401499315,1.110310922199921,89741.62978797632,281.57069127088846,-1.3916681267296676,8.80345193459552,0.19672616784409147,394.1478947368421,0.2115363150390925,0.84,nominal,14877.692231653844,nan,altitude_hold,20.020181725829538,2.0,0.0
1.02,93.68939879635819,-0.514328799827101,1012.5626204392379,98.99807501571937,-5.980644506357444,12.042583300056874,99.90701065524998,17.792718079411685,37.84553564068322,8.49635487794644,-24.519792625970297,72.32195508928858,23.071414901579384,26.965275969102063,11.181469810687943,11.914593960237783,5745.062595130151,0.3024202755128791,101.7297042110039,2.21465075913037,1.1102715132471987,89737.69611281095,281.56834296714493,-0.9837847008416405,8.380188503964385,-0.053983226272572654,394.11473684210523,0.21151851943759178,0.84,nominal,14920.552610764567,nan,altitude_hold,20.020181725829538,2.0,0.0
1.05,96.67097527752098,-0.7071727663011129,1012.9232288192636,99.38588270542644,-6.428132215800397,12.020279334192479,100.31630814674455,17.786372523828557,40.02689400298186,8.468860373757659,-23.28081825761788,78.81536357391752,26.390188388661223,31.204831352609528,10.85417398551673,10.393905379787975,5812.9102509791965,0.30420744046728004,102.33045411313094,2.224112550854224,1.1102321783505988,89733.76986240513,281.56599901267475,-1.188645055855948,8.185564068779856,0.07347702157822916,394.0815789473684,0.21150072383609106,0.84,nominal,14965.064421996734,nan,altitude_hold,19.78011187261663,2.0,0.0
1.08,99.66450630015896,-0.913266896994198,1013.2831907224513,99.78436742126597,-6.8698043564361715,11.998730106258073,100.7376975998595,17.780027502113473,42.3810872607037,8.31928940064545,-21.754323037413023,85.915992152072,36.922147841131284,34.59948160176456,9.984488577862495,8.872595378967038,5809.978083086451,0.3041373477032892,102.30645096813225,2.2159311247428435,1.1101929150344803,89729.85078946967,281.56365926030406,-0.7128749361126445,7.964302575216562,-0.11999341552612583,394.04842105263157,0.21148292823459033,0.84,nominal,15010.955461158694,nan,altitude_hold,19.78011187261663,2.0,0.0
1.1099999999999999,102.67085320627896,-1.1320110704374309,1013.6419607122632,100.21156353733343,-7.291472448107761,11.95899966039784,101.18567443040504,17.773683014266435,44.955375865655164,8.263437852785424,-20.148727304164606,93.54675210013013,37.92856727799429,37.036998468271854,9.16234007413988,7.207192960141678,5843.130387781328,0.3050104708209936,102.59972933263911,2.1855729150180663,1.110153782784892,89725.94483136108,281.56132725537026,-0.5523103656618873,7.778900047826097,-0.13356202130828196,394.0152631578947,0.2114651326330896,0.84,nominal,15059.702288986879,nan,altitude_hold,19.78011187261663,2.0,0.0
1.14,105.69071899617097,-1.362584974272513,1013.9989356850509,100.66219299640042,-7.685796794502732,11.899165759591998,101.65401476078159,17.767339060287444,47.77911429028126,8.368500350490276,-18.568045622054864,101.76973243622467,35.33273849689679,38.525777099798795,8.560591555116003,5.575014138477328,5893.826004374158,0.3063373990204949,103.04565817615094,2.1702859970948647,1.1101148473711895,89722.058552396,281.55900691804715,-0.5854835065688628,7.301967814191296,-0.04581576992909149,393.9821052631579,0.2114473370315889,0.84,nominal,15110.702021128403,nan,altitude_hold,19.78011187261663,2.0,0.0
1.17,108.72460976800151,-1.6043323186623546,1014.3538228237179,101.12969239435138,-8.058244812994722,11.829571288899455,102.13759714288095,17.760995640176496,50.86365547046112,8.572856366575058,-16.99256957108457,110.58516758820518,34.969440163333985,39.041674359540146,7.809217286720506,3.9484426380530073,5966.689279469066,0.30823178897329184,103.68246762120229,2.1532792430305423,1.1100761407139983,89718.19513815898,281.5567001516458,-0.756490459922432,6.966242441785227,-0.15060475897627187,393.94894736842105,0.21142954143008816,0.84,nominal,15163.457291654933,nan,altitude_hold,19.78011187261663,2.0,0.0
1.2,111.77304389271598,-1.8564928761256203,1014.7063085295778,101.6144708238154,-8.405351915442195,11.74952352866374,102.63626028249998,17.754652753933595,54.223727977044675,8.824420614918134,-15.40683605496412,120.03649598446356,36.39772557226284,38.453575480562215,6.997332247031272,2.3865169153865087,6023.38864489898,0.3096994585792609,104.1757358789497,2.1361859322798313,1.1100376969971424,89714.35800002607,281.5544089945577,-0.7868071281412292,6.512385147687777,-0.25144895868615463,393.91578947368424,0.21141174582858746,0.84,nominal,15217.970582930124,nan,altitude_hold,19.78011187261663,2.0,0.0
1.23,114.83655893414416,-2.118197769109632,1015.056049130694,102.11716804760634,-8.723496432800387,11.65802003720471,103.15001130035819,17.748310401558737,57.87876034430686,9.101485959566459,-13.827852112906786,130.08516889210892,37.994932695695795,36.718271494167546,6.126217344893709,0.8760441758462382,6116.839939692566,0.3120992869474382,104.98255881923677,2.1201640159038657,1.1099995536807485,89710.55087627623,281.55213568065045,-1.1304787143886112,6.04015072742748,-0.3126030406937149,393.8826315789473,0.2113939502270867,0.84,nominal,15274.26181983953,nan,altitude_hold,19.78011187261663,2.0,0.0
1.26,117.9156676692428,-2.3884996678806907,1015.4027187127128,102.63695783662091,-9.010063292368633,11.555652733963642,103.6776710029539,17.741968583051925,61.855063940928495,9.399718521357121,-12.302447992176203,140.78141845311274,38.441704005900704,33.8157724695882,5.087324238731526,-0.5331314256367685,6183.363912691859,0.31379842246944895,105.55368401533576,2.1055580017444333,1.1099617462845794,89706.77731140544,281.54988232836735,-1.2053226228540874,5.6633024356921515,-0.4048379079649874,393.8494736842105,0.211376154625586,0.84,nominal,15332.228803762398,nan,altitude_hold,19.78011187261663,2.0,0.0
1.29,121.01092649364965,-2.666252587699995,1015.7459510322632,103.17529414689527,-9.258430660643478,11.441077318344314,104.21975873509129,17.735627298413156,66.18218462826567,9.722777912164197,-10.90753429181106,152.04123628423181,36.5308292974969,29.79139066062645,4.120191098321829,-1.884976379535876,6264.357652938046,0.31585348183040746,106.24453195789896,2.097352059653766,1.1099243147229743,89703.04128842126,281.54765131829026,-1.424842990631158,5.227805253139719,-0.2576769236206971,393.81631578947366,0.21135835902408526,0.84,nominal,15391.944086090862,nan,altitude_hold,19.78011187261663,2.0,0.0
1.3199999999999998,124.1227926541998,-2.950347204455988,1016.0855219413704,103.7288720183384,-9.469820558533096,11.31903030357445,104.7734548376681,17.729286547642435,70.88930708757319,10.05221550915737,-9.708457735642535,163.86805260407016,32.65786722166686,24.651214846252675,3.118088713623617,-2.954010685260559,6331.849225481532,0.3175569528322508,106.81711463032582,2.0944515121524487,1.1098872834106563,89699.3452432237,281.54544410738106,-1.4935510646368477,4.798205755279887,-0.28101640339475603,393.7831578947368,0.21134056342258453,0.84,nominal,15453.133503056779,nan,altitude_hold,19.78011187261663,2.0,0.0
1.3499999999999999,127.25168175931579,-3.2396501386848664,1016.4212506608638,104.2963035038664,-9.643431140962619,11.190957316447683,105.3373258365697,17.722946330739756,76.00525180983688,10.362973717349611,-8.781753808397323,176.13049823203843,26.21871504805763,18.61053177915763,2.1603408932494776,-3.6372120021484373,6478.557112080986,0.32122130010103805,108.04927794452193,2.0947971175086972,1.1098506720308416,89695.69113940613,281.5432618707044,-2.1646157633454477,4.489215965010292,-0.682854998507858,393.75,0.21132276782108383,0.84,nominal,15515.663564993189,nan,altitude_hold,19.78011187261663,2.0,0.0
1.38,130.3979102716027,-3.533120628007729,1016.7530354123843,104.87428374289766,-9.78234964409542,11.059491717348752,105.90855542491006,17.716606647705124,81.56349389397685,10.618228601464649,-8.21865705774055,188.84592416087224,16.469029468931463,11.950383235429765,0.9706131654365463,-4.357073349861908,6487.238741195321,0.3214429258556687,108.12341213626084,2.1078693164323696,1.1098144916503536,89692.0800805381,281.54110526981947,-1.6039233789053329,4.989192460607496,-0.5536561747228824,393.71684210526314,0.2113049722195831,0.84,nominal,15579.25221082248,nan,altitude_hold,19.78011187261663,2.0,0.0
1.41,133.56185218268377,-3.8294894750044732,1017.080890333476,105.46473036936818,-9.878961566558141,10.928497369724198,106.48866272179933,17.710267498538535,87.60146910773953,10.756312617440347,-8.170380117278647,201.75157116010328,1.141280942986586,4.738134684579762,0.5422069272708318,-4.6323529810227715,6575.860513564578,0.32363752183608285,108.86119403038215,2.1143025055783844,1.10977874069539,89688.51190855687,281.5389742128324,-1.771884206642585,4.852771601906646,-0.649244113388067,393.68368421052634,0.2112871766180824,0.84,nominal,15644.07395732735,nan,altitude_hold,19.78011187261663,2.0,0.0
1.44,136.74357586281727,-4.1283637733778,1017.4049972229035,106.05745600444963,-9.96247661244423,10.803562980917054,107.0707798022967,17.703928883239993,94.14572470301368,10.670888418065255,-8.737837654665343,214.8516382382834,-18.656379853767543,-2.567826565620265,0.866698947210661,-4.685445084525169,6679.7297200194225,0.32618993483676034,109.71933269873377,2.108903808808805,1.1097433993107244,89684.98464083471,281.5368675180511,-2.1079692601653712,4.33760400809052,-0.7757478546473559,393.6505263157895,0.21126938101658166,0.84,nominal,15709.41065975194,nan,altitude_hold,19.78011187261663,2.0,0.0
1.47,139.94290865019963,-4.4302463363802875,1017.7255077256941,106.64442624607878,-10.062752100082916,10.683683426355282,107.64958764778265,17.697590801809493,101.21363523319684,10.20737794791169,-10.021875942395754,228.1120421977371,-43.85999680458874,-9.70374598285725,1.729351867720696,-4.695375506805718,6782.00868111657,0.328684123710012,110.55788496452207,2.0964402169344205,1.1097084509313364,89681.49662319144,281.53478419978296,-2.4053538735295605,4.109074546396289,-0.7334402567669529,393.6173684210526,0.21125158541508093,0.84,nominal,15774.694710706997,nan,altitude_hold,19.78011187261663,2.0,0.0
1.5,143.15950960468592,-4.736317940418005,1018.0423553883345,107.22003181621022,-10.20238680125725,10.56158875467896,108.22093640388887,17.69125325424704,108.80725495700969,9.135158046842763,-12.146733823839677,241.54113727155325,-76.85999680458873,-16.46848401974631,3.5922089212617654,-4.6698915987154015,6856.099074360633,0.3304809631870293,111.16187255372988,2.0831573241292385,1.1096739027746814,89678.04857508601,281.5327246899758,-2.48742023776889,3.7044305102671866,-0.7449273196669574,393.58421052631576,0.2112337898135802,0.84,nominal,15839.47060253629,nan,altitude_hold,19.78011187261663,2.0,0.0
1.53,146.3926589922327,-5.049085325134294,1018.3547796383597,107.77164625155899,-10.425579490542981,10.414141667504904,108.77442158042331,17.684916240552635,116.8477605788393,7.241239946603476,-14.94500504208671,255.10593589315144,-109.85999680458873,-22.410825002668393,6.2766689769876445,-4.7952767861890795,6874.755878613005,0.33093658296774786,111.31472513860142,2.1039681640716394,1.1096398377399035,89674.64876922789,281.53069393235063,-2.1274933296438228,3.36011518888323,-0.6809822254185229,393.5510526315789,0.21121599421207948,0.84,nominal,15902.58629481835,nan,altitude_hold,19.78011187261663,2.0,0.0
1.56,149.6412025157277,-5.371937467784338,1018.6608602391112,108.28478411650094,-10.761738088334784,10.202686691718496,109.29549072843079,17.678579760726272,125.22667856168086,4.337280366293657,-18.201476660074565,268.7838287629614,-142.85999680458875,-27.31049294652337,9.64213784650739,-5.226290039073398,6885.695964234381,0.3312059457250834,111.40493508418683,2.1973466408001645,1.1096064651578394,89671.31809627733,281.5287044084458,-1.7147695715812232,3.2669498727108115,-0.490940551935641,393.5178947368421,0.21119819861057876,0.84,nominal,15962.402671848131,nan,altitude_hold,19.871346591979318,2.0,0.0
1.5899999999999999,152.90341586646335,-5.70850763055434,1018.957083648185,108.74044502452072,-11.219005425666717,9.874113635792149,109.76269214521156,17.672243814767956,133.83358860254577,0.2989255978761705,-21.68875326937899,282.7054203668519,-175.85999680458872,-29.954686718758655,13.912787139933942,-6.246352829718778,6942.224086242009,0.33256866180016253,111.86291780091152,2.2112791321673506,1.1095741680563236,89668.09478157407,281.52677895628676,-1.7491289733444186,2.897098686055942,-0.4264699113074033,393.48473684210524,0.21118040300907803,0.84,nominal,16016.479777840716,nan,altitude_hold,19.871346591979318,2.0,0.0
1.6199999999999999,156.17613272193108,-6.060747686018381,1019.239480594958,109.09056184892471,-11.741335182134677,9.413231559101993,110.12365125057639,17.665908402677683,142.58984303155665,-4.958312945599815,-25.174853860484568,297.20278926767196,-208.8599968045887,-30.261490256456785,18.81770789952265,-7.910531395049325,7000.605843409911,0.33396985143202756,112.33385624726381,2.318889091268018,1.109543379117223,89665.02200499244,281.52494337613274,-1.8604896259022183,2.7480477129367675,-0.527453494316054,393.45157894736843,0.21116260740757734,0.84,nominal,16058.934134755831,nan,altitude_hold,19.871346591979318,2.0,0.0
1.65,159.45515885720093,-6.429777867507381,1019.5031973343721,109.30087117566164,-12.301006049633356,8.790557980471682,110.34160185170293,17.659573524455457,151.49926150227088,-11.317324612640869,-28.315818085684953,312.52228993077034,-235.30725792470255,-28.39674391179017,24.02618709475601,-10.766771287950537,7062.658173143969,0.33545208311250896,112.83207510742186,2.3146291029133295,1.109514627418394,89662.15256575741,281.52322921732656,-2.209859862416047,2.2771641106473517,-0.369736293092177,393.4184210526316,0.2111448118060766,0.84,nominal,16085.545579738986,nan,altitude_hold,19.871346591979318,2.0,0.0
1.68,162.73822228274668,-6.81468591008814,1019.7458871072935,109.43544751819147,-12.830268086025285,8.089659097378117,110.48156197745355,17.653239180101274,160.700948488306,-18.67493384081743,-30.812588735936426,329.1163547954857,-258.1238129107466,-25.932583466033595,29.31806214417099,-14.345564020395976,7054.609557018038,0.3352658246588544,112.76910959440224,2.300460739061095,1.1094881686867248,89659.51198165263,281.52165173380257,-1.9800931301735583,2.3288674720973073,-0.49229813144131757,393.3852631578947,0.21112701620457588,0.84,nominal,16103.378772289696,nan,altitude_hold,19.871346591979318,2.0,0.0
1.71,166.02343569297858,-7.214226242518883,1019.9658426065014,109.50711367439695,-13.31801108102478,7.331849973598142,110.5573760021779,17.646905369615137,170.49820606109495,-26.91537714669736,-32.323367983870114,347.08845154182427,-279.2295308020098,-23.43979854970797,34.586159497895366,-19.089149139135227,7140.705675506838,0.3373099538236945,113.45637927769508,2.353141802731107,1.109464188927459,89657.11881202704,281.5202220230577,-2.562750817785167,2.398229052640383,-0.7734117475992359,393.3521052631579,0.21110922060307516,0.84,nominal,16113.91472464052,nan,altitude_hold,19.871346591979318,2.0,0.0
1.74,169.30817457434057,-7.627282291458394,1020.1612128762057,109.49129604539976,-13.768534964650362,6.512342323478766,110.54558818565465,17.640572092997044,-178.49232651869434,-35.837274164329564,-32.26974027348481,367.17338308680604,-298.5371790067719,-22.40198828349863,35.0,-24.993836587463345,7099.030587783572,0.3363281843550395,113.12589963247156,2.5489130320321425,1.109442889805973,89654.9931790868,281.51895211630466,-2.2480509007882756,2.3015679701192244,-0.8047133248920821,393.31894736842105,0.21109142500157443,0.84,nominal,16114.527491908617,nan,altitude_hold,19.871346591979318,2.0,0.0
1.77,172.58961932021705,-8.052161106922117,1020.3289060560332,109.38149152921582,-14.162627182124098,5.589772660918891,110.43611844073709,17.634239350246997,-165.19868129142245,-45.046487033592896,-29.619856811544594,386.94840888504154,-315.66556515179866,-23.25184969840173,35.0,-29.999999999999996,7202.017145331514,0.33876242534893064,113.9444498598167,2.750800095589146,1.1094246082697212,89653.16870605378,281.51786211063575,-3.1745474804350877,2.3541231802299665,-0.8656664242166972,393.28578947368425,0.21107362940007374,0.84,nominal,16104.076594702652,nan,altitude_hold,19.871346591979318,2.0,0.0
1.7999999999999998,175.86475750979807,-8.485469969654163,1020.4658989675501,109.17127298603397,-14.443628757734864,4.566430383892714,110.21722888701818,17.627907141364993,-147.67121219127736,-53.81916754303169,-22.564089307209354,406.4908801141068,-331.4662466812935,-23.759894665763092,35.0,-29.999999999999996,7197.981490787319,0.33867031430709416,113.91328768954932,2.831865542796115,1.109409673779251,89651.67826898614,281.5169716567109,-3.392759435340209,2.1910567782532855,-0.8059949902409638,393.25263157894733,0.21105583379857298,0.84,nominal,16081.270679876801,nan,altitude_hold,19.871346591979318,2.0,0.0
1.8299999999999998,179.1319452014961,-8.921685424012066,1020.5705518930258,108.90625638993451,-14.540515145263456,3.4884308491913187,109.92801467937724,17.621575466351036,-123.1350480101998,-60.81498816265068,-8.486939257394303,423.3360762840164,-345.6407073111797,-17.757269925567225,35.0,-29.999999999999996,7132.721310063593,0.3371336896718565,113.39630006007583,2.878399810961039,1.1093982649851386,89650.53969367022,281.5162914126953,-3.1304869877574104,2.4600995956577822,-0.6910546534428571,393.21947368421047,0.21103803819707223,0.84,nominal,16050.46240839643,nan,altitude_hold,19.871346591979318,2.0,0.0
1.8599999999999999,182.39020661986066,-9.35475670365277,1020.6428055076639,108.60871394548519,-14.435709321356802,2.408453821267593,109.5903421762708,17.615244325205122,-90.47227005652245,-63.786290590840984,13.588892158102055,437.17038545422065,-357.36696873244944,-5.281102321496662,35.0,-29.999999999999996,7184.853324414295,0.33836496047358944,113.81034811318038,2.9247868034696967,1.109390388271439,89649.75361466968,281.51582176420015,-3.875525636283298,2.59674422345191,-0.7517217432445633,393.18631578947367,0.21102024259557153,0.84,nominal,16014.108317787788,nan,altitude_hold,19.871346591979318,2.0,0.0
1.89,185.6388582027292,-9.778572372984316,1020.6841372432342,108.28838609561804,-14.127188977718202,1.3777245190124008,109.21469752948131,17.608913717927255,-56.609616279079226,-61.00608487239349,36.457277019996944,453.2380790087908,-366.4163429402587,12.449947092416222,35.0,-29.999999999999996,7118.394540641258,0.336797257676202,113.28299122936929,2.9165796250745233,1.1093858825195884,89649.30395096449,281.51555310791895,-3.6745108813893825,2.999159643183025,-0.6307538365432195,393.1531578947368,0.2110024469940708,0.84,nominal,15973.417172724407,nan,altitude_hold,19.871346591979318,2.0,0.0
1.92,188.87823316503423,-10.187646830037746,1020.6976912640374,107.9791654101671,-13.635815235114322,0.45180069343858886,108.83767612214528,17.602583644517434,-29.519126724769936,-53.60937925487331,51.88142135940716,471.03337690239164,-371.9489388091711,35.99433026752007,14.59044814675248,-29.999999999999996,7086.915691585676,0.3360520192492665,113.03230986793054,2.857997453993947,1.109384404940013,89649.15649200366,281.51546500678376,-3.862142202455124,2.7024300846235367,-0.4898603128367176,393.12,0.2109846513925701,0.84,nominal,15932.444885868968,nan,altitude_hold,19.871346591979318,2.0,0.0
1.95,192.11310192763563,-10.575518943854387,1020.6895210714328,107.82895875338004,-12.929070460554714,-0.2723397534896349,108.60165458110411,17.596254104975657,-8.685408076992374,-43.79681970603872,60.10011875689877,490.3919423091485,-371.80594968161034,64.8991006392654,-23.618607036145466,-29.999999999999996,7104.4078361628735,0.3364663238480288,113.17167339000697,3.028634795123688,1.1093852956061445,89649.24537837988,281.5155181130357,-4.20759925410397,3.0548898980432933,-0.6600754686949757,393.08684210526314,0.21096685579106939,0.84,nominal,15906.70458069189,nan,altitude_hold,19.871346591979318,2.0,0.0
1.98,195.34063792738638,-10.956447150217793,1020.6477781360989,107.58453332502538,-12.697606878780173,-1.3914311777985175,108.34019158158291,17.589925099301926,8.782125330960744,-31.798826341226256,63.750747184167416,510.248089213371,-404.80594968161034,97.8991006392654,-35.0,-29.999999999999996,7106.313135205476,0.3365105861837101,113.18661573329057,2.8406544504002254,1.1093898461828946,89649.69951545299,281.51578944211536,-4.413831013503048,3.62024748431431,-0.24950489529820247,393.0536842105263,0.21094906018956863,0.84,nominal,15877.934089425418,nan,altitude_hold,19.871346591979318,2.0,0.0
2.01,198.56018878356122,-11.321192805754434,1020.5798066957519,107.31836187249453,-12.158188517888046,-2.265714678230789,108.02863419499177,17.583596627496238,24.298523502197945,-18.278555949283504,63.7782270560733,520.0,-437.8059496816103,130.89910063926538,-35.0,-29.999999999999996,7065.509231590422,0.33554170251768456,112.86081658911166,2.8101719818763646,1.1093972560722365,89650.43900627027,281.51623125647757,-4.424279799652191,3.5456489331551513,-0.13605681779229595,393.0205263157895,0.21093126458806793,0.84,nominal,15843.561864350568,nan,altitude_hold,19.871346591979318,2.0,0.0
2.04,201.772543401495,-11.665054083115699,1020.491732800424,107.07848726445908,-11.46204257870884,-2.935796510933122,107.73021746972698,17.577268689558597,39.17283120080755,-3.8891566283675703,60.52585557114964,520.0,-470.8059496816103,163.89910063926538,-35.0,-29.999999999999996,7016.646759604606,0.3343776609465029,112.46940082794713,2.746583067904476,1.1094068574819307,89651.39720777168,281.5168037367972,-4.286404165899378,3.975753595598392,0.04774644710276266,392.9873684210526,0.2109134689865672,0.84,nominal,15810.50512950461,nan,altitude_hold,19.871346591979318,2.0,0.0
2.07,204.9795962275639,-11.985564765057875,1020.3910566833684,106.90176086896325,-10.683689398072563,-3.355870568517521,107.48669481992705,17.570941285489,55.08222931011698,10.513321533742618,53.58456860564925,520.0,-503.8059496816103,196.89910063926536,-35.0,-29.999999999999996,6996.153685338284,0.3338869664687522,112.30448410389157,2.682545796857125,1.1094178328055573,89652.49252552484,281.5174581315581,-4.341049917582958,4.359074006705944,-0.03179666774950907,392.95421052631576,0.21089567338506648,0.84,nominal,15783.31273768002,nan,altitude_hold,19.89261505779825,2.0,0.0
2.1,208.18372868196434,-12.28304527610711,1020.2862093807794,106.80441514668149,-9.916017034974502,-3.49491008630069,107.32066383122086,17.564614415287448,73.86829787697876,23.20858720066091,42.373600039830684,520.0,-513.3390412534822,229.89910063926533,-35.0,-28.929892956352926,6919.814179341412,0.3320582303567451,111.68951512390834,2.571920826932824,1.1094292629441096,89653.6332357042,281.5181396390249,-3.8838922218197354,4.594804742468345,-0.01892794405146142,392.9210526315789,0.21087787778356573,0.84,nominal,15764.452197810979,nan,altitude_hold,19.89261505779825,2.0,0.0
2.13,211.38796986614906,-12.561305384203223,1020.1846154418095,106.80803947282415,-9.275336936537073,-3.3864646323293397,107.26349478746565,17.55828807895394,96.81060010162562,32.20363506246187,26.505577436787235,520.0,-499.12827991124874,262.8991006392653,-35.0,-23.41133732271518,6852.248270431431,0.330431088270855,111.14234776300563,2.4046638599097507,1.1094403384966571,89654.73856138207,281.51879999962824,-3.4135345180170127,4.66956222184276,-0.32609198883806606,392.8878947368421,0.21086008218206503,0.84,nominal,15757.322116032756,nan,altitude_hold,19.89261505779825,2.0,0.0
2.16,214.59547550611214,-12.826482680252516,1020.0905880255697,106.91685466543585,-8.83924320164311,-3.134247207992404,107.32739416145597,17.551962276488478,123.13280401845363,35.75256395810476,7.283677254385142,520.0,-466.12827991124874,295.8991006392653,-34.14083042524451,-20.95842193096377,6893.686351745407,0.3314268109699511,111.47738568001309,2.318389258058278,1.109450589238556,89655.76157434484,281.5194111778338,-3.743090642272817,4.368560431530355,-0.4625537875487485,392.85473684210524,0.2108422865805643,0.84,nominal,15763.256133805218,nan,altitude_hold,19.89261505779825,2.0,0.0
2.19,217.80801340595607,-13.08593364639083,1020.006726446981,107.08459666146501,-8.648365537943775,-2.7953859529551335,107.46962013170288,17.54563700789106,149.60719612287227,33.16801307762063,-11.974202746240056,520.0,-433.1282799112488,328.89910063926527,-28.03024623155641,-21.265109362439606,6904.614986483717,0.3316877263980046,111.56525415186768,2.4405395232203095,1.1094597317756976,89656.67399154433,281.5199562780946,-3.688881520851953,4.43523563003506,-0.5904265792172665,392.8215789473684,0.21082449097906358,0.84,nominal,15777.708589537542,nan,altitude_hold,19.89261505779825,2.0,0.0
2.2199999999999998,221.025951030378,-13.34682267732564,1019.934844447226,107.26458748073098,-8.696301031160385,-2.396066658498469,107.64320003821848,17.539312273161688,172.96392644641267,25.348147033330797,-27.923890499815926,520.0,-400.1282799112488,361.89910063926527,-23.695405808363592,-24.212163937309665,6921.029889203697,0.3320803180610973,111.6973975192521,2.593602888667229,1.1094675683524806,89657.45607644998,281.520423511093,-3.6570465511665327,4.313743703272373,-0.541760244855003,392.7884210526316,0.21080669537756289,0.84,nominal,15795.673299532347,nan,altitude_hold,19.89261505779825,2.0,0.0
2.25,224.24809652459743,-13.617858894489352,1019.8742223941688,107.40484980731406,-9.034540572123712,-2.020735101910739,107.80309854467605,17.532988072300363,-167.57482494947348,13.571217910889708,-39.70073367955491,520.0,-379.20360204013207,394.89910063926527,-21.65094777154623,-28.81019318438644,6952.235049230737,0.3328268846279817,111.94858843768088,2.752916058953651,1.1094741774026076,89658.11565605915,281.5208175544379,-3.69664358540364,4.608237301957232,-0.34167852881619476,392.7552631578947,0.21078889977606213,0.84,nominal,15812.303570958342,nan,altitude_hold,19.89261505779825,2.0,0.0
2.28,227.4717873094239,-13.907656380237492,1019.8201388476893,107.45635949421553,-9.659916191604669,-1.8027848826464414,107.90474136900569,17.52666440530708,-151.20766954206522,-1.1861899031109064,-47.617540378753255,520.0,-373.13219115755504,426.00101319064953,-21.892578735654528,-29.999999999999996,6953.061782620584,0.33284558103266704,111.95494700127458,2.8365077524054803,1.1094800736465116,89658.70409877408,281.52116909749,-3.4835004465072807,5.292131697148102,-0.1614749413349952,392.7221052631579,0.21077110417456144,0.84,nominal,15822.735769586696,nan,altitude_hold,19.89261505779825,2.0,0.0
2.31,230.69405350339534,-14.221462721392816,1019.7641816344722,107.40887313238142,-10.460211371844142,-1.8652404405732053,107.9331328712959,17.520341272181845,-136.41479728723567,-18.127787638850418,-51.8127483662904,520.0,-380.2572224446206,452.5556593145303,-25.050665715668874,-29.999999999999996,7013.62540859938,0.33429090439776177,112.44116429424544,2.8678407300492577,1.1094861741847255,89659.31293075049,281.5215328193759,-3.891440876896947,5.431072701152151,-0.21520414010493008,392.68894736842105,0.2107533085730607,0.84,nominal,15825.250997532103,nan,altitude_hold,19.89261505779825,2.0,0.0
2.34,233.9117279749877,-14.559889275585538,1019.6957359974778,107.2558157197456,-11.280885139757391,-2.281521233147827,107.87156119377215,17.514018672924653,-120.68999748472812,-36.501447077974504,-51.29873454024892,519.3610061985642,-400.7183383673728,477.85567467668994,-30.758512459184352,-29.999999999999996,6997.769866349147,0.3339114419670854,112.31361810639898,2.836359607634255,1.1094936362642764,89660.05764523408,281.52197771601635,-3.637218695097176,6.413415786075999,-0.282660266352201,392.6557894736842,0.21073551297155999,0.84,nominal,15817.936046610528,nan,altitude_hold,19.89261505779825,2.0,0.0
2.37,237.1222098136975,-14.91772707903697,1019.6043904902972,107.01606129032655,-11.927926781714378,-3.0448502393530017,107.72178945963049,17.507696607535507,-98.0412511584602,-54.82158372924495,-41.22172836428528,514.3890600729184,-432.1499180978211,505.5267509307248,-35.0,-29.999999999999996,7003.771294377314,0.33405274437947247,112.36126472063393,2.8318932171413382,1.1095035949930596,89661.0515267913,281.5225714618131,-3.769564100429557,6.580574856697575,-0.03912511879820445,392.62263157894733,0.21071771737005923,0.84,nominal,15800.895358194151,nan,altitude_hold,19.89261505779825,2.0,0.0
2.4,240.3237398214386,-15.286043564014996,1019.483370585585,106.71766692470293,-12.277216165934181,-4.033996823738289,107.49727252824063,17.501375076014405,-51.55785288746064,-66.51388172241936,-5.696426357521755,506.97081734826037,-465.1499180978211,520.0,-35.0,-29.999999999999996,6958.8495215785615,0.33297727876426136,111.99967988687456,2.8847170471753216,1.1095167890084605,89662.36829331913,281.5233580911937,-3.6165941180621837,6.572286426043311,-0.16419231389901762,392.5894736842105,0.2106999217685585,0.84,nominal,15775.548396658545,nan,altitude_hold,19.89261505779825,2.0,0.0
2.4299999999999997,243.51543344981042,-15.655004758322058,1019.3300527419956,106.38978761239363,-12.298706476902053,-5.110594786315952,107.22016260146754,17.49505407836135,3.2415722418031296,-58.87660696954808,38.639358984824874,499.9287405418835,-498.14991809782106,520.0,-35.0,-29.999999999999996,6969.53034436233,0.3332296167247387,112.08475424487206,2.8949580757473066,1.1095335044310461,89664.03650257902,281.524354657177,-3.8838861838588405,7.154066087052804,-0.18122959532918304,392.5563157894737,0.2106821261670578,0.84,nominal,15744.294695864859,nan,altitude_hold,19.89261505779825,2.0,0.0
2.46,246.6978084054739,-16.014067758683115,1019.1462776413564,106.07916518878227,-11.968766678701936,-6.125836687973267,106.92785669827056,17.488733614576336,30.070990817744605,-39.69358326703727,54.330353383956876,493.95002287314134,-520.0,520.0,-35.0,-29.999999999999996,6886.233424505891,0.33122862695333155,111.41193985059853,2.861354273587461,1.1095535406989572,89666.03614198774,281.52554919533117,-3.437505970405031,7.6186362028894035,-0.2053022663148984,392.5231578947368,0.21066433056555708,0.84,nominal,15711.194112674548,nan,altitude_hold,19.89261505779825,2.0,0.0
2.4899999999999998,249.8726647165936,-16.35463343229505,1018.9382166222164,105.82854370398994,-11.352189120397833,-6.935367304669162,106.66139029650448,17.48241368465937,46.12480290100387,-18.222328070371102,57.28284103662727,489.26991595860255,-520.0,520.0,-35.0,-29.999999999999996,6870.114439488762,0.33083656076427587,111.28033189469853,2.8197378859771662,1.1095762250980088,89668.30007775137,281.52690159195555,-3.4559712486131344,8.566534696115589,-0.3435921499785279,392.49,0.2106465349640564,0.84,nominal,15680.696552029887,nan,altitude_hold,19.89261505779825,2.0,0.0
2.52,253.04217118013264,-16.671743937062192,1018.7149610124358,105.65021545130192,-10.570350158904755,-7.441853659355058,106.43815816367562,17.476094288610447,60.227735993881325,3.135077495382955,54.270643809725144,486.1137750515421,-516.9331987911564,520.0,-35.0,-29.999999999999996,6826.450912320753,0.32977908950010615,110.9249262788823,2.74769343110214,1.1096005665218236,89670.72939907387,281.52835275341914,-3.373126386612235,8.473101331841859,0.014496640112643035,392.45684210526315,0.21062873936255563,0.84,nominal,15654.721829050417,nan,altitude_hold,19.89261505779825,2.0,0.0
2.55,256.20867217893954,-16.965092775140214,1018.4866857018801,105.55003329356286,-9.778294602600663,-7.60917701852256,106.27475781438737,17.46977542642957,76.51187639896435,22.78441050162631,46.14229885679496,483.5974963616106,-497.22379078674646,520.0,-35.0,-27.773555478634805,6751.229747977876,0.3279525841698432,110.3108512492135,2.662846219192489,1.1096254556629703,89673.2133965966,281.52983654293774,-2.992275605862514,8.36478308110489,-0.0012985842378035878,392.4236842105263,0.2106109437610549,0.84,nominal,15635.104530591685,nan,altitude_hold,19.89261505779825,2.0,0.0
2.58,259.3741603973547,-17.238817650312324,1018.2624802427321,105.51627394717032,-9.124162505737022,-7.473515304933462,106.17338574303103,17.463457098116738,98.71226832067038,38.757755235514736,31.02654774355752,481.11852757918837,-464.22379078674646,520.0,-35.0,-25.11114347515351,6714.74927930287,0.3270608840633058,110.01120177826405,2.5819754085750968,1.1096499014789,89675.65316191598,281.5312938784222,-2.7729319914054984,8.772289971275695,-0.015004553539011783,392.3905263157895,0.2105931481595542,0.84,nominal,15622.13767194162,nan,altitude_hold,19.817305748905767,2.0,0.0
2.61,262.53984574877944,-17.50022414904977,1018.0486227858504,105.52284504749184,-8.713549957914923,-7.128581896056528,106.1216917488354,17.45713930367195,130.05194418695245,47.63732865289356,6.408041815646206,479.122528933392,-431.2237907867465,520.0,-35.0,-23.731183897149062,6725.8437536427045,0.32732671917934086,110.10089070603343,2.5299519629416194,1.1096732194040058,89677.98037213676,281.53268395189195,-2.8479875802045145,9.26656406214462,0.26629941924507416,392.3573684210526,0.21057535255805349,0.84,nominal,15614.553256460278,nan,altitude_hold,19.817305748905767,2.0,0.0
2.6399999999999997,265.7058978050797,-17.758464074303475,1017.8480427762889,105.53506854334178,-8.607997508456826,-6.686000318714153,106.09642271921939,17.45082204309521,165.09859544579373,45.90275552185572,-21.831461882348407,478.2209625678618,-398.2237907867465,520.0,-35.0,-23.584105350613086,6722.271741833732,0.3272358056172983,110.07056553204117,2.519498063815212,1.1096950899647249,89680.1631407886,281.5339877219541,-2.8838878187142125,9.155801541364301,0.045027925435642324,392.32421052631577,0.21055755695655273,0.84,nominal,15609.90496559974,nan,altitude_hold,19.817305748905767,2.0,0.0
2.67,268.8714411606049,-18.0229201362043,1017.6599840998855,105.51811185083918,-8.815202063360733,-6.268622546779659,106.0710862799947,17.444505316386515,-167.1549580582091,35.267828083461765,-42.30019144867275,478.8339076739291,-365.2237907867465,520.0,-35.0,-23.99370263880857,6744.020663713028,0.3277609999940205,110.24746170687233,2.5410180673120304,1.1097155955414735,89682.20968781116,281.5352101033507,-2.9877756284891532,9.676332643230975,-0.0205556996230922,392.2910526315789,0.210539761355052,0.84,nominal,15605.372955382183,nan,altitude_hold,19.817305748905767,2.0,0.0
2.6999999999999997,272.03487090380236,-18.301773251615753,1017.4801676454817,105.44765810658187,-9.295103847048424,-5.993881813459737,106.02610138491238,17.438189123545865,-147.40668802460866,20.102833950247874,-53.91674910101066,478.77849365084325,-337.201094906347,520.0,-35.0,-24.97179403505921,6747.792598295549,0.327849068786458,110.27731391203358,2.580040091208443,1.1097352026723952,89684.16657428688,281.53637891030434,-2.978571764325485,9.901207623733466,0.0344069612321361,392.2578947368421,0.2105219657535513,0.84,nominal,15598.838973482423,nan,altitude_hold,19.817305748905767,2.0,0.0
2.73,275.19432158939594,-18.600776382497052,1017.3013606507127,105.31502285311926,-9.966771029376677,-5.960233158969306,105.95336211095112,17.431873464573258,-132.0339028016091,2.755230684870548,-59.435798278942464,477.99487419536183,-329.0599685782643,520.0,-35.0,-25.88862457105247,6773.615037109064,0.3284722123418942,110.48714633908608,2.617928539511792,1.1097546999949504,89686.11250941253,281.5375411557703,-3.042082359354756,10.720612302916237,0.21871715562512048,392.22473684210524,0.21050417015205058,0.84,nominal,15589.375859732476,nan,altitude_hold,19.817305748905767,2.0,0.0
2.76,278.3481736900114,-18.92217907690945,1017.114621170234,105.12840335384792,-10.713423147079935,-6.224649349286569,105.85605739294894,17.425558339468697,-117.90735596112992,-15.557532650793956,-60.033942503606454,475.5712066966867,-339.0298588522848,520.0,-35.0,-27.280444883337555,6693.352073063752,0.3265166217124089,109.82958733667965,2.6485830493660587,1.1097750625647298,89688.1448093284,281.53875496239345,-2.3784211224146605,10.8528509961339,0.07747451137812328,392.1915789473684,0.21048637455054983,0.84,nominal,15577.239543088726,nan,altitude_hold,19.817305748905767,2.0,0.0
2.79,281.49559429142147,-19.264396365651518,1016.9105825377089,104.91402004700336,-11.407242958068908,-6.801287750836594,105.75128514300484,17.41924374823218,-101.58917072605533,-33.63966627928819,-54.6523664162409,470.64374575385943,-363.58209867156296,520.0,-35.0,-28.67860875163492,6613.434514533249,0.3245574720735087,109.17085016093213,2.6600954126281313,1.109797311806853,89690.36541985847,281.5400812135049,-1.7543602552141204,10.718874126396795,0.3096975062647872,392.1584210526316,0.21046857894904913,0.84,nominal,15564.15331894198,nan,altitude_hold,19.817305748905767,2.0,0.0
2.82,284.63671032276244,-19.622253207216072,1016.6813845414198,104.70386771136478,-11.928561385485146,-7.63993320963899,105.65774495934507,17.41292969086371,-77.24644669444886,-48.97855622887881,-38.895431542537544,462.59047765357764,-396.58209867156296,520.0,-35.0,-29.999999999999996,6670.324894415012,0.3259459115681375,109.63816729236352,2.691647164241943,1.109822304940195,89692.85990000007,281.54157100048076,-2.1886930963234907,11.139431284865038,0.257907341019311,392.1252631578947,0.2104507833475484,0.84,nominal,15552.01803466012,nan,altitude_hold,19.817305748905767,2.0,0.0
2.85,287.77209475108316,-19.987774074175704,1016.4216198833018,104.51281427735687,-12.18402889865432,-8.658821937265166,105.57629518844558,17.406616167363282,-38.83669051070263,-55.49245766812707,-7.86939533717233,456.10359342163065,-429.5820986715629,520.0,-35.0,-29.999999999999996,6705.155273111067,0.3267906476811518,109.92264012184506,2.702259150051902,1.1098506317674646,89695.68712081984,281.5432594707585,-2.530264854572183,11.137067291657335,0.33520351269134424,392.0921052631579,0.2104329877460477,0.84,nominal,15540.86813148748,nan,altitude_hold,19.817305748905767,2.0,0.0
2.88,290.9030848951727,-20.35160568522855,1016.1296512174823,104.36633813631794,-12.127720368428196,-9.73228886064757,105.51839452809223,17.4003031777309,-0.930665973067449,-47.63527773940008,22.983599767855274,450.6380249678074,-462.5820986715629,520.0,-35.0,-29.999999999999996,6716.287911096989,0.3270560285536422,110.0122771202892,2.685426677584283,1.109882471038936,89698.86492903843,281.5451572670863,-2.6862526147036854,11.141510462744085,0.31693136836539126,392.05894736842106,0.210415192144547,0.84,nominal,15531.893636004985,nan,altitude_hold,19.817305748905767,2.0,0.0
2.9099999999999997,294.0316215981354,-20.704247831338456,1015.8081099469513,104.28455676542329,-11.75473820366357,-10.718042351033493,105.49084833214684,17.393990721966563,22.484359176168013,-30.297221499607918,38.78678971823941,446.14866889265465,-495.5820986715629,520.0,-35.0,-29.999999999999996,6737.802700093499,0.3275730608637571,110.18660095181713,2.6770142209102707,1.1099175360204387,89702.36471312282,281.5472472853448,-2.868323637003545,11.445146387798376,0.2870749005474966,392.0257894736842,0.21039739654304623,0.84,nominal,15525.834142329273,nan,altitude_hold,19.817305748905767,2.0,0.0
2.94,297.15943426513263,-21.038052705533605,1015.4635018579635,104.26042223323977,-11.12682913983829,-11.486936299594632,105.47981644140046,17.387678800070272,37.735750954928726,-9.351166324233503,44.66893031171094,442.6721210377459,-520.0,520.0,-35.0,-29.999999999999996,6675.886775681311,0.3260576808303082,109.67730492207221,2.6613576529578857,1.1099551174443774,89706.11568845848,281.5494872379232,-2.465283001932017,11.22947776966035,0.29994617172640925,391.99263157894734,0.2103796009415455,0.84,nominal,15521.290988751163,nan,altitude_hold,19.817305748905767,2.0,0.0
