time_s,x_m,y_m,altitude_m,vx_mps,vy_mps,vz_mps,speed_mps,mass_kg,roll_deg,pitch_deg,yaw_deg,p_dps,q_dps,r_dps,alpha_deg,beta_deg,qbar_pa,mach,airspeed_mps,load_factor_g,density_kgpm3,pressure_pa,temperature_k,wind_x_mps,wind_y_mps,wind_z_mps,thrust_n,mass_flow_kgps,propulsion_throttle_actual,propulsion_health,energy_j_per_kg,target_distance_m,guidance_mode,pitch_command_deg,heading_command_deg,roll_command_deg,elevator_command_deg,aileron_command_deg,rudder_command_deg,elevator_deg,aileron_deg,rudder_deg,throttle,elevator_saturated,aileron_saturated,rudder_saturated,elevator_failed,aileron_failed,rudder_failed,elevator_raw_rad,aileron_raw_rad,rudder_raw_rad,elevator_effective_rad,aileron_effective_rad,rudder_effective_rad,sensor_time_s,imu_valid,imu_ax_mps2,imu_ay_mps2,imu_az_mps2,gyro_p_rps,gyro_q_rps,gyro_r_rps,imu_accel_norm_mps2,imu_gyro_norm_rps,gps_valid,gps_latency_s,gps_x_m,gps_y_m,gps_z_m,gps_vx_mps,gps_vy_mps,gps_vz_mps,baro_valid,baro_alt_m,baro_bias_m,pitot_valid,pitot_airspeed_mps,pitot_qbar_pa,pitot_compressibility_factor,mag_valid,mag_heading_deg,mag_x_ut,mag_y_ut,mag_z_ut,radar_valid,radar_agl_m,optical_flow_valid,horizon_valid,horizon_roll_deg,horizon_pitch_deg,optical_flow_x_radps,optical_flow_y_radps,optical_flow_quality
0.0,0.0,0.0,1000.0,84.0,0.0,15.0,85.32877591996736,18.0,0.0,9.0,0.0,0.0,0.0,0.0,-1.1246716553978162,0.0,4046.934522364112,0.25362711007788913,85.32877591996736,1.7329231744426616,1.1116425003060326,89874.56291621955,281.65,0.0,0.0,0.0,323.0,0.17335175620624782,0.85,nominal,13447.15,nan,fixed_pitch,18.0,0.0,0.0,-20.05352282957881,-0.0,0.0,-2.6999999999999997,0.0,0.0,0.85,0.0,0.0,0.0,0.0,0.0,0.0,-0.047123889803846894,0.0,0.0,-0.047123889803846894,0.0,0.0,0.0,1.0,17.007343798494418,-0.2892272845464373,-0.6380093276952116,0.001565738031183101,-0.0036571952164712266,-0.0013815102141609857,17.021764050900796,0.004211316053860633,1.0,0.0,-0.806223771082661,-3.036116460697097,998.193930698617,83.98374976179954,0.17024808068988678,14.758299894501135,1.0,999.9769622121428,0.0,1.0,85.36896211336294,4098.066982106759,1.0,1.0,0.4914089296374223,17.192599608587877,-0.01757678299780929,-44.78148816809228,1.0,999.9011865279573,0.0,1.0,-0.26702259647059245,9.19094030623817,,,
0.03,2.5351789957121817,-0.00022542513550626367,1000.4430414013383,84.50596652373939,-0.0075141711835421225,14.768046711275922,85.7866751788444,17.994799447313813,-0.003041183605462435,9.13458162651677,0.019297529388626996,0.0,-4.486073134779234,0.6350942606475132,-0.7781784168338118,-0.024069355214791234,4090.3071457318083,0.25498945119058214,85.7866751788444,1.766860385400648,1.1115941281793602,89869.73321037232,281.6471202308913,0.0,0.0,0.0,328.7375,0.17643103082306932,0.85,nominal,13490.671571078712,nan,fixed_pitch,18.0,0.0,0.0,-3.8511399858682895,-0.006133053604368538,-0.05956504071292876,-3.390683991520974,0.0,-0.035739024427757254,0.85,0.0,0.0,0.0,0.0,0.0,0.0,-0.059178599546704486,0.0,-0.0006237636477150464,-0.059178599546704486,0.0,-0.0006237636477150464,0.03,1.0,17.35958849062994,-0.24360823976173265,-0.39622679593315385,-0.0030523316384910115,-0.07443396576854167,0.011062999514282192,17.365818529867997,0.07531349113350658,1.0,0.0,-0.806223771082661,-3.036116460697097,998.193930698617,83.98374976179954,0.17024808068988678,14.758299894501135,1.0,999.9769622121428,0.0,1.0,86.11426890842634,4060.059405079099,1.0,1.0,0.4914089296374223,17.192599608587877,-0.01757678299780929,-44.78148816809228,1.0,999.9011865279573,0.0,1.0,-0.26702259647059245,9.19094030623817,,,
0.06,5.085811461851493,-0.000673463740157197,1000.8793386250366,85.0210822046437,-0.014934620155031112,14.543240789943177,86.25595918524081,17.98950651638912,-0.009403132226318804,9.444834248168565,0.059734023033013735,0.005519973320646495,-10.341923704024028,1.3290871026564488,-0.2619191592881443,-0.06884219785961619,4135.0032522454185,0.2563856261034356,86.25595918524081,1.801979622149768,1.1115464939689164,89864.97722989027,281.64428429893724,0.0,0.0,0.0,334.47499999999997,0.17951030543989083,0.85,nominal,13535.318613610178,nan,fixed_pitch,18.0,0.0,0.0,-2.21860665773589,-0.013894343980634402,-0.13291893939217445,-2.6874375912499238,0.0,-0.09404697340640755,0.85,0.0,0.0,0.0,0.0,0.0,0.0,-0.04690463440917672,0.0,-0.001641429337477359,-0.04690463440917672,0.0,-0.001641429337477359,0.06,1.0,17.690497241616097,-0.2736267990004747,-0.054196292018478746,0.0019102861751529115,-0.18041387147545493,0.021888835505989027,17.692696276114237,0.18174689910378442,1.0,0.0,-0.806223771082661,-3.036116460697097,998.193930698617,83.98374976179954,0.17024808068988678,14.758299894501135,1.0,1001.5364353114186,0.0,1.0,85.96124869925035,4066.9942246503865,1.0,1.0,2.162383864262022,16.81658790628632,0.03277513354009569,-44.90766239736075,1.0,1001.1141293738146,0.0,1.0,0.01815596451068684,9.459923533358687,,,
0.09,7.652138091927624,-0.0013333066216253129,1001.3093803982217,85.54422100253768,-0.021994762715603862,14.334725772839965,86.73695056712059,17.984121207225925,-0.019366239544467593,9.802529784811446,0.12308918577340866,0.020947511229566524,-11.923745593152194,2.0791357340901335,0.2898232897325131,-0.13582768794099676,4181.071479054282,0.25781659543348506,86.73695056712059,1.8332740392342537,1.1114995442464255,89860.28963814722,281.6414890274115,0.0,0.0,0.0,340.2125,0.18258958005671233,0.85,nominal,13581.13993212378,nan,fixed_pitch,18.0,0.0,0.0,-1.6278580144192474,-0.023383362704158656,-0.22064455866593896,-2.051689845151518,0.0,-0.17000552456212636,0.85,0.0,0.0,0.0,0.0,0.0,0.0,-0.035808743027626606,0.0,-0.0029671561501891965,-0.035808743027626606,0.0,-0.0029671561501891965,0.09,1.0,17.877557552951348,-0.3565427858289817,0.3889481483177771,-0.0005497546974927105,-0.20813700781695618,0.03514933861420184,17.88534225222694,0.2110847987379454,1.0,0.0,-0.806223771082661,-3.036116460697097,998.193930698617,83.98374976179954,0.17024808068988678,14.758299894501135,1.0,1001.5364353114186,0.0,1.0,87.13899806143463,4141.766735125006,1.0,1.0,2.162383864262022,16.81658790628632,0.03277513354009569,-44.90766239736075,1.0,1001.1141293738146,0.0,1.0,0.01815596451068684,9.459923533358687,,,
0.12,10.234343153415178,-0.0021847097189029354,1001.7337047119046,86.07350204958513,-0.02838010324258742,14.144143789428437,87.22789326841628,17.978643519824224,-0.03297716082437011,10.08904402564656,0.2109131606651873,0.05192530238964734,-9.55181063997221,2.879117508341179,0.7572948795593984,-0.22632758696562968,4228.360039262111,0.2592771412781471,87.22789326841628,1.8613521915032207,1.1114532202134102,89855.66456259186,281.6387309193726,0.0,0.0,0.0,345.95,0.18566885467353383,0.85,nominal,13628.004517336109,nan,fixed_pitch,18.0,0.0,0.0,-2.0653340782007845,-0.0342268750883672,-0.32278079385745123,-2.059876384981078,0.0,-0.2616706861393213,0.85,0.0,0.0,0.0,0.0,0.0,0.0,-0.035951625101998085,0.0,-0.004567015029083846,-0.035951625101998085,0.0,-0.004567015029083846,0.12,1.0,18.228592681295815,-0.28219679403358355,0.7383130393989789,0.0009769051061086487,-0.16770918588495015,0.051542442246848105,18.245720931640403,0.17545355147887082,1.0,0.0,-0.806223771082661,-3.036116460697097,998.193930698617,83.98374976179954,0.17024808068988678,14.758299894501135,1.0,1001.2149673326625,0.0,1.0,86.86251070487884,4233.929057621772,1.0,1.0,-1.5707019161123168,16.334022292848086,-0.08018245047011686,-45.15835804338463,1.0,1001.8050426551163,0.0,1.0,-0.17103164356715247,10.007899002519537,,,
0.15,12.83259099146876,-0.003196790471206931,1002.1527401452728,86.60826126845267,-0.03373602507679984,13.967847778940188,87.72737787965391,17.973073454184018,-0.049883812989460215,10.270360711270909,0.3244597269596349,0.1053717644771429,-6.046586660281579,3.720939458876828,1.1089378818764997,-0.3413887471158566,4276.747549669274,0.26076307570797846,87.72737787965391,1.8904798588828853,1.111407475023805,89851.0973242622,281.6360071890557,0.0,0.0,0.0,351.6875,0.18874812929035537,0.85,nominal,13675.807583965434,nan,fixed_pitch,18.0,0.0,0.0,-2.8450808112476347,-0.045637088154782596,-0.4390639287749095,-2.530999040741012,0.0,-0.3681066317206742,0.85,0.0,0.0,0.0,0.0,0.0,0.0,-0.04417426662574876,0.0,-0.0064246727219519646,-0.04417426662574876,0.0,-0.0064246727219519646,0.15,1.0,18.457749208197175,-0.18417793080002137,0.974105744941247,0.001106017526034772,-0.10451613819886002,0.06536549658309722,18.48435309512412,0.12327811874913568,1.0,0.0,-0.806223771082661,-3.036116460697097,998.193930698617,83.98374976179954,0.17024808068988678,14.758299894501135,1.0,1001.2149673326625,0.0,1.0,87.12054581119057,4364.799942059321,1.0,1.0,-1.5707019161123168,16.334022292848086,-0.08018245047011686,-45.15835804338463,1.0,1001.8050426551163,0.0,1.0,-0.17103164356715247,10.007899002519537,,,
0.18,15.447079106462139,-0.004326970665909478,1002.5667786348297,87.14960383311268,-0.037672673156751574,13.801282985228376,88.235651975475,17.96741101030531,-0.06935835358876175,10.377865198195458,0.46469388677306894,0.1885908446290159,-3.5882673595569563,4.595063706990148,1.3793188746377951,-0.4817676419609637,4326.272328603585,0.2622751356033017,88.235651975475,1.9202516774257885,1.1113622767544578,89846.58473429429,281.6333159388736,0.0,0.0,0.0,357.425,0.19182740390717687,0.85,nominal,13724.586639467823,nan,fixed_pitch,18.0,0.0,0.0,-3.4045532352825565,-0.056732991421550055,-0.5691291919471807,-3.0551315574659386,0.0,-0.4887201678565781,0.85,0.0,0.0,0.0,0.0,0.0,0.0,-0.05332210475936298,0.0,-0.008529776049996647,-0.05332210475936298,0.0,-0.008529776049996647,0.18,1.0,18.783369672450515,-0.18555067725790747,1.0739266736027324,0.004959368256925818,-0.06482873880461901,0.0836980940006331,18.814960106416386,0.10598458212326986,1.0,0.0,-0.806223771082661,-3.036116460697097,998.193930698617,83.98374976179954,0.17024808068988678,14.758299894501135,1.0,1003.8099894632475,0.0,1.0,89.28418889300113,4371.546904848257,1.0,1.0,0.8561765318365187,16.07586703931786,-0.15113466683769564,-45.21399110073321,1.0,1002.718022787746,0.0,1.0,-0.4297292202104743,9.942951759461963,,,
0.21,18.07802522896717,-0.005520037293585831,1002.976039729378,87.69820408350101,-0.03976888758921178,13.642036484946761,88.75292525033996,17.961656188188094,-0.09039880370604927,10.454277243207018,0.6322878528710513,0.3086577650015384,-2.554725985907509,5.4908536842844144,1.6128533736411241,-0.6479034568587194,4376.969792893059,0.263813945052337,88.75292525033996,1.9504346984683703,1.1113176013886166,89842.12439332844,281.630655741759,0.0,0.0,0.0,363.16249999999997,0.19490667852399834,0.85,nominal,13774.375850258322,nan,fixed_pitch,18.0,0.0,0.0,-3.6253936063382772,-0.0667069981592927,-0.7124781411337793,-3.3972887867893418,-0.04002419889557562,-0.6229749518228987,0.85,0.0,0.0,0.0,0.0,0.0,0.0,-0.05929387497055765,-0.0006985540512008726,-0.010872964066762634,-0.05929387497055765,-0.0006985540512008726,-0.010872964066762634,0.21,1.0,19.019344064009427,-0.18537451274280212,1.2756531255762602,0.00498400484965435,-0.042159571158128246,0.09637676297123943,19.06297729191161,0.10531263070208209,1.0,0.0,17.672566477496197,-0.596747614242908,1002.771969531633,87.58059312416539,0.1566594857068785,13.340932363836822,1.0,1003.8099894632475,0.0,1.0,89.07936966433549,4368.659176277708,1.0,1.0,0.8561765318365187,16.07586703931786,-0.15113466683769564,-45.21399110073321,1.0,1002.718022787746,0.0,1.0,-0.4297292202104743,9.942951759461963,,,
0.24,20.725652045617085,-0.006707351398227586,1003.3807312894186,88.25422722166384,-0.039577136821391815,13.48971866801766,89.27924002020343,17.955808987832373,-0.11246521234081505,10.521502916733898,0.8275741470657021,0.44937154366487275,-2.252183908113307,6.3968207914096595,1.8317698329519077,-0.839877825554959,4428.859499431956,0.2653796305988437,89.27924002020343,1.9809065932429495,1.111273426188906,89837.7140298432,281.62802524661873,0.0,0.0,0.0,368.9,0.19798595314081988,0.85,nominal,13825.194997791921,nan,fixed_pitch,18.0,0.0,0.0,-3.668787423119045,-0.07614017204389592,-0.8683445929532996,-3.560187968587164,-0.061693782784567795,-0.7701967365011393,0.85,0.0,0.0,0.0,0.0,0.0,0.0,-0.06213700204173446,-0.0010767596376009035,-0.01344246894006007,-0.06213700204173446,-0.0010767596376009035,-0.01344246894006007,0.24,1.0,19.364639297565162,-0.19920043806794716,1.432762477994094,0.0061521491345027535,-0.03813652690210778,0.11186397361061313,19.418592746583858,0.1183460697069586,1.0,0.0,17.672566477496197,-0.596747614242908,1002.771969531633,87.58059312416539,0.1566594857068785,13.340932363836822,1.0,1003.5419575385267,0.0,1.0,89.91450217136727,4465.458666164412,1.0,1.0,0.16125826537362803,15.99462155229011,-0.20729514882053113,-45.186119298009025,1.0,1003.1337065430047,0.0,1.0,0.0360588170128545,9.78521366732268,,,
0.27,23.390180948350878,-0.0078062020356132735,1003.7810698569756,88.81763009112643,-0.03662835457952292,13.344618918568917,89.8145400852354,17.94986940923815,-0.13443216552387857,10.580067629507422,1.050490704008917,0.6283559994969555,-1.96789172923819,7.300710267548159,2.0364453881310496,-1.0574216635497091,4481.951535503878,0.2669720259857973,89.8145400852354,2.0115990160092223,1.1112297274736345,89833.35127814082,281.62542304592967,0.0,0.0,0.0,374.6375,0.20106522775764138,0.85,nominal,13877.055434074085,nan,fixed_pitch,18.0,0.0,0.0,-3.712617816332545,-0.0836628465718023,-1.035650247532363,-3.651645877234392,-0.0748752210569085,-0.9294688431198737,0.85,0.0,0.0,0.0,0.0,0.0,0.0,-0.06373324367461679,-0.0013068191356016418,-0.01622229160714444,-0.06373324367461679,-0.0013068191356016418,-0.01622229160714444,0.27,1.0,19.640501478373825,-0.12044393251624613,1.5328603179973,0.009074805185370826,-0.03430433806775462,0.12656286797433608,19.700595570118566,0.13144314074651614,1.0,0.0,17.672566477496197,-0.596747614242908,1002.771969531633,87.58059312416539,0.1566594857068785,13.340932363836822,1.0,1003.5419575385267,0.0,1.0,89.7858600146989,4492.962010795239,1.0,1.0,0.16125826537362803,15.99462155229011,-0.20729514882053113,-45.186119298009025,1.0,1003.1337065430047,0.0,1.0,0.0360588170128545,9.78521366732268,,,
0.3,26.07183370813452,-0.008719317193843014,1004.1772709181151,89.38842532612145,-0.030437171940991332,13.206702037984108,90.35877648255935,17.943837452405422,-0.15469364216036652,10.623202561303154,1.3005545248537977,0.8581729890442434,-1.4584986720347228,8.189534475218132,2.2201486760339293,-1.299897642844705,4536.256849041116,0.2685909864693635,90.35877648255935,2.0424611014046943,1.111186481679691,89829.03378446425,281.62284773903224,0.0,0.0,0.0,380.375,0.20414450237446288,0.85,nominal,13929.969277561693,nan,fixed_pitch,18.0,0.0,0.0,-3.821469841138602,-0.08791190248360976,-1.2130697560249588,-3.7535402555769175,-0.08269722991292927,-1.0996293908629249,0.85,0.0,0.0,0.0,0.0,0.0,0.0,-0.06551163606596666,-0.0014433389442593592,-0.019192153422257687,-0.06551163606596666,-0.0014433389442593592,-0.019192153422257687,0.3,1.0,19.931109736103956,-0.12602438760346207,1.811234906349985,0.014616092128828147,-0.02702578901340027,0.1457104029426891,20.013635085732663,0.14891455585884156,1.0,0.0,17.672566477496197,-0.596747614242908,1002.771969531633,87.58059312416539,0.1566594857068785,13.340932363836822,1.0,1003.9999257364462,0.0,1.0,90.3335522804496,4488.616101230525,1.0,1.0,1.4109709081544977,15.810456671164602,-0.4112255142814836,-45.24758797043216,1.0,1004.2264974142579,0.0,1.0,-0.14825328551530056,10.340391481439564,,,
0.32999999999999996,28.770836032358304,-0.009334543637533806,1004.5695341590477,89.96674414079284,-0.02050754812302643,13.075441364419364,90.91194992259697,17.937713117334187,-0.17119164155726663,10.647838978486707,1.5768610136440275,1.1499138198026497,-0.8469534066061385,9.049640307532984,2.3801231533352962,-1.5662844683060313,4591.791558327288,0.2702365149164319,90.911949922597,2.073459881090923,1.1111436669717043,89824.75936764436,281.62029802796616,0.0,0.0,0.0,386.1125,0.20722377699128441,0.85,nominal,13983.953141525217,nan,fixed_pitch,18.0,0.0,0.0,-3.966239032563589,-0.08741374020651405,-1.3990989291710796,-3.8811595217689203,-0.08552713608908014,-1.2793111138478177,0.85,0.0,0.0,0.0,0.0,0.0,0.0,-0.0677390124499962,-0.0014927301245557145,-0.022328191094000444,-0.0677390124499962,-0.0014927301245557145,-0.022328191094000444,0.32999999999999996,1.0,20.2852843075342,-0.060972000721220755,1.8941604008553636,0.020190191958459062,-0.014080058706091659,0.16198465905810225,20.373618251222187,0.1638441993927647,1.0,0.0,17.672566477496197,-0.596747614242908,1002.771969531633,87.58059312416539,0.1566594857068785,13.340932363836822,1.0,1003.9999257364462,0.0,1.0,90.57045358930323,4641.706569858592,1.0,1.0,1.4109709081544977,15.810456671164602,-0.4112255142814836,-45.24758797043216,1.0,1004.2264974142579,0.0,1.0,-0.14825328551530056,10.340391481439564,,,
0.36,31.487418885582834,-0.009524730974627782,1004.9580384181909,90.55276177415102,-0.006339577903132512,12.950141971437738,91.4740885835808,17.93149640402445,-0.18143818735665884,10.65656046121474,1.878086263179064,1.5144699775071122,-0.321080701301166,9.866892385863572,2.5193062789689575,-1.8551683309571845,4648.574846902576,0.2719086957849968,91.47408858358081,2.1045826705716046,1.111101263792659,89820.52607406037,281.61777275028174,0.0,0.0,0.0,391.84999999999997,0.2103030516081059,0.85,nominal,14039.026188552145,nan,fixed_pitch,18.0,0.0,0.0,-4.0983855197551184,-0.08058094190715705,-1.5920635626286457,-4.011495120560639,-0.08255941957992628,-1.4669625831163144,0.85,0.0,0.0,0.0,0.0,0.0,0.0,-0.07001379778147003,-0.0014409337002051874,-0.025603327078940665,-0.07001379778147003,-0.0014409337002051874,-0.025603327078940665,0.36,1.0,20.57073869607329,0.0334533340502293,2.052325241947861,0.025707524750311357,-0.006584279563763745,0.17156895307500855,20.672891634370416,0.1736091449936211,1.0,0.0,17.672566477496197,-0.596747614242908,1002.771969531633,87.58059312416539,0.1566594857068785,13.340932363836822,1.0,1005.883728161548,0.0,1.0,91.40157074939813,4606.526638018486,1.0,1.0,0.49252332276120997,15.890197610720351,-0.6164379687935523,-45.3395381171379,1.0,1005.0117196798258,0.0,1.0,-0.6249279376589393,10.710353726600104,,,
0.39,34.2218172810125,-0.009147860785442913,1005.3429459617256,91.14661318098877,0.012562339639495618,12.830251451158484,92.0452095683264,17.925187312476208,-0.182527871533448,10.65415209472296,2.202479710645127,1.96303749640884,0.0465259950236261,10.626895885365677,2.6426594182359153,-2.1647430513472634,4706.625106910809,0.2736075805669543,92.0452095683264,2.1358239091045186,1.111059254396873,89816.33213100329,281.61527085124874,0.0,0.0,0.0,397.5875,0.2133823262249274,0.85,nominal,14095.20670325412,nan,fixed_pitch,18.0,0.0,0.0,-4.196890457232143,-0.06570089533133992,-1.7900906717137557,-4.122732322563541,-0.07244430503077447,-1.6608394362747791,0.85,0.0,0.0,0.0,0.0,0.0,0.0,-0.0719552532071267,-0.0012643916471061065,-0.02898711650996144,-0.0719552532071267,-0.0012643916471061065,-0.02898711650996144,0.39,1.0,20.923558372477604,0.02138805192654269,2.130013352639577,0.036381010507334825,-0.00048571895971255595,0.1857698023033608,21.03170723687608,0.18929932196463986,1.0,0.0,17.672566477496197,-0.596747614242908,1002.771969531633,87.58059312416539,0.1566594857068785,13.340932363836822,1.0,1005.883728161548,0.0,1.0,92.28086869336288,4756.974411210374,1.0,1.0,0.49252332276120997,15.890197610720351,-0.6164379687935523,-45.3395381171379,1.0,1005.0117196798258,0.0,1.0,-0.6249279376589393,10.710353726600104,,,
0.42,36.97426828644384,-0.008047445783865344,1005.7244090214257,91.74836684771125,0.03668050005258559,12.715435323334795,92.62530140379138,17.91878584268946,-0.17112889676581175,10.64425100968143,2.5478535264135678,2.5074216782218284,0.2951163125475563,11.315181345180985,2.7537553528876826,-2.4928163241456858,4765.958102696426,0.2753331357861162,92.62530140379138,2.1453648615651573,1.1110176221361672,89812.17587540323,281.6127913413607,0.0,0.0,0.0,399.47763157894735,0.21439674612793488,0.85,nominal,14152.510505801562,nan,fixed_pitch,18.0,0.0,0.0,-4.2692878354975035,-0.04089682258865716,-1.9910953231428623,-4.210665630323918,-0.02897772201230979,-1.8589929683956292,0.85,0.0,0.0,0.0,0.0,0.0,0.0,-0.07348997894971476,-0.0005057566588424426,-0.03244554806992662,-0.07348997894971476,-0.0005057566588424426,-0.03244554806992662,0.42,1.0,20.93019629975613,0.02500724226989271,2.249833122639637,0.04176990947419372,0.004471340332428674,0.19671619817374633,21.050783633589926,0.20115163644818648,1.0,0.0,34.71497926850675,-0.6256334093882963,1003.2187741028421,91.82469051203613,0.22584386253554845,12.596260260119937,1.0,1005.1314909168485,0.0,1.0,92.12683766495094,4782.450821553057,1.0,1.0,2.685442995980193,15.846056285753908,-0.9211621388586164,-45.29325571384375,1.0,1005.8617804378509,0.0,1.0,0.13022633058364055,10.395005703582148,,,
0.44999999999999996,39.74482064166312,-0.006058929717103333,1006.1025338722978,92.35174517397611,0.06628386889206704,12.604161695737268,93.20790804584439,17.91235394030562,-0.14277491192883587,10.630190973411468,2.9103794426814447,3.1757609742564727,0.43613240065290515,11.877819098397882,2.8559209476431833,-2.8357748682500445,4825.922486078438,0.27706617094522223,93.2079080458444,2.144116791393809,1.1109763553800014,89808.05614517521,281.61033352983003,0.0,0.0,0.0,399.4440789473684,0.21437873867403534,0.85,nominal,14210.352474940062,nan,fixed_pitch,18.0,0.0,0.0,-4.3162412681280875,-0.002714577780131653,-2.189095142640595,-4.27401101300642,-0.011591088804923917,-2.057054272942609,0.85,0.0,0.0,0.0,0.0,0.0,0.0,-0.07459556444346022,-0.00020230266353697706,-0.035902369955066626,-0.07459556444346022,-0.00020230266353697706,-0.035902369955066626,0.44999999999999996,1.0,20.960752395101302,0.18885784241517412,2.326195271872048,0.05278301614714303,0.00752235803413582,0.20963314629101992,21.090281949188505,0.2163069316685331,1.0,0.0,34.71497926850675,-0.6256334093882963,1003.2187741028421,91.82469051203613,0.22584386253554845,12.596260260119937,1.0,1005.1314909168485,0.0,1.0,93.52222508898198,4804.475016880296,1.0,1.0,2.685442995980193,15.846056285753908,-0.9211621388586164,-45.29325571384375,1.0,1005.8617804378509,0.0,1.0,0.13022633058364055,10.395005703582148,,,
0.48,42.53342810679244,-0.0030113026776735093,1006.4774039148577,92.95358217097738,0.10158756798099411,12.495668085329337,93.78976745546036,17.9059225781454,-0.0931242579697271,10.61359680854304,3.2851873525685082,3.9579376378929703,0.5278590520376023,12.280679989881161,2.9504832868043107,-3.1890215871105045,4886.18319657006,0.27879698955902543,93.78976745546036,2.1429795942592307,1.1109354449957436,89803.97202765067,281.6078968745534,0.0,0.0,0.0,399.41052631578947,0.2143607312201358,0.85,nominal,14268.431872776306,nan,fixed_pitch,18.0,0.0,0.0,-4.3510835806898704,0.050157599642430224,-2.3792664477775873,-4.320254553616491,-0.004636435521969567,-2.2503815778435956,0.85,0.0,0.0,0.0,0.0,0.0,0.0,-0.07540266648488565,-8.092106541479083e-05,-0.03927656795959582,-0.07540266648488565,-8.092106541479083e-05,-0.03927656795959582,0.48,1.0,20.822340838326003,0.2654577321564049,2.5026266600938576,0.07137248405283816,0.00740856518543318,0.2154854568476011,20.97387627489952,0.2271186923852786,1.0,0.0,34.71497926850675,-0.6256334093882963,1003.2187741028421,91.82469051203613,0.22584386253554845,12.596260260119937,1.0,1006.3193864015874,0.0,1.0,93.50153557190043,4871.417632049882,1.0,1.0,3.7933875538089965,15.864860906041763,-1.3775794733329447,-45.31069675521796,1.0,1006.4221535213408,0.0,1.0,0.3261282461416732,10.687059008738334,,,
0.51,45.340043690210805,0.001272896804851004,1006.849100049332,93.5538527806121,0.14280664941748378,12.389871149143207,94.37082531655602,17.899491756208796,-0.01781609578350368,10.594451354190092,3.6669867541293866,4.852245518698523,0.6260711377567153,12.509972673681428,3.036881072341471,-3.5475592936976605,4946.733076546122,0.2805254302063408,94.37082531655602,2.14193883331221,1.1108948821249038,89799.92263756812,281.60548084967934,0.0,0.0,0.0,399.3769736842105,0.21434272376623625,0.85,nominal,14326.743062462747,nan,fixed_pitch,18.0,0.0,0.0,-4.387509110019431,0.11927797011947103,-2.558266174229995,-4.360607287458255,0.06971220786289478,-2.435112335675435,0.85,0.0,0.0,0.0,0.0,0.0,0.0,-0.07610695455260538,0.0012167075560421937,-0.04250072791346572,-0.07610695455260538,0.0012167075560421937,-0.04250072791346572,0.51,1.0,20.866436640658613,0.2702004420004052,2.5618412597141016,0.08696167370387409,0.016077723383799612,0.2185404710204357,21.02484760937522,0.23575572815187107,1.0,0.0,34.71497926850675,-0.6256334093882963,1003.2187741028421,91.82469051203613,0.22584386253554845,12.596260260119937,1.0,1006.3193864015874,0.0,1.0,94.30660673096769,4937.853319441915,1.0,1.0,3.7933875538089965,15.864860906041763,-1.3775794733329447,-45.31069675521796,1.0,1006.4221535213408,0.0,1.0,0.3261282461416732,10.687059008738334,,,
0.54,48.16462008402227,0.0069750146619154095,1007.2176990080382,94.15254646038207,0.19007059523548017,12.286631956872222,94.9510371541523,17.89306147449581,0.08901107081632573,10.572740219684846,4.050110167291261,5.906526986201183,0.7315045387192382,12.553131195583813,3.1144061339581075,-3.906154855781855,5007.565869919027,0.28225136071026546,94.9510371541523,2.140984827281705,1.1108546583650531,89795.90713523206,281.60308495644773,0.0,0.0,0.0,399.3434210526316,0.21432471631233674,0.85,nominal,14385.281176301782,nan,fixed_pitch,18.0,0.0,0.0,-4.425504369146355,0.20919915245210896,-2.7227087053606573,-4.399545536471115,0.15340437461642328,-2.607670157486569,0.85,0.0,0.0,0.0,0.0,0.0,0.0,-0.07678655520284122,0.0026774114240193997,-0.045512430054139685,-0.07678655520284122,0.0026774114240193997,-0.045512430054139685,0.54,1.0,20.796771064328862,0.3498601964426734,2.6529825540359067,0.10460940872135528,0.012261268037496328,0.21983821470680723,20.968223703766135,0.2437669127104726,1.0,0.0,34.71497926850675,-0.6256334093882963,1003.2187741028421,91.82469051203613,0.22584386253554845,12.596260260119937,1.0,1006.685119098712,0.0,1.0,94.76452443059523,5028.792210705935,1.0,1.0,3.6166288465076346,15.90084118652736,-1.8000009342068866,-45.20527775408844,1.0,1007.1886972091428,0.0,1.0,-0.11521333083832355,10.6348785392553,,,
0.57,51.00711011913811,0.014277429466955774,1007.5832722479222,94.74966783719486,0.24341382683467883,12.185774662802912,95.53037166096688,17.88663173300644,0.23354582076980906,10.549121596517505,4.428564957646753,7.12996128702708,0.8221938352283629,12.3992653312045,3.1829288172915473,-4.2593348406056375,5068.676607779638,0.2839746880234544,95.53037166096685,2.140113449811183,1.1108147658905883,89791.92473856632,281.6007087303885,0.0,0.0,0.0,399.3098684210526,0.21430670885843717,0.85,nominal,14444.042451631318,nan,fixed_pitch,18.0,0.0,0.0,-4.459097064013075,0.32263228719189285,-2.869210056492949,-4.435276452996291,0.25494112216170506,-2.764594096890397,0.85,0.0,0.0,0.0,0.0,0.0,0.0,-0.0774101773409608,0.004449561980450836,-0.04825126947193655,-0.0774101773409608,0.004449561980450836,-0.04825126947193655,0.57,1.0,20.75644645736442,0.44204791580782066,2.7538768606809474,0.12765134320774332,0.015747671458536918,0.21487252553696864,20.943001543740092,0.25042575109150084,1.0,0.0,34.71497926850675,-0.6256334093882963,1003.2187741028421,91.82469051203613,0.22584386253554845,12.596260260119937,1.0,1006.685119098712,0.0,1.0,95.14760885006685,5097.50123515368,1.0,1.0,3.6166288465076346,15.90084118652736,-1.8000009342068866,-45.20527775408844,1.0,1007.1886972091428,0.0,1.0,-0.11521333083832355,10.6348785392553,,,
0.6,53.867466998117756,0.02336046950177152,1007.9458861573313,95.3452292993215,0.3027680011605248,12.087130313637832,96.10880884612807,17.880202531740686,0.4224149855042044,10.524643984407637,4.79609331697898,8.53597170088831,0.8848549673932453,12.039564099653722,3.2426085628825163,-4.601455247300748,5130.061453278112,0.28569535272594326,96.10880884612807,2.1393207543566706,1.1107751974300721,89787.97472084875,281.5983517399773,0.0,0.0,0.0,399.2763157894737,0.21428870140453765,0.85,nominal,14503.024093395585,nan,fixed_pitch,18.0,0.0,0.0,-4.484447981591413,0.4626271861504846,-2.9944348180170923,-4.464779370153365,0.3795527605549727,-2.902498529566414,0.85,0.0,0.0,0.0,0.0,0.0,0.0,-0.07792510038429486,0.006624445356717934,-0.05065815587522791,-0.07792510038429486,0.006624445356717934,-0.05065815587522791,0.6,1.0,20.845045116244165,0.5328741937165348,2.832090964782626,0.1443980159743371,0.015619701249714825,0.21211437574251987,21.04330297356827,0.2570744454065673,1.0,0.0,34.71497926850675,-0.6256334093882963,1003.2187741028421,91.82469051203613,0.22584386253554845,12.596260260119937,1.0,1007.891179308589,0.0,1.0,95.91133651617335,5281.558129150505,1.0,1.0,5.820336001146781,15.907863874283448,-2.327994195893394,-45.22202359610575,1.0,1007.7420313812811,0.0,1.0,-0.07011101914524732,10.490763259756704,,,
0.63,56.74564450146615,0.03439913092738823,1008.3056027721321,95.93925011161318,0.3679553808538904,11.990553826695626,96.68634073234881,17.87377387069855,0.662733738623846,10.500269670555685,5.14624226241851,10.1401363001572,0.9211143192310148,11.467592512287112,3.2934423318468333,-4.9267756670550815,5191.717812655791,0.2874133311001739,96.68634073234881,2.138598050222709,1.1107359461879993,89784.0564028987,281.59601358198114,0.0,0.0,0.0,399.24276315789473,0.2142706939506381,0.85,nominal,14562.224381531256,nan,fixed_pitch,18.0,0.0,0.0,-4.501736616730433,0.6324880637177586,-3.0951522713879145,-4.486953718099605,0.5313139424526443,-3.0180907746593144,0.85,0.0,0.0,0.0,0.0,0.0,0.0,-0.0783121157654396,0.009273177657550319,-0.05267562114187128,-0.0783121157654396,0.009273177657550319,-0.05267562114187128,0.63,1.0,20.69919532953881,0.6727404861669499,2.8881501983407833,0.17663928759618192,0.016671263564199523,0.1982561144489554,20.910539893085147,0.26605423482386253,1.0,0.0,54.57030723859115,-2.1952371130874875,1009.6971998766467,95.84529089531016,0.35337679203655054,11.93164762035205,1.0,1007.891179308589,0.0,1.0,97.12739868261095,5233.942418466808,1.0,1.0,5.820336001146781,15.907863874283448,-2.327994195893394,-45.22202359610575,1.0,1007.7420313812811,0.0,1.0,-0.07011101914524732,10.490763259756704,,,
0.6599999999999999,59.641597394109404,0.047559645889901955,1008.6624801583725,96.53176308810835,0.4386838320837909,11.895912874681686,97.2629758516838,17.86734574988003,0.9621355243786951,10.476699314257617,5.472442213390266,11.95946232535851,0.9372033926248137,10.679519693713408,3.3351464607525974,-5.229536520337148,5253.644859280098,0.2891286484968815,97.26297585168379,2.137931142574794,1.1106970058029644,89780.16914889865,281.59369387897056,0.0,0.0,0.0,399.20921052631576,0.21425268649673854,0.85,nominal,14621.643146807717,nan,fixed_pitch,18.0,0.0,0.0,-4.512750350386353,0.8357504097906154,-3.1682922655485535,-4.502431697471654,0.7139758228554269,-3.1082116691928574,0.85,0.0,0.0,0.0,0.0,0.0,0.0,-0.07858225746703762,0.012461228888462982,-0.054248527476324165,-0.07858225746703762,0.012461228888462982,-0.054248527476324165,0.6599999999999999,1.0,20.77978280688404,0.7344785872760815,3.023574176603207,0.20848039816893782,0.01551391453506174,0.18558257112337642,21.011445288172407,0.2795454322102994,1.0,0.0,54.57030723859115,-2.1952371130874875,1009.6971998766467,95.84529089531016,0.35337679203655054,11.93164762035205,1.0,1008.6027496003361,0.0,1.0,97.10678215878431,5235.429264852678,1.0,1.0,3.1633109129736066,15.872952453837243,-3.086873873138594,-45.1310876832058,1.0,1008.8969012512199,0.0,1.0,0.7815632272161218,10.37381721364819,,,
0.69,62.55528207528022,0.06299595183463423,1009.0165723026041,97.12282270569386,0.5145435314910758,11.803071474385835,97.8387445830991,17.860918169285128,1.3287968120832876,10.454472973066123,5.768090099681142,14.012207493507052,0.9344673876391059,9.67432311666097,3.3673332226490804,-5.5040398532267245,5315.844166365681,0.29084139520210833,97.83874458309909,2.137302410799799,1.1106583703595594,89776.31236757964,281.59139228003306,0.0,0.0,0.0,399.17565789473684,0.21423467904283902,0.85,nominal,14681.282339569785,nan,fixed_pitch,18.0,0.0,0.0,-4.5185242917817385,1.0761810304034582,-3.2109922053083935,-4.512087254057705,0.9312989473842458,-3.1698799908621793,0.85,0.0,0.0,0.0,0.0,0.0,0.0,-0.07875077872057683,0.01625423295221252,-0.05532484273363279,-0.07875077872057683,0.01625423295221252,-0.05532484273363279,0.69,1.0,20.730144854068307,0.7338275382505723,3.0424814132481077,0.2427215778638908,0.01547804002276271,0.17460396403235728,20.96506860653,0.2993991956226599,1.0,0.0,54.57030723859115,-2.1952371130874875,1009.6971998766467,95.84529089531016,0.35337679203655054,11.93164762035205,1.0,1008.6027496003361,0.0,1.0,97.87714793209072,5374.698066386011,1.0,1.0,3.1633109129736066,15.872952453837243,-3.086873873138594,-45.1310876832058,1.0,1008.8969012512199,0.0,1.0,0.7815632272161218,10.37381721364819,,,
0.72,65.48665737362816,0.08084610601658158,1009.3679288171082,97.71250994493157,0.5950051393982453,11.711883816804464,98.41370256926922,17.854491128913843,1.7714631138461367,10.434104098627687,6.026634761598441,16.31793905567747,0.9079946029779246,8.453988980845201,3.38972919039712,-5.74473507383686,5378.320149942925,0.29255173659411643,98.41370256926922,2.1366927838969483,1.1106200344204578,89772.48551542185,281.5891084626888,0.0,0.0,0.0,399.1421052631579,0.21421667158893948,0.85,nominal,14741.146425830588,nan,fixed_pitch,18.0,0.0,0.0,-4.518991509399076,1.3577892594509284,-3.2206390316508013,-4.516229807262528,1.1871931346242555,-3.2003354153353527,0.85,0.0,0.0,0.0,0.0,0.0,0.0,-0.07882307991344002,0.02072042905626555,-0.05585639016578213,-0.07882307991344002,0.02072042905626555,-0.05585639016578213,0.72,1.0,20.767478299329383,0.9186091424788064,3.0982390311518384,0.28496696640725827,0.014690531451755712,0.1507483182322739,21.01739952429689,0.32271820386763034,1.0,0.0,54.57030723859115,-2.1952371130874875,1009.6971998766467,95.84529089531016,0.35337679203655054,11.93164762035205,1.0,1009.7767208709466,0.0,1.0,98.35303003374452,5305.697981508373,1.0,1.0,7.54091608326613,15.918945116125563,-3.9203630304612744,-45.10642556181377,1.0,1009.3097436161095,0.0,1.0,1.914731609697661,10.335917246719031,,,
0.75,68.43568537612984,0.10122868426077758,1009.7165947511606,98.30093341672256,0.6794192748065333,11.622197801745338,98.98793160225541,17.848064628766174,2.299480352989794,10.416104112102337,6.241665205738561,18.8977228390486,0.8500122617275205,7.023694465345845,3.402292842968545,-5.946310120744761,5441.0802462257625,0.29425991577662347,98.98793160225541,2.1360823785437866,1.1105819930469365,89768.68809870083,281.58684213411743,0.0,0.0,0.0,399.10855263157896,0.21419866413503993,0.85,nominal,14801.242545362868,nan,fixed_pitch,18.0,0.0,0.0,-4.513881106776975,1.684846855452525,-3.1949139041172385,-4.514820586971196,1.4857853671212173,-3.197082508604484,0.85,0.0,0.0,0.0,0.0,0.0,0.0,-0.07879848437947037,0.025931846634217944,-0.055799616233068186,-0.07879848437947037,0.025931846634217944,-0.055799616233068186,0.75,1.0,20.716625933656616,0.8206912439119431,3.1506868096092755,0.3306454174789188,0.012794503388107186,0.12162561155268743,20.970907266142145,0.35253777216395127,1.0,0.0,54.57030723859115,-2.1952371130874875,1009.6971998766467,95.84529089531016,0.35337679203655054,11.93164762035205,1.0,1009.7767208709466,0.0,1.0,99.21195853786725,5365.691879551697,1.0,1.0,7.54091608326613,15.918945116125563,-3.9203630304612744,-45.10642556181377,1.0,1009.3097436161095,0.0,1.0,1.914731609697661,10.335917246719031,,,
0.78,71.40233222829002,0.12423920509640633,1010.0626105766707,98.88822840533936,0.767017361187625,11.53386085033588,99.56153865270385,17.841638668842123,2.9228347958889587,10.400920894948305,6.4070021195512625,21.77440592221303,0.7525405644276025,5.391947359297608,3.405257842018535,-6.103787356155593,5504.134886703399,0.29596625069389276,99.56153865270385,2.1354505574729714,1.1105442418003653,89764.91967363385,281.58459303125164,0.0,0.0,0.0,399.075,0.2141806566811404,0.85,nominal,14861.580489458629,nan,fixed_pitch,18.0,0.0,0.0,-4.503470077752038,2.0619162500597223,-3.1318393270453755,-4.5080102814397005,1.8314638968843204,-3.157936599669019,0.85,0.0,0.0,0.0,0.0,0.0,0.0,-0.078679622124879,0.03196507513203731,-0.055116391233458455,-0.078679622124879,0.03196507513203731,-0.055116391233458455,0.78,1.0,20.693801524135782,0.9657016558838944,3.1706530977399616,0.38432097120692577,0.014559431271687889,0.09440343684577943,20.95755334657911,0.3960133770931037,1.0,0.0,54.57030723859115,-2.1952371130874875,1009.6971998766467,95.84529089531016,0.35337679203655054,11.93164762035205,1.0,1010.7251936229941,0.0,1.0,100.02547884640029,5615.77793875544,1.0,1.0,7.111302023005384,15.879040101004462,-4.981868910669166,-45.0174384956609,1.0,1010.0467232409362,0.0,1.0,2.5225822498385115,9.789560706136397,,,
0.8099999999999999,74.38656887169648,0.14994662372489181,1010.4060122897564,99.47455478021558,0.8569139542828492,11.446723769520931,100.13465351866391,17.835213249141688,3.6522042266022403,10.388870529152413,6.516790610911577,24.972980515643492,0.6074528608313758,3.570671908523953,3.399181608518644,-6.212623345825415,5567.497315769659,0.29767112714265115,100.13465351866392,2.1347764908459506,1.1105067767310468,89761.17984526366,281.58236092011657,0.0,0.0,0.0,399.0414473684211,0.21416264922724088,0.85,nominal,14922.172538072775,nan,fixed_pitch,18.0,0.0,0.0,-4.488677865629015,2.4938871971662677,-3.0298213668770657,-4.496410831953289,2.2289178770534885,-3.0810674599938475,0.85,0.0,0.0,0.0,0.0,0.0,0.0,-0.07847717353992235,0.03890195571114554,-0.0537747716529513,-0.07847717353992235,0.03890195571114554,-0.0537747716529513,0.8099999999999999,1.0,20.657107204217528,1.0106686248677745,3.1512570202568964,0.4380979283283497,0.008620659368318215,0.06486983729547748,20.920515049193845,0.4429584702478079,1.0,0.0,54.57030723859115,-2.1952371130874875,1009.6971998766467,95.84529089531016,0.35337679203655054,11.93164762035205,1.0,1010.7251936229941,0.0,1.0,100.48203402713303,5577.768336740265,1.0,1.0,7.111302023005384,15.879040101004462,-4.981868910669166,-45.0174384956609,1.0,1010.0467232409362,0.0,1.0,2.5225822498385115,9.789560706136397,,,
0.84,77.38837167363461,0.17838993724664115,1010.7468315981437,100.06009339793758,0.9481104507249781,11.360643612907984,100.70742488779202,17.82878836966487,4.499022816454358,10.380099049806704,6.565590725149001,28.52102827315367,0.40537305331662155,1.5752433844599596,3.385032471213111,-6.268812492981651,5631.183221845665,0.2993749870675607,100.70742488779202,2.1340404128174986,1.1104695943577083,89757.46826540909,281.580145594612,0.0,0.0,0.0,399.0078947368421,0.2141446417733413,0.85,nominal,14983.03312985707,nan,fixed_pitch,18.0,0.0,0.0,-4.470837780881351,2.98602230217923,-2.8876817425290287,-4.481067001310127,2.6831805321289335,-2.965036029514956,0.85,0.0,0.0,0.0,0.0,0.0,0.0,-0.07820937317533076,0.04683033471106338,-0.05174964115529575,-0.07820937317533076,0.04683033471106338,-0.05174964115529575,0.84,1.0,20.710006244814245,1.084855623648417,3.247599122974347,0.5017276265538829,0.007237431477705356,0.026454313015147467,20.991145048518682,0.5024766883536892,1.0,0.0,76.39500216031857,-2.091324821185589,1010.9783208010379,100.34907358565516,0.6807090226968631,11.558392447651153,1.0,1011.248982386144,0.0,1.0,100.91546798803537,5667.734727640548,1.0,1.0,7.193739213177961,15.943092067528303,-6.254080683617436,-44.77289167516437,1.0,1010.520496376462,0.0,1.0,4.8925353280720065,10.566553863081696,,,
0.87,80.40772287981399,0.20957493138601985,1011.0850962399815,100.64504020597937,1.0394998046459565,11.275488061258027,101.28001436081372,17.82236403041167,5.475562166767789,10.374559919511794,6.548463143507892,32.44925256078147,0.13512260515635682,-0.5755268243662743,3.3642960658610175,-6.268995252099329,5695.210124236831,0.30107831079623687,101.28001436081374,2.133225044793173,1.1104326916326497,89753.7846291841,281.5779468744401,0.0,0.0,0.0,398.9743421052632,0.2141266343194418,0.85,nominal,15044.17831350513,nan,fixed_pitch,18.0,0.0,0.0,-4.451578715804627,3.5440123422244074,-2.7046809692303855,-4.463374030006827,3.199679618186218,-2.8088229933442137,0.85,0.0,0.0,0.0,0.0,0.0,0.0,-0.07790057257162732,0.055844944346304534,-0.0490232093395793,-0.07790057257162732,0.055844944346304534,-0.0490232093395793,0.87,1.0,20.58691890090941,1.0885794117716923,3.1847223144527455,0.5679309266749751,0.005916621471539143,-0.009763318317216028,20.86021790846221,0.5680456550912935,1.0,0.0,76.39500216031857,-2.091324821185589,1010.9783208010379,100.34907358565516,0.6807090226968631,11.558392447651153,1.0,1011.248982386144,0.0,1.0,101.15162381761236,5690.299276962788,1.0,1.0,7.193739213177961,15.943092067528303,-6.254080683617436,-44.77289167516437,1.0,1010.520496376462,0.0,1.0,4.8925353280720065,10.566553863081696,,,
0.8999999999999999,83.44461081149707,0.24347108293283454,1011.4208305090773,101.22959772276948,1.129871718227156,11.191142303195818,101.8525882403769,17.815940231382086,6.5950312094125545,10.371982996967873,6.4610488423659875,36.79211095399117,-0.21594268758955038,-2.859463637181865,3.339072081214088,-6.210571826651212,5759.59648463882,0.3027815926316716,101.85258824037692,2.1323167065285515,1.110396065884383,89750.1286692702,281.575764601691,0.0,0.0,0.0,398.9407894736842,0.21410862686554225,0.85,nominal,15105.624953143724,nan,fixed_pitch,18.0,0.0,0.0,-4.43291353803946,4.1740426610356725,-2.480535710748616,-4.4450977348264065,3.7842974438958907,-2.6118506237868555,0.85,0.0,0.0,0.0,0.0,0.0,0.0,-0.0775815910456626,0.06604845027078868,-0.04558539295534835,-0.0775815910456626,0.06604845027078868,-0.04558539295534835,0.8999999999999999,1.0,20.583678548733193,0.9756883924523005,3.213674945557691,0.6435527814023018,0.00013448262413714822,-0.04726390525468038,20.855874402490308,0.6452860429887961,1.0,0.0,76.39500216031857,-2.091324821185589,1010.9783208010379,100.34907358565516,0.6807090226968631,11.558392447651153,1.0,1010.8678700203512,0.0,1.0,102.72862999348382,5827.719773450295,1.0,1.0,7.847338002651339,15.969957663046696,-7.867786035774739,-44.49801456757204,1.0,1011.6044146444347,0.0,1.0,5.8353339596837985,10.123508911192454,,,
0.9299999999999999,86.49902973506077,0.280008613852092,1011.7540560395184,101.81396411879008,1.2179176973085823,11.107517681370283,102.42530723479254,17.80951697257612,7.871698054965894,10.371828743472712,6.299641526952046,41.58856203853229,-0.6613010060755801,-5.251173133263167,3.3121509863696565,-6.09182212906203,5824.360550464502,0.3044853102465273,102.42530723479256,2.1313060735891782,1.1103597147319897,89746.50014736623,281.5735986357431,0.0,0.0,0.0,398.90723684210525,0.21409061941164267,0.85,nominal,15167.389694730766,nan,fixed_pitch,18.0,0.0,0.0,-4.4173879140111305,4.882872395160328,-2.2154299335493706,-4.428471842337241,4.443442414654553,-2.3739982096443644,0.85,0.0,0.0,0.0,0.0,0.0,0.0,-0.07729141448064407,0.07755270025848908,-0.04143408519474476,-0.07729141448064407,0.07755270025848908,-0.04143408519474476,0.9299999999999999,1.0,20.616131373603537,1.1258734887824724,3.2277801491878626,0.7253474462092491,-0.008960848590119471,-0.09444621362745412,20.897632129452237,0.7315253254661094,1.0,0.0,76.39500216031857,-2.091324821185589,1010.9783208010379,100.34907358565516,0.6807090226968631,11.558392447651153,1.0,1010.8678700203512,0.0,1.0,102.08384129131387,5909.251251244582,1.0,1.0,7.847338002651339,15.969957663046696,-7.867786035774739,-44.49801456757204,1.0,1011.6044146444347,0.0,1.0,5.8353339596837985,10.123508911192454,,,
0.96,89.5709793446147,0.3190756712071935,1012.0847928692702,102.39832031846399,1.3022352451700485,11.024560991727412,102.99831438298801,17.80309425399377,9.321037474785712,10.373236066275652,6.061250531705571,46.88294185569021,-1.21483083700094,-7.722274791198418,3.2870750213410598,-5.9120328370377,5889.518955793056,0.3061898887898843,102.99831438298803,2.130188838029379,1.1103236359690563,89742.8988426017,281.5714488463497,0.0,0.0,0.0,398.8736842105263,0.21407261195774313,0.85,nominal,15229.487716859847,nan,fixed_pitch,18.0,0.0,0.0,-4.408162735784214,5.677928815874667,-1.9100159026590622,-4.416286378405425,5.184134255386621,-2.095608825453183,0.85,0.0,0.0,0.0,0.0,0.0,0.0,-0.07707873801415087,0.09048021162192113,-0.036575273838009195,-0.07707873801415087,0.09048021162192113,-0.036575273838009195,0.96,1.0,20.549635793248807,1.1318868541482043,3.258291274654983,0.8178699178646587,-0.01695766303393537,-0.13964969642671524,20.837110191105168,0.8298799928878812,1.0,0.0,76.39500216031857,-2.091324821185589,1010.9783208010379,100.34907358565516,0.6807090226968631,11.558392447651153,1.0,1012.2886109560086,0.0,1.0,103.20718705475582,5856.73955937082,1.0,1.0,4.918158585825012,16.042239327359994,-9.863131413852438,-44.10912562626158,1.0,1012.2218776779421,0.0,1.0,9.801874855309372,10.506248934631406,,,
0.99,92.66046380945113,0.36051557847229754,1012.4130607812949,102.9828154945479,1.3813302421701346,10.942263734156436,103.57172150760972,17.796672075635037,10.95990840069393,10.374971960477499,5.743650975232964,52.72598765442342,-1.8905828179972852,-10.241734404454778,3.268187239604294,-5.67163274037621,5955.085107267345,0.30789566061881035,103.57172150760972,2.1289666013453785,1.1102878274173573,89739.32453693126,281.56931510492154,0.0,0.0,0.0,398.84013157894736,0.21405460450384362,0.85,nominal,15291.931290535818,nan,fixed_pitch,18.0,0.0,0.0,-4.40902755686396,6.56741948342326,-1.5654012590041777,-4.411931085480546,6.014105392208605,-1.7774842855837798,0.85,0.0,0.0,0.0,0.0,0.0,0.0,-0.07700272381272293,0.10496594065598508,-0.031022953185896138,-0.07700272381272293,0.10496594065598508,-0.031022953185896138,0.99,1.0,20.583813699991584,1.210888791913413,3.324602443644031,0.9194122001486768,-0.033533822815812554,-0.17809432479234533,20.88570371116632,0.9371023954606637,1.0,0.0,76.39500216031857,-2.091324821185589,1010.9783208010379,100.34907358565516,0.6807090226968631,11.558392447651153,1.0,1012.2886109560086,0.0,1.0,103.12268822096064,5979.258399189483,1.0,1.0,4.918158585825012,16.042239327359994,-9.863131413852438,-44.10912562626158,1.0,1012.2218776779421,0.0,1.0,9.801874855309372,10.506248934631406,,,
1.02,95.76749034833851,0.4041240667058194,1012.738880904173,103.56755129624611,1.4536162744507284,10.860670762601737,104.14559448765726,17.79025043749992,12.806766576161014,10.375384226946005,5.3454178525336005,59.176029918331636,-2.702555927918472,-12.776312746486374,3.260665537137871,-5.372338034176116,6021.067381921515,0.3096028215208485,104.14559448765728,2.1276483972179263,1.1102522867522528,89735.77699770618,281.56719727412286,0.0,0.0,0.0,398.8065789473684,0.21403659704994404,0.85,nominal,15354.728172012681,nan,fixed_pitch,18.0,0.0,0.0,-4.42440168821664,7.560465260768167,-1.1831205041991864,-4.419413447122202,6.941921313344342,-1.4208660167530238,0.85,0.0,0.0,0.0,0.0,0.0,0.0,-0.07713331565919475,0.12115938333222774,-0.024798790222037174,-0.07713331565919475,0.12115938333222774,-0.024798790222037174,1.02,1.0,20.541225649711755,1.0018288098011512,3.3144870305538796,1.0326252401487903,-0.05020335927500276,-0.22333528617674553,20.831021012716434,1.057692731338592,1.0,0.0,76.39500216031857,-2.091324821185589,1010.9783208010379,100.34907358565516,0.6807090226968631,11.558392447651153,1.0,1012.5162365528515,0.0,1.0,104.13598311020651,6063.77938779296,1.0,1.0,5.064443695607615,15.981645349938884,-12.18859247870043,-43.61308453044854,1.0,1012.6220483446978,0.0,1.0,12.49101943099443,10.436193744187966,,,
1.05,98.89206730487813,0.4496463490154412,1013.0622775240524,104.15256521798693,1.517409410320726,10.779887329314379,104.71993766059195,17.783829339588422,14.881918379216556,10.372354879020222,4.865940763902324,66.30037741537161,-3.6644020618003026,-15.291150083633584,3.2705353973190037,-5.017309619897354,6087.467167496159,0.31131138434861516,104.71993766059194,2.1262534580246553,1.1102170113050591,89732.2559579485,281.56509519609364,0.0,0.0,0.0,398.7730263157895,0.21401858959604453,0.85,nominal,15417.879855700381,nan,fixed_pitch,18.0,0.0,0.0,-4.459354830079997,8.667257771151695,-0.7650895511555487,-4.44337827689688,7.977123188028753,-1.0274001373945387,0.85,0.0,0.0,0.0,0.0,0.0,0.0,-0.07755158084344284,0.13922706446828845,-0.017931515132976816,-0.07755158084344284,0.13922706446828845,-0.017931515132976816,1.05,1.0,20.520309730423353,0.9917993322972085,3.3621187905632923,1.1573579430942698,-0.06513829751280237,-0.26748637486126303,20.817555574800593,1.1896509433370301,1.0,0.0,97.57197616856047,1.4482497682982642,1013.1653753963162,103.93899282528785,1.420392137323963,10.783375744376466,1.0,1012.5162365528515,0.0,1.0,104.63912075573826,6110.338879148398,1.0,1.0,5.064443695607615,15.981645349938884,-12.18859247870043,-43.61308453044854,1.0,1012.6220483446978,0.0,1.0,12.49101943099443,10.436193744187966,,,
1.08,102.03420171255601,0.4967738504048131,1013.3832800062187,104.73781358926304,1.5709167129790633,10.70008273887528,105.2946776688979,17.77740878190054,17.207822985402554,10.363252697831681,4.305415269151072,74.17692437671626,-4.789161314527939,-17.750511640746808,3.3046566820978223,-4.61132488696149,6154.276777988514,0.3130211310025017,105.29467766889792,2.124816154983591,1.110181997853496,89728.7610954357,281.5630086799596,0.0,0.0,0.0,398.7394736842105,0.21400058214214498,0.85,nominal,15481.379715571537,nan,fixed_pitch,18.0,0.0,0.0,-4.519641043783101,9.899245721867528,-0.3135397603734808,-4.489135937028612,9.130396708332018,-0.599083911181904,0.85,0.0,0.0,0.0,0.0,0.0,0.0,-0.07835020267075012,0.1593554845736461,-0.010455986745849497,-0.07835020267075012,0.1593554845736461,-0.010455986745849497,1.08,1.0,20.60314002678807,0.9760126475984496,3.417807076717795,1.2946738910947755,-0.07802916146903772,-0.3080542446682919,20.90749590135966,1.3331040664480023,1.0,0.0,97.57197616856047,1.4482497682982642,1013.1653753963162,103.93899282528785,1.420392137323963,10.783375744376466,1.0,1013.9335402177959,0.0,1.0,105.28443015600095,6125.690695577995,1.0,1.0,4.473368594296221,16.12788631850694,-15.12283197131869,-42.693142392506466,1.0,1013.2951121824638,0.0,1.0,17.063418934272093,10.675046752737574,,,
1.1099999999999999,105.19389635231904,0.5451403493294399,1013.7019246457363,105.32315465876778,1.6122166308208945,10.621487983921567,105.8696470039076,17.770988764436275,19.809451491554814,10.344884730523598,3.664805244124002,82.89601439177709,-6.08918924798286,-20.118722250949517,3.3706821242179235,-4.160967021454218,6221.477271642183,0.314731563512382,105.86964700390762,2.1233943338425747,1.1101472424198928,89725.29201256082,281.5609374898027,0.0,0.0,0.0,398.7059210526316,0.21398257468824547,0.85,nominal,15545.211057693112,nan,fixed_pitch,18.0,0.0,0.0,-4.611735058966915,11.269355532297961,0.16907519754012762,-4.562695410191594,10.413772002711584,-0.13818844594868504,0.85,0.0,0.0,0.0,0.0,0.0,0.0,-0.07963405767347656,0.181754608999321,-0.002411843370018773,-0.07963405767347656,0.181754608999321,-0.002411843370018773,1.1099999999999999,1.0,20.60652620160427,0.8995898768062526,3.4812482241168037,1.44609180928281,-0.10885304881627812,-0.3520943371470043,20.917869710890066,1.4923139513394688,1.0,0.0,97.57197616856047,1.4482497682982642,1013.1653753963162,103.93899282528785,1.420392137323963,10.783375744376466,1.0,1013.9335402177959,0.0,1.0,106.19700733288823,6236.1800761632485,1.0,1.0,4.473368594296221,16.12788631850694,-15.12283197131869,-42.693142392506466,1.0,1013.2951121824638,0.0,1.0,17.063418934272093,10.675046752737574,,,
1.14,108.37114631684685,0.594317230430326,1014.0182561589422,105.90833215092674,1.6392293700295382,10.544383773529294,106.44456736293336,17.764569287195627,22.71471334546624,10.313445573651848,2.945768277508723,92.56260260358135,-7.5764252785591015,-22.361320008709335,3.4769856765940212,-3.6748357109495986,6289.036184052352,0.31644185456224244,106.44456736293334,2.122082457756449,1.1101127401085995,89721.84822010652,281.5588813349668,0.0,0.0,0.0,398.6723684210526,0.2139645672343459,0.85,nominal,15609.34509230212,nan,fixed_pitch,18.0,0.0,0.0,-4.742879499168287,12.792252760765585,0.6802092344204312,-4.670805863577611,11.840860457543984,0.35285016227278476,0.85,0.0,0.0,0.0,0.0,0.0,0.0,-0.08152094104088639,0.20666200125334477,0.006158397097856372,-0.08152094104088639,0.20666200125334477,0.006158397097856372,1.14,1.0,20.522325479806067,0.8671879393693155,3.6653058750923053,1.6143802907339877,-0.1330557794446066,-0.3883119364788182,20.86509825472363,1.6657471967756379,1.0,0.0,97.57197616856047,1.4482497682982642,1013.1653753963162,103.93899282528785,1.420392137323963,10.783375744376466,1.0,1013.634985740639,0.0,1.0,105.73936917170177,6448.8140308361435,1.0,1.0,0.49113399047650386,16.155940565193255,-18.591972996631874,-41.18262957302544,1.0,1014.0010938264813,0.0,1.0,22.116432146388057,10.61294836964051,,,
1.17,111.56593510262272,0.643807497111437,1014.3323283813208,106.49295952586236,1.6496755560370346,10.469074079287282,107.01903274695931,17.758150350178596,25.95496241403893,10.264460229933425,2.150532810393721,103.29876642908184,-9.263180556759215,-24.44645889106561,3.632558364472594,-3.1637842024442033,6356.905167805965,0.3181507972398321,107.01903274695933,2.121031011124226,1.1100784850299747,89718.42912966126,281.5568398655214,0.0,0.0,0.0,398.6388157894737,0.21394655978044638,0.85,nominal,15673.738813168055,nan,fixed_pitch,18.0,0.0,0.0,-4.9211708392348275,14.32394487827058,1.2174041319413123,-4.82102484897194,13.330711109979942,0.8715825440739013,0.85,0.0,0.0,0.0,0.0,0.0,0.0,-0.08414275693502273,0.23266480050133792,0.015211985096998169,-0.08414275693502273,0.23266480050133792,0.015211985096998169,1.17,1.0,20.477277533622292,0.7332866895177175,3.8820562433145644,1.8045624993250013,-0.16471512988851125,-0.42461841933004396,20.85490266662191,1.861149561432028,1.0,0.0,97.57197616856047,1.4482497682982642,1013.1653753963162,103.93899282528785,1.420392137323963,10.783375744376466,1.0,1013.634985740639,0.0,1.0,107.25138695876427,6379.491382472531,1.0,1.0,0.49113399047650386,16.155940565193255,-18.591972996631874,-41.18262957302544,1.0,1014.0010938264813,0.0,1.0,22.116432146388057,10.61294836964051,,,
1.2,114.77823025253035,0.6930381611031371,1014.6442035388318,107.0765049969213,1.6410221330566697,10.395838583699344,107.59249200504293,17.751731953385182,29.563146359967874,10.192730137573912,1.2817082297008524,115.16483486013114,-11.163739765328286,-26.34658670563697,3.8469995241131505,-2.641031794958854,6425.017504168198,0.31985675313531126,107.59249200504293,2.1204745140026264,1.1100444703799606,89715.0340615651,281.5548126769976,0.0,0.0,0.0,398.60526315789474,0.21392855232654684,0.85,nominal,15738.332746561697,nan,fixed_pitch,18.0,0.0,0.0,-5.155563624882625,14.32394487827058,1.7785480920399126,-5.021748114518351,13.926651370954325,1.415761872853508,0.85,0.0,0.0,0.0,0.0,0.0,0.0,-0.08764603880416248,0.24306592020053516,0.02470970610549504,-0.08764603880416248,0.24306592020053516,0.02470970610549504,1.2,1.0,20.382272368094792,0.6970941234432587,4.102995546685171,2.008912504775671,-0.19611374123187011,-0.4589700172210705,20.80282527831876,2.0699863593878898,1.0,0.0,97.57197616856047,1.4482497682982642,1013.1653753963162,103.93899282528785,1.420392137323963,10.783375744376466,1.0,1014.2334250290437,0.0,1.0,107.16202996390318,6416.688714747729,1.0,1.0,2.38486590174326,16.269686664147812,-22.738079237388135,-39.045391285668664,1.0,1014.9394767473256,0.0,1.0,29.965146517033137,10.475495283323985,,,
1.23,118.00797851594379,0.7413506731248976,1014.9539493605347,107.65827544711486,1.6104170673920155,10.324860723429119,108.1642291348485,17.745314096815385,33.54941980305994,10.092429998673774,0.34199370740050994,127.40680539956782,-13.295495601453764,-28.040574191323987,4.131330290267094,-2.12070949242778,6493.285284254018,0.321557593760101,108.1642291348485,2.120779364362446,1.1100106887550838,89711.6622763532,281.5527993291565,0.0,0.0,0.0,398.57171052631577,0.21391054487264727,0.85,nominal,15803.048379664491,nan,fixed_pitch,18.0,0.0,0.0,-5.454559965839295,14.32394487827058,2.3622680356926886,-5.2814352253109185,14.165027475344079,1.9836655705570165,0.85,0.0,0.0,0.0,0.0,0.0,0.0,-0.09217843391248408,0.24722636808021406,0.034621495464671824,-0.09217843391248408,0.24722636808021406,0.034621495464671824,1.23,1.0,20.28990040878014,0.5740130632043314,4.531555940399694,2.223340961773293,-0.2325636403023156,-0.48893272883757,20.797705374293518,2.28831512087348,1.0,0.0,97.57197616856047,1.4482497682982642,1013.1653753963162,103.93899282528785,1.420392137323963,10.783375744376466,1.0,1014.2334250290437,0.0,1.0,107.70065030042417,6492.171098671213,1.0,1.0,2.38486590174326,16.269686664147812,-22.738079237388135,-39.045391285668664,1.0,1014.9394767473256,0.0,1.0,29.965146517033137,10.475495283323985,,,
1.26,121.25510008940317,0.7879896009245072,1015.261634373816,108.23738578197924,1.5546309266536562,10.256167109378142,108.73333215721203,17.738896780469204,37.91463935581953,9.956865238329552,-0.6660135211315396,139.7205790105336,-15.665572971224476,-29.518203038833626,4.495990193790833,-1.6184773054399773,6561.595145182985,0.323250607989516,108.73333215721203,2.122480397956266,1.1099771326656094,89708.31302597557,281.5507993765702,0.0,0.0,0.0,398.5381578947368,0.21389253741874772,0.85,nominal,15867.784267737283,nan,fixed_pitch,18.0,0.0,0.0,-5.829173957856559,14.32394487827058,2.96774495496074,-5.610078464838303,14.26037791709998,2.5741132011992507,0.85,0.0,0.0,0.0,0.0,0.0,0.0,-0.09791434050665732,0.24889054723208562,0.04492675067997817,-0.09791434050665732,0.24889054723208562,0.04492675067997817,1.26,1.0,20.25878584980882,0.5097687265671819,4.893717326733486,2.4379783140176188,-0.27378118163263826,-0.516769531362751,20.847703411574415,2.5071388361200166,1.0,0.0,120.15221666650325,0.40050252652776164,1015.0065513335528,108.29988586832256,1.7412053440136117,10.138988316467247,1.0,1015.9978021846177,0.0,1.0,109.28922287583337,6553.346655586081,1.0,1.0,-1.8811915044410228,16.46577878318533,-27.41097281248478,-35.75141183939284,1.0,1014.8433647991685,0.0,1.0,37.48495003350531,10.470306843549915,,,
1.29,124.51948247444605,0.8320899218015197,1015.5673185666018,108.81274616809604,1.4700106959004196,10.189473092857126,109.29867346861361,17.73248000434664,42.65596110319076,9.77836560562142,-1.7401939514285862,151.98785481813854,-18.285727757845148,-30.78232993488333,4.950038321021872,-1.151554915281308,6629.805297431502,0.32493244360815465,109.29867346861361,2.1263224049166274,1.109943795553881,89704.98565543696,281.5488124293171,0.0,0.0,0.0,398.5046052631579,0.2138745299648482,0.85,nominal,15932.413255620475,nan,fixed_pitch,18.0,0.0,0.0,-6.291857335842307,14.32394487827058,3.59536260705877,-6.019145787440705,14.29851809380234,3.186862844714962,0.85,0.0,0.0,0.0,0.0,0.0,0.0,-0.10505391214838705,0.24955621889283425,0.05562124944974886,-0.10505391214838705,0.24955621889283425,0.05562124944974886,1.29,1.0,20.111565585336777,0.4136347363413398,5.44605483745331,2.649755281178063,-0.32312533769628926,-0.5349662994471106,20.840001854149616,2.722462483770256,1.0,0.0,120.15221666650325,0.40050252652776164,1015.0065513335528,108.29988586832256,1.7412053440136117,10.138988316467247,1.0,1015.9978021846177,0.0,1.0,109.76284685964464,6550.036308326042,1.0,1.0,-1.8811915044410228,16.46577878318533,-27.41097281248478,-35.75141183939284,1.0,1014.8433647991685,0.0,1.0,37.48495003350531,10.470306843549915,,,
