time_s,sensor_time_s,imu_valid,imu_ax_mps2,imu_ay_mps2,imu_az_mps2,gyro_p_rps,gyro_q_rps,gyro_r_rps,imu_accel_norm_mps2,imu_gyro_norm_rps,gps_valid,gps_latency_s,gps_x_m,gps_y_m,gps_z_m,gps_vx_mps,gps_vy_mps,gps_vz_mps,baro_valid,baro_alt_m,baro_bias_m,pitot_valid,pitot_airspeed_mps,pitot_qbar_pa,pitot_compressibility_factor,mag_valid,mag_heading_deg,mag_x_ut,mag_y_ut,mag_z_ut,radar_valid,radar_agl_m,optical_flow_valid,horizon_valid,horizon_roll_deg,horizon_pitch_deg,optical_flow_x_radps,optical_flow_y_radps,optical_flow_quality
0.0,0.0,1.0,17.007343798494418,-0.2892272845464373,-0.6380093276952116,0.001565738031183101,-0.0036571952164712266,-0.0013815102141609857,17.021764050900796,0.004211316053860633,1.0,0.0,-0.806223771082661,-3.036116460697097,998.193930698617,83.98374976179954,0.17024808068988678,14.758299894501135,1.0,999.9769622121428,0.0,1.0,85.36896211336294,4098.066982106759,1.0,1.0,0.4914089296374223,17.192599608587877,-0.01757678299780929,-44.78148816809228,1.0,999.9011865279573,0.0,1.0,-0.26702259647059245,9.19094030623817,,,
0.03,0.03,1.0,17.35958849062994,-0.24360823976173265,-0.39622679593315385,-0.0030523316384910115,-0.07443396576854167,0.011062999514282192,17.365818529867997,0.07531349113350658,1.0,0.0,-0.806223771082661,-3.036116460697097,998.193930698617,83.98374976179954,0.17024808068988678,14.758299894501135,1.0,999.9769622121428,0.0,1.0,86.11426890842634,4060.059405079099,1.0,1.0,0.4914089296374223,17.192599608587877,-0.01757678299780929,-44.78148816809228,1.0,999.9011865279573,0.0,1.0,-0.26702259647059245,9.19094030623817,,,
0.06,0.06,1.0,17.690497241616097,-0.2736267990004747,-0.054196292018478746,0.0019102861751529115,-0.18041387147545493,0.021888835505989027,17.692696276114237,0.18174689910378442,1.0,0.0,-0.806223771082661,-3.036116460697097,998.193930698617,83.98374976179954,0.17024808068988678,14.758299894501135,1.0,1001.5364353114186,0.0,1.0,85.96124869925035,4066.9942246503865,1.0,1.0,2.162383864262022,16.81658790628632,0.03277513354009569,-44.90766239736075,1.0,1001.1141293738146,0.0,1.0,0.01815596451068684,9.459923533358687,,,
0.09,0.09,1.0,17.877557552951348,-0.3565427858289817,0.3889481483177771,-0.0005497546974927105,-0.20813700781695618,0.03514933861420184,17.88534225222694,0.2110847987379454,1.0,0.0,-0.806223771082661,-3.036116460697097,998.193930698617,83.98374976179954,0.17024808068988678,14.758299894501135,1.0,1001.5364353114186,0.0,1.0,87.13899806143463,4141.766735125006,1.0,1.0,2.162383864262022,16.81658790628632,0.03277513354009569,-44.90766239736075,1.0,1001.1141293738146,0.0,1.0,0.01815596451068684,9.459923533358687,,,
0.12,0.12,1.0,18.228592681295815,-0.28219679403358355,0.7383130393989789,0.0009769051061086487,-0.16770918588495015,0.051542442246848105,18.245720931640403,0.17545355147887082,1.0,0.0,-0.806223771082661,-3.036116460697097,998.193930698617,83.98374976179954,0.17024808068988678,14.758299894501135,1.0,1001.2149673326625,0.0,1.0,86.86251070487884,4233.929057621772,1.0,1.0,-1.5707019161123168,16.334022292848086,-0.08018245047011686,-45.15835804338463,1.0,1001.8050426551163,0.0,1.0,-0.17103164356715247,10.007899002519537,,,
0.15,0.15,1.0,18.457749208197175,-0.18417793080002137,0.974105744941247,0.001106017526034772,-0.10451613819886002,0.06536549658309722,18.48435309512412,0.12327811874913568,1.0,0.0,-0.806223771082661,-3.036116460697097,998.193930698617,83.98374976179954,0.17024808068988678,14.758299894501135,1.0,1001.2149673326625,0.0,1.0,87.12054581119057,4364.799942059321,1.0,1.0,-1.5707019161123168,16.334022292848086,-0.08018245047011686,-45.15835804338463,1.0,1001.8050426551163,0.0,1.0,-0.17103164356715247,10.007899002519537,,,
0.18,0.18,1.0,18.783369672450515,-0.18555067725790747,1.0739266736027324,0.004959368256925818,-0.06482873880461901,0.0836980940006331,18.814960106416386,0.10598458212326986,1.0,0.0,-0.806223771082661,-3.036116460697097,998.193930698617,83.98374976179954,0.17024808068988678,14.758299894501135,1.0,1003.8099894632475,0.0,1.0,89.28418889300113,4371.546904848257,1.0,1.0,0.8561765318365187,16.07586703931786,-0.15113466683769564,-45.21399110073321,1.0,1002.718022787746,0.0,1.0,-0.4297292202104743,9.942951759461963,,,
0.21,0.21,1.0,19.019344064009427,-0.18537451274280212,1.2756531255762602,0.00498400484965435,-0.042159571158128246,0.09637676297123943,19.06297729191161,0.10531263070208209,1.0,0.0,17.672566477496197,-0.596747614242908,1002.771969531633,87.58059312416539,0.1566594857068785,13.340932363836822,1.0,1003.8099894632475,0.0,1.0,89.07936966433549,4368.659176277708,1.0,1.0,0.8561765318365187,16.07586703931786,-0.15113466683769564,-45.21399110073321,1.0,1002.718022787746,0.0,1.0,-0.4297292202104743,9.942951759461963,,,
0.24,0.24,1.0,19.364639297565162,-0.19920043806794716,1.432762477994094,0.0061521491345027535,-0.03813652690210778,0.11186397361061313,19.418592746583858,0.1183460697069586,1.0,0.0,17.672566477496197,-0.596747614242908,1002.771969531633,87.58059312416539,0.1566594857068785,13.340932363836822,1.0,1003.5419575385267,0.0,1.0,89.91450217136727,4465.458666164412,1.0,1.0,0.16125826537362803,15.99462155229011,-0.20729514882053113,-45.186119298009025,1.0,1003.1337065430047,0.0,1.0,0.0360588170128545,9.78521366732268,,,
0.27,0.27,1.0,19.640501478373825,-0.12044393251624613,1.5328603179973,0.009074805185370826,-0.03430433806775462,0.12656286797433608,19.700595570118566,0.13144314074651614,1.0,0.0,17.672566477496197,-0.596747614242908,1002.771969531633,87.58059312416539,0.1566594857068785,13.340932363836822,1.0,1003.5419575385267,0.0,1.0,89.7858600146989,4492.962010795239,1.0,1.0,0.16125826537362803,15.99462155229011,-0.20729514882053113,-45.186119298009025,1.0,1003.1337065430047,0.0,1.0,0.0360588170128545,9.78521366732268,,,
0.3,0.3,1.0,19.931109736103956,-0.12602438760346207,1.811234906349985,0.014616092128828147,-0.02702578901340027,0.1457104029426891,20.013635085732663,0.14891455585884156,1.0,0.0,17.672566477496197,-0.596747614242908,1002.771969531633,87.58059312416539,0.1566594857068785,13.340932363836822,1.0,1003.9999257364462,0.0,1.0,90.3335522804496,4488.616101230525,1.0,1.0,1.4109709081544977,15.810456671164602,-0.4112255142814836,-45.24758797043216,1.0,1004.2264974142579,0.0,1.0,-0.14825328551530056,10.340391481439564,,,
0.32999999999999996,0.32999999999999996,1.0,20.2852843075342,-0.060972000721220755,1.8941604008553636,0.020190191958459062,-0.014080058706091659,0.16198465905810225,20.373618251222187,0.1638441993927647,1.0,0.0,17.672566477496197,-0.596747614242908,1002.771969531633,87.58059312416539,0.1566594857068785,13.340932363836822,1.0,1003.9999257364462,0.0,1.0,90.57045358930323,4641.706569858592,1.0,1.0,1.4109709081544977,15.810456671164602,-0.4112255142814836,-45.24758797043216,1.0,1004.2264974142579,0.0,1.0,-0.14825328551530056,10.340391481439564,,,
0.36,0.36,1.0,20.57073869607329,0.0334533340502293,2.052325241947861,0.025707524750311357,-0.006584279563763745,0.17156895307500855,20.672891634370416,0.1736091449936211,1.0,0.0,17.672566477496197,-0.596747614242908,1002.771969531633,87.58059312416539,0.1566594857068785,13.340932363836822,1.0,1005.883728161548,0.0,1.0,91.40157074939813,4606.526638018486,1.0,1.0,0.49252332276120997,15.890197610720351,-0.6164379687935523,-45.3395381171379,1.0,1005.0117196798258,0.0,1.0,-0.6249279376589393,10.710353726600104,,,
0.39,0.39,1.0,20.923558372477604,0.02138805192654269,2.130013352639577,0.036381010507334825,-0.00048571895971255595,0.1857698023033608,21.03170723687608,0.18929932196463986,1.0,0.0,17.672566477496197,-0.596747614242908,1002.771969531633,87.58059312416539,0.1566594857068785,13.340932363836822,1.0,1005.883728161548,0.0,1.0,92.28086869336288,4756.974411210374,1.0,1.0,0.49252332276120997,15.890197610720351,-0.6164379687935523,-45.3395381171379,1.0,1005.0117196798258,0.0,1.0,-0.6249279376589393,10.710353726600104,,,
0.42,0.42,1.0,20.93019629975613,0.02500724226989271,2.249833122639637,0.04176990947419372,0.004471340332428674,0.19671619817374633,21.050783633589926,0.20115163644818648,1.0,0.0,34.71497926850675,-0.6256334093882963,1003.2187741028421,91.82469051203613,0.22584386253554845,12.596260260119937,1.0,1005.1314909168485,0.0,1.0,92.12683766495094,4782.450821553057,1.0,1.0,2.685442995980193,15.846056285753908,-0.9211621388586164,-45.29325571384375,1.0,1005.8617804378509,0.0,1.0,0.13022633058364055,10.395005703582148,,,
0.44999999999999996,0.44999999999999996,1.0,20.960752395101302,0.18885784241517412,2.326195271872048,0.05278301614714303,0.00752235803413582,0.20963314629101992,21.090281949188505,0.2163069316685331,1.0,0.0,34.71497926850675,-0.6256334093882963,1003.2187741028421,91.82469051203613,0.22584386253554845,12.596260260119937,1.0,1005.1314909168485,0.0,1.0,93.52222508898198,4804.475016880296,1.0,1.0,2.685442995980193,15.846056285753908,-0.9211621388586164,-45.29325571384375,1.0,1005.8617804378509,0.0,1.0,0.13022633058364055,10.395005703582148,,,
0.48,0.48,1.0,20.822340838326003,0.2654577321564049,2.5026266600938576,0.07137248405283816,0.00740856518543318,0.2154854568476011,20.97387627489952,0.2271186923852786,1.0,0.0,34.71497926850675,-0.6256334093882963,1003.2187741028421,91.82469051203613,0.22584386253554845,12.596260260119937,1.0,1006.3193864015874,0.0,1.0,93.50153557190043,4871.417632049882,1.0,1.0,3.7933875538089965,15.864860906041763,-1.3775794733329447,-45.31069675521796,1.0,1006.4221535213408,0.0,1.0,0.3261282461416732,10.687059008738334,,,
0.51,0.51,1.0,20.866436640658613,0.2702004420004052,2.5618412597141016,0.08696167370387409,0.016077723383799612,0.2185404710204357,21.02484760937522,0.23575572815187107,1.0,0.0,34.71497926850675,-0.6256334093882963,1003.2187741028421,91.82469051203613,0.22584386253554845,12.596260260119937,1.0,1006.3193864015874,0.0,1.0,94.30660673096769,4937.853319441915,1.0,1.0,3.7933875538089965,15.864860906041763,-1.3775794733329447,-45.31069675521796,1.0,1006.4221535213408,0.0,1.0,0.3261282461416732,10.687059008738334,,,
0.54,0.54,1.0,20.796771064328862,0.3498601964426734,2.6529825540359067,0.10460940872135528,0.012261268037496328,0.21983821470680723,20.968223703766135,0.2437669127104726,1.0,0.0,34.71497926850675,-0.6256334093882963,1003.2187741028421,91.82469051203613,0.22584386253554845,12.596260260119937,1.0,1006.685119098712,0.0,1.0,94.76452443059523,5028.792210705935,1.0,1.0,3.6166288465076346,15.90084118652736,-1.8000009342068866,-45.20527775408844,1.0,1007.1886972091428,0.0,1.0,-0.11521333083832355,10.6348785392553,,,
0.57,0.57,1.0,20.75644645736442,0.44204791580782066,2.7538768606809474,0.12765134320774332,0.015747671458536918,0.21487252553696864,20.943001543740092,0.25042575109150084,1.0,0.0,34.71497926850675,-0.6256334093882963,1003.2187741028421,91.82469051203613,0.22584386253554845,12.596260260119937,1.0,1006.685119098712,0.0,1.0,95.14760885006685,5097.50123515368,1.0,1.0,3.6166288465076346,15.90084118652736,-1.8000009342068866,-45.20527775408844,1.0,1007.1886972091428,0.0,1.0,-0.11521333083832355,10.6348785392553,,,
0.6,0.6,1.0,20.845045116244165,0.5328741937165348,2.832090964782626,0.1443980159743371,0.015619701249714825,0.21211437574251987,21.04330297356827,0.2570744454065673,1.0,0.0,34.71497926850675,-0.6256334093882963,1003.2187741028421,91.82469051203613,0.22584386253554845,12.596260260119937,1.0,1007.891179308589,0.0,1.0,95.91133651617335,5281.558129150505,1.0,1.0,5.820336001146781,15.907863874283448,-2.327994195893394,-45.22202359610575,1.0,1007.7420313812811,0.0,1.0,-0.07011101914524732,10.490763259756704,,,
0.63,0.63,1.0,20.69919532953881,0.6727404861669499,2.8881501983407833,0.17663928759618192,0.016671263564199523,0.1982561144489554,20.910539893085147,0.26605423482386253,1.0,0.0,54.57030723859115,-2.1952371130874875,1009.6971998766467,95.84529089531016,0.35337679203655054,11.93164762035205,1.0,1007.891179308589,0.0,1.0,97.12739868261095,5233.942418466808,1.0,1.0,5.820336001146781,15.907863874283448,-2.327994195893394,-45.22202359610575,1.0,1007.7420313812811,0.0,1.0,-0.07011101914524732,10.490763259756704,,,
0.6599999999999999,0.6599999999999999,1.0,20.77978280688404,0.7344785872760815,3.023574176603207,0.20848039816893782,0.01551391453506174,0.18558257112337642,21.011445288172407,0.2795454322102994,1.0,0.0,54.57030723859115,-2.1952371130874875,1009.6971998766467,95.84529089531016,0.35337679203655054,11.93164762035205,1.0,1008.6027496003361,0.0,1.0,97.10678215878431,5235.429264852678,1.0,1.0,3.1633109129736066,15.872952453837243,-3.086873873138594,-45.1310876832058,1.0,1008.8969012512199,0.0,1.0,0.7815632272161218,10.37381721364819,,,
0.69,0.69,1.0,20.730144854068307,0.7338275382505723,3.0424814132481077,0.2427215778638908,0.01547804002276271,0.17460396403235728,20.96506860653,0.2993991956226599,1.0,0.0,54.57030723859115,-2.1952371130874875,1009.6971998766467,95.84529089531016,0.35337679203655054,11.93164762035205,1.0,1008.6027496003361,0.0,1.0,97.87714793209072,5374.698066386011,1.0,1.0,3.1633109129736066,15.872952453837243,-3.086873873138594,-45.1310876832058,1.0,1008.8969012512199,0.0,1.0,0.7815632272161218,10.37381721364819,,,
0.72,0.72,1.0,20.767478299329383,0.9186091424788064,3.0982390311518384,0.28496696640725827,0.014690531451755712,0.1507483182322739,21.01739952429689,0.32271820386763034,1.0,0.0,54.57030723859115,-2.1952371130874875,1009.6971998766467,95.84529089531016,0.35337679203655054,11.93164762035205,1.0,1009.7767208709466,0.0,1.0,98.35303003374452,5305.697981508373,1.0,1.0,7.54091608326613,15.918945116125563,-3.9203630304612744,-45.10642556181377,1.0,1009.3097436161095,0.0,1.0,1.914731609697661,10.335917246719031,,,
0.75,0.75,1.0,20.716625933656616,0.8206912439119431,3.1506868096092755,0.3306454174789188,0.012794503388107186,0.12162561155268743,20.970907266142145,0.35253777216395127,1.0,0.0,54.57030723859115,-2.1952371130874875,1009.6971998766467,95.84529089531016,0.35337679203655054,11.93164762035205,1.0,1009.7767208709466,0.0,1.0,99.21195853786725,5365.691879551697,1.0,1.0,7.54091608326613,15.918945116125563,-3.9203630304612744,-45.10642556181377,1.0,1009.3097436161095,0.0,1.0,1.914731609697661,10.335917246719031,,,
0.78,0.78,1.0,20.693801524135782,0.9657016558838944,3.1706530977399616,0.38432097120692577,0.014559431271687889,0.09440343684577943,20.95755334657911,0.3960133770931037,1.0,0.0,54.57030723859115,-2.1952371130874875,1009.6971998766467,95.84529089531016,0.35337679203655054,11.93164762035205,1.0,1010.7251936229941,0.0,1.0,100.02547884640029,5615.77793875544,1.0,1.0,7.111302023005384,15.879040101004462,-4.981868910669166,-45.0174384956609,1.0,1010.0467232409362,0.0,1.0,2.5225822498385115,9.789560706136397,,,
0.8099999999999999,0.8099999999999999,1.0,20.657107204217528,1.0106686248677745,3.1512570202568964,0.4380979283283497,0.008620659368318215,0.06486983729547748,20.920515049193845,0.4429584702478079,1.0,0.0,54.57030723859115,-2.1952371130874875,1009.6971998766467,95.84529089531016,0.35337679203655054,11.93164762035205,1.0,1010.7251936229941,0.0,1.0,100.48203402713303,5577.768336740265,1.0,1.0,7.111302023005384,15.879040101004462,-4.981868910669166,-45.0174384956609,1.0,1010.0467232409362,0.0,1.0,2.5225822498385115,9.789560706136397,,,
0.84,0.84,1.0,20.710006244814245,1.084855623648417,3.247599122974347,0.5017276265538829,0.007237431477705356,0.026454313015147467,20.991145048518682,0.5024766883536892,1.0,0.0,76.39500216031857,-2.091324821185589,1010.9783208010379,100.34907358565516,0.6807090226968631,11.558392447651153,1.0,1011.248982386144,0.0,1.0,100.91546798803537,5667.734727640548,1.0,1.0,7.193739213177961,15.943092067528303,-6.254080683617436,-44.77289167516437,1.0,1010.520496376462,0.0,1.0,4.8925353280720065,10.566553863081696,,,
0.87,0.87,1.0,20.58691890090941,1.0885794117716923,3.1847223144527455,0.5679309266749751,0.005916621471539143,-0.009763318317216028,20.86021790846221,0.5680456550912935,1.0,0.0,76.39500216031857,-2.091324821185589,1010.9783208010379,100.34907358565516,0.6807090226968631,11.558392447651153,1.0,1011.248982386144,0.0,1.0,101.15162381761236,5690.299276962788,1.0,1.0,7.193739213177961,15.943092067528303,-6.254080683617436,-44.77289167516437,1.0,1010.520496376462,0.0,1.0,4.8925353280720065,10.566553863081696,,,
0.8999999999999999,0.8999999999999999,1.0,20.583678548733193,0.9756883924523005,3.213674945557691,0.6435527814023018,0.00013448262413714822,-0.04726390525468038,20.855874402490308,0.6452860429887961,1.0,0.0,76.39500216031857,-2.091324821185589,1010.9783208010379,100.34907358565516,0.6807090226968631,11.558392447651153,1.0,1010.8678700203512,0.0,1.0,102.72862999348382,5827.719773450295,1.0,1.0,7.847338002651339,15.969957663046696,-7.867786035774739,-44.49801456757204,1.0,1011.6044146444347,0.0,1.0,5.8353339596837985,10.123508911192454,,,
0.9299999999999999,0.9299999999999999,1.0,20.616131373603537,1.1258734887824724,3.2277801491878626,0.7253474462092491,-0.008960848590119471,-0.09444621362745412,20.897632129452237,0.7315253254661094,1.0,0.0,76.39500216031857,-2.091324821185589,1010.9783208010379,100.34907358565516,0.6807090226968631,11.558392447651153,1.0,1010.8678700203512,0.0,1.0,102.08384129131387,5909.251251244582,1.0,1.0,7.847338002651339,15.969957663046696,-7.867786035774739,-44.49801456757204,1.0,1011.6044146444347,0.0,1.0,5.8353339596837985,10.123508911192454,,,
0.96,0.96,1.0,20.549635793248807,1.1318868541482043,3.258291274654983,0.8178699178646587,-0.01695766303393537,-0.13964969642671524,20.837110191105168,0.8298799928878812,1.0,0.0,76.39500216031857,-2.091324821185589,1010.9783208010379,100.34907358565516,0.6807090226968631,11.558392447651153,1.0,1012.2886109560086,0.0,1.0,103.20718705475582,5856.73955937082,1.0,1.0,4.918158585825012,16.042239327359994,-9.863131413852438,-44.10912562626158,1.0,1012.2218776779421,0.0,1.0,9.801874855309372,10.506248934631406,,,
0.99,0.99,1.0,20.583813699991584,1.210888791913413,3.324602443644031,0.9194122001486768,-0.033533822815812554,-0.17809432479234533,20.88570371116632,0.9371023954606637,1.0,0.0,76.39500216031857,-2.091324821185589,1010.9783208010379,100.34907358565516,0.6807090226968631,11.558392447651153,1.0,1012.2886109560086,0.0,1.0,103.12268822096064,5979.258399189483,1.0,1.0,4.918158585825012,16.042239327359994,-9.863131413852438,-44.10912562626158,1.0,1012.2218776779421,0.0,1.0,9.801874855309372,10.506248934631406,,,
1.02,1.02,1.0,20.541225649711755,1.0018288098011512,3.3144870305538796,1.0326252401487903,-0.05020335927500276,-0.22333528617674553,20.831021012716434,1.057692731338592,1.0,0.0,76.39500216031857,-2.091324821185589,1010.9783208010379,100.34907358565516,0.6807090226968631,11.558392447651153,1.0,1012.5162365528515,0.0,1.0,104.13598311020651,6063.77938779296,1.0,1.0,5.064443695607615,15.981645349938884,-12.18859247870043,-43.61308453044854,1.0,1012.6220483446978,0.0,1.0,12.49101943099443,10.436193744187966,,,
1.05,1.05,1.0,20.520309730423353,0.9917993322972085,3.3621187905632923,1.1573579430942698,-0.06513829751280237,-0.26748637486126303,20.817555574800593,1.1896509433370301,1.0,0.0,97.57197616856047,1.4482497682982642,1013.1653753963162,103.93899282528785,1.420392137323963,10.783375744376466,1.0,1012.5162365528515,0.0,1.0,104.63912075573826,6110.338879148398,1.0,1.0,5.064443695607615,15.981645349938884,-12.18859247870043,-43.61308453044854,1.0,1012.6220483446978,0.0,1.0,12.49101943099443,10.436193744187966,,,
1.08,1.08,1.0,20.60314002678807,0.9760126475984496,3.417807076717795,1.2946738910947755,-0.07802916146903772,-0.3080542446682919,20.90749590135966,1.3331040664480023,1.0,0.0,97.57197616856047,1.4482497682982642,1013.1653753963162,103.93899282528785,1.420392137323963,10.783375744376466,1.0,1013.9335402177959,0.0,1.0,105.28443015600095,6125.690695577995,1.0,1.0,4.473368594296221,16.12788631850694,-15.12283197131869,-42.693142392506466,1.0,1013.2951121824638,0.0,1.0,17.063418934272093,10.675046752737574,,,
1.1099999999999999,1.1099999999999999,1.0,20.60652620160427,0.8995898768062526,3.4812482241168037,1.44609180928281,-0.10885304881627812,-0.3520943371470043,20.917869710890066,1.4923139513394688,1.0,0.0,97.57197616856047,1.4482497682982642,1013.1653753963162,103.93899282528785,1.420392137323963,10.783375744376466,1.0,1013.9335402177959,0.0,1.0,106.19700733288823,6236.1800761632485,1.0,1.0,4.473368594296221,16.12788631850694,-15.12283197131869,-42.693142392506466,1.0,1013.2951121824638,0.0,1.0,17.063418934272093,10.675046752737574,,,
1.14,1.14,1.0,20.522325479806067,0.8671879393693155,3.6653058750923053,1.6143802907339877,-0.1330557794446066,-0.3883119364788182,20.86509825472363,1.6657471967756379,1.0,0.0,97.57197616856047,1.4482497682982642,1013.1653753963162,103.93899282528785,1.420392137323963,10.783375744376466,1.0,1013.634985740639,0.0,1.0,105.73936917170177,6448.8140308361435,1.0,1.0,0.49113399047650386,16.155940565193255,-18.591972996631874,-41.18262957302544,1.0,1014.0010938264813,0.0,1.0,22.116432146388057,10.61294836964051,,,
1.17,1.17,1.0,20.477277533622292,0.7332866895177175,3.8820562433145644,1.8045624993250013,-0.16471512988851125,-0.42461841933004396,20.85490266662191,1.861149561432028,1.0,0.0,97.57197616856047,1.4482497682982642,1013.1653753963162,103.93899282528785,1.420392137323963,10.783375744376466,1.0,1013.634985740639,0.0,1.0,107.25138695876427,6379.491382472531,1.0,1.0,0.49113399047650386,16.155940565193255,-18.591972996631874,-41.18262957302544,1.0,1014.0010938264813,0.0,1.0,22.116432146388057,10.61294836964051,,,
1.2,1.2,1.0,20.382272368094792,0.6970941234432587,4.102995546685171,2.008912504775671,-0.19611374123187011,-0.4589700172210705,20.80282527831876,2.0699863593878898,1.0,0.0,97.57197616856047,1.4482497682982642,1013.1653753963162,103.93899282528785,1.420392137323963,10.783375744376466,1.0,1014.2334250290437,0.0,1.0,107.16202996390318,6416.688714747729,1.0,1.0,2.38486590174326,16.269686664147812,-22.738079237388135,-39.045391285668664,1.0,1014.9394767473256,0.0,1.0,29.965146517033137,10.475495283323985,,,
1.23,1.23,1.0,20.28990040878014,0.5740130632043314,4.531555940399694,2.223340961773293,-0.2325636403023156,-0.48893272883757,20.797705374293518,2.28831512087348,1.0,0.0,97.57197616856047,1.4482497682982642,1013.1653753963162,103.93899282528785,1.420392137323963,10.783375744376466,1.0,1014.2334250290437,0.0,1.0,107.70065030042417,6492.171098671213,1.0,1.0,2.38486590174326,16.269686664147812,-22.738079237388135,-39.045391285668664,1.0,1014.9394767473256,0.0,1.0,29.965146517033137,10.475495283323985,,,
1.26,1.26,1.0,20.25878584980882,0.5097687265671819,4.893717326733486,2.4379783140176188,-0.27378118163263826,-0.516769531362751,20.847703411574415,2.5071388361200166,1.0,0.0,120.15221666650325,0.40050252652776164,1015.0065513335528,108.29988586832256,1.7412053440136117,10.138988316467247,1.0,1015.9978021846177,0.0,1.0,109.28922287583337,6553.346655586081,1.0,1.0,-1.8811915044410228,16.46577878318533,-27.41097281248478,-35.75141183939284,1.0,1014.8433647991685,0.0,1.0,37.48495003350531,10.470306843549915,,,
1.29,1.29,1.0,20.111565585336777,0.4136347363413398,5.44605483745331,2.649755281178063,-0.32312533769628926,-0.5349662994471106,20.840001854149616,2.722462483770256,1.0,0.0,120.15221666650325,0.40050252652776164,1015.0065513335528,108.29988586832256,1.7412053440136117,10.138988316467247,1.0,1015.9978021846177,0.0,1.0,109.76284685964464,6550.036308326042,1.0,1.0,-1.8811915044410228,16.46577878318533,-27.41097281248478,-35.75141183939284,1.0,1014.8433647991685,0.0,1.0,37.48495003350531,10.470306843549915,,,
1.3199999999999998,1.3199999999999998,1.0,20.076737496294534,0.3196845473825497,6.101423849395671,2.86638066165997,-0.3691635141750716,-0.5565245808211436,20.98582759137529,2.943151271476627,1.0,0.0,120.15221666650325,0.40050252652776164,1015.0065513335528,108.29988586832256,1.7412053440136117,10.138988316467247,1.0,1015.3992050781266,0.0,1.0,109.95334942615146,6704.363706156857,1.0,1.0,-2.0191193129766605,16.758213811524698,-32.49389119590956,-31.11896708356619,1.0,1015.91765885848,0.0,1.0,47.64644540285149,9.631521848294316,,,
1.3499999999999999,1.3499999999999999,1.0,19.905908012338088,0.3879519345346288,6.830158557696418,3.07691014082826,-0.42446312801864794,-0.5720878878425391,21.04867564533333,3.158295349266008,1.0,0.0,120.15221666650325,0.40050252652776164,1015.0065513335528,108.29988586832256,1.7412053440136117,10.138988316467247,1.0,1015.3992050781266,0.0,1.0,110.02474545624133,6863.082829017466,1.0,1.0,-2.0191193129766605,16.758213811524698,-32.49389119590956,-31.11896708356619,1.0,1015.91765885848,0.0,1.0,47.64644540285149,9.631521848294316,,,
1.38,1.38,1.0,19.776581521767785,0.31970868317594664,7.7532497177696325,3.288685753602137,-0.490865298972686,-0.5847619506362303,21.244488026669885,3.376144141856667,1.0,0.0,120.15221666650325,0.40050252652776164,1015.0065513335528,108.29988586832256,1.7412053440136117,10.138988316467247,1.0,1015.883857781034,0.0,1.0,111.42285172587005,6873.591099607525,1.0,1.0,-5.755963801290107,17.238180862069225,-37.187231553836845,-24.960997611337678,1.0,1016.6980185392134,0.0,1.0,60.089992590623034,9.303282812019722,,,
1.41,1.41,1.0,19.542541713754655,0.40676609494076965,8.769474817490275,3.4965151770871983,-0.5686080977503306,-0.6012893756149946,21.42382047778664,3.593115982772591,1.0,0.0,120.15221666650325,0.40050252652776164,1015.0065513335528,108.29988586832256,1.7412053440136117,10.138988316467247,1.0,1015.883857781034,0.0,1.0,111.79124379939488,7005.430954499623,1.0,1.0,-5.755963801290107,17.238180862069225,-37.187231553836845,-24.960997611337678,1.0,1016.6980185392134,0.0,1.0,60.089992590623034,9.303282812019722,,,
1.44,1.44,1.0,19.43787420202638,0.5007674625437888,10.017199952914103,3.702601397448287,-0.6660912530600013,-0.6141911947143434,21.87295170849164,3.811845417832901,1.0,0.0,120.15221666650325,0.40050252652776164,1015.0065513335528,108.29988586832256,1.7412053440136117,10.138988316467247,1.0,1016.1501761384883,0.0,1.0,111.49233477341322,6887.64171389003,1.0,1.0,-9.114813925585015,17.820928097788144,-41.21126920070187,-17.083842843601158,1.0,1017.0315266786681,0.0,1.0,71.44677572991262,8.190241907516572,,,
1.47,1.47,1.0,19.097712600489587,0.7374347472514058,11.325575437639543,3.9182291513542022,-0.7826661827183254,-0.6310644193873919,22.215649789529376,4.045161101552012,1.0,0.0,143.96186278312132,-0.35900356394644983,1016.908031347748,112.08663401159268,-0.0005253789821315219,10.065275155435364,1.0,1016.1501761384883,0.0,1.0,111.9333835315438,7113.54780045971,1.0,1.0,-9.114813925585015,17.820928097788144,-41.21126920070187,-17.083842843601158,1.0,1017.0315266786681,0.0,1.0,71.44677572991262,8.190241907516572,,,
1.5,1.5,1.0,18.490741128222158,0.9716635943907944,12.256070672074978,4.13007757689551,-0.950046965348869,-0.6517094920927012,22.205019836300245,4.287756440100978,1.0,0.0,143.96186278312132,-0.35900356394644983,1016.908031347748,112.08663401159268,-0.0005253789821315219,10.065275155435364,1.0,1016.7709869230467,0.0,1.0,113.55307895446724,7060.491916275583,1.0,1.0,-10.411898245398534,18.833185936656868,-43.493151599802836,-7.825582341469964,1.0,1017.5077741071788,0.0,0.0,71.44677572991262,8.190241907516572,,,
1.53,1.53,1.0,17.614496561979006,1.4011616285294137,13.236602999143287,4.3454384201607725,-1.2293359749171084,-0.6807194680950339,22.07807514250648,4.5669991238096745,1.0,0.0,143.96186278312132,-0.35900356394644983,1016.908031347748,112.08663401159268,-0.0005253789821315219,10.065275155435364,1.0,1016.7709869230467,0.0,1.0,113.84214544252576,7210.476188610885,1.0,1.0,-10.411898245398534,18.833185936656868,-43.493151599802836,-7.825582341469964,1.0,1017.5077741071788,0.0,0.0,71.44677572991262,8.190241907516572,,,
1.56,1.56,1.0,16.541328107341155,2.1521056225810513,14.783631644053942,4.566292479585736,-1.67696677474519,-0.7075685006224343,22.289074874308547,4.915678768572415,1.0,0.0,143.96186278312132,-0.35900356394644983,1016.908031347748,112.08663401159268,-0.0005253789821315219,10.065275155435364,1.0,1018.8596249719687,0.0,1.0,114.1272939886257,7312.765869420417,1.0,1.0,-15.841008567935592,20.455165890493074,-43.315466915916986,2.119849925584581,1.0,1017.8886329118317,0.0,0.0,71.44677572991262,8.190241907516572,,,
1.5899999999999999,1.5899999999999999,1.0,15.080487624132665,2.9676279080154053,17.173193372857835,4.798921542654376,-2.2460948060016945,-0.7459320969407492,23.046615651839613,5.350794758103366,1.0,0.0,143.96186278312132,-0.35900356394644983,1016.908031347748,112.08663401159268,-0.0005253789821315219,10.065275155435364,1.0,1018.8596249719687,0.0,1.0,113.86574727769036,7080.615301896631,1.0,1.0,-15.841008567935592,20.455165890493074,-43.315466915916986,2.119849925584581,1.0,1017.8886329118317,0.0,0.0,71.44677572991262,8.190241907516572,,,
1.6199999999999999,1.6199999999999999,1.0,14.670736279516424,3.8590597531766595,17.22339540470262,5.036956141148298,-2.7401417668635317,-0.7608993890263597,22.951431206537833,5.784312573727516,1.0,0.0,143.96186278312132,-0.35900356394644983,1016.908031347748,112.08663401159268,-0.0005253789821315219,10.065275155435364,1.0,1018.7535438482096,0.0,1.0,114.72336842535387,7208.0506308892645,1.0,1.0,-24.05500076428325,23.366982154888674,-40.37642110487289,11.320669294755357,1.0,1018.7858441267063,0.0,0.0,71.44677572991262,8.190241907516572,,,
1.65,1.65,1.0,14.64081208034413,5.179812088772508,16.507517050009294,5.30108250338455,-3.1701140578717624,-0.7599159274243334,22.664552737772965,6.223228347438262,1.0,0.0,143.96186278312132,-0.35900356394644983,1016.908031347748,112.08663401159268,-0.0005253789821315219,10.065275155435364,1.0,1018.7535438482096,0.0,1.0,114.73645340465117,7167.786646113826,1.0,1.0,-24.05500076428325,23.366982154888674,-40.37642110487289,11.320669294755357,1.0,1018.7858441267063,0.0,0.0,71.44677572991262,8.190241907516572,,,
1.68,1.68,1.0,14.598609089300007,6.851630233655535,15.69612811178042,5.5768383780313195,-3.565384343894391,-0.7567469721215275,22.504058787302323,6.662263713947786,1.0,0.0,169.08020892434448,0.5611596885047351,1021.0381514810682,114.295891994175,-3.4535727025740677,7.921517428511838,1.0,1018.5491531587113,0.0,1.0,115.02703013628896,7378.65519862921,1.0,1.0,-30.51569624236337,28.11623474897086,-34.258846995026786,18.258445513138206,1.0,1019.1255083491827,0.0,0.0,71.44677572991262,8.190241907516572,,,
1.71,1.71,1.0,14.600646664669409,9.083102895314685,15.134935725065985,5.884180043880579,-3.936110625406725,-0.7542709140648731,22.907376991599772,7.119372602697967,1.0,0.0,169.08020892434448,0.5611596885047351,1021.0381514810682,114.295891994175,-3.4535727025740677,7.921517428511838,1.0,1018.5491531587113,0.0,1.0,114.90085997913943,7360.091677732557,1.0,1.0,-30.51569624236337,28.11623474897086,-34.258846995026786,18.258445513138206,1.0,1019.1255083491827,0.0,0.0,71.44677572991262,8.190241907516572,,,
1.74,1.74,1.0,15.191553114986585,11.586198302157536,15.394345527411035,6.219852716023437,-4.272400705217305,-0.7784017024753791,24.535874782850048,7.585900395166155,1.0,0.0,169.08020892434448,0.5611596885047351,1021.0381514810682,114.295891994175,-3.4535727025740677,7.921517428511838,1.0,1021.2932526244105,0.0,1.0,114.27998470519331,7280.644331790186,1.0,1.0,-36.434990746619675,34.54167983922564,-25.47937216403509,21.519999819650213,1.0,1019.5025618035523,0.0,0.0,71.44677572991262,8.190241907516572,,,
1.77,1.77,1.0,15.92771631735979,14.374943109080348,15.532707029165612,6.598078287296539,-4.570690709656211,-0.843934181280258,26.487659846227956,8.070816287771938,1.0,0.0,169.08020892434448,0.5611596885047351,1021.0381514810682,114.295891994175,-3.4535727025740677,7.921517428511838,1.0,1021.2932526244105,0.0,1.0,114.04896579272257,7259.839619185118,1.0,1.0,-36.434990746619675,34.54167983922564,-25.47937216403509,21.519999819650213,1.0,1019.5025618035523,0.0,0.0,71.44677572991262,8.190241907516572,,,
1.7999999999999998,1.7999999999999998,1.0,16.51608810846602,16.35254033528387,15.246692413819385,7.021419145576751,-4.852568094733986,-0.9524489421285923,27.796553228508674,8.588067472910529,1.0,0.0,169.08020892434448,0.5611596885047351,1021.0381514810682,114.295891994175,-3.4535727025740677,7.921517428511838,1.0,1020.2352519792513,0.0,1.0,115.35139470628035,7344.413903982864,1.0,1.0,-38.157239497366376,41.407450382934826,-15.061967734259659,18.95895373529314,1.0,1020.0881795140458,0.0,0.0,71.44677572991262,8.190241907516572,,,
1.8299999999999998,1.8299999999999998,1.0,17.174421539678463,16.949448493109276,14.618412696683137,7.470681302116555,-5.114263864429987,-1.0374154126334327,28.21245379639429,9.112793464749304,1.0,0.0,169.08020892434448,0.5611596885047351,1021.0381514810682,114.295891994175,-3.4535727025740677,7.921517428511838,1.0,1020.2352519792513,0.0,1.0,114.63847530377298,7274.634897716731,1.0,1.0,-38.157239497366376,41.407450382934826,-15.061967734259659,18.95895373529314,1.0,1020.0881795140458,0.0,0.0,71.44677572991262,8.190241907516572,,,
1.8599999999999999,1.8599999999999999,1.0,17.654922009308113,17.357416263817996,13.776811417584385,7.874149674824317,-5.362513449862303,-1.0058015667967253,28.333314372764246,9.579687906881974,1.0,0.0,169.08020892434448,0.5611596885047351,1021.0381514810682,114.295891994175,-3.4535727025740677,7.921517428511838,1.0,1019.7308935327056,0.0,1.0,114.10221878734504,7226.288656578042,1.0,1.0,-23.22384051481725,46.65586718112803,-5.492418466704209,9.657250878796757,1.0,1020.2985359834528,0.0,0.0,71.44677572991262,8.190241907516572,,,
1.89,1.89,1.0,17.99325551539848,17.81446443005805,12.512823920616983,8.223870402240404,-5.580441167937884,-0.8502222780552612,28.24328503273983,9.974780496019106,1.0,0.0,194.65268176192149,-0.524821645611658,1019.3881260369787,113.68339275798701,-7.045172879503563,1.7412541267982515,1.0,1019.7308935327056,0.0,1.0,113.65807966111494,7270.41037978867,1.0,1.0,-23.22384051481725,46.65586718112803,-5.492418466704209,9.657250878796757,1.0,1020.2985359834528,0.0,0.0,71.44677572991262,8.190241907516572,,,
1.92,1.92,1.0,18.864499400042597,16.563126433704934,15.322330166565575,8.526289359957167,-5.756297852827414,-0.5861620330113345,29.410547370056683,10.304181731177312,1.0,0.0,194.65268176192149,-0.524821645611658,1019.3881260369787,113.68339275798701,-7.045172879503563,1.7412541267982515,1.0,1020.5030610993689,0.0,1.0,113.4095276537069,7175.179855000054,1.0,1.0,13.29720842318106,47.687467403988,-2.1841002686711084,-4.785074452024365,1.0,1020.4528619528248,0.0,0.0,71.44677572991262,8.190241907516572,,,
1.95,1.95,1.0,21.664335790767506,10.626161055810398,0.4797226135869741,8.862645094327327,-5.878876382894383,-0.21595013695162635,24.134806355658586,10.637401000949763,1.0,0.0,194.65268176192149,-0.524821645611658,1019.3881260369787,113.68339275798701,-7.045172879503563,1.7412541267982515,1.0,1020.5030610993689,0.0,1.0,112.34182989304506,7027.085754331171,1.0,1.0,13.29720842318106,47.687467403988,-2.1841002686711084,-4.785074452024365,1.0,1020.4528619528248,0.0,0.0,71.44677572991262,8.190241907516572,,,
1.98,1.98,1.0,20.219719951088095,13.038772523458862,-18.290720146837725,9.080198926399776,-6.457562571901281,0.25912260494531153,30.22246031197446,11.145280231443513,1.0,0.0,194.65268176192149,-0.524821645611658,1019.3881260369787,113.68339275798701,-7.045172879503563,1.7412541267982515,1.0,1019.4593840602928,0.0,1.0,112.28464989217771,7081.035787306064,1.0,1.0,42.620569415255034,43.15216133229238,-8.78757003645956,-19.150442448309903,1.0,1020.1036275953281,0.0,1.0,-26.852297630452018,-51.032272948028094,,,
2.01,2.01,1.0,19.827771823706094,12.946735176833558,-13.898349476055056,9.078386422596521,-7.027163542170152,0.8338127582137556,27.457651126609,11.510576493041096,1.0,0.0,194.65268176192149,-0.524821645611658,1019.3881260369787,113.68339275798701,-7.045172879503563,1.7412541267982515,1.0,1019.4593840602928,0.0,1.0,113.22575012982985,7225.774280428044,1.0,1.0,42.620569415255034,43.15216133229238,-8.78757003645956,-19.150442448309903,1.0,1020.1036275953281,0.0,1.0,-26.852297630452018,-51.032272948028094,,,
2.04,2.04,1.0,19.16404988921911,12.817165365321971,-11.984414466904317,9.076196741522347,-7.607854978644416,1.4033374929620215,25.98397056404262,11.925861008164501,1.0,0.0,194.65268176192149,-0.524821645611658,1019.3881260369787,113.68339275798701,-7.045172879503563,1.7412541267982515,1.0,1020.7089471003618,0.0,1.0,113.62082187477083,7034.151493898409,1.0,1.0,51.83098062256726,31.603110230889406,-24.225238813812915,-26.87079992370695,1.0,1020.1172670600065,0.0,1.0,10.678777604584559,-26.009335234806784,,,
2.07,2.07,1.0,18.80527554825818,11.927594441029932,-12.049144798948815,9.073886973926394,-8.182231812834223,1.984817214627725,25.31971145138981,12.378361831439168,1.0,0.0,194.65268176192149,-0.524821645611658,1019.3881260369787,113.68339275798701,-7.045172879503563,1.7412541267982515,1.0,1020.7089471003618,0.0,1.0,113.06259024462787,7120.122509881912,1.0,1.0,51.83098062256726,31.603110230889406,-24.225238813812915,-26.87079992370695,1.0,1020.1172670600065,0.0,1.0,10.678777604584559,-26.009335234806784,,,
2.1,2.1,1.0,18.39365496128626,11.5573103106626,-12.248132566030947,9.0774758489893,-8.761018650489078,2.560276971509633,24.938217975766964,12.872879777036838,1.0,0.0,216.52652814778864,-1.8167259464170025,1021.0228278257622,112.87089140829076,-4.562494672677964,-5.109522968242368,1.0,1019.6890422400198,0.0,1.0,112.79462844502402,7100.920195009608,1.0,1.0,47.0464273732229,14.378227642163658,-40.83838157773394,-20.87623832904027,1.0,1019.543073084699,0.0,1.0,40.931481100258765,2.316449165786355,,,
2.13,2.13,1.0,18.426646237574676,11.271950337049377,-12.922245670870657,9.074906219885133,-8.91023015687967,3.1359131516873555,25.171066507877015,13.098857799182474,1.0,0.0,216.52652814778864,-1.8167259464170025,1021.0228278257622,112.87089140829076,-4.562494672677964,-5.109522968242368,1.0,1019.6890422400198,0.0,1.0,112.23301335575864,7113.91843448162,1.0,1.0,47.0464273732229,14.378227642163658,-40.83838157773394,-20.87623832904027,1.0,1019.543073084699,0.0,1.0,40.931481100258765,2.316449165786355,,,
2.16,2.16,1.0,18.563245520512538,11.268903752560167,-13.655080152682142,9.077419038156632,-8.653142928397745,3.7086286753224154,25.65235837141426,13.077857071592122,1.0,0.0,216.52652814778864,-1.8167259464170025,1021.0228278257622,112.87089140829076,-4.562494672677964,-5.109522968242368,1.0,1019.2848181883703,0.0,1.0,112.96178717076259,7009.627109489032,1.0,1.0,27.70015627140659,-0.7278379706468961,-47.98658702170434,0.447004070779795,1.0,1019.5776481271358,0.0,1.0,77.5987993295486,28.66627570738093,,,
2.19,2.19,1.0,18.66389549667626,11.494926918712158,-14.022253926999172,9.076163739135342,-8.079084764668355,4.287549796603578,26.021105763795465,12.885318859564437,1.0,0.0,216.52652814778864,-1.8167259464170025,1021.0228278257622,112.87089140829076,-4.562494672677964,-5.109522968242368,1.0,1019.2848181883703,0.0,1.0,113.40819002198386,7044.2656476936245,1.0,1.0,27.70015627140659,-0.7278379706468961,-47.98658702170434,0.447004070779795,1.0,1019.5776481271358,0.0,1.0,77.5987993295486,28.66627570738093,,,
2.2199999999999998,2.2199999999999998,1.0,18.679093761710178,11.96979804519118,-13.994539288514979,9.077212528100485,-7.500696601487583,4.865280157752041,26.230359107324702,12.740768728820388,1.0,0.0,216.52652814778864,-1.8167259464170025,1021.0228278257622,112.87089140829076,-4.562494672677964,-5.109522968242368,1.0,1019.6579706543422,0.0,1.0,112.9981748063321,7147.52076354472,1.0,1.0,-6.792651312021864,-6.627022344515609,-39.305299839042036,26.816951407704238,1.0,1018.611150210984,0.0,0.0,77.5987993295486,28.66627570738093,,,
2.25,2.25,1.0,18.811000700495317,12.464576422860123,-14.149023739862567,9.07348886910342,-6.922943470018888,5.437199897630765,26.634832185439993,12.641933763219013,1.0,0.0,216.52652814778864,-1.8167259464170025,1021.0228278257622,112.87089140829076,-4.562494672677964,-5.109522968242368,1.0,1019.6579706543422,0.0,1.0,113.46631565789448,7000.351361469833,1.0,1.0,-6.792651312021864,-6.627022344515609,-39.305299839042036,26.816951407704238,1.0,1018.611150210984,0.0,0.0,77.5987993295486,28.66627570738093,,,
2.28,2.28,1.0,18.919565423226867,13.246515045859317,-13.469702464753706,9.075213522444784,-6.351322299355078,6.016596769106932,26.73673505035592,12.605484207688244,1.0,0.0,216.52652814778864,-1.8167259464170025,1021.0228278257622,112.87089140829076,-4.562494672677964,-5.109522968242368,1.0,1018.6096877100041,0.0,1.0,113.09122112048993,7173.70888971563,1.0,1.0,-38.05888174156579,-2.0307416584970768,-17.68459021143905,44.584526572833624,1.0,1018.79405862647,0.0,0.0,77.5987993295486,28.66627570738093,,,
2.31,2.31,1.0,18.659074923277192,14.393895479387675,-12.07976531944433,9.0795502886608,-5.775008036345351,6.483089358212851,26.48142810040385,12.562619109514802,1.0,0.0,239.77861087420342,-4.016889067360183,1017.9674699852443,112.88333885915232,-2.693056621076574,-3.705997607224029,1.0,1018.6096877100041,0.0,1.0,113.82442246013355,7003.908044855226,1.0,1.0,-38.05888174156579,-2.0307416584970768,-17.68459021143905,44.584526572833624,1.0,1018.79405862647,0.0,0.0,77.5987993295486,28.66627570738093,,,
2.34,2.34,1.0,18.937163646316304,14.820371119735501,-12.360539807085589,9.072522716056579,-5.388372828512257,6.813380519412779,27.037797828532586,12.560548725064736,1.0,0.0,239.77861087420342,-4.016889067360183,1017.9674699852443,112.88333885915232,-2.693056621076574,-3.705997607224029,1.0,1017.999263215109,0.0,1.0,113.30802674814822,7082.671272026265,1.0,1.0,-56.53653652496209,11.40222317094056,5.910619190748981,46.266156842772844,1.0,1018.4144155387132,0.0,0.0,77.5987993295486,28.66627570738093,,,
2.37,2.37,1.0,19.168646527490132,14.671614740625017,-13.160208318017256,9.079139933858915,-5.305083445131474,7.039231928685778,27.493351410237267,12.654069639615114,1.0,0.0,239.77861087420342,-4.016889067360183,1017.9674699852443,112.88333885915232,-2.693056621076574,-3.705997607224029,1.0,1017.999263215109,0.0,1.0,112.67262313911097,7119.687624195775,1.0,1.0,-56.53653652496209,11.40222317094056,5.910619190748981,46.266156842772844,1.0,1018.4144155387132,0.0,0.0,77.5987993295486,28.66627570738093,,,
2.4,2.4,1.0,19.276971831360125,14.30142148328427,-13.901807416393344,9.080709295509006,-5.497310838266653,7.23396454314371,27.737926181891925,12.845619906159767,1.0,0.0,239.77861087420342,-4.016889067360183,1017.9674699852443,112.88333885915232,-2.693056621076574,-3.705997607224029,1.0,1018.975411772488,0.0,1.0,113.16815050700049,6995.374978905595,1.0,1.0,-59.84575636571853,30.122712409469138,18.886014405090055,32.25923262995533,1.0,1018.5408057796615,0.0,0.0,77.5987993295486,28.66627570738093,,,
2.4299999999999997,2.4299999999999997,1.0,19.381446155002205,13.155955055803894,-14.460143095402994,9.07552592340252,-5.9370163307590795,7.460275698914776,27.52844613902341,13.163170104570916,1.0,0.0,239.77861087420342,-4.016889067360183,1017.9674699852443,112.88333885915232,-2.693056621076574,-3.705997607224029,1.0,1018.975411772488,0.0,1.0,112.74002318496505,7110.046743715869,1.0,1.0,-59.84575636571853,30.122712409469138,18.886014405090055,32.25923262995533,1.0,1018.5408057796615,0.0,0.0,77.5987993295486,28.66627570738093,,,
2.46,2.46,1.0,19.080555302762424,10.871602720531754,-14.858189923009343,9.01950582643805,-6.51137942755443,7.8210925498528345,26.514621327921414,13.598493889989895,1.0,0.0,239.77861087420342,-4.016889067360183,1017.9674699852443,112.88333885915232,-2.693056621076574,-3.705997607224029,1.0,1018.2465836444126,0.0,1.0,112.21223432961712,6989.210058450423,1.0,1.0,-32.85208235044207,45.567461515356754,12.450313701134768,8.590036648080224,1.0,1017.8657854633209,0.0,1.0,-65.42319058211038,-53.982362196367916,,,
2.4899999999999998,2.4899999999999998,1.0,18.67285268614399,9.320396088644983,-14.824708081132124,8.935905006470087,-7.0898962257274185,8.393528886212009,25.59916366560532,14.162215714354744,1.0,0.0,239.77861087420342,-4.016889067360183,1017.9674699852443,112.88333885915232,-2.693056621076574,-3.705997607224029,1.0,1018.2465836444126,0.0,1.0,112.00140447407715,7046.358911706818,1.0,1.0,-32.85208235044207,45.567461515356754,12.450313701134768,8.590036648080224,1.0,1017.8657854633209,0.0,1.0,-65.42319058211038,-53.982362196367916,,,
2.52,2.52,1.0,18.25558058139848,8.879171521748972,-14.285945955960194,8.831745613009469,-7.6647104659608,8.971404547966552,24.82325847130442,14.738847195869695,1.0,0.0,262.7720901234064,-2.8057495009132594,1019.0511784647141,111.51031664837504,-6.0498677519073665,-7.6929511532338894,1.0,1016.7120867565699,0.0,1.0,111.55242004141105,6891.267235363258,1.0,1.0,26.496709078742487,44.49392950491836,-13.01442025110126,-12.303261060568683,1.0,1017.6999002955739,0.0,1.0,11.39373530820227,-44.44152741015955,,,
2.55,2.55,1.0,17.95922565514392,9.287032638246325,-13.471642795178312,8.723272043640666,-8.212606912419526,9.0775367526791,24.29543004264612,15.031435757821793,1.0,0.0,262.7720901234064,-2.8057495009132594,1019.0511784647141,111.51031664837504,-6.0498677519073665,-7.6929511532338894,1.0,1016.7120867565699,0.0,1.0,112.10616963408665,6959.868221322082,1.0,1.0,26.496709078742487,44.49392950491836,-13.01442025110126,-12.303261060568683,1.0,1017.6999002955739,0.0,1.0,11.39373530820227,-44.44152741015955,,,
2.58,2.58,1.0,18.017320955364934,10.429896707628583,-13.343425990995192,8.645301719714963,-8.40533639400311,9.077682196482492,24.727588174296333,15.092886926681551,1.0,0.0,262.7720901234064,-2.8057495009132594,1019.0511784647141,111.51031664837504,-6.0498677519073665,-7.6929511532338894,1.0,1017.4193172966225,0.0,1.0,112.43888948164742,6905.079541246569,1.0,1.0,37.97230446481947,22.14593539305157,-39.7736348875114,-15.32210083227099,1.0,1016.2687267361309,0.0,1.0,47.778906790909254,-4.9922016191228,,,
2.61,2.61,1.0,18.47177408383311,11.181421129566353,-13.59867484186801,8.607566658974722,-8.281768175595674,9.072133656261894,25.51773057573372,14.999383219988825,1.0,0.0,262.7720901234064,-2.8057495009132594,1019.0511784647141,111.51031664837504,-6.0498677519073665,-7.6929511532338894,1.0,1017.4193172966225,0.0,1.0,112.50412072992316,6989.469287188135,1.0,1.0,37.97230446481947,22.14593539305157,-39.7736348875114,-15.32210083227099,1.0,1016.2687267361309,0.0,1.0,47.778906790909254,-4.9922016191228,,,
2.6399999999999997,2.6399999999999997,1.0,18.730207533625034,12.151752237073769,-12.850680939244706,8.61338344995657,-7.88369775720571,9.074318299233896,25.760934712974965,14.788046435508893,1.0,0.0,262.7720901234064,-2.8057495009132594,1019.0511784647141,111.51031664837504,-6.0498677519073665,-7.6929511532338894,1.0,1015.9462927356858,0.0,1.0,112.3323075312048,6997.24858735999,1.0,1.0,27.81902661904977,-5.719448295384969,-47.595397756729696,4.13152331816821,1.0,1016.5309203370343,0.0,0.0,47.778906790909254,-4.9922016191228,,,
2.67,2.67,1.0,18.869917759507892,13.328323239427,-11.608571022893562,8.640057175412894,-7.309348260619861,9.07789781521693,25.854920572664795,14.508114582293274,1.0,0.0,262.7720901234064,-2.8057495009132594,1019.0511784647141,111.51031664837504,-6.0498677519073665,-7.6929511532338894,1.0,1015.9462927356858,0.0,1.0,112.3293395653671,7026.433443140188,1.0,1.0,27.81902661904977,-5.719448295384969,-47.595397756729696,4.13152331816821,1.0,1016.5309203370343,0.0,0.0,47.778906790909254,-4.9922016191228,,,
2.6999999999999997,2.6999999999999997,1.0,19.5098482938506,13.728463531027787,-11.762025007457867,8.694392607890794,-6.731029449599155,9.077920662312131,26.5979345748479,14.258606657831287,1.0,0.0,262.7720901234064,-2.8057495009132594,1019.0511784647141,111.51031664837504,-6.0498677519073665,-7.6929511532338894,1.0,1015.866059572421,0.0,1.0,112.13755696943086,7025.174059192993,1.0,1.0,-21.727745151679823,-20.338031264429386,-30.42510875216729,31.047914727731357,1.0,1015.8595120989745,0.0,0.0,47.778906790909254,-4.9922016191228,,,
2.73,2.73,1.0,20.11240458552154,13.919336474103071,-12.687992923670011,8.776852301478815,-6.154441006868319,9.0738470957947,27.554344675969055,14.044393242388873,1.0,0.0,287.1670062074637,-3.8896658218884443,1016.5955867234121,111.5728815899766,-3.1550155754612996,-8.736412020237095,1.0,1015.866059572421,0.0,1.0,111.87648285263934,6903.627008701431,1.0,1.0,-21.727745151679823,-20.338031264429386,-30.42510875216729,31.047914727731357,1.0,1015.8595120989745,0.0,0.0,47.778906790909254,-4.9922016191228,,,
2.76,2.76,1.0,20.496362798840053,13.762372871957858,-13.6513112664258,8.838845686858022,-5.579064021273161,9.07449209820733,28.21102788523169,13.841876869484881,1.0,0.0,287.1670062074637,-3.8896658218884443,1016.5955867234121,111.5728815899766,-3.1550155754612996,-8.736412020237095,1.0,1015.2540162595329,0.0,1.0,112.10795265772354,6957.20016395189,1.0,1.0,-63.26823867373475,-14.754936188634309,0.7256406777571742,45.67102023663326,1.0,1015.6875714262866,0.0,0.0,47.778906790909254,-4.9922016191228,,,
2.79,2.79,1.0,20.719986559726948,13.095721856067055,-14.428805298192904,8.883352877351554,-5.150428037892037,9.07270991430215,28.443034231598734,13.702369594567616,1.0,0.0,287.1670062074637,-3.8896658218884443,1016.5955867234121,111.5728815899766,-3.1550155754612996,-8.736412020237095,1.0,1015.2540162595329,0.0,1.0,111.23342407055557,6767.505382083268,1.0,1.0,-63.26823867373475,-14.754936188634309,0.7256406777571742,45.67102023663326,1.0,1015.6875714262866,0.0,0.0,47.778906790909254,-4.9922016191228,,,
2.82,2.82,1.0,20.664683196531865,9.844380899539017,-14.999831991018876,8.898239082538856,-5.045891198913718,9.074897518752772,27.366693747455653,13.67455453523668,1.0,0.0,287.1670062074637,-3.8896658218884443,1016.5955867234121,111.5728815899766,-3.1550155754612996,-8.736412020237095,1.0,1015.4310523152893,0.0,1.0,111.70142505679091,6710.829577353184,1.0,1.0,-72.31479492227034,6.695148905340291,26.699189017091097,39.34954024735239,1.0,1014.479972400585,0.0,0.0,47.778906790909254,-4.9922016191228,,,
2.85,2.85,1.0,20.144573537941056,6.602820948793568,-15.412834006976166,8.809639645178525,-5.247837240311486,9.076335492088866,26.209855772856574,13.694137882453692,1.0,0.0,287.1670062074637,-3.8896658218884443,1016.5955867234121,111.5728815899766,-3.1550155754612996,-8.736412020237095,1.0,1015.4310523152893,0.0,1.0,111.06805578836608,6813.653530798972,1.0,1.0,-72.31479492227034,6.695148905340291,26.699189017091097,39.34954024735239,1.0,1014.479972400585,0.0,0.0,47.778906790909254,-4.9922016191228,,,
2.88,2.88,1.0,19.477751955602262,3.8230234715517954,-15.314503249463046,8.609225833256671,-5.722414220897653,9.075993604031165,25.070547251422692,13.75639683434439,1.0,0.0,287.1670062074637,-3.8896658218884443,1016.5955867234121,111.5728815899766,-3.1550155754612996,-8.736412020237095,1.0,1012.7744059295903,0.0,1.0,110.40299912582245,6870.069107344129,1.0,1.0,-58.35737121691835,32.6170171045341,30.944936331543254,16.83379387031953,1.0,1014.9882039609153,0.0,0.0,47.778906790909254,-4.9922016191228,,,
2.9099999999999997,2.9099999999999997,1.0,18.63626649048029,2.439940691201176,-14.935672703228253,8.361473004822454,-6.295839129915321,9.075961855771423,24.007041849814303,13.853696429746302,1.0,0.0,287.1670062074637,-3.8896658218884443,1016.5955867234121,111.5728815899766,-3.1550155754612996,-8.736412020237095,1.0,1012.7744059295903,0.0,1.0,111.62898959869833,6750.793356313791,1.0,1.0,-58.35737121691835,32.6170171045341,30.944936331543254,16.83379387031953,1.0,1014.9882039609153,0.0,0.0,47.778906790909254,-4.9922016191228,,,
2.94,2.94,1.0,17.863871703467662,2.607483438481065,-14.263512118336326,8.115840783539502,-6.875720515947773,9.071951622048045,23.007926027128846,13.980082634590124,1.0,0.0,312.521040110627,-5.795122178292394,1014.6856224901744,110.26638496140589,-7.10530276310961,-10.902669625590494,1.0,1012.587064482974,0.0,1.0,110.36133034620087,6785.336664795485,1.0,1.0,-14.168935357074483,45.74342154540621,10.534354477627073,-10.12274858309902,1.0,1013.3128027734084,0.0,1.0,-23.436456752564037,-43.97427555609269,,,
2.9699999999999998,2.9699999999999998,1.0,18.013541434772865,4.243773543542102,-15.392927725744933,7.891534476116519,-7.448367614467699,9.077166681805744,24.07154986454245,14.147418544641674,1.0,0.0,312.521040110627,-5.795122178292394,1014.6856224901744,110.26638496140589,-7.10530276310961,-10.902669625590494,1.0,1012.587064482974,0.0,1.0,111.26193810031133,6694.884381840199,1.0,1.0,-14.168935357074483,45.74342154540621,10.534354477627073,-10.12274858309902,1.0,1013.3128027734084,0.0,1.0,-23.436456752564037,-43.97427555609269,,,
3.0,3.0,1.0,18.342718463351233,7.100007075861487,-17.985819275637,7.733159537606993,-8.02777051910292,9.073277615152636,26.65248799115994,14.372585801556026,1.0,0.0,312.521040110627,-5.795122178292394,1014.6856224901744,110.26638496140589,-7.10530276310961,-10.902669625590494,1.0,1013.2664436299711,0.0,1.0,110.42258907468562,6945.311608996191,1.0,1.0,22.44392760201316,33.67973766436772,-21.165838988357258,-26.85982334812001,1.0,1013.2687170338475,0.0,1.0,23.23215880367785,-17.641109743322104,,,
3.03,3.03,1.0,19.316651201855002,10.487875278365301,-14.59011808643617,7.648043378956398,-8.533260462090208,9.074906156660521,26.381813570807147,14.617216677345446,1.0,0.0,312.521040110627,-5.795122178292394,1014.6856224901744,110.26638496140589,-7.10530276310961,-10.902669625590494,1.0,1013.2664436299711,0.0,1.0,111.80274776217028,7023.417221591007,1.0,1.0,22.44392760201316,33.67973766436772,-21.165838988357258,-26.85982334812001,1.0,1013.2687170338475,0.0,1.0,23.23215880367785,-17.641109743322104,,,
3.06,3.06,1.0,20.39671729846622,10.27822624762941,-10.739603832074714,7.6374417956955725,-8.457747915286491,9.077469879420372,25.238999620050777,14.569299104382294,1.0,0.0,312.521040110627,-5.795122178292394,1014.6856224901744,110.26638496140589,-7.10530276310961,-10.902669625590494,1.0,1010.7137307544468,0.0,1.0,112.45248960080178,6931.220378847367,1.0,1.0,29.383646201426075,2.3954589393387185,-43.01443507190985,-21.02888670964898,1.0,1011.9235654042335,0.0,1.0,49.85151152152658,23.483518965860245,,,
3.09,3.09,1.0,20.26555806374168,12.245387738035507,-15.372185531562584,7.6385139975589915,-7.883742890630767,9.072070791458426,28.23024003628906,14.240883627840967,1.0,0.0,312.521040110627,-5.795122178292394,1014.6856224901744,110.26638496140589,-7.10530276310961,-10.902669625590494,1.0,1010.7137307544468,0.0,1.0,111.72538798005503,7034.408667576412,1.0,1.0,29.383646201426075,2.3954589393387185,-43.01443507190985,-21.02888670964898,1.0,1011.9235654042335,0.0,1.0,49.85151152152658,23.483518965860245,,,
3.12,3.12,1.0,20.618423296767098,14.408145678741823,-10.938471328469655,7.671437991400068,-7.440975282041361,9.073966670814627,27.429258031311523,14.019841124167618,1.0,0.0,312.521040110627,-5.795122178292394,1014.6856224901744,110.26638496140589,-7.10530276310961,-10.902669625590494,1.0,1012.4279721558997,0.0,1.0,111.84743145696832,6952.08757214117,1.0,1.0,11.041807427346624,-25.42249825361712,-40.46794763574355,4.540723056706056,1.0,1011.1701399610625,0.0,0.0,49.85151152152658,23.483518965860245,,,
3.15,3.15,1.0,21.77008109659818,14.952056963330469,-11.102792427393757,7.730626482909904,-6.865773619812165,9.07495389991571,28.6491263055775,13.757042614689102,1.0,0.0,332.1616936274732,-6.56800312826928,1011.1858794875634,110.72108945648456,-4.400448350769056,-13.385383714431894,1.0,1012.4279721558997,0.0,1.0,112.64140477687342,6981.607291026166,1.0,1.0,11.041807427346624,-25.42249825361712,-40.46794763574355,4.540723056706056,1.0,1011.1701399610625,0.0,0.0,49.85151152152658,23.483518965860245,,,
3.1799999999999997,3.1799999999999997,1.0,22.634910188009922,14.673822172266346,-12.413653308357619,7.808206326503758,-6.291957035963138,9.077872359032932,29.694427167781313,13.526439884409847,1.0,0.0,332.1616936274732,-6.56800312826928,1011.1858794875634,110.72108945648456,-4.400448350769056,-13.385383714431894,1.0,1009.7638387701465,0.0,1.0,112.01813933516962,6829.18685959812,1.0,1.0,-78.09916070072913,-34.14182601651449,-15.102983725081046,30.215193454458895,1.0,1010.7029933600002,0.0,0.0,49.85151152152658,23.483518965860245,,,
3.21,3.21,1.0,23.24062893392699,13.75493037414572,-13.747433249141304,7.871675087799144,-5.8025372776505115,9.07476879241374,30.30374339552255,13.341069529170733,1.0,0.0,332.1616936274732,-6.56800312826928,1011.1858794875634,110.72108945648456,-4.400448350769056,-13.385383714431894,1.0,1009.7638387701465,0.0,1.0,110.40035458125973,6823.030810680599,1.0,1.0,-78.09916070072913,-34.14182601651449,-15.102983725081046,30.215193454458895,1.0,1010.7029933600002,0.0,0.0,49.85151152152658,23.483518965860245,,,
3.2399999999999998,3.2399999999999998,1.0,23.361185963031964,11.66119179512306,-14.84280896378117,7.9057205503999315,-5.6422128618351755,9.07494805205114,30.033937164769284,13.29246649597812,1.0,0.0,332.1616936274732,-6.56800312826928,1011.1858794875634,110.72108945648456,-4.400448350769056,-13.385383714431894,1.0,1009.4242770365438,0.0,1.0,109.88906267047976,6786.359293427766,1.0,1.0,-93.56159403827985,-20.98248418435206,17.625504863955758,39.45451971761405,1.0,1009.833104764505,0.0,0.0,49.85151152152658,23.483518965860245,,,
3.27,3.27,1.0,22.882314704946392,6.3920427957631025,-15.48983841196875,7.88030270840895,-5.777184631502883,9.075883469508625,28.361834062485723,13.335917433560034,1.0,0.0,332.1616936274732,-6.56800312826928,1011.1858794875634,110.72108945648456,-4.400448350769056,-13.385383714431894,1.0,1009.4242770365438,0.0,1.0,109.7084878911051,6769.6831100269355,1.0,1.0,-93.56159403827985,-20.98248418435206,17.625504863955758,39.45451971761405,1.0,1009.833104764505,0.0,0.0,49.85151152152658,23.483518965860245,,,
3.3,3.3,1.0,21.86864608025578,1.692002114502898,-15.734730511779363,7.704412756028056,-6.170404474154945,9.077164463950712,26.99411596658222,13.409950857312221,1.0,0.0,332.1616936274732,-6.56800312826928,1011.1858794875634,110.72108945648456,-4.400448350769056,-13.385383714431894,1.0,1009.0298469611735,0.0,1.0,108.96253509485362,6584.599055077138,1.0,1.0,-84.5374833162814,7.434968793771518,38.02834571923938,28.2679588412459,1.0,1008.9976386343388,0.0,0.0,49.85151152152658,23.483518965860245,,,
3.33,3.33,1.0,20.571229429271433,-1.8397447848935458,-15.459234564309858,7.382230833271387,-6.747067378489528,9.074656271482118,25.798218434993117,13.504430263107364,1.0,0.0,332.1616936274732,-6.56800312826928,1011.1858794875634,110.72108945648456,-4.400448350769056,-13.385383714431894,1.0,1009.0298469611735,0.0,1.0,108.67376004542876,6648.396087915665,1.0,1.0,-84.5374833162814,7.434968793771518,38.02834571923938,28.2679588412459,1.0,1008.9976386343388,0.0,0.0,49.85151152152658,23.483518965860245,,,
3.36,3.36,1.0,19.08508645131925,-3.1045556773629017,-14.697122016074244,6.9532244586970124,-7.321964310792674,9.07573972975784,24.28753150000119,13.576728007286915,1.0,0.0,357.1956983807715,-6.589335047652685,1008.3901123231141,107.769038398457,-7.567612321876364,-13.410315538217505,1.0,1008.2843815817919,0.0,1.0,108.87264813902773,6640.248993218042,1.0,1.0,-53.77677835146958,34.52975451374734,33.233458390715874,2.9237700566377987,1.0,1008.2644146433563,0.0,1.0,-59.8125407790624,-32.81447683122257,,,
3.3899999999999997,3.3899999999999997,1.0,17.770038531891302,-2.030857313043641,-13.599570927430452,6.531192584378902,-7.896413524004752,9.073648941819329,22.468800151789505,13.68725422558192,1.0,0.0,357.1956983807715,-6.589335047652685,1008.3901123231141,107.769038398457,-7.567612321876364,-13.410315538217505,1.0,1008.2843815817919,0.0,1.0,109.11336410334206,6575.977673660993,1.0,1.0,-53.77677835146958,34.52975451374734,33.233458390715874,2.9237700566377987,1.0,1008.2644146433563,0.0,1.0,-59.8125407790624,-32.81447683122257,,,
3.42,3.42,1.0,18.317312815646698,1.0942732207331487,-17.80281472101067,6.147329158489171,-8.47157632635912,9.075923857797436,25.566806500979013,13.853867875386864,1.0,0.0,357.1956983807715,-6.589335047652685,1008.3901123231141,107.769038398457,-7.567612321876364,-13.410315538217505,1.0,1007.6193353482225,0.0,1.0,109.5665442520913,6630.487163472387,1.0,1.0,-5.9341461857750994,40.57412714249826,7.709188094654875,-24.518107585234915,1.0,1007.7161607494548,0.0,1.0,-12.106530875276338,-27.584250805396927,,,
