time_s,x_m,y_m,altitude_m,vx_mps,vy_mps,vz_mps,speed_mps,mass_kg,roll_deg,pitch_deg,yaw_deg,p_dps,q_dps,r_dps,alpha_deg,beta_deg,qbar_pa,mach,airspeed_mps,load_factor_g,density_kgpm3,pressure_pa,temperature_k,wind_x_mps,wind_y_mps,wind_z_mps,thrust_n,mass_flow_kgps,propulsion_throttle_actual,propulsion_health,energy_j_per_kg,target_distance_m,guidance_mode,pitch_command_deg,heading_command_deg,roll_command_deg,elevator_command_deg,aileron_command_deg,rudder_command_deg,elevator_deg,aileron_deg,rudder_deg,throttle,elevator_saturated,aileron_saturated,rudder_saturated,elevator_failed,aileron_failed,rudder_failed,elevator_raw_rad,aileron_raw_rad,rudder_raw_rad,elevator_effective_rad,aileron_effective_rad,rudder_effective_rad,sensor_time_s,imu_valid,imu_ax_mps2,imu_ay_mps2,imu_az_mps2,gyro_p_rps,gyro_q_rps,gyro_r_rps,imu_accel_norm_mps2,imu_gyro_norm_rps,gps_valid,gps_latency_s,gps_x_m,gps_y_m,gps_z_m,gps_vx_mps,gps_vy_mps,gps_vz_mps,baro_valid,baro_alt_m,baro_bias_m,pitot_valid,pitot_airspeed_mps,pitot_qbar_pa,pitot_compressibility_factor,mag_valid,mag_heading_deg,mag_x_ut,mag_y_ut,mag_z_ut,radar_valid,radar_agl_m,optical_flow_valid,optical_flow_x_radps,optical_flow_y_radps,optical_flow_quality,horizon_valid,horizon_roll_deg,horizon_pitch_deg
0.0,0.0,0.0,20.0,85.0,0.0,8.0,85.37564055396598,18.0,0.0,6.000000000000002,0.0,0.0,0.0,0.0,0.623294571949261,0.0,4455.946741876431,0.2509445034436674,85.37564055396597,1.7460191153368827,1.2226496753673843,101084.96761777384,288.02,0.0,0.0,0.0,326.8,0.17539118863220368,0.86,nominal,3840.633,nan,pitch_program,13.0,0.0,0.0,-20.05352282957881,-0.0,0.0,-2.6999999999999997,0.0,0.0,0.86,0.0,0.0,0.0,0.0,0.0,0.0,-0.047123889803846894,0.0,0.0,-0.047123889803846894,0.0,0.0,0.0,1.0,17.089474510188992,-0.04331266066330364,0.17662148382067971,0.0016677683591043149,0.0011681274632859406,0.0012765720485123657,17.090442070628836,0.00240324973008537,1.0,0.0,-1.885154541229685,1.8645638091475825,21.162662438547994,85.32748210022089,0.18147237523479218,7.846341299741817,1.0,20.771163472887363,0.0,1.0,85.6269982596741,4465.519226242078,1.0,1.0,-0.8198733225718878,19.523475325297145,-0.00615746722134172,-43.81279554351524,1.0,20.39618647858491,1.0,-0.0077448575321814855,4.273240466216326,0.95,1.0,0.17459483210835952,5.697481511065039
0.03,2.5653075616539396,0.0,20.23295089060798,85.51025205513132,0.0,7.765029686932638,85.86209229090004,17.994738264341034,0.0,6.265582975204377,0.0,0.0,-8.852781691043555,0.0,1.0768889448804941,0.0,4506.768587835821,0.25237499376300476,85.86209229090004,1.774089403005167,1.222622319986844,101082.17454514331,288.01848581921104,0.0,0.0,0.0,332.605,0.1785066900092231,0.86,nominal,3884.5669141368985,nan,pitch_program,12.985,0.0,0.0,-1.430813724064029,-0.0,0.0,-1.9384882344384171,0.0,0.0,0.86,0.0,0.0,0.0,0.0,0.0,0.0,-0.03383300220212211,0.0,0.0,-0.03383300220212211,0.0,0.0,0.03,1.0,17.396245286212196,-0.024205067786461216,0.6306746726689686,0.001972178925766813,-0.15518944895900577,0.0016995476198838452,17.407690440897454,0.15521128509237772,1.0,0.0,-1.885154541229685,1.8645638091475825,21.162662438547994,85.32748210022089,0.18147237523479218,7.846341299741817,1.0,20.771163472887363,0.0,1.0,85.44841255458797,4493.766976450421,1.0,1.0,-0.8198733225718878,19.523475325297145,-0.00615746722134172,-43.81279554351524,1.0,20.39618647858491,1.0,-0.0077448575321814855,4.273240466216326,0.95,1.0,0.17459483210835952,5.697481511065039
0.06,5.146108487635077,0.0,20.45934109706695,86.02669753270457,0.0,7.546340215298981,86.35704915655975,17.98938306364076,0.0,6.641308868012124,0.0,0.0,-12.524241308436645,0.0,1.6281034559280652,0.0,4558.778263294931,0.2538304720578223,86.35704915655977,1.8027331753915474,1.2225957354748862,101079.46019475175,288.01701428286907,0.0,0.0,0.0,338.40999999999997,0.18162219138624247,0.86,nominal,3929.4075668837904,nan,pitch_program,12.97,0.0,0.0,-0.2979467920760606,-0.0,0.0,-0.9541633690210033,0.0,0.0,0.86,0.0,0.0,0.0,0.0,0.0,0.0,-0.01665329239133817,0.0,0.0,-0.01665329239133817,0.0,0.0,0.06,1.0,17.696718120006093,-0.048625240197861,1.2207048915769716,-0.003446139225741984,-0.2200582056481762,-0.00034689119184351384,17.73883640674484,0.2200854608604512,1.0,0.0,-1.885154541229685,1.8645638091475825,21.162662438547994,85.32748210022089,0.18147237523479218,7.846341299741817,1.0,20.525977458669733,0.0,1.0,85.93808248615807,4525.842513620243,1.0,1.0,0.07665381874344163,19.002287191418148,-0.026858555853548426,-44.03804623616444,1.0,20.44432733929693,1.0,0.00018197912592243334,4.21901060739763,0.9488516472573326,1.0,-0.15907090264631085,6.462321243080083
0.09,7.742556498860226,0.0,20.67979074078805,86.54826704083828,0.0,7.348321457369993,86.85965896786091,17.983934397899173,0.0,6.946402982422518,0.0,0.0,-10.169827843745363,0.0,2.093383042827227,0.0,4611.900458915065,0.2553084351430113,86.8596589678609,1.8324705748552441,1.222569848975327,101076.817126636,288.01558136018485,0.0,0.0,0.0,344.215,0.18473769276326188,0.86,nominal,3975.099647874699,nan,pitch_program,12.955,0.0,0.0,-0.7108973995280095,-0.0,0.0,-0.8082037873252069,0.0,0.0,0.86,0.0,0.0,0.0,0.0,0.0,0.0,-0.014105817115912876,0.0,0.0,-0.014105817115912876,0.0,0.0,0.09,1.0,17.957941161843888,-0.01094183278357201,1.5605999222741616,0.0004011470069548937,-0.17918798555099863,0.0025448602353110453,18.02562738473626,0.17920650489969203,1.0,0.0,-1.885154541229685,1.8645638091475825,21.162662438547994,85.32748210022089,0.18147237523479218,7.846341299741817,1.0,20.525977458669733,0.0,1.0,87.23015656976472,4643.903578237996,1.0,1.0,0.07665381874344163,19.002287191418148,-0.026858555853548426,-44.03804623616444,1.0,20.44432733929693,1.0,0.00018197912592243334,4.21901060739763,0.9488516472573326,1.0,-0.15907090264631085,6.462321243080083
0.12,10.354825627841963,0.0,20.894771499631656,87.07563763272458,0.0,7.166025294786852,87.37000965818355,17.978392267116273,0.0,7.1246251580176185,0.0,0.0,-5.94074397652938,0.0,2.419981663794166,0.0,4666.158483523259,0.25680914272098526,87.37000965818353,1.8626362816144963,1.2225446050683844,101074.23968129342,288.0141839852524,0.0,0.0,0.0,350.02,0.1878531941402813,0.86,nominal,4021.667004762406,nan,pitch_program,12.94,0.0,0.0,-1.6634483628941377,-0.0,0.0,-1.3213505326665653,0.0,0.0,0.86,0.0,0.0,0.0,0.0,0.0,0.0,-0.023061917368012455,0.0,0.0,-0.023061917368012455,0.0,0.0,0.12,1.0,18.21486617013283,-0.01413003862604277,1.769597691143846,0.0017811967641120853,-0.1030091995337478,-0.0028376729027249836,18.300629094168936,0.10306367079625493,1.0,0.0,-1.885154541229685,1.8645638091475825,21.162662438547994,85.32748210022089,0.18147237523479218,7.846341299741817,1.0,20.835346675393623,0.0,1.0,87.26231604531297,4712.4753234927075,1.0,1.0,-1.8951218293581098,18.642793566258323,-0.005790965511073151,-44.16548821910077,1.0,20.15966351575513,1.0,-0.013840283315854317,4.180330849097613,0.9477630712509209,1.0,0.28335723464815654,7.7313650572821455
0.15,12.98312643446072,0.0,21.10456580349498,87.61002688729191,0.0,6.993143462110928,87.88868452010006,17.972756671292064,0.0,7.219372527884283,0.0,0.0,-3.1582463819261175,0.0,2.655626861537001,0.0,4721.629385260782,0.25833430999508267,87.88868452010006,1.8931428390875156,1.2225199705603382,101071.72446865878,288.01282032227726,0.0,0.0,0.0,355.825,0.1909686955173007,0.86,nominal,4069.175523573682,nan,pitch_program,12.925,0.0,0.0,-2.3010365933223498,-0.0,0.0,-1.909162169060036,0.0,0.0,0.86,0.0,0.0,0.0,0.0,0.0,0.0,-0.03332116580461424,0.0,0.0,-0.03332116580461424,0.0,0.0,0.15,1.0,18.51338589276055,-0.03605765477427094,1.911825020821404,-0.00013304420042076212,-0.05525493785691937,-0.0016289172586783655,18.611873422065063,0.0552791030115984,1.0,0.0,-1.885154541229685,1.8645638091475825,21.162662438547994,85.32748210022089,0.18147237523479218,7.846341299741817,1.0,20.835346675393623,0.0,1.0,87.53690191654472,4739.461051137476,1.0,1.0,-1.8951218293581098,18.642793566258323,-0.005790965511073151,-44.16548821910077,1.0,20.15966351575513,1.0,-0.013840283315854317,4.180330849097613,0.9477630712509209,1.0,0.28335723464815654,7.7313650572821455
0.18,15.62769081196946,0.0,21.309365882970546,88.15214591695799,0.0,6.826669315852168,88.41608588776508,17.967027610426545,0.0,7.289096473856473,0.0,0.0,-2.324131819218925,0.0,2.8608410103677087,0.0,4778.3724076099525,0.25988512003259406,88.41608588776508,1.924102176278503,1.2224959228513945,101069.2691803987,288.0114891217607,0.0,0.0,0.0,361.63,0.19408419689432013,0.86,nominal,4117.675614792559,nan,pitch_program,12.91,0.0,0.0,-2.465492258147511,-0.0,0.0,-2.242960222512521,0.0,0.0,0.86,0.0,0.0,0.0,0.0,0.0,0.0,-0.039147040874108134,0.0,0.0,-0.039147040874108134,0.0,0.0,0.18,1.0,18.722395301246326,-0.04780444576139571,2.0707822345168676,0.00013974800767314763,-0.043132531811431674,-0.0008869940367906495,18.836626824990606,0.043141877432387156,1.0,0.0,-1.885154541229685,1.8645638091475825,21.162662438547994,85.32748210022089,0.18147237523479218,7.846341299741817,1.0,20.083473073800906,0.0,1.0,88.02649605978284,4842.667696522247,1.0,1.0,-0.5428950996559269,18.545494132805594,0.02966309435753329,-44.298865296669945,1.0,21.36299970432775,1.0,0.006974051956994979,4.137638881536074,0.9467265852925736,1.0,-0.5040599611879599,6.931354511358753
0.21,18.28875338347562,0.0,21.509365109477947,88.702085716872,0.0,6.666640883580016,88.95225748228052,17.961205084519715,0.0,7.3583908530681486,0.0,0.0,-2.309812921933199,0.0,3.0602551081538674,0.0,4836.409100534509,0.26146170183112255,88.95225748228052,1.9554552722251854,1.2224724392098258,101066.87149477287,288.01018912678836,0.0,0.0,0.0,367.435,0.19719969827133954,0.86,nominal,4167.186870947827,nan,pitch_program,12.895,0.0,0.0,-2.4251890942813814,-0.0,0.0,-2.3522975455738373,0.0,0.0,0.86,0.0,0.0,0.0,0.0,0.0,0.0,-0.041055337156844826,0.0,0.0,-0.041055337156844826,0.0,0.0,0.21,1.0,19.015788198892793,0.06045326675660328,2.2444984797309786,-0.0011844703614280934,-0.03860383529069305,0.0010356537480328346,19.147888365251315,0.03863588549359098,1.0,0.0,18.15791259743845,-0.8507156713177079,22.53059064180877,88.78304681392605,-0.10696639449047544,6.726218385228926,1.0,20.083473073800906,0.0,1.0,88.80539906745064,4832.93092062345,1.0,1.0,-0.5428950996559269,18.545494132805594,0.02966309435753329,-44.298865296669945,1.0,21.36299970432775,1.0,0.006974051956994979,4.137638881536074,0.9467265852925736,1.0,-0.5040599611879599,6.931354511358753
0.24,20.966545387897153,0.0,21.704780215068432,89.25973348071774,0.0,6.513836853016193,89.49709543664797,17.955289093571576,0.0,7.421470478718536,0.0,0.0,-2.102654400729176,0.0,3.2476405587292363,0.0,4895.745249426913,0.2630637506502275,89.49709543664798,1.9870191278200713,1.222449494162944,101064.52881025113,288.00891892860204,0.0,0.0,0.0,373.24,0.20031519964835895,0.86,nominal,4217.7162286943385,nan,pitch_program,12.88,0.0,0.0,-2.436529234640816,-0.0,0.0,-2.402836559014024,0.0,0.0,0.86,0.0,0.0,0.0,0.0,0.0,0.0,-0.04193740934208576,0.0,0.0,-0.04193740934208576,0.0,0.0,0.24,1.0,19.31687443287298,-0.05931437453800777,2.458853724222343,0.0004014737785476082,-0.036654270896719715,0.0011573760834501412,19.472830243380923,0.03667473620305288,1.0,0.0,18.15791259743845,-0.8507156713177079,22.53059064180877,88.78304681392605,-0.10696639449047544,6.726218385228926,1.0,22.188630893539845,0.0,1.0,89.45005947764496,4890.3418085637495,1.0,1.0,-0.9874075351661772,18.47284255361201,-0.01105574941250553,-44.366377141568655,1.0,21.601088770911293,1.0,0.015553992101837083,4.1244851166897,0.9457380494623289,1.0,-0.5929147826834491,7.378205424401504
0.27,23.66129852424268,0.0,21.895828144440966,89.82510454485103,0.0,6.368264312417766,90.05056466700378,17.949279637582126,0.0,7.466420915886547,0.0,0.0,-1.4983479824521349,0.0,3.41114944135543,0.0,4956.394210273478,0.26469116393353154,90.05056466700378,2.0186326536213155,1.22242706221511,101062.23852302358,288.0076771170611,0.0,0.0,0.0,379.045,0.20343070102537836,0.86,nominal,4269.276821495798,nan,pitch_program,12.865,0.0,0.0,-2.55727270796364,-0.0,0.0,-2.4954982483837935,0.0,0.0,0.86,0.0,0.0,0.0,0.0,0.0,0.0,-0.04355466091204846,0.0,0.0,-0.04355466091204846,0.0,0.0,0.27,1.0,19.52925762258861,-0.02835453910261265,2.614903190497859,0.0019072580176267414,-0.024039096284036117,-0.002090558849283284,19.703563788436824,0.0242050866472582,1.0,0.0,18.15791259743845,-0.8507156713177079,22.53059064180877,88.78304681392605,-0.10696639449047544,6.726218385228926,1.0,22.188630893539845,0.0,1.0,90.1201284882899,4960.861670691598,1.0,1.0,-0.9874075351661772,18.47284255361201,-0.01105574941250553,-44.366377141568655,1.0,21.601088770911293,1.0,0.015553992101837083,4.1244851166897,0.9457380494623289,1.0,-0.5929147826834491,7.378205424401504
0.3,26.373249921963826,0.0,22.082702534109604,90.39837992403814,0.0,6.229146322287903,90.61274389839,17.943176716551363,0.0,7.490204425537437,0.0,0.0,-0.7927836664132903,0.0,3.5483140274750715,0.0,5018.382132688214,0.266344173588249,90.61274389839,2.050251729764188,1.2224051206093114,101059.99830895136,288.00646243352827,0.0,0.0,0.0,384.84999999999997,0.20654620240239774,0.86,nominal,4321.892013203733,nan,pitch_program,12.850000000000001,0.0,0.0,-2.715160882546538,-0.0,0.0,-2.62729582888144,0.0,0.0,0.86,0.0,0.0,0.0,0.0,0.0,0.0,-0.04585496263789466,0.0,0.0,-0.04585496263789466,0.0,0.0,0.3,1.0,19.911433434700793,-0.023144794989114953,2.7470761142291615,-0.0006483740193760299,-0.016093798621415023,0.0011196854561373627,20.100053340312908,0.01614572508301648,1.0,0.0,18.15791259743845,-0.8507156713177079,22.53059064180877,88.78304681392605,-0.10696639449047544,6.726218385228926,1.0,22.08906485306401,0.0,1.0,90.38896124360716,5032.527577266674,1.0,1.0,-0.032100222264470346,18.3127916644862,-0.006038005167106243,-44.36222581766783,1.0,21.919691914621186,1.0,0.0042634016461290366,4.089274607021744,0.944793243664726,1.0,0.49262759900427344,8.0845801778381
0.32999999999999996,29.102643287603925,0.0,22.265570185727235,90.97977885466993,0.0,6.095588387254314,91.18375051636929,17.93698033047929,0.0,7.497966408189535,0.0,0.0,-0.2587327554656837,0.0,3.6649135173633343,0.0,5081.73997822997,0.26802312508724024,91.18375051636929,2.0819141565276866,1.2223836497409626,101057.80616580685,288.00527379379275,0.0,0.0,0.0,390.655,0.20966170377941715,0.86,nominal,4375.5888329776,nan,pitch_program,12.835,0.0,0.0,-2.8391291174061655,-0.0,0.0,-2.7543958019962753,0.0,0.0,0.86,0.0,0.0,0.0,0.0,0.0,0.0,-0.04807327564794481,0.0,0.0,-0.04807327564794481,0.0,0.0,0.32999999999999996,1.0,20.15334596439354,-0.05396740755448139,2.9172477573066216,-0.0008335127957680589,-0.004022854952521819,0.0009767482210283772,20.363462390249996,0.004222812171648238,1.0,0.0,18.15791259743845,-0.8507156713177079,22.53059064180877,88.78304681392605,-0.10696639449047544,6.726218385228926,1.0,22.08906485306401,0.0,1.0,90.87802407909837,5071.858415811021,1.0,1.0,-0.032100222264470346,18.3127916644862,-0.006038005167106243,-44.36222581766783,1.0,21.919691914621186,1.0,0.0042634016461290366,4.089274607021744,0.944793243664726,1.0,0.49262759900427344,8.0845801778381
0.36,31.84972699744148,0.0,22.444580843305577,91.5694569945851,0.0,5.967021919278047,91.76366821824591,17.930690479365907,0.0,7.495948810638605,0.0,0.0,0.06725325170463956,0.0,3.7676043027493864,0.0,5146.4955460314,0.26972826483725704,91.7636682182459,2.1136511027526335,1.222362632009692,101055.6602960348,288.0041102245185,0.0,0.0,0.0,396.46,0.21277720515643656,0.86,nominal,4430.391551161159,nan,pitch_program,12.82,0.0,0.0,-2.9165499044402563,-0.0,0.0,-2.851688263462664,0.0,0.0,0.86,0.0,0.0,0.0,0.0,0.0,0.0,-0.049771349437903,0.0,0.0,-0.049771349437903,0.0,0.0,0.36,1.0,20.54526930593075,0.04056869726443273,2.985146839228727,-0.0017116473741721086,0.0006612878101991434,0.0002472742290717788,20.761041359338773,0.0018515352672286033,1.0,0.0,18.15791259743845,-0.8507156713177079,22.53059064180877,88.78304681392605,-0.10696639449047544,6.726218385228926,1.0,23.007612118487227,0.0,1.0,91.37879736266909,5124.012921953597,1.0,1.0,0.24703569469091746,18.423414859299807,0.05777323077028381,-44.3870568993559,1.0,22.24264327146497,1.0,0.008474791280591054,4.084088373288474,0.943888547891736,1.0,-0.12522865530984933,7.282012422683893
0.39,34.614751993909245,0.0,22.6198764718499,92.16749988225892,0.0,5.843187618144069,92.35253584004627,17.924307163211214,0.0,7.487253094271877,0.0,0.0,0.2898572127806597,0.0,3.85969962337037,0.0,5212.672099065854,0.27145970736324604,92.35253584004627,2.145450708994319,1.2223420507297686,101053.5589955038,288.00297080293296,0.0,0.0,0.0,402.265,0.21589270653345596,0.86,nominal,4486.320649646183,nan,pitch_program,12.805,0.0,0.0,-2.97186114388092,-0.0,0.0,-2.9237919917136175,0.0,0.0,0.86,0.0,0.0,0.0,0.0,0.0,0.0,-0.05102979689884539,0.0,0.0,-0.05102979689884539,0.0,0.0,0.39,1.0,20.81651048515513,-0.03998306635079582,3.1232136302253366,-0.004200210305302578,0.005170430049053935,0.0021403138457621635,21.049540869201724,0.0069968605002022925,1.0,0.0,18.15791259743845,-0.8507156713177079,22.53059064180877,88.78304681392605,-0.10696639449047544,6.726218385228926,1.0,23.007612118487227,0.0,1.0,91.52965767842944,5179.738019887575,1.0,1.0,0.24703569469091746,18.423414859299807,0.05777323077028381,-44.3870568993559,1.0,22.24264327146497,1.0,0.008474791280591054,4.084088373288474,0.943888547891736,1.0,-0.12522865530984933,7.282012422683893
0.42,37.397970988709325,0.0,22.791594011723976,92.77396649333592,0.0,5.723917995802586,92.95037437326053,17.91783038201521,0.0,7.472334095737439,0.0,0.0,0.49729995395766585,0.0,3.941805291552594,0.0,5280.291278019596,0.27321751472790357,92.95037437326052,2.155389216258753,1.2223218898066133,101051.50062047581,288.00185463892376,0.0,0.0,0.0,404.1773684210526,0.21691906078826353,0.86,nominal,4543.395233479718,nan,pitch_program,12.79,0.0,0.0,-3.0268670673335376,-0.0,0.0,-2.9856370370855694,0.0,0.0,0.86,0.0,0.0,0.0,0.0,0.0,0.0,-0.05210919656663123,0.0,0.0,-0.05210919656663123,0.0,0.0,0.42,1.0,20.86093075004675,-0.028261817516269515,3.260577851870793,-4.435109278206495e-05,0.009880472612281482,0.001005012113417697,21.11422739331671,0.009931553524479024,1.0,0.0,38.98501038315757,0.8561697855581142,23.12014395398818,92.794233764703,-0.01429878191719496,5.712280891600675,1.0,23.190533407759474,0.0,1.0,93.14007569346379,5282.389393205666,1.0,1.0,1.0151129233973093,18.3792321847813,0.018258774712861983,-44.30133916143864,1.0,22.72556529396938,1.0,0.016688064665782515,4.0590557430200525,0.94302101497069,1.0,0.4032278623625569,7.101417097442554
0.44999999999999996,40.19944474860826,0.0,22.959838624392784,93.38245866329784,0.0,5.608153755626969,93.55070803873845,17.911322810191564,0.0,7.4512234926832415,0.0,0.0,0.7036867764340459,0.0,4.014410259035693,0.0,5348.632180389922,0.2749826523133298,93.55070803873845,2.1544139837453704,1.2223021368778086,101049.48390829029,288.0007610489414,0.0,0.0,0.0,404.14342105263154,0.21690084148196515,0.86,nominal,4601.026588720543,nan,pitch_program,12.775,0.0,0.0,-3.0850799752796156,-0.0,0.0,-3.0453028000019975,0.0,0.0,0.86,0.0,0.0,0.0,0.0,0.0,0.0,-0.05315056058023723,0.0,0.0,-0.05315056058023723,0.0,0.0,0.44999999999999996,1.0,20.89110868327675,0.03480239865722864,3.373490150398316,0.003273383298076893,0.014339235892098708,0.0006495057299919682,21.16175959173216,0.014722451625957988,1.0,0.0,38.98501038315757,0.8561697855581142,23.12014395398818,92.794233764703,-0.01429878191719496,5.712280891600675,1.0,23.190533407759474,0.0,1.0,93.13119374678512,5385.294198574349,1.0,1.0,1.0151129233973093,18.3792321847813,0.018258774712861983,-44.30133916143864,1.0,22.72556529396938,1.0,0.016688064665782515,4.0590557430200525,0.94302101497069,1.0,0.4032278623625569,7.101417097442554
0.48,43.01913915280134,0.0,23.124695303540094,93.98981347310264,0.0,5.495222638243633,94.15031868534749,17.904815784947104,0.0,7.424671501005863,0.0,0.0,0.8850664050854897,0.0,4.078616924212972,0.0,5417.3299422705595,0.276745660778391,94.15031868534749,2.1534715976598164,1.2222827819496451,101047.50783815203,287.99968948052697,0.0,0.0,0.0,404.1094736842105,0.2168826221756668,0.86,nominal,4658.917047474708,nan,pitch_program,12.76,0.0,0.0,-3.140095192911563,-0.0,0.0,-3.1021782357477368,0.0,0.0,0.86,0.0,0.0,0.0,0.0,0.0,0.0,-0.05414322419750686,0.0,0.0,-0.05414322419750686,0.0,0.0,0.48,1.0,20.845805843271023,0.012525986310875077,3.452645194479446,-0.0009259558692904829,0.01568457143051238,0.002863435715449263,21.12980210495705,0.015970674354178944,1.0,0.0,38.98501038315757,0.8561697855581142,23.12014395398818,92.794233764703,-0.01429878191719496,5.712280891600675,1.0,24.520286557151778,0.0,1.0,94.00239638618862,5360.212481452436,1.0,1.0,-0.341560527222041,18.39210978638994,-0.01746976429002118,-44.30540884304842,1.0,23.27693698110055,1.0,0.007915542794734144,4.076271849131108,0.9421882617411498,1.0,0.636746191090788,7.7739116187038455
0.51,45.857021957403596,0.0,23.286242350293822,94.59609348674186,0.0,5.384901558457562,94.74923782145524,17.898309306281835,0.0,7.393892885878138,0.0,0.0,1.0259538622625504,0.0,4.135835353135741,0.0,5486.386631824921,0.2785066327709817,94.74923782145524,2.1525638673666903,1.2222638158149173,101045.57146958947,287.9986394247231,0.0,0.0,0.0,404.0755263157895,0.21686440286936848,0.86,nominal,4717.0690624178515,nan,pitch_program,12.745,0.0,0.0,-3.1873637437376976,-0.0,0.0,-3.153289540541713,0.0,0.0,0.86,0.0,0.0,0.0,0.0,0.0,0.0,-0.05503528475115211,0.0,0.0,-0.05503528475115211,0.0,0.0,0.51,1.0,20.793700267481675,0.06853486531179354,3.6137041869625866,0.0007061520466158617,0.018849709429752982,-0.0019268357040249766,21.105485680090418,0.018961088896193797,1.0,0.0,38.98501038315757,0.8561697855581142,23.12014395398818,92.794233764703,-0.01429878191719496,5.712280891600675,1.0,24.520286557151778,0.0,1.0,93.75884593946044,5481.9474670196305,1.0,1.0,-0.341560527222041,18.39210978638994,-0.01746976429002118,-44.30540884304842,1.0,23.27693698110055,1.0,0.007915542794734144,4.076271849131108,0.9421882617411498,1.0,0.636746191090788,7.7739116187038455
0.54,48.713062390197706,0.0,23.44455305666712,95.2013477598038,0.0,5.27702354577665,95.34748865484492,17.891803374195753,0.0,7.359939956099115,0.0,0.0,1.1317643590869828,0.0,4.187273851117574,0.0,5555.803445105646,0.28026563653167696,95.34748865484492,2.1516903349572716,1.2222452298552224,101043.67392226783,287.99761040513164,0.0,0.0,0.0,404.0415789473684,0.2168461835630701,0.86,nominal,4775.484322626055,nan,pitch_program,12.73,0.0,0.0,-3.227652042534577,-0.0,0.0,-3.197907041737431,0.0,0.0,0.86,0.0,0.0,0.0,0.0,0.0,0.0,-0.0558140070510299,0.0,0.0,-0.0558140070510299,0.0,0.0,0.54,1.0,20.80673431693664,-0.011959623866143985,3.685720849998367,0.00258475109658373,0.021285778306034005,-0.000786372376342729,21.130661943069946,0.021456553260931578,1.0,0.0,38.98501038315757,0.8561697855581142,23.12014395398818,92.794233764703,-0.01429878191719496,5.712280891600675,1.0,23.621649063813532,0.0,1.0,95.00184346662552,5539.594670587091,1.0,1.0,0.6010780516446778,18.45539125655832,-0.00910350250981173,-44.24086251144945,1.0,23.63842360862492,1.0,-0.0028495226081697673,4.044911547785855,0.9413886173583322,1.0,0.0064165621930257054,7.2397804962622665
0.57,51.587230819273586,0.0,23.59969697092817,95.80561430252935,0.0,5.171463808701682,95.94508726250515,17.885297988688862,0.0,7.323467284727976,0.0,0.0,1.2157557534251997,0.0,4.233713361566031,0.0,5625.580812185803,0.2820227193354992,95.94508726250515,2.1508458044023264,1.222227015892348,101041.81436081491,287.9966019696889,0.0,0.0,0.0,404.0076315789474,0.21682796425677175,0.86,nominal,4834.163853204816,nan,pitch_program,12.715,0.0,0.0,-3.2639095047322693,-0.0,0.0,-3.237508519534334,0.0,0.0,0.86,0.0,0.0,0.0,0.0,0.0,0.0,-0.05650518322724128,0.0,0.0,-0.05650518322724128,0.0,0.0,0.57,1.0,20.782827686572766,0.012149172236429435,3.733425201748899,0.0034063518963941427,0.023907683282658746,-0.0048126073959461535,21.115504682323255,0.024624007454788998,1.0,0.0,38.98501038315757,0.8561697855581142,23.12014395398818,92.794233764703,-0.01429878191719496,5.712280891600675,1.0,23.621649063813532,0.0,1.0,96.33231536604825,5656.773080043072,1.0,1.0,0.6010780516446778,18.45539125655832,-0.00910350250981173,-44.24086251144945,1.0,23.63842360862492,1.0,-0.0028495226081697673,4.044911547785855,0.9413886173583322,1.0,0.0064165621930257054,7.2397804962622665
0.6,54.47949857871657,0.0,23.751740449520476,96.4089253147662,0.0,5.068115953076802,96.54204617503193,17.878793149761158,0.0,7.28489297446375,0.0,0.0,1.2858103907085225,0.0,4.27568395641462,0.0,5695.718793757165,0.2837779180291677,96.54204617503191,2.1500243507890264,1.2222091661234344,101039.99198820005,287.9956136870781,0.0,0.0,0.0,403.9736842105263,0.21680974495047337,0.86,nominal,4893.108345310288,nan,pitch_program,12.7,0.0,0.0,-3.2978738401382297,-0.0,0.0,-3.2737277118966714,0.0,0.0,0.86,0.0,0.0,0.0,0.0,0.0,0.0,-0.05713732738637725,0.0,0.0,-0.05713732738637725,0.0,0.0,0.6,1.0,20.775409096318405,0.03723658218695693,3.872050221263445,-0.00218884881802764,0.026981165117181835,0.0005021721522843135,21.13319149107462,0.02707446226796279,1.0,0.0,38.98501038315757,0.8561697855581142,23.12014395398818,92.794233764703,-0.01429878191719496,5.712280891600675,1.0,23.95433550346537,0.0,1.0,96.59578604559472,5723.380822247452,1.0,1.0,-2.0884129315731466,18.545374379122947,-0.05198653732366435,-44.31726602465389,1.0,23.329423156791922,1.0,0.0059601927122216744,4.048601278041474,0.9406206488761988,1.0,-0.031199227627410092,7.2300041352988575
0.63,57.38983787002692,0.0,23.900746916517196,97.01130971034509,0.0,4.9668822332240365,97.13837620032163,17.872288857412645,0.0,7.244604238392249,0.0,0.0,1.3429579243855354,0.0,4.3136767084159064,0.0,5766.217284559927,0.285531264392114,97.13837620032163,2.149222699639118,1.2221916730904714,101038.20604261864,287.9946451450426,0.0,0.0,0.0,403.9397368421053,0.21679152564417503,0.86,nominal,4952.318325166469,nan,pitch_program,12.685,0.0,0.0,-3.329586651522537,-0.0,0.0,-3.307243075672191,0.0,0.0,0.86,0.0,0.0,0.0,0.0,0.0,0.0,-0.05772228083426371,0.0,0.0,-0.05772228083426371,0.0,0.0,0.63,1.0,20.745537896400915,0.0482501784753116,3.965237912528996,0.000997562163779802,0.021454065830449228,0.0018119332194381364,21.121145385458778,0.021553542004031673,1.0,0.0,57.711938243444145,-1.4405247638228156,24.37104372039117,97.22219282570329,0.11105817103984193,4.933238397560012,1.0,23.95433550346537,0.0,1.0,97.35629943053848,5766.5779534225485,1.0,1.0,-2.0884129315731466,18.545374379122947,-0.05198653732366435,-44.31726602465389,1.0,23.329423156791922,1.0,0.0059601927122216744,4.048601278041474,0.9406206488761988,1.0,-0.031199227627410092,7.2300041352988575
0.6599999999999999,60.318221653998606,0.0,24.046777210422086,97.6127927990561,0.0,4.867676463496278,97.73408613265248,17.86578511164332,0.0,7.203007411569141,0.0,0.0,1.3865609550056537,0.0,4.348192256123704,0.0,5837.075972159091,0.28728278428211224,97.73408613265248,2.1484399892487307,1.2221745296395556,101036.45579333146,287.99369594813226,0.0,0.0,0.0,403.9057894736842,0.21677330633787664,0.86,nominal,5011.794123822952,nan,pitch_program,12.67,0.0,0.0,-3.358661826359762,-0.0,0.0,-3.3380943260847338,0.0,0.0,0.86,0.0,0.0,0.0,0.0,0.0,0.0,-0.05826073673231984,0.0,0.0,-0.05826073673231984,0.0,0.0,0.6599999999999999,1.0,20.645713925432165,0.01932912714719676,3.9794074877107226,0.0011141667637941386,0.020544606090577483,0.002382543117453245,21.025735684136908,0.02071228424633702,1.0,0.0,57.711938243444145,-1.4405247638228156,24.37104372039117,97.22219282570329,0.11105817103984193,4.933238397560012,1.0,23.987774567558617,0.0,1.0,98.39662515872968,5693.518070745865,1.0,1.0,-1.670335623109286,18.656928252161382,0.0066186895430424015,-44.23764108432618,1.0,24.087448354088437,1.0,0.005384943889153253,4.042647331968665,0.9398830569739448,1.0,-0.05654672738215016,7.656962039438371
0.69,63.264623521418166,0.0,24.189890043755277,98.21339558065203,0.0,4.770427777773081,98.32918210106595,17.859281912453184,0.0,7.1604732610162465,0.0,0.0,1.4178050835425733,0.0,4.379684214610624,0.0,5908.2942510516705,0.2890324957210591,98.32918210106597,2.147675842452721,1.2221577288668986,101034.74053515139,287.9927657147156,0.0,0.0,0.0,403.8718421052631,0.21675508703157828,0.86,nominal,5071.535811529888,nan,pitch_program,12.655,0.0,0.0,-3.385188697794414,-0.0,0.0,-3.3663509491105423,0.0,0.0,0.86,0.0,0.0,0.0,0.0,0.0,0.0,-0.05875390783961504,0.0,0.0,-0.05875390783961504,0.0,0.0,0.69,1.0,20.68137275153855,0.03405703130360546,4.143656140460811,-0.00024342411824013636,0.025451881202956935,0.002091143341679508,21.092421031731778,0.025538801705370283,1.0,0.0,57.711938243444145,-1.4405247638228156,24.37104372039117,97.22219282570329,0.11105817103984193,4.933238397560012,1.0,23.987774567558617,0.0,1.0,97.57616947422255,5917.292822211158,1.0,1.0,-1.670335623109286,18.656928252161382,0.0066186895430424015,-44.23764108432618,1.0,24.087448354088437,1.0,0.005384943889153253,4.042647331968665,0.9398830569739448,1.0,-0.05654672738215016,7.656962039438371
0.72,66.22901757278866,0.0,24.330142425809356,98.81313504568304,0.0,4.675079401802671,98.92366766840762,17.852779259842237,0.0,7.117295844620852,0.0,0.0,1.439247281291574,0.0,4.40851911711038,0.0,5979.871224720379,0.2907804091871927,98.92366766840762,2.146929346532493,1.222141264069176,101033.05958337357,287.9918540742322,0.0,0.0,0.0,403.8378947368421,0.21673686772527995,0.86,nominal,5131.54320370484,nan,pitch_program,12.64,0.0,0.0,-3.4096422221564584,-0.0,0.0,-3.392325712938092,0.0,0.0,0.86,0.0,0.0,0.0,0.0,0.0,0.0,-0.05920725299083371,0.0,0.0,-0.05920725299083371,0.0,0.0,0.72,1.0,20.61948119765707,-0.007930072127170567,4.227685567067179,0.0025088031883426986,0.0252425809421196,-0.0021429161886015883,21.048429703912962,0.025457299068217525,1.0,0.0,57.711938243444145,-1.4405247638228156,24.37104372039117,97.22219282570329,0.11105817103984193,4.933238397560012,1.0,23.58695181135242,0.0,1.0,98.80367246346796,5962.378435565359,1.0,1.0,0.2874945668536168,18.618421640489636,-0.004236792949381907,-44.199323293366554,1.0,24.907830799889037,1.0,0.005990995406906327,4.059364118000056,0.9391746439354766,1.0,-0.44453082773386493,6.7694177171220735
0.75,69.21137832586886,0.0,24.46758996761267,99.41202510267323,0.0,4.581584726777135,99.51754445133365,17.84627715381048,0.0,7.073703726771208,0.0,0.0,1.453070665081409,0.0,4.434990240500085,0.0,6051.805771561012,0.2925265294383322,99.51754445133366,2.1461993794117737,1.2221251287076995,101031.4122701166,287.9909606652105,0.0,0.0,0.0,403.80394736842106,0.21671864841898159,0.86,nominal,5191.815917967473,nan,pitch_program,12.625,0.0,0.0,-3.432440431368455,-0.0,0.0,-3.4163945439963097,0.0,0.0,0.86,0.0,0.0,0.0,0.0,0.0,0.0,-0.05962733333990588,0.0,0.0,-0.05962733333990588,0.0,0.0,0.75,1.0,20.57166928893986,0.011625204899593356,4.221451654631502,0.0011903280909354376,0.029103941409909063,0.0013521571613500842,21.000342057959234,0.029159640182013218,1.0,0.0,57.711938243444145,-1.4405247638228156,24.37104372039117,97.22219282570329,0.11105817103984193,4.933238397560012,1.0,23.58695181135242,0.0,1.0,99.93815489904964,6035.291074269855,1.0,1.0,0.2874945668536168,18.618421640489636,-0.004236792949381907,-44.199323293366554,1.0,24.907830799889037,1.0,0.005990995406906327,4.059364118000056,0.9391746439354766,1.0,-0.44453082773386493,6.7694177171220735
0.78,72.21168064507359,0.0,24.60228710268361,100.0100773068242,0.0,4.489904502364646,100.11081262959215,17.83977559435791,0.0,7.029889912869427,0.0,0.0,1.4604605345607218,0.0,4.459349407034723,0.0,6124.096600020459,0.2942708570094214,100.11081262959215,2.1454852045843875,1.2221093163824785,101029.79794167404,287.9900851338325,0.0,0.0,0.0,403.77,0.21670042911268322,0.86,nominal,5252.353421494186,nan,pitch_program,12.61,0.0,0.0,-3.453771700306649,-0.0,0.0,-3.438820837782513,0.0,0.0,0.86,0.0,0.0,0.0,0.0,0.0,0.0,-0.06001874600549467,0.0,0.0,-0.06001874600549467,0.0,0.0,0.78,1.0,20.57708540860323,-0.06683260163433906,4.327553612159817,0.0007836953734760417,0.024752988653322892,-0.0002538655740981199,21.027330567043236,0.024766692824025816,1.0,0.0,57.711938243444145,-1.4405247638228156,24.37104372039117,97.22219282570329,0.11105817103984193,4.933238397560012,1.0,23.55136418553855,0.0,1.0,100.15190667254792,6211.417779232021,1.0,1.0,0.02320020698432135,18.758895676133797,0.020512500027092834,-44.22373080848532,1.0,24.40958895500158,1.0,0.02958593775135763,4.059369383379115,0.938494282243291,1.0,-0.3641198977541506,6.509991824758309
0.8099999999999999,75.22989967981984,0.0,24.734287282360803,100.60730115820857,0.0,4.4000059892397365,100.70347113701604,17.83327458148453,0.0,6.986026513368275,0.0,0.0,1.4621133881150998,0.0,4.48182232157876,0.0,6196.742266799903,0.2960133887744374,100.70347113701602,2.1447865546105387,1.2220938208092724,101028.21595617077,287.9892271326646,0.0,0.0,0.0,403.73605263157896,0.21668220980638486,0.86,nominal,5313.155047899475,nan,pitch_program,12.595,0.0,0.0,-3.4737138014475484,-0.0,0.0,-3.4597566159815343,0.0,0.0,0.86,0.0,0.0,0.0,0.0,0.0,0.0,-0.060384144266534844,0.0,0.0,-0.060384144266534844,0.0,0.0,0.8099999999999999,1.0,20.613599428006655,-0.01909293271997271,4.478264230887356,0.001127163187817565,0.02496719490997198,0.0027680952868012225,21.094447052246743,0.025145450285117447,1.0,0.0,57.711938243444145,-1.4405247638228156,24.37104372039117,97.22219282570329,0.11105817103984193,4.933238397560012,1.0,23.55136418553855,0.0,1.0,99.88384267575196,6148.05127386609,1.0,1.0,0.02320020698432135,18.758895676133797,0.020512500027092834,-44.22373080848532,1.0,24.40958895500158,1.0,0.02958593775135763,4.059369383379115,0.938494282243291,1.0,-0.3641198977541506,6.509991824758309
0.84,78.26601080695858,0.0,24.86364316369239,101.20370423795792,0.0,4.311862711052951,101.295517726714,17.82677411519034,0.0,6.942263137419798,0.0,0.0,1.4587792692051804,0.0,4.502607270302401,0.0,6269.741180324952,0.2977541181385132,101.29551772671401,2.144103342989798,1.2220786357975169,101026.66568130888,287.98838631943596,0.0,0.0,0.0,403.7021052631579,0.2166639905000865,0.86,nominal,5374.2200019927395,nan,pitch_program,12.58,0.0,0.0,-3.4923704044905546,-0.0,0.0,-3.4793248890869464,0.0,0.0,0.86,0.0,0.0,0.0,0.0,0.0,0.0,-0.060725675061153735,0.0,0.0,-0.060725675061153735,0.0,0.0,0.84,1.0,20.50230470505062,0.05166430092585032,4.460074822733408,0.0012661216670166629,0.029257122621765486,-5.870225580505489e-05,20.981883491314868,0.029284564776269895,1.0,0.0,77.8600339312021,0.11040984545368764,24.968544340236,101.2126795848166,0.017043018975863612,4.259644002049987,1.0,26.009958581193633,0.0,1.0,101.05414616688392,6287.980374073702,1.0,1.0,-0.2524767918030103,18.706855319275164,0.042477749502781575,-44.15385849565438,1.0,24.692007237915195,1.0,-0.015716378217716927,4.064713180084689,0.937840892090769,1.0,0.559642409700591,7.381516220056872
0.87,81.31998957956871,0.0,24.990406776310675,101.79929242033784,0.0,4.225453753942757,101.88694909902918,17.82027419547534,0.0,6.898723982802532,0.0,0.0,1.4513052237469037,0.0,4.521872759799798,0.0,6343.091612332483,0.299493035414519,101.88694909902917,2.1434354562268867,1.222063755230716,101025.14649236551,287.98756235595397,0.0,0.0,0.0,403.66815789473685,0.21664577119378817,0.86,nominal,5435.547370966988,nan,pitch_program,12.565,0.0,0.0,-3.5098835855931454,-0.0,0.0,-3.497660106990666,0.0,0.0,0.86,0.0,0.0,0.0,0.0,0.0,0.0,-0.061045684982644254,0.0,0.0,-0.061045684982644254,0.0,0.0,0.87,1.0,20.466754307011225,-0.0032009294677551336,4.570443369956067,-0.0007627910474587565,0.02493457821242811,0.001423801640237294,20.970860609605115,0.02498684157560775,1.0,0.0,77.8600339312021,0.11040984545368764,24.968544340236,101.2126795848166,0.017043018975863612,4.259644002049987,1.0,26.009958581193633,0.0,1.0,101.64821184630758,6281.785351486666,1.0,1.0,-0.2524767918030103,18.706855319275164,0.042477749502781575,-44.15385849565438,1.0,24.692007237915195,1.0,-0.015716378217716927,4.064713180084689,0.937840892090769,1.0,0.559642409700591,7.381516220056872
0.8999999999999999,84.39181168417181,0.0,25.114629658129633,102.39407015343653,0.0,4.140762727298672,102.47776109259348,17.813774822339525,0.0,6.855510946316375,0.0,0.0,1.4404346178190772,0.0,4.539761347118622,0.0,6416.791717938142,0.30123012838503016,102.4777610925935,2.142782769704812,1.222049173050499,101023.65777056437,287.9867549072221,0.0,0.0,0.0,403.6342105263158,0.2166275518874898,0.86,nominal,5497.136142212231,nan,pitch_program,12.55,0.0,0.0,-3.5263819283650206,-0.0,0.0,-3.5148931998152784,0.0,0.0,0.86,0.0,0.0,0.0,0.0,0.0,0.0,-0.061346459192735556,0.0,0.0,-0.061346459192735556,0.0,0.0,0.8999999999999999,1.0,20.498404011069898,-0.010573689704318741,4.596680836764276,0.00044742135249231185,0.025091346541639067,0.00382627890876341,21.007478514068183,0.025385355373264654,1.0,0.0,77.8600339312021,0.11040984545368764,24.968544340236,101.2126795848166,0.017043018975863612,4.259644002049987,1.0,25.100717499229464,0.0,1.0,101.94710142086365,6550.899032963918,1.0,1.0,-2.017714388591032,18.936459416390978,-0.03530780576572019,-44.0778249822636,1.0,25.254893168902928,1.0,0.0004759712891396072,4.066665425056569,0.9372134258546759,1.0,0.18807463782397235,6.636261316945411
0.9299999999999999,87.48145290524516,0.0,25.23636296501681,102.98804070244522,0.0,4.057776896239186,103.06794885447253,17.8072759957829,0.0,6.812709335327105,0.0,0.0,1.4267204326577732,0.0,4.55639594858111,0.0,6490.839553918038,0.3029653828027642,103.06794885447253,2.1421452305641075,1.2220348832437338,101022.19890176012,287.9859636407274,0.0,0.0,0.0,403.6002631578947,0.21660933258119142,0.86,nominal,5558.9852194049645,nan,pitch_program,12.535000000000002,0.0,0.0,-3.5419556591103807,-0.0,0.0,-3.53113067539234,0.0,0.0,0.86,0.0,0.0,0.0,0.0,0.0,0.0,-0.06162985660376744,0.0,0.0,-0.06162985660376744,0.0,0.0,0.9299999999999999,1.0,20.441486594769433,-0.03394187802056017,4.656805140937262,-0.0007921764512016805,0.026043883319484484,-0.001474918900734763,20.9652417199488,0.026097639503459027,1.0,0.0,77.8600339312021,0.11040984545368764,24.968544340236,101.2126795848166,0.017043018975863612,4.259644002049987,1.0,25.100717499229464,0.0,1.0,102.95399676061362,6453.153098538915,1.0,1.0,-2.017714388591032,18.936459416390978,-0.03530780576572019,-44.0778249822636,1.0,25.254893168902928,1.0,0.0004759712891396072,4.066665425056569,0.9372134258546759,1.0,0.18807463782397235,6.636261316945411
0.96,90.58888909476808,0.0,25.355657564188796,103.58120631743041,0.0,3.9764866390661937,103.65750695518756,17.800777715805463,0.0,6.770391524922334,0.0,0.0,1.410593744283244,0.0,4.57188389154446,0.0,6565.233090757788,0.3046987827289489,103.65750695518759,2.141522866687939,1.2220208798315453,101020.76927531646,287.98518822583276,0.0,0.0,0.0,403.56631578947366,0.21659111327489305,0.86,nominal,5621.093433334231,nan,pitch_program,12.520000000000001,0.0,0.0,-3.556671726484651,-0.0,0.0,-3.5464553060477266,0.0,0.0,0.86,0.0,0.0,0.0,0.0,0.0,0.0,-0.06189732186535599,0.0,0.0,-0.06189732186535599,0.0,0.0,0.96,1.0,20.41488594767681,0.0403044881716855,4.801022401393572,0.005810731508932576,0.024219917222877578,-0.0017345670483146591,20.971862311370963,0.02496753319407111,1.0,0.0,77.8600339312021,0.11040984545368764,24.968544340236,101.2126795848166,0.017043018975863612,4.259644002049987,1.0,25.07323164964012,0.0,1.0,103.15861662391801,6579.630849617104,1.0,1.0,0.32106353464181236,18.971220607562014,0.01749869089294133,-44.125438349539074,1.0,25.504805443127015,1.0,0.008488511521670595,4.063609252583687,0.936610856089528,1.0,-0.2852912671137542,6.553081986526138
0.99,93.7140961456073,0.0,25.472564115651245,104.17356836130743,0.0,3.8968850487482602,104.24642947464028,17.794279982407215,0.0,6.728618249937269,0.0,0.0,1.392442561182588,0.0,4.586318506857858,0.0,6639.970221502619,0.3064303107861314,104.24642947464028,2.1409157365465736,1.222007156859751,101019.3682831295,287.9844283332482,0.0,0.0,0.0,403.53236842105264,0.21657289396859472,0.86,nominal,5683.459549990327,nan,pitch_program,12.505,0.0,0.0,-3.570592794362136,-0.0,0.0,-3.560937799036372,0.0,0.0,0.86,0.0,0.0,0.0,0.0,0.0,0.0,-0.062150089051904854,0.0,0.0,-0.062150089051904854,0.0,0.0,0.99,1.0,20.488522898167915,0.02423630645272609,4.865727443884059,-0.0014060586879246736,0.02462863414449648,0.003593470265315887,21.05838221482049,0.02492909243043268,1.0,0.0,77.8600339312021,0.11040984545368764,24.968544340236,101.2126795848166,0.017043018975863612,4.259644002049987,1.0,25.07323164964012,0.0,1.0,103.5593141009406,6596.205566856417,1.0,1.0,0.32106353464181236,18.971220607562014,0.01749869089294133,-44.125438349539074,1.0,25.504805443127015,1.0,0.008488511521670595,4.063609252583687,0.936610856089528,1.0,-0.2852912671137542,6.553081986526138
1.02,96.85704996859496,0.0,25.58713314136678,104.76512743292233,0.0,3.818967523851223,104.8347100868061,17.787782795588157,0.0,6.687439548538584,0.0,0.0,1.3726234390402534,0.0,4.599780367738625,0.0,6715.048770831236,0.30815994840733824,104.83471008680611,2.140323893508031,1.2219937083907273,101017.99531879691,287.9836836345811,0.0,0.0,0.0,403.49842105263156,0.21655467466229633,0.86,nominal,5746.0822787131265,nan,pitch_program,12.49,0.0,0.0,-3.5837796235295634,-0.0,0.0,-3.574642893732287,0.0,0.0,0.86,0.0,0.0,0.0,0.0,0.0,0.0,-0.06238928807864618,0.0,0.0,-0.06238928807864618,0.0,0.0,1.02,1.0,20.371850275942386,-0.003617189695431459,4.955245180134928,-0.0012687287302588265,0.024872587617027285,0.0009741654625859581,20.9658472651292,0.02492397010321948,1.0,0.0,77.8600339312021,0.11040984545368764,24.968544340236,101.2126795848166,0.017043018975863612,4.259644002049987,1.0,25.416543726313837,0.0,1.0,105.00636129244641,6836.065473767673,1.0,1.0,0.20716255069020592,18.981477627981622,-0.02774534788802444,-44.06798211071773,1.0,25.64602347714872,1.0,0.004000979885722656,4.111357331825129,0.936032167146583,1.0,-0.2350183702845472,6.342230373328141
1.05,100.01772647316851,0.0,25.699415082156882,105.35588348578493,0.0,3.742731359670086,105.42234214387834,17.781286155348287,0.0,6.646896317055387,0.0,0.0,1.3514411058305826,0.0,4.612339129209695,0.0,6790.4665044343865,0.3098876760835869,105.42234214387834,2.1397473863183474,1.2219805284967127,101016.64977693402,287.98295380196595,0.0,0.0,0.0,403.46447368421053,0.216536455355998,0.86,nominal,5808.960280465907,nan,pitch_program,12.475,0.0,0.0,-3.5962851127409983,-0.0,0.0,-3.5876282251375136,0.0,0.0,0.86,0.0,0.0,0.0,0.0,0.0,0.0,-0.06261592486613,0.0,0.0,-0.06261592486613,0.0,0.0,1.05,1.0,20.404820688693565,0.023065120251563386,4.99600887769781,-0.0009619480502852831,0.025107852629869785,-0.000216186253064102,21.00755445175722,0.025127203271170483,1.0,0.0,100.9448943336209,-0.5143213134600304,25.16123207933974,105.46666543942736,-0.10413279965858194,3.729328753249817,1.0,25.416543726313837,0.0,1.0,105.06449029074179,6692.721107056503,1.0,1.0,0.20716255069020592,18.981477627981622,-0.02774534788802444,-44.06798211071773,1.0,25.64602347714872,1.0,0.004000979885722656,4.111357331825129,0.936032167146583,1.0,-0.2350183702845472,6.342230373328141
1.08,103.19610155105909,0.0,25.809460344274992,105.94583592968577,0.0,3.6681754039369525,106.00931874903237,17.774790061687607,0.0,6.607021974356934,0.0,0.0,1.3291448102605417,0.0,4.624055431877816,0.0,6866.2211372906295,0.3116134735779206,106.00931874903237,2.1391862682135403,1.2219676112543414,101015.33105261535,287.9822385077622,0.0,0.0,0.0,403.43052631578945,0.21651823604969964,0.86,nominal,5872.092175102157,nan,pitch_program,12.46,0.0,0.0,-3.608152458261448,-0.0,0.0,-3.5999427650118743,0.0,0.0,0.86,0.0,0.0,0.0,0.0,0.0,0.0,-0.06283085413280573,0.0,0.0,-0.06283085413280573,0.0,0.0,1.08,1.0,20.317146202916405,-0.022853924830118926,5.137791286802834,6.010971362783861e-05,0.023347818598026593,0.0015833385952579505,20.956713755722955,0.023401521479836783,1.0,0.0,100.9448943336209,-0.5143213134600304,25.16123207933974,105.46666543942736,-0.10413279965858194,3.729328753249817,1.0,26.227274262573207,0.0,1.0,105.82543306716242,6857.785672085805,1.0,1.0,0.7264451323418568,19.072748716242536,-0.02658840919779483,-43.99721330371421,1.0,25.75410192470577,1.0,-0.0045325187658295995,4.104189715248792,0.9354763491393125,1.0,-0.808246265656688,6.679078746784222
1.1099999999999999,106.39215106244094,0.0,25.91731933789565,106.53498371272838,0.0,3.5952997873551933,106.59563281500915,17.768294514606115,0.0,6.567843669807633,0.0,0.0,1.3059435358615876,0.0,4.6349823003808455,0.0,6942.310340414929,0.3133373200977357,106.59563281500915,2.138640593684682,1.221954950740108,101014.03854091128,287.98153742430367,0.0,0.0,0.0,403.3965789473684,0.21650001674340127,0.86,nominal,5935.476547301103,nan,pitch_program,12.445,0.0,0.0,-3.6194182846973315,-0.0,0.0,-3.611628076823149,0.0,0.0,0.86,0.0,0.0,0.0,0.0,0.0,0.0,-0.06303480129803465,0.0,0.0,-0.06303480129803465,0.0,0.0,1.1099999999999999,1.0,20.35198672458856,-0.051319635676952136,5.186345675025951,-0.0009535318708432641,0.0234671537863428,0.002824344071052272,21.002480301233362,0.023655727621281604,1.0,0.0,100.9448943336209,-0.5143213134600304,25.16123207933974,105.46666543942736,-0.10413279965858194,3.729328753249817,1.0,26.227274262573207,0.0,1.0,107.11552252055337,6984.807432281938,1.0,1.0,0.7264451323418568,19.072748716242536,-0.02658840919779483,-43.99721330371421,1.0,25.75410192470577,1.0,-0.0045325187658295995,4.104189715248792,0.9354763491393125,1.0,-0.808246265656688,6.679078746784222
1.14,109.60585082416256,0.0,26.023042508789082,107.12332539072041,0.0,3.524105696447854,107.18127711371002,17.761799514103814,0.0,6.529383098954822,0.0,0.0,1.2820190765663142,0.0,4.6451661201269525,0.0,7018.73174668779,0.31505919444066977,107.18127711371001,2.138110408299345,1.2219425410266436,101012.77163650755,287.98085022369287,0.0,0.0,0.0,403.3626315789474,0.21648179743710294,0.86,nominal,5999.111951681766,nan,pitch_program,12.43,0.0,0.0,-3.6301154603782746,-0.0,0.0,-3.6227205069562247,0.0,0.0,0.86,0.0,0.0,0.0,0.0,0.0,0.0,-0.06322840072590426,0.0,0.0,-0.06322840072590426,0.0,0.0,1.14,1.0,20.301072118307065,0.00532466447862414,5.206296249201531,0.00121304139877298,0.018977818890406808,0.0019481353936812015,20.958031351708733,0.019116074669877497,1.0,0.0,100.9448943336209,-0.5143213134600304,25.16123207933974,105.46666543942736,-0.10413279965858194,3.729328753249817,1.0,26.742043395839623,0.0,1.0,106.95757536653181,6956.480664346058,1.0,1.0,-0.7598756353801139,19.145425786910547,0.06539829339394247,-44.06534696343197,1.0,26.077426395848693,1.0,0.0038094536017736326,4.113381403969403,0.9349423937280272,1.0,-0.20272584193111715,6.824181173796579
1.17,112.83717659983755,0.0,26.126680363800897,107.71085918916627,0.0,3.454595167060494,107.76624432092214,17.7553050601807,0.0,6.491657227420478,0.0,0.0,1.2575290965776884,0.0,4.654647505588841,0.0,7095.482956261356,0.3167790751261581,107.76624432092214,2.1375957431482333,1.2219303761797118,101011.52973339845,287.9801765776353,0.0,0.0,0.0,403.3286842105263,0.21646357813080455,0.86,nominal,6062.99691750801,nan,pitch_program,12.415,0.0,0.0,-3.640273459780585,-0.0,0.0,-3.6332522786508408,0.0,0.0,0.86,0.0,0.0,0.0,0.0,0.0,0.0,-0.06341221481804366,0.0,0.0,-0.06341221481804366,0.0,0.0,1.17,1.0,20.2115115894261,-0.02730403298349267,5.23312382583251,-0.0008634720567739232,0.024178717666521434,-0.001090500165282645,20.878015499951584,0.02421869448588562,1.0,0.0,100.9448943336209,-0.5143213134600304,25.16123207933974,105.46666543942736,-0.10413279965858194,3.729328753249817,1.0,26.742043395839623,0.0,1.0,107.8337729592691,7015.654604890052,1.0,1.0,-0.7598756353801139,19.145425786910547,0.06539829339394247,-44.06534696343197,1.0,26.077426395848693,1.0,0.0038094536017736326,4.113381403969403,0.9349423937280272,1.0,-0.20272584193111715,6.824181173796579
1.2,116.08610409157905,0.0,26.22828349082241,108.29758305805004,0.0,3.3867709007170803,108.35052705616707,17.748811152836776,0.0,6.454679012470951,0.0,0.0,1.232607207769071,0.0,4.663462149149502,0.0,7172.561541516244,0.3184969405126385,108.35052705616705,2.137096614885526,1.2219184502558598,101010.31222464654,287.9795161573096,0.0,0.0,0.0,403.2947368421053,0.21644535882450622,0.86,nominal,6127.129952969869,nan,pitch_program,12.4,0.0,0.0,-3.649917981204584,-0.0,0.0,-3.643251700183087,0.0,0.0,0.86,0.0,0.0,0.0,0.0,0.0,0.0,-0.06358673764707616,0.0,0.0,-0.06358673764707616,0.0,0.0,1.2,1.0,20.184548809286493,0.05991784686592215,5.429944667125889,-0.00012476373930662816,0.021060394506693735,-0.0010175630330780644,20.902246287681397,0.021085331804230837,1.0,0.0,100.9448943336209,-0.5143213134600304,25.16123207933974,105.46666543942736,-0.10413279965858194,3.729328753249817,1.0,26.916236385516616,0.0,1.0,107.75202600879904,7200.932896342994,1.0,1.0,2.06342647402825,19.18338218667744,0.08539920361413032,-43.99985771594657,1.0,26.47316420383013,1.0,-5.519108586433316e-05,4.119051573592124,0.9344292912729439,1.0,-0.11770425331794655,6.056204581580737
1.23,119.35260893313587,0.0,26.327902574103977,108.88349471856063,0.0,3.320636109385568,108.93411791673799,17.74231779207204,0.0,6.418458037239842,0.0,0.0,1.2073658812468413,0.0,4.671641563229965,0.0,7249.965051419416,0.3202127688976599,108.93411791673797,2.136613026004923,1.2219067573006137,101009.11850219824,287.9788686332683,0.0,0.0,0.0,403.26078947368416,0.2164271395182078,0.86,nominal,6191.509548927225,nan,pitch_program,12.385,0.0,0.0,-3.6590713215248045,-0.0,0.0,-3.6527434729881176,0.0,0.0,0.86,0.0,0.0,0.0,0.0,0.0,0.0,-0.06375240033437521,0.0,0.0,-0.06375240033437521,0.0,0.0,1.23,1.0,20.232773826387387,-0.0034837575534648673,5.4275252926086734,0.0002589862009826061,0.021915667823237523,0.0025757760128478453,20.9481068273059,0.022068035527865872,1.0,0.0,100.9448943336209,-0.5143213134600304,25.16123207933974,105.46666543942736,-0.10413279965858194,3.729328753249817,1.0,26.916236385516616,0.0,1.0,109.26986159202939,7292.352829585937,1.0,1.0,2.06342647402825,19.18338218667744,0.08539920361413032,-43.99985771594657,1.0,26.47316420383013,1.0,-5.519108586433316e-05,4.119051573592124,0.9344292912729439,1.0,-0.11770425331794655,6.056204581580737
1.26,122.63666668421642,0.0,26.42558840565629,109.46859170268525,0.0,3.2561943850770847,109.51700950648085,17.735824977886494,0.0,6.383001012759295,0.0,0.0,1.1819008537371742,0.0,4.679213673505993,0.0,7327.691015327361,0.3219265386025289,109.51700950648085,2.1361449631764327,1.2218952913471237,101007.94795674527,287.9782336753632,0.0,0.0,0.0,403.22684210526313,0.21640892021190947,0.86,nominal,6256.134182159637,nan,pitch_program,12.37,0.0,0.0,-3.6677531983716394,-0.0,0.0,-3.6617493082182304,0.0,0.0,0.86,0.0,0.0,0.0,0.0,0.0,0.0,-0.06390958181103278,0.0,0.0,-0.06390958181103278,0.0,0.0,1.26,1.0,20.22305294986908,0.00794684442405135,5.491574287295666,-0.0014282419835606125,0.021229154518726943,-0.00016546531227039135,20.955412711717983,0.021277787843503714,1.0,0.0,120.32756493383128,-0.9886792019865726,28.34207550381318,109.5142419460642,-0.10364898284714909,3.220407993709872,1.0,25.699757899465396,0.0,1.0,110.11647780199928,7438.117895395001,1.0,1.0,0.9629097954391108,19.283540240022926,0.023134658006696746,-43.92117054334116,1.0,26.799327514304366,1.0,0.0006925181714708218,4.130618365510382,0.9339360289858593,1.0,-0.16193324251844712,6.253383328574115
1.29,125.93825282583845,0.0,26.521391893270682,110.05287138740096,0.0,3.1934495871463926,110.0991944606202,17.729332710280136,0.0,6.348312189403059,0.0,0.0,1.1562941471945356,0.0,4.686203309210752,0.0,7405.7369463829145,0.32363822804531794,110.0991944606202,2.1356923954459517,1.2218840464152254,101006.79997762854,287.97761095269374,0.0,0.0,0.0,403.1928947368421,0.21639070090561113,0.86,nominal,6321.002318248874,nan,pitch_program,12.355,0.0,0.0,-3.6759812761015067,-0.0,0.0,-3.6702884889481964,0.0,0.0,0.86,0.0,0.0,0.0,0.0,0.0,0.0,-0.06405861863019353,0.0,0.0,-0.06405861863019353,0.0,0.0,1.29,1.0,20.21221707581023,-0.049476832008403165,5.574740179862807,-0.003389608958674506,0.019035229155059,-0.0003681181865630906,20.966971530231948,0.019338172325160753,1.0,0.0,120.32756493383128,-0.9886792019865726,28.34207550381318,109.5142419460642,-0.10364898284714909,3.220407993709872,1.0,25.699757899465396,0.0,1.0,110.01497854747893,7335.117027026433,1.0,1.0,0.9629097954391108,19.283540240022926,0.023134658006696746,-43.92117054334116,1.0,26.799327514304366,1.0,0.0006925181714708218,4.130618365510382,0.9339360289858593,1.0,-0.16193324251844712,6.253383328574115
1.3199999999999998,129.25734275657246,0.0,26.615364065585247,110.63633102446654,0.0,3.1324057438188406,110.68066546736719,17.72284098925297,0.0,6.314393721835946,0.0,0.0,1.1306156185891896,0.0,4.692632636914682,0.0,7484.100344584905,0.32534781580440636,110.68066546736718,2.1352552736973847,1.2218730165108265,101005.67395277527,287.97700013357365,0.0,0.0,0.0,403.158947368421,0.21637248159931274,0.86,nominal,6386.112414163395,nan,pitch_program,12.34,0.0,0.0,-3.68377135012992,-0.0,0.0,-3.6783782056572303,0.0,0.0,0.86,0.0,0.0,0.0,0.0,0.0,0.0,-0.06419981082231978,0.0,0.0,-0.06419981082231978,0.0,0.0,1.3199999999999998,1.0,20.09264256975719,0.03567348886726788,5.643710718260912,-0.0005986024000608491,0.021940502484252136,0.00022732488971947352,20.87024266043018,0.02194984397895162,1.0,0.0,120.32756493383128,-0.9886792019865726,28.34207550381318,109.5142419460642,-0.10364898284714909,3.220407993709872,1.0,26.46207292766196,0.0,1.0,111.20919343294557,7373.288803310825,1.0,1.0,1.6927284296326035,19.251326352179536,-0.030682723420617862,-43.88680739588803,1.0,26.61251092255004,1.0,0.013162503591316774,4.137249403120206,0.9334615898360369,1.0,-0.7218941598180079,6.43238674538269
1.3499999999999999,132.59391178955667,0.0,26.707556074608668,111.21896776614055,0.0,3.0730669674474216,111.26141528648746,17.71634981480499,0.0,6.281245991633015,0.0,0.0,1.1049243709163634,0.0,4.6985215425977955,0.0,7562.778699538492,0.3270552806730745,111.26141528648748,2.1348335307994573,1.2218621956256126,101004.56926866878,287.97640088551503,0.0,0.0,0.0,403.125,0.2163542622930144,0.86,nominal,6451.462920555175,nan,pitch_program,12.325,0.0,0.0,-3.6911375200805385,-0.0,0.0,-3.686033794311215,0.0,0.0,0.86,0.0,0.0,0.0,0.0,0.0,0.0,-0.06433342605051014,0.0,0.0,-0.06433342605051014,0.0,0.0,1.3499999999999999,1.0,20.135616704392827,-0.08324399002846977,5.730208522567519,-0.002692286164653651,0.020928495808653108,0.00011597472438910492,20.935264014103208,0.021101274647326244,1.0,0.0,120.32756493383128,-0.9886792019865726,28.34207550381318,109.5142419460642,-0.10364898284714909,3.220407993709872,1.0,26.46207292766196,0.0,1.0,110.49432322673961,7544.470219317241,1.0,1.0,1.6927284296326035,19.251326352179536,-0.030682723420617862,-43.88680739588803,1.0,26.61251092255004,1.0,0.013162503591316774,4.137249403120206,0.9334615898360369,1.0,-0.7218941598180079,6.43238674538269
1.38,135.94793515017267,0.0,26.798019196082524,111.80077868719971,0.0,3.0154373824619127,111.84143676505482,17.7098591869362,0.0,6.248867879533006,0.0,0.0,1.0792704320551905,0.0,4.703887954878129,0.0,7641.76949290119,0.3287606017058192,111.84143676505482,2.1344270815831186,1.2218515777369896,101003.4853103423,287.9758128752254,0.0,0.0,0.0,403.0910526315789,0.21633604298671602,0.86,nominal,6517.052283785141,nan,pitch_program,12.31,0.0,0.0,-3.698092457937755,-0.0,0.0,-3.6932689924871394,0.0,0.0,0.86,0.0,0.0,0.0,0.0,0.0,0.0,-0.0644597040807143,0.0,0.0,-0.0644597040807143,0.0,0.0,1.38,1.0,20.06442706438541,0.016192227366680224,5.781659766067668,0.000628780306154169,0.01897368845319887,0.0021791237596503594,20.88083056922867,0.01910876235009301,1.0,0.0,120.32756493383128,-0.9886792019865726,28.34207550381318,109.5142419460642,-0.10364898284714909,3.220407993709872,1.0,26.64000495602239,0.0,1.0,111.80011612048958,7753.57495794226,1.0,1.0,0.008506569961628012,19.31386180263249,-0.03420361459673876,-43.930803494569766,1.0,26.976015909681514,1.0,-0.0009266132384222408,4.166999806453358,0.9330049520097937,1.0,-0.06537621353699231,6.827735446937253
1.41,139.319387974288,0.0,26.886804827997974,112.3817608038441,0.0,2.9595210638482574,112.42072285081515,17.703369105646598,0.0,6.217256992837341,0.0,0.0,1.0536962499165332,0.0,4.708748116341758,0.0,7721.070200568761,0.3304637582576367,112.42072285081515,2.134035822680574,1.221841156808258,101002.42146139656,287.975235768618,0.0,0.0,0.0,403.0571052631579,0.2163178236804177,0.86,nominal,6582.878947716382,nan,pitch_program,12.295,0.0,0.0,-3.704647655255484,-0.0,0.0,-3.7000961901481464,0.0,0.0,0.86,0.0,0.0,0.0,0.0,0.0,0.0,-0.06457886115858333,0.0,0.0,-0.06457886115858333,0.0,0.0,1.41,1.0,20.130417128123433,-0.07625831548021851,5.788056184818881,-0.003819351200820914,0.014967090510887304,-0.0006470055900708794,20.946147700270455,0.015460267080160288,1.0,0.0,120.32756493383128,-0.9886792019865726,28.34207550381318,109.5142419460642,-0.10364898284714909,3.220407993709872,1.0,26.64000495602239,0.0,1.0,112.43141622361084,7650.6158179773265,1.0,1.0,0.008506569961628012,19.31386180263249,-0.03420361459673876,-43.930803494569766,1.0,26.976015909681514,1.0,-0.0009266132384222408,4.166999806453358,0.9330049520097937,1.0,-0.06537621353699231,6.827735446937253
1.44,142.70824530698832,0.0,26.973964487526846,112.96191109001052,0.0,2.9053219842957274,112.99926660354869,17.696879570936186,0.0,6.186409860320028,0.0,0.0,1.028237775413947,0.0,4.713116816558723,0.0,7800.678294642053,0.3321647300174154,112.99926660354869,2.133659632585898,1.2218309267889569,101001.37710403473,287.97466923083107,0.0,0.0,0.0,403.02315789473687,0.21629960437411935,0.86,nominal,6648.941355311542,nan,pitch_program,12.28,0.0,0.0,-3.710813585395791,-0.0,0.0,-3.706526627296733,0.0,0.0,0.86,0.0,0.0,0.0,0.0,0.0,0.0,-0.06469109345916872,0.0,0.0,-0.06469109345916872,0.0,0.0,1.44,1.0,20.136373498965096,0.027761547359216102,5.871280762384425,-0.00031388330610222076,0.017457188170551308,0.001718790116999069,20.97489561795436,0.017544405975073077,1.0,0.0,120.32756493383128,-0.9886792019865726,28.34207550381318,109.5142419460642,-0.10364898284714909,3.220407993709872,1.0,27.287755680313783,0.0,1.0,113.36073092230001,7685.3135512768295,1.0,1.0,1.430724974756069,19.37640262240277,0.04184226310548753,-43.891564446201734,1.0,26.7823500538151,1.0,0.00636477619432341,4.18672144748476,0.9325650887811829,1.0,-0.3017590074810985,5.80349821898371
1.47,146.11448210173123,0.0,27.0595498065959,113.54122649143001,0.0,2.852843968968498,113.57706120467058,17.690390582804962,0.0,6.156322101168595,0.0,0.0,1.0029253280951906,0.0,4.717007594055906,0.0,7880.591245198115,0.33386349703614543,113.5770612046706,2.133298371953702,1.2218208816153835,101000.35161911516,287.9741129262571,0.0,0.0,0.0,402.9892105263158,0.21628138506782096,0.86,nominal,6715.237950055597,nan,pitch_program,12.265,0.0,0.0,-3.71659982587784,-0.0,0.0,-3.712570546445397,0.0,0.0,0.86,0.0,0.0,0.0,0.0,0.0,0.0,-0.06479657974803724,0.0,0.0,-0.06479657974803724,0.0,0.0,1.47,1.0,19.998047477104382,-0.014612581059159788,5.997386580043911,0.0003055854345507461,0.017778047429819557,-0.0003411062948706504,20.87799708340187,0.017783945186013245,1.0,0.0,145.7689109635702,-1.2389951447554337,26.851909688241268,113.81600995922152,-0.12167131273932834,3.2156570373946702,1.0,27.287755680313783,0.0,1.0,113.37713782634131,7936.147732344478,1.0,1.0,1.430724974756069,19.37640262240277,0.04184226310548753,-43.891564446201734,1.0,26.7823500538151,1.0,0.00636477619432341,4.18672144748476,0.9325650887811829,1.0,-0.3017590074810985,5.80349821898371
