time_s,x_m,y_m,altitude_m,vx_mps,vy_mps,vz_mps,speed_mps,mass_kg,roll_deg,pitch_deg,yaw_deg,p_dps,q_dps,r_dps,alpha_deg,beta_deg,qbar_pa,mach,airspeed_mps,load_factor_g,density_kgpm3,pressure_pa,temperature_k,wind_x_mps,wind_y_mps,wind_z_mps,thrust_n,mass_flow_kgps,propulsion_throttle_actual,propulsion_health,energy_j_per_kg,target_distance_m,guidance_mode,pitch_command_deg,heading_command_deg,roll_command_deg,elevator_command_deg,aileron_command_deg,rudder_command_deg,elevator_deg,aileron_deg,rudder_deg,throttle,elevator_saturated,aileron_saturated,rudder_saturated,elevator_failed,aileron_failed,rudder_failed,elevator_raw_rad,aileron_raw_rad,rudder_raw_rad,elevator_effective_rad,aileron_effective_rad,rudder_effective_rad,sensor_time_s,imu_valid,imu_ax_mps2,imu_ay_mps2,imu_az_mps2,gyro_p_rps,gyro_q_rps,gyro_r_rps,imu_accel_norm_mps2,imu_gyro_norm_rps,gps_valid,gps_latency_s,gps_x_m,gps_y_m,gps_z_m,gps_vx_mps,gps_vy_mps,gps_vz_mps,baro_valid,baro_alt_m,baro_bias_m,pitot_valid,pitot_airspeed_mps,pitot_qbar_pa,pitot_compressibility_factor,mag_valid,mag_heading_deg,mag_x_ut,mag_y_ut,mag_z_ut,radar_valid,radar_agl_m,optical_flow_valid,optical_flow_x_radps,optical_flow_y_radps,optical_flow_quality,horizon_valid,horizon_roll_deg,horizon_pitch_deg
0.0,0.0,0.0,120.0,86.0,0.0,16.0,87.47571091451616,18.0,0.0,10.0,0.0,0.0,0.0,0.0,-0.5391837286282299,0.0,4633.093410827757,0.2574078588887444,87.47571091451614,1.7887233382662049,1.2109496630495968,99891.70180372041,287.37,0.0,0.0,0.0,334.4,0.17947005348411538,0.88,nominal,5002.798,nan,pitch_program,14.999999999999998,0.0,0.0,-20.05352282957881,-0.0,0.0,-2.6999999999999997,0.0,0.0,0.88,0.0,0.0,0.0,0.0,0.0,0.0,-0.047123889803846894,0.0,0.0,-0.047123889803846894,0.0,0.0,0.0,1.0,17.56339402572519,0.04248571114457688,-0.7813308927096466,-0.00027568490497605015,0.0007811719919156668,0.000485939220168199,17.58081604199399,0.0009604003193891711,1.0,0.0,-1.1162081080547748,-0.4584631380317187,119.8408002840318,86.00638427343237,0.12549532301118693,16.279364599631737,1.0,120.4318804253634,0.0,1.0,87.99906270437734,4695.892219494843,1.0,1.0,-0.0842050595302957,16.428433789951782,-0.02428695936758103,-45.07045146137096,1.0,119.96205820182428,1.0,0.00982307525529414,0.7345592020211932,0.7,1.0,0.016828686967098827,9.895241635134976
0.03,2.5956430605347935,0.0,120.47330314433844,86.52143535115978,0.0,15.776771477948124,87.94808294381589,17.994615898395477,0.0,10.379294008134904,0.0,0.0,-12.64317977685787,0.0,0.04521865340142464,0.0,4683.052886220638,0.2587992560201085,87.94808294381589,1.8242603807479665,1.2108944909902168,99886.08128676451,287.3669235295618,0.0,0.0,0.0,340.34,0.1826580083815306,0.88,nominal,5048.872165026586,nan,pitch_program,14.977500000000001,0.0,0.0,0.76902912208448,-0.0,0.0,-0.6185825267493118,0.0,0.0,0.88,0.0,0.0,0.0,0.0,0.0,0.0,-0.010796301787081387,0.0,0.0,-0.010796301787081387,0.0,0.0,0.03,1.0,17.848734372452476,-0.020150611323537855,-0.12937815653641707,0.0014013198376487883,-0.22198741038037403,-0.0006567103192016969,17.849214645269186,0.22199280468770904,1.0,0.0,-1.1162081080547748,-0.4584631380317187,119.8408002840318,86.00638427343237,0.12549532301118693,16.279364599631737,1.0,120.4318804253634,0.0,1.0,87.80177974651848,4551.20589215681,1.0,1.0,-0.0842050595302957,16.428433789951782,-0.02428695936758103,-45.07045146137096,1.0,119.96205820182428,1.0,0.00982307525529414,0.7345592020211932,0.7,1.0,0.016828686967098827,9.895241635134976
0.06,5.207128993487495,0.0,120.94065156236364,87.04953109842339,0.0,15.578280600839731,88.43248097239996,17.98913615814403,0.0,10.796225657982468,0.0,0.0,-13.897782988219307,0.0,0.6500459454750832,0.0,4734.568319018214,0.26022603886584994,88.43248097239994,1.8510738370435031,1.2108400149490426,99880.5317339787,287.3638857648446,0.0,0.0,0.0,346.28000000000003,0.1858459632789458,0.88,nominal,5096.174486110993,nan,pitch_program,14.955000000000002,0.0,0.0,1.3262625956661882,-0.0,0.0,0.5483245466999881,0.0,0.0,0.88,0.0,0.0,0.0,0.0,0.0,0.0,0.0095700687094202,0.0,0.0,0.0095700687094202,0.0,0.0,0.06,1.0,18.185568801550048,-0.09282470438348522,0.5597640368941253,0.0012690051685581081,-0.24401123807369438,6.691650302092794e-05,18.194418507846144,0.24401454702167524,1.0,0.0,-1.1162081080547748,-0.4584631380317187,119.8408002840318,86.00638427343237,0.12549532301118693,16.279364599631737,1.0,120.50966063741403,0.0,1.0,88.11839013021853,4727.059606186884,1.0,1.0,-0.6798984261198893,15.741370535491098,-0.012755639329090402,-45.32936283380919,1.0,120.51354339296037,1.0,-0.007570696944051202,0.7318101456810738,0.6976483710940908,1.0,-0.9584155058592988,10.587445990957583
0.09,7.834554764130386,0.0,121.40275722275676,87.58085902142972,0.0,15.40352201310395,88.92511094926857,17.983560779245664,0.0,11.040779494174446,0.0,0.0,-8.15180691562328,0.0,1.0657458398376978,0.0,4787.2519080698885,0.26167704517477347,88.92511094926859,1.8802989770930982,1.2107861518686318,99875.04468206823,287.36088207805204,0.0,0.0,0.0,352.22,0.18903391817636103,0.88,nominal,5144.39202778841,nan,pitch_program,14.9325,0.0,0.0,0.036995931167045706,-0.0,0.0,0.21932981867999526,0.0,0.0,0.88,0.0,0.0,0.0,0.0,0.0,0.0,0.0038280274837680806,0.0,0.0,0.0038280274837680806,0.0,0.0,0.09,1.0,18.391159030342905,-0.04869298025269183,0.8688758840858031,-0.0008124208664803149,-0.143220606402007,0.001795024212695956,18.411736658654316,0.14323415876719864,1.0,0.0,-1.1162081080547748,-0.4584631380317187,119.8408002840318,86.00638427343237,0.12549532301118693,16.279364599631737,1.0,120.50966063741403,0.0,1.0,89.14141347607504,4738.163744720612,1.0,1.0,-0.6798984261198893,15.741370535491098,-0.012755639329090402,-45.32936283380919,1.0,120.51354339296037,1.0,-0.007570696944051202,0.7318101456810738,0.6976483710940908,1.0,-0.9584155058592988,10.587445990957583
0.12,10.47809308198667,0.0,121.86001166974489,88.11794392854276,0.0,15.241814899604547,89.42642206656606,17.977889761700375,0.0,11.128847223268112,0.0,0.0,-2.9355915477554313,0.0,1.315460575441586,0.0,4841.166759045408,0.26315359806378946,89.42642206656606,1.9107366881341084,1.210732856050431,99869.61547382081,287.3579099241466,0.0,0.0,0.0,358.16,0.19222187307377622,0.88,nominal,5193.58096525491,nan,pitch_program,14.910000000000002,0.0,0.0,-1.2074057246923406,-0.0,0.0,-0.6367115073434062,0.0,0.0,0.88,0.0,0.0,0.0,0.0,0.0,0.0,-0.011112712188478492,0.0,0.0,-0.011112712188478492,0.0,0.0,0.12,1.0,18.81005117015915,-0.07421896129332882,1.027512834367189,0.0008288514001296105,-0.046563314416658994,-0.0002654340544112042,18.838240791087962,0.04657144725414254,1.0,0.0,-1.1162081080547748,-0.4584631380317187,119.8408002840318,86.00638427343237,0.12549532301118693,16.279364599631737,1.0,121.9964128832742,0.0,1.0,89.1432510331305,4768.733148768381,1.0,1.0,0.939779523144335,15.56642170147764,-0.02340851127904854,-45.382817873931266,1.0,121.62317243042368,1.0,0.0058785478850888855,0.7513002134429445,0.6953499708256378,1.0,0.31641176703809826,11.26830384482605
0.15,13.137975432193894,0.0,122.31259638157877,88.66274500690751,0.0,15.086157061129454,89.9370584744296,17.97212310550816,0.0,11.159951844964713,0.0,0.0,-1.0368207486840568,0.0,1.5034338154168645,0.0,4896.398643836677,0.26465759376856984,89.9370584744296,1.9417917762256833,1.2106801062859285,99864.24194698218,287.3549681235197,0.0,0.0,0.0,364.1,0.19540982797119144,0.88,nominal,5243.814066821894,nan,pitch_program,14.8875,0.0,0.0,-1.65431622707778,-0.0,0.0,-1.2472743391840304,0.0,0.0,0.88,0.0,0.0,0.0,0.0,0.0,0.0,-0.021769043894397856,0.0,0.0,-0.021769043894397856,0.0,0.0,0.15,1.0,19.02991201756752,-0.004076526513633609,1.1271492153994236,0.0005341027584036471,-0.018028474312373876,-0.0037697934285378476,19.06326397467665,0.018426136173444126,1.0,0.0,-1.1162081080547748,-0.4584631380317187,119.8408002840318,86.00638427343237,0.12549532301118693,16.279364599631737,1.0,121.9964128832742,0.0,1.0,89.94351066247874,4813.746126130957,1.0,1.0,0.939779523144335,15.56642170147764,-0.02340851127904854,-45.382817873931266,1.0,121.62317243042368,1.0,0.0058785478850888855,0.7513002134429445,0.6953499708256378,1.0,0.31641176703809826,11.26830384482605
0.18,15.814446489320655,0.0,122.76066051041627,89.21570190422536,0.0,14.93547096125018,90.45722612980097,17.966260810669024,0.0,11.200127865167739,0.0,0.0,-1.3392007283064995,0.0,1.6964528946737614,0.0,4952.987242386862,0.26618963899331505,90.45722612980097,1.9731480981501623,1.2106278851375025,99858.92232353262,287.3520557066823,0.0,0.0,0.0,370.04,0.19859778286860666,0.88,nominal,5295.125710943447,nan,pitch_program,14.865,0.0,0.0,-1.5458215914912843,-0.0,0.0,-1.4264026905683829,0.0,0.0,0.88,0.0,0.0,0.0,0.0,0.0,0.0,-0.024895423409724147,0.0,0.0,-0.024895423409724147,0.0,0.0,0.18,1.0,19.29767799540304,0.018910536891683094,1.340320104955512,-0.0005192007835643458,-0.025758896280625984,0.0003088937713254065,19.34417720158746,0.025765979942778513,1.0,0.0,-1.1162081080547748,-0.4584631380317187,119.8408002840318,86.00638427343237,0.12549532301118693,16.279364599631737,1.0,122.92598020897582,0.0,1.0,90.42159086650058,4888.704708055589,1.0,1.0,-0.8111352217777981,15.468718485207761,-0.030786737463831246,-45.4791933624763,1.0,122.85272743245683,1.0,-0.012853064863630205,0.7394270689337678,0.6930983487239593,1.0,0.11310694744292515,11.65542701380733
0.21,18.507738701264934,0.0,123.20440788888716,89.77640706480926,0.0,14.791579282362939,90.98677971624649,17.960302877182965,0.0,11.252603892227146,0.0,0.0,-1.7492010242544977,0.0,1.8965943837359636,0.0,5010.934354095332,0.26774930691997456,90.98677971624649,2.0047079123980684,1.2105761687977599,99853.65417668018,287.3491713487222,0.0,0.0,0.0,375.98,0.20178573776602185,0.88,nominal,5347.519548189936,nan,pitch_program,14.8425,0.0,0.0,-1.4034888968660433,-0.0,0.0,-1.412654414346979,0.0,0.0,0.88,0.0,0.0,0.0,0.0,0.0,0.0,-0.024655470723187006,0.0,0.0,-0.024655470723187006,0.0,0.0,0.21,1.0,19.578546891995884,-0.029904349387834518,1.4825366276591665,0.0016542400990902355,-0.03363729575594311,-0.00027014707696579337,19.634620126820508,0.03367903139226869,1.0,0.0,18.132931727221244,1.7349939295591268,121.63122863076089,89.78373908425705,-0.17244246965250445,15.029373747132901,1.0,122.92598020897582,0.0,1.0,90.52472328417444,5058.709513666017,1.0,1.0,-0.8111352217777981,15.468718485207761,-0.030786737463831246,-45.4791933624763,1.0,122.85272743245683,1.0,-0.012853064863630205,0.7394270689337678,0.6930983487239593,1.0,0.11310694744292515,11.65542701380733
0.24,21.218075953498833,0.0,123.64407591997708,90.34457507446328,0.0,14.655601036330541,91.52556411801801,17.954249305049984,0.0,11.293667724356805,0.0,0.0,-1.3687944629129078,0.0,2.079471538929067,0.0,5070.240625466777,0.2693361419934717,91.52556411801801,2.036433530227123,1.2105249295506602,99848.43468159264,287.3463135065201,0.0,0.0,0.0,381.92,0.20497369266343707,0.88,nominal,5400.9986206813555,nan,pitch_program,14.82,0.0,0.0,-1.4651105746535655,-0.0,0.0,-1.444128110530931,0.0,0.0,0.88,0.0,0.0,0.0,0.0,0.0,0.0,-0.02520479034936934,0.0,0.0,-0.02520479034936934,0.0,0.0,0.24,1.0,19.924137150967876,-0.06286415658082214,1.6560484501885189,0.0005369893937515798,-0.024591585536640124,-0.0013825964985370832,19.992940993814113,0.02463627426971571,1.0,0.0,18.132931727221244,1.7349939295591268,121.63122863076089,89.78373908425705,-0.17244246965250445,15.029373747132901,1.0,124.51967169813743,0.0,1.0,91.65485254066249,5026.899973901712,1.0,1.0,-1.2711005404741973,15.373558835726696,0.0458382843691642,-45.43593922972166,1.0,123.56799287577564,1.0,0.0037891423914814455,0.7566224689121959,0.6908898102000574,1.0,-0.14162378813977217,11.067430737730591
0.27,23.94568679711534,0.0,124.07988528894647,90.92036145388352,0.0,14.526978965646148,92.07358603189708,17.94810009427008,0.0,11.309316600353265,0.0,0.0,-0.5216292031246766,0.0,2.2315003743018287,0.0,5130.924651658292,0.2709501647826939,92.07358603189707,2.068286970635963,1.2104741416323965,99843.26121242577,287.34348074562183,0.0,0.0,0.0,387.86,0.20816164756085226,0.88,nominal,5455.580629455423,nan,pitch_program,14.7975,0.0,0.0,-1.6576314152452503,-0.0,0.0,-1.5722300933595226,0.0,0.0,0.88,0.0,0.0,0.0,0.0,0.0,0.0,-0.027440591728061504,0.0,0.0,-0.027440591728061504,0.0,0.0,0.27,1.0,20.185519199049622,0.012986545480746896,1.7902167257073738,0.0001008581770616397,-0.007152855598965722,-0.0008899924228326387,20.264753388841594,0.007208717091427225,1.0,0.0,18.132931727221244,1.7349939295591268,121.63122863076089,89.78373908425705,-0.17244246965250445,15.029373747132901,1.0,124.51967169813743,0.0,1.0,91.69470724547001,5135.00911932998,1.0,1.0,-1.2711005404741973,15.373558835726696,0.0458382843691642,-45.43593922972166,1.0,123.56799287577564,1.0,0.0037891423914814455,0.7566224689121959,0.6908898102000574,1.0,-0.14162378813977217,11.067430737730591
0.3,26.690810831279016,0.0,124.51201888402018,91.50413447212262,0.0,14.404453169123618,92.63096078846303,17.941855244843257,0.0,11.303144693532728,0.0,0.0,0.20573022755022985,0.0,2.3571368173593497,0.0,5193.017549322748,0.27259171543367755,92.63096078846301,2.1002639921934962,1.210423783687404,99838.13159248664,287.34067187725384,0.0,0.0,0.0,393.8,0.21134960245826748,0.88,nominal,5511.2932382858635,nan,pitch_program,14.775,0.0,0.0,-1.8324106530571218,-0.0,0.0,-1.728338429178082,0.0,0.0,0.88,0.0,0.0,0.0,0.0,0.0,0.0,-0.030165196177904363,0.0,0.0,-0.030165196177904363,0.0,0.0,0.3,1.0,20.558165951392578,-0.021831753381843528,1.9023221655226374,-0.0026664445242234897,0.0016697941157486891,-0.0025447543935231817,20.64600429942539,0.004046469289776696,1.0,0.0,18.132931727221244,1.7349939295591268,121.63122863076089,89.78373908425705,-0.17244246965250445,15.029373747132901,1.0,124.42245593883949,0.0,1.0,92.91232421879661,5203.097917722527,1.0,1.0,0.04486477584847279,15.331734866102366,-0.0854600085607019,-45.45037605249228,1.0,124.28520578431653,1.0,-0.009262370585037401,0.7636560765735324,0.6887199527899496,1.0,-0.23288319188166628,11.082057825282776
0.32999999999999996,29.453696251338098,0.0,124.94063247615715,92.09618066863608,0.0,14.287119737899058,93.1977911978343,17.93551475676951,0.0,11.28517174161371,0.0,0.0,0.5990984022131957,0.0,2.4670198631090723,0.0,5256.549656179807,0.2742610971766035,93.1977911978343,2.1323670456362214,1.2103738375231112,99833.04396736633,287.33788588890496,0.0,0.0,0.0,399.74,0.21453755735568267,0.88,nominal,5568.163195549868,nan,pitch_program,14.752499999999998,0.0,0.0,-1.930297945573922,-0.0,0.0,-1.8495141390155858,0.0,0.0,0.88,0.0,0.0,0.0,0.0,0.0,0.0,-0.03228011128801009,0.0,0.0,-0.03228011128801009,0.0,0.0,0.32999999999999996,1.0,20.843046938161127,0.0011583273850309691,2.006765331005068,0.00030061734723406527,0.014247728457724375,-0.0028933809484607883,20.939429650824643,0.014541657068828947,1.0,0.0,18.132931727221244,1.7349939295591268,121.63122863076089,89.78373908425705,-0.17244246965250445,15.029373747132901,1.0,124.42245593883949,0.0,1.0,93.22816126174258,5191.858973699049,1.0,1.0,0.04486477584847279,15.331734866102366,-0.0854600085607019,-45.45037605249228,1.0,124.28520578431653,1.0,-0.009262370585037401,0.7636560765735324,0.6887199527899496,1.0,-0.23288319188166628,11.082057825282776
0.36,32.23459497940353,0.0,125.36587223284245,92.69662426884776,0.0,14.17465855617683,93.77411740999823,17.92907863004884,0.0,11.261399452191267,0.0,0.0,0.7924096587822502,0.0,2.567389730042605,0.0,5321.544801664451,0.2759584288264073,93.77411740999823,2.1645750981188354,1.2103242860686017,99827.99659699081,287.3351218304865,0.0,0.0,0.0,405.68,0.21772551225309789,0.88,nominal,5626.21177894427,nan,pitch_program,14.73,0.0,0.0,-1.9814194005078833,-0.0,0.0,-1.9286572959109645,0.0,0.0,0.88,0.0,0.0,0.0,0.0,0.0,0.0,-0.0336614199562569,0.0,0.0,-0.0336614199562569,0.0,0.0,0.36,1.0,21.130832561095463,-0.0694051568041879,2.132809618888098,0.004333840613622339,0.015139266370137315,0.0015822324212361653,21.23830922345903,0.01582665536760891,1.0,0.0,18.132931727221244,1.7349939295591268,121.63122863076089,89.78373908425705,-0.17244246965250445,15.029373747132901,1.0,125.64943106173097,0.0,1.0,93.49182422426212,5300.642028743433,1.0,1.0,0.6407898259559309,15.429296859264564,-0.06114128968705463,-45.41441807823377,1.0,125.6174999480498,1.0,-0.015751990826704178,0.7287580452872691,0.6865853194178939,1.0,0.11945850824704976,11.188907374083117
0.39,35.03376036621323,0.0,125.78788200982602,93.3055128936565,0.0,14.06699256611911,94.35994391797585,17.922546864681244,0.0,11.232379778340444,0.0,0.0,0.9673224823730409,0.0,2.658880158007294,0.0,5388.023178116803,0.27768372426599724,94.35994391797585,2.196852939745463,1.210275112524761,99822.987769048,287.33237876693613,0.0,0.0,0.0,411.62,0.2209134671505131,0.88,nominal,5685.457241213435,nan,pitch_program,14.707500000000001,0.0,0.0,-2.030883693567013,-0.0,0.0,-1.9899931345045936,0.0,0.0,0.88,0.0,0.0,0.0,0.0,0.0,0.0,-0.034731932289187535,0.0,0.0,-0.034731932289187535,0.0,0.0,0.39,1.0,21.39167189236832,0.04393977561045533,2.2377492330695103,0.0012364040593313287,0.016168461084727557,-0.0001230330099291876,21.50844203294894,0.01621613289190159,1.0,0.0,18.132931727221244,1.7349939295591268,121.63122863076089,89.78373908425705,-0.17244246965250445,15.029373747132901,1.0,125.64943106173097,0.0,1.0,94.49779603542767,5453.1654976774735,1.0,1.0,0.6407898259559309,15.429296859264564,-0.06114128968705463,-45.41441807823377,1.0,125.6174999480498,1.0,-0.015751990826704178,0.7287580452872691,0.6865853194178939,1.0,0.11945850824704976,11.188907374083117
0.42,37.85144759640783,0.0,126.20680111444452,93.92290767315333,0.0,13.963970153949742,94.95527920152773,17.91591946066673,0.0,11.197011146648745,0.0,0.0,1.1789544271608623,0.0,2.740517123552211,0.0,5456.0057745482445,0.2794370091014768,94.95527920152774,2.206634736947143,1.210226300624806,99818.0158255224,287.3296557927561,0.0,0.0,0.0,413.57684210526315,0.22196369010892084,0.88,nominal,5745.91845026901,nan,pitch_program,14.684999999999999,0.0,0.0,-2.0930909026338687,-0.0,0.0,-2.0518517953821584,0.0,0.0,0.88,0.0,0.0,0.0,0.0,0.0,0.0,-0.03581156959237565,0.0,0.0,-0.03581156959237565,0.0,0.0,0.42,1.0,21.441884455782446,0.02905222855639895,2.395574852171175,-0.0005434785269965214,0.019798007128103354,-0.0017964914686380428,21.575310702732974,0.01988677542364842,1.0,0.0,36.45570624753495,0.04586772371361476,126.0806809749827,94.10450111371338,0.009997325168780009,13.869707806509135,1.0,126.17922067925323,0.0,1.0,95.00898775110478,5432.496288466317,1.0,1.0,-0.5088732547899512,15.517415741368199,0.05971291821218362,-45.35872710840509,1.0,126.36731782586187,1.0,0.003268742441809963,0.7588955189492551,0.6844829972138887,1.0,0.2085838925536041,11.180232462215251
0.44999999999999996,40.68771831304741,0.0,126.62272192518344,94.5423572213195,0.0,13.864027024630936,95.55348530693834,17.90926054996346,0.0,11.15544699418048,0.0,0.0,1.3854718097009369,0.0,2.812851929781603,0.0,5524.745354663619,0.2811987493958799,95.55348530693834,2.205192811613148,1.210177839572045,99813.07966564086,287.3269523074863,0.0,0.0,0.0,413.5421052631579,0.22194504709782484,0.88,nominal,5806.978993119241,nan,pitch_program,14.662500000000001,0.0,0.0,-2.1575003996240363,-0.0,0.0,-2.115240957927285,0.0,0.0,0.88,0.0,0.0,0.0,0.0,0.0,0.0,-0.036917919188869976,0.0,0.0,-0.036917919188869976,0.0,0.0,0.44999999999999996,1.0,21.53652191494941,-0.011703519339981226,2.457618920251076,0.0034704749218375844,0.025360667058301683,-0.0009155566990363014,21.676295899499003,0.025613392471406086,1.0,0.0,36.45570624753495,0.04586772371361476,126.0806809749827,94.10450111371338,0.009997325168780009,13.869707806509135,1.0,126.17922067925323,0.0,1.0,95.55570686513374,5521.0550014650125,1.0,1.0,-0.5088732547899512,15.517415741368199,0.05971291821218362,-45.35872710840509,1.0,126.36731782586187,1.0,0.003268742441809963,0.7588955189492551,0.6844829972138887,1.0,0.2085838925536041,11.180232462215251
0.48,43.54253867644139,0.0,127.03570937906615,95.16067877979924,0.0,13.76624846275712,96.15125783145271,17.902602198550525,0.0,11.109105457111744,0.0,0.0,1.5447179865010865,0.0,2.877618888582986,0.0,5593.863594506152,0.2829592209185798,96.15125783145271,2.2038003571066773,1.2101297217685434,99808.17851449428,287.32426788903604,0.0,0.0,0.0,413.5073684210526,0.2219264040867288,0.88,nominal,5868.3269306674665,nan,pitch_program,14.640000000000002,0.0,0.0,-2.212781735445697,-0.0,0.0,-2.173765424438332,0.0,0.0,0.88,0.0,0.0,0.0,0.0,0.0,0.0,-0.0379393638224609,0.0,0.0,-0.0379393638224609,0.0,0.0,0.48,1.0,21.520647812780503,0.05737204919687159,2.5536788933694736,0.0021404129559412298,0.026408773781918412,0.0009296575816702622,21.671706202424488,0.026511675984472568,1.0,0.0,36.45570624753495,0.04586772371361476,126.0806809749827,94.10450111371338,0.009997325168780009,13.869707806509135,1.0,125.26894484969087,0.0,1.0,96.31262330906476,5576.463267658874,1.0,1.0,1.6663672279521697,15.5190198983723,-0.04876466344028175,-45.48074757464408,1.0,127.11909900829264,1.0,0.005677999722008882,0.7548363655010039,0.6824107265523347,1.0,0.3502319545730923,11.268976051291448
0.51,46.41587685857657,0.0,127.4458227102221,95.77793940450607,0.0,13.67044437186524,96.7486161446121,17.895944406427923,0.0,11.059426017751901,0.0,0.0,1.6559814157433494,0.0,2.936428207468246,0.0,5663.361801762409,0.28471848066932676,96.7486161446121,2.2024540825852577,1.2100819402819363,99803.31166500182,287.32160215238355,0.0,0.0,0.0,413.47263157894736,0.22190776107563284,0.88,nominal,5929.963940229949,nan,pitch_program,14.6175,0.0,0.0,-2.257952918302512,-0.0,0.0,-2.22427792075684,0.0,0.0,0.88,0.0,0.0,0.0,0.0,0.0,0.0,-0.03882097319662038,0.0,0.0,-0.03882097319662038,0.0,0.0,0.51,1.0,21.497989764656896,0.0033644878524813036,2.581729619865951,0.00032252780410555506,0.030785580729195135,0.00037665454911906747,21.652457206311816,0.030789574106628758,1.0,0.0,36.45570624753495,0.04586772371361476,126.0806809749827,94.10450111371338,0.009997325168780009,13.869707806509135,1.0,125.26894484969087,0.0,1.0,96.04249783072379,5659.039246512655,1.0,1.0,1.6663672279521697,15.5190198983723,-0.04876466344028175,-45.48074757464408,1.0,127.11909900829264,1.0,0.005677999722008882,0.7548363655010039,0.6824107265523347,1.0,0.3502319545730923,11.268976051291448
0.54,49.30770242320924,0.0,127.85311746210101,96.39418548775575,0.0,13.576491729297057,97.3455706415219,17.889287173595655,0.0,11.007201556946667,0.0,0.0,1.7408154806988092,0.0,2.9901983053933323,0.0,5733.240284531315,0.2864765592312187,97.34557064152192,2.2011464740950966,1.210034488610882,99798.47845401734,287.3189547364963,0.0,0.0,0.0,413.4378947368421,0.22188911806453684,0.88,nominal,5991.890836121479,nan,pitch_program,14.595000000000002,0.0,0.0,-2.297959807464047,-0.0,0.0,-2.268487052781164,0.0,0.0,0.88,0.0,0.0,0.0,0.0,0.0,0.0,-0.0395925681098937,0.0,0.0,-0.0395925681098937,0.0,0.0,0.54,1.0,21.497368053979766,-0.023686661642629475,2.6018678170128706,0.0011728686017324587,0.02892633494159326,0.0020455331838079003,21.654263100909642,0.029022279026917033,1.0,0.0,36.45570624753495,0.04586772371361476,126.0806809749827,94.10450111371338,0.009997325168780009,13.869707806509135,1.0,128.02458147891704,0.0,1.0,97.46681199037256,5703.047800258548,1.0,1.0,-0.6061870045256743,15.568529304714435,0.0022070956969690043,-45.402826164149445,1.0,127.88849911727607,1.0,-0.008071365600740468,0.7614214692790916,0.6803672063447475,1.0,-0.05369640198116537,10.380358693018092
0.57,52.21798606852202,0.0,128.25764617885056,97.00945484375924,0.0,13.484290558318106,97.94212791717622,17.88263050005372,0.0,10.952778925993918,0.0,0.0,1.8140878348174792,0.0,3.039384312632964,0.0,5803.498931956671,0.28823347599945487,97.94212791717624,2.199869257212739,1.2099873606044416,99793.67825411556,287.31632529983744,0.0,0.0,0.0,413.40315789473686,0.22187047505344087,0.88,nominal,6054.10805637208,nan,pitch_program,14.5725,0.0,0.0,-2.33632639800472,-0.0,0.0,-2.3091906599152976,0.0,0.0,0.88,0.0,0.0,0.0,0.0,0.0,0.0,-0.040302980071822585,0.0,0.0,-0.040302980071822585,0.0,0.0,0.57,1.0,21.420230798518645,-0.027936732850592172,2.774603055154814,0.004733517316657072,0.030073382470110755,-0.0003935443219614688,21.599201143480364,0.030446172115949244,1.0,0.0,36.45570624753495,0.04586772371361476,126.0806809749827,94.10450111371338,0.009997325168780009,13.869707806509135,1.0,128.02458147891704,0.0,1.0,97.34590166846463,5784.922089673537,1.0,1.0,-0.6061870045256743,15.568529304714435,0.0022070956969690043,-45.402826164149445,1.0,127.88849911727607,1.0,-0.008071365600740468,0.7614214692790916,0.6803672063447475,1.0,-0.05369640198116537,10.380358693018092
0.6,55.14669957021118,0.0,128.65945843668317,97.62378338963859,0.0,13.39374192775327,98.53829411012924,17.875974385802117,0.0,10.896473805445337,0.0,0.0,1.8768375026607536,0.0,3.084406686166859,0.0,5874.137599268103,0.28998924902099155,98.53829411012924,2.198617032483255,1.2099405504583578,99788.91047321104,287.3137135201615,0.0,0.0,0.0,413.3684210526316,0.22185183204234488,0.88,nominal,6116.615981145264,nan,pitch_program,14.55,0.0,0.0,-2.373136794527166,-0.0,0.0,-2.3475583406824185,0.0,0.0,0.88,0.0,0.0,0.0,0.0,0.0,0.0,-0.04097262242756295,0.0,0.0,-0.04097262242756295,0.0,0.0,0.6,1.0,21.36576807893793,-0.0609901936395525,2.9214614851380385,0.002227503122004446,0.03156414776516412,0.0004742997833916806,21.56466328547302,0.031646202846221216,1.0,0.0,36.45570624753495,0.04586772371361476,126.0806809749827,94.10450111371338,0.009997325168780009,13.869707806509135,1.0,129.02248550626913,0.0,1.0,97.45345716951864,5935.124005968172,1.0,1.0,0.2880387798023512,15.62011455237205,-0.04093110076241839,-45.29953029527313,1.0,129.12593506592987,1.0,0.01755385440893992,0.7709583381744816,0.6783513539082922,1.0,-0.02368615592339072,10.942957375112234
0.63,58.09381569360897,0.0,129.05860104141098,98.23720411325952,0.0,13.304753490927586,99.13407455282247,17.869318830840847,0.0,10.83870790941066,0.0,0.0,1.9255300309273788,0.0,3.12578527967643,0.0,5945.15606413981,0.29174389396579564,99.13407455282248,2.1973872988440504,1.209894052691982,99784.17455220608,287.3111190932308,0.0,0.0,0.0,413.3336842105263,0.22183318903124885,0.88,nominal,6179.414898625035,nan,pitch_program,14.5275,0.0,0.0,-2.4072721006117375,-0.0,0.0,-2.3833865966400096,0.0,0.0,0.88,0.0,0.0,0.0,0.0,0.0,0.0,-0.04159794345927019,0.0,0.0,-0.04159794345927019,0.0,0.0,0.63,1.0,21.362111709011522,-0.022986801801989826,2.914214716967008,0.0005795482963934554,0.03246078694583514,-0.0006447297477413242,21.55998591089362,0.0324723611986929,1.0,0.0,54.80528865020995,0.1365807092451373,128.29954595796278,98.07830910721142,0.050096327820973695,13.330998428625767,1.0,129.02248550626913,0.0,1.0,98.62966292998524,5985.374131093061,1.0,1.0,0.2880387798023512,15.62011455237205,-0.04093110076241839,-45.29953029527313,1.0,129.12593506592987,1.0,0.01755385440893992,0.7709583381744816,0.6783513539082922,1.0,-0.02368615592339072,10.942957375112234
0.6599999999999999,61.05930802421359,0.0,129.45511853627355,98.8497443534876,0.0,13.217249828752154,99.72947233283399,17.862663835169908,0.0,10.779905676983304,0.0,0.0,1.960074586286931,0.0,3.1640301498863246,0.0,6016.553849959818,0.2934974198940396,99.72947233283399,2.1961783817003067,1.2098478620890598,99779.46995895778,287.3085417295142,0.0,0.0,0.0,413.298947368421,0.22181454602015285,0.88,nominal,6242.504864086497,nan,pitch_program,14.505,0.0,0.0,-2.438472543970609,-0.0,0.0,-2.416438165038369,0.0,0.0,0.88,0.0,0.0,0.0,0.0,0.0,0.0,-0.04217480215076967,0.0,0.0,-0.04217480215076967,0.0,0.0,0.6599999999999999,1.0,21.365158139125185,-0.04868332470548547,2.9687111487613986,1.374783010012161e-06,0.0332461499983394,0.00037403048189470385,21.57047978744821,0.03324825394518481,1.0,0.0,54.80528865020995,0.1365807092451373,128.29954595796278,98.07830910721142,0.050096327820973695,13.330998428625767,1.0,129.3935971177265,0.0,1.0,100.24451635996317,6042.865919418025,1.0,1.0,0.8465531592272253,15.838175718779363,0.017656670950178432,-45.36513668492627,1.0,129.67245905182358,1.0,-0.0015266324558953878,0.769003651899587,0.6763622036593162,1.0,-0.07654517462812913,10.69759483642434
0.69,64.0431507921357,0.0,129.84905372986495,99.46142559740396,0.0,13.131173119713123,100.32448798457833,17.856009398789304,0.0,10.720392736609929,0.0,0.0,1.9837648574680382,0.0,3.1995400171844826,0.0,6088.330180105513,0.29524982835017155,100.32448798457834,2.194988172517678,1.2098019736361803,99774.79618200766,287.3059811507559,0.0,0.0,0.0,413.26421052631576,0.22179590300905686,0.88,nominal,6305.88566744388,nan,pitch_program,14.4825,0.0,0.0,-2.4673796211544916,-0.0,0.0,-2.4470030387080426,0.0,0.0,0.88,0.0,0.0,0.0,0.0,0.0,0.0,-0.042708259831761596,0.0,0.0,-0.042708259831761596,0.0,0.0,0.69,1.0,21.236865290635038,0.010508479949862887,3.0803497326013605,-0.004229701698101445,0.03181253311428792,-0.0007937361351463424,21.459103249573765,0.03210229986550535,1.0,0.0,54.80528865020995,0.1365807092451373,128.29954595796278,98.07830910721142,0.050096327820973695,13.330998428625767,1.0,129.3935971177265,0.0,1.0,100.7878830567662,6097.475905300471,1.0,1.0,0.8465531592272253,15.838175718779363,0.017656670950178432,-45.36513668492627,1.0,129.67245905182358,1.0,-0.0015266324558953878,0.769003651899587,0.6763622036593162,1.0,-0.07654517462812913,10.69759483642434
0.72,67.0453187478621,0.0,130.24044804346926,100.07226519087968,0.0,13.04647712014375,100.91912021852045,17.84935552169903,0.0,10.660401061686457,0.0,0.0,1.9997226801434498,0.0,3.2326113237012706,0.0,6160.4840576674915,0.2970011155097836,100.91912021852045,2.1938144214037965,1.2097563824822875,99770.15272645661,287.30343708771744,0.0,0.0,0.0,413.2294736842105,0.22177725999796086,0.88,nominal,6369.556902645579,nan,pitch_program,14.46,0.0,0.0,-2.4946441730588185,-0.0,0.0,-2.4755877193185083,0.0,0.0,0.88,0.0,0.0,0.0,0.0,0.0,0.0,-0.0432071566240452,0.0,0.0,-0.0432071566240452,0.0,0.0,0.72,1.0,21.283851156485085,-0.00560795882211825,3.1609451850968955,0.0013919734589398548,0.03324564529427635,-0.002037243883465783,21.51729364868642,0.03333707971289553,1.0,0.0,54.80528865020995,0.1365807092451373,128.29954595796278,98.07830910721142,0.050096327820973695,13.330998428625767,1.0,131.6375957078446,0.0,1.0,101.09484902380781,6156.003052311412,1.0,1.0,-2.1647769440206104,15.949594755909242,-0.10777287044554917,-45.28993018239305,1.0,130.1975038282394,1.0,0.004737698772513994,0.7626711933292327,0.6743988798913269,1.0,-0.047398849767143356,10.709168115543461
0.75,70.06578708072033,0.0,130.62934171884945,100.68227776194107,0.0,12.963122512673324,101.51336661056627,17.842702203899094,0.0,10.600122762097671,0.0,0.0,2.0092768382851114,0.0,3.2634949975691154,0.0,6233.014343497117,0.2987512742089128,101.51336661056627,2.192655429019017,1.2097110839144374,99765.53911149484,287.3009092788275,0.0,0.0,0.0,413.19473684210527,0.2217586169868649,0.88,nominal,6433.51803427277,nan,pitch_program,14.437499999999998,0.0,0.0,-2.5204909860490154,-0.0,0.0,-2.5025296793568126,0.0,0.0,0.88,0.0,0.0,0.0,0.0,0.0,0.0,-0.04367738253365435,0.0,0.0,-0.04367738253365435,0.0,0.0,0.75,1.0,21.31595635202672,-0.03227755776447361,3.224107129279349,0.00038951685949504823,0.03458539706927107,0.003272411043908446,21.558429994396935,0.034742050714706936,1.0,0.0,54.80528865020995,0.1365807092451373,128.29954595796278,98.07830910721142,0.050096327820973695,13.330998428625767,1.0,131.6375957078446,0.0,1.0,101.17756481211046,6180.713535042064,1.0,1.0,-2.1647769440206104,15.949594755909242,-0.10777287044554917,-45.28993018239305,1.0,130.1975038282394,1.0,0.004737698772513994,0.7626711933292327,0.6743988798913269,1.0,-0.047398849767143356,10.709168115543461
0.78,73.10453134824702,0.0,131.0157740022713,101.29147558422306,0.0,12.881076114062198,102.10722377915052,17.836049445389488,0.0,10.539737856675504,0.0,0.0,2.012830367049342,0.0,3.292424865911519,0.0,6305.9197739491765,0.30050029446563914,102.10722377915053,2.1915101616374546,1.2096660733363405,99760.95486821543,287.29839746898523,0.0,0.0,0.0,413.16,0.2217399739757689,0.88,nominal,6497.768414062135,nan,pitch_program,14.415000000000001,0.0,0.0,-2.544920072316135,-0.0,0.0,-2.527963915132406,0.0,0.0,0.88,0.0,0.0,0.0,0.0,0.0,0.0,-0.04412129369066699,0.0,0.0,-0.04412129369066699,0.0,0.0,0.78,1.0,21.297253493470752,-0.0004853309269504334,3.327966337671226,-0.00042434445277701814,0.037490752657438814,0.001026254099651017,21.555703805382255,0.037507196649615236,1.0,0.0,54.80528865020995,0.1365807092451373,128.29954595796278,98.07830910721142,0.050096327820973695,13.330998428625767,1.0,130.5008300124538,0.0,1.0,102.08264255859831,6296.084164011828,1.0,1.0,-0.2736557757693803,16.032400836349456,-0.0003075748663680105,-45.29758749400924,1.0,131.39162802315565,1.0,0.001511959928474807,0.780096092655887,0.6724605649943217,1.0,0.21374242102904722,10.373691306194404
0.8099999999999999,76.16152740402606,0.0,131.3997833445509,101.89986852596803,0.0,12.800311409319903,102.70068732868897,17.829397246170213,0.0,10.479407962112878,0.0,0.0,2.0109966712227125,0.0,3.319611197274969,0.0,6379.198950349641,0.3022481633141872,102.70068732868899,2.1903778999402266,1.2096213462450318,99756.39953723768,287.2959014082604,0.0,0.0,0.0,413.1252631578947,0.2217213309646729,0.88,nominal,6562.307274228408,nan,pitch_program,14.392500000000002,0.0,0.0,-2.5679942446643746,-0.0,0.0,-2.5519821128515874,0.0,0.0,0.88,0.0,0.0,0.0,0.0,0.0,0.0,-0.04454049032126169,0.0,0.0,-0.04454049032126169,0.0,0.0,0.8099999999999999,1.0,21.1700039624209,0.03197862413447777,3.3330167550203007,-0.00224404555713542,0.03362726490673244,2.1995300498388612e-05,21.43079772408307,0.03370206476409572,1.0,0.0,54.80528865020995,0.1365807092451373,128.29954595796278,98.07830910721142,0.050096327820973695,13.330998428625767,1.0,130.5008300124538,0.0,1.0,102.84628545946471,6371.262984182398,1.0,1.0,-0.2736557757693803,16.032400836349456,-0.0003075748663680105,-45.29758749400924,1.0,131.39162802315565,1.0,0.001511959928474807,0.780096092655887,0.6724605649943217,1.0,0.21374242102904722,10.373691306194404
0.84,79.23675133104486,0.0,131.78140758762106,102.50746423396006,0.0,12.720808102337857,103.29375190423237,17.822745606241273,0.0,10.419265989462103,0.0,0.0,2.0047326057635146,0.0,3.345230813619843,0.0,6452.850342123114,0.3039948649662696,103.29375190423237,2.1892579711884674,1.2095768982091235,99751.87266649138,287.29342085068043,0.0,0.0,0.0,413.0905263157895,0.2217026879535769,0.88,nominal,6627.133731945697,nan,pitch_program,14.37,0.0,0.0,-2.589878173823124,-0.0,0.0,-2.574719749434509,0.0,0.0,0.88,0.0,0.0,0.0,0.0,0.0,0.0,-0.044937336943755596,0.0,0.0,-0.044937336943755596,0.0,0.0,0.84,1.0,21.154402988362868,0.03858730597264373,3.4222710170847384,0.001461842191649886,0.03359497516932153,0.00012014656342607287,21.429470214837703,0.03362697985869859,1.0,0.0,78.47010077114346,-0.8516452103928671,129.39122922144884,102.53353285213993,0.0850059009284999,12.747346548694138,1.0,132.13650386816806,0.0,1.0,103.44074239329986,6398.1181530775,1.0,1.0,-0.6488824231975241,16.027730112543903,0.013751834395711041,-45.26590670071832,1.0,131.76870976549804,1.0,0.008623663377965426,0.7972358839081224,0.6705464810309474,1.0,-0.0271841979159737,10.13308172726713
0.87,82.33017938763086,0.0,132.16068411143127,103.11426855286692,0.0,12.642550793673813,103.8864113816787,17.816094525602665,0.0,10.359418589409957,0.0,0.0,1.9949135164509617,0.0,3.369430429443594,0.0,6526.872307212649,0.3057403813712725,103.88641138167868,2.188149760517374,1.2095327248516796,99747.37380947222,287.2909555532757,0.0,0.0,0.0,413.05578947368423,0.2216840449424809,0.88,nominal,6692.246807723059,nan,pitch_program,14.347500000000002,0.0,0.0,-2.610730795043383,-0.0,0.0,-2.5963263767998335,0.0,0.0,0.88,0.0,0.0,0.0,0.0,0.0,0.0,-0.04531444373153201,0.0,0.0,-0.04531444373153201,0.0,0.0,0.87,1.0,21.14182027225307,0.05579291485438739,3.5181601243468665,0.0008738510174891957,0.03297937432190493,0.0026055674863541007,21.432618317278532,0.03309368109157751,1.0,0.0,78.47010077114346,-0.8516452103928671,129.39122922144884,102.53353285213993,0.0850059009284999,12.747346548694138,1.0,132.13650386816806,0.0,1.0,104.23629375429799,6552.595290694541,1.0,1.0,-0.6488824231975241,16.027730112543903,0.013751834395711041,-45.26590670071832,1.0,131.76870976549804,1.0,0.008623663377965426,0.7972358839081224,0.6705464810309474,1.0,-0.0271841979159737,10.13308172726713
0.8999999999999999,85.44178796444571,0.0,132.5376499472471,103.72028589382816,0.0,12.565527860527531,104.47865904724821,17.80944400425439,0.0,10.299954960466948,0.0,0.0,1.9821211426795309,0.0,3.392336208394608,0.0,6601.263111978123,0.30748469274475704,104.47865904724821,2.1870528100890203,1.2094888218370008,99742.90252389529,287.28850527534286,0.0,0.0,0.0,413.021052631579,0.22166540193138493,0.88,nominal,6757.6454430107415,nan,pitch_program,14.325,0.0,0.0,-2.630647361699063,-0.0,0.0,-2.616918967739371,0.0,0.0,0.88,0.0,0.0,0.0,0.0,0.0,0.0,-0.045673852244943296,0.0,0.0,-0.045673852244943296,0.0,0.0,0.8999999999999999,1.0,21.125423870754645,0.01693232125975984,3.513520127251607,0.0005547747863844054,0.035634943497441694,0.0010522092090270226,21.415616827613338,0.03565479094524369,1.0,0.0,78.47010077114346,-0.8516452103928671,129.39122922144884,102.53353285213993,0.0850059009284999,12.747346548694138,1.0,131.44758917851868,0.0,1.0,104.93148038813436,6600.9696376559095,1.0,1.0,-0.3412957347910143,16.2223434977565,0.06525650573065132,-45.211722690847964,1.0,132.61246895554677,1.0,-0.005168576375154331,0.7786482962845426,0.6686558751318823,1.0,-0.44505581143298395,10.652659659740724
0.9299999999999999,88.57155354765197,0.0,132.91234187470258,104.32551944020905,0.0,12.489730915182188,105.0704876966082,17.80279404219645,0.0,10.240952030399743,0.0,0.0,1.966764509382791,0.0,3.4140593426978074,0.0,6676.020941662189,0.30922777786045613,105.0704876966082,2.185966824208689,1.2094451848593122,99738.45837054287,287.2860697778144,0.0,0.0,0.0,412.9863157894737,0.2216467589202889,0.88,nominal,6823.328509847099,nan,pitch_program,14.3025,0.0,0.0,-2.6496867740200276,-0.0,0.0,-2.6365796515077653,0.0,0.0,0.88,0.0,0.0,0.0,0.0,0.0,0.0,-0.04601699590989518,0.0,0.0,-0.04601699590989518,0.0,0.0,0.9299999999999999,1.0,21.120384539174527,-0.01742093158076649,3.659615791012838,-0.001105564654190932,0.03319814669082296,0.0008936453757451633,21.435105185402985,0.033228569318699025,1.0,0.0,78.47010077114346,-0.8516452103928671,129.39122922144884,102.53353285213993,0.0850059009284999,12.747346548694138,1.0,131.44758917851868,0.0,1.0,104.90996832127516,6663.608583852077,1.0,1.0,-0.3412957347910143,16.2223434977565,0.06525650573065132,-45.211722690847964,1.0,132.61246895554677,1.0,-0.005168576375154331,0.7786482962845426,0.6686558751318823,1.0,-0.44505581143298395,10.652659659740724
0.96,91.71945268604149,0.0,133.28479650943223,104.9299712796506,0.0,12.415154490988769,105.6618896943615,17.796144639428842,0.0,10.182475039139119,0.0,0.0,1.9492332112236168,0.0,3.4346968925936836,0.0,6751.1439062212485,0.310969614225607,105.6618896943615,2.184891598748806,1.2094018096325476,99734.04091222335,287.2836488226887,0.0,0.0,0.0,412.95157894736843,0.22162811590919293,0.88,nominal,6889.294816580933,nan,pitch_program,14.28,0.0,0.0,-2.6679095807145554,-0.0,0.0,-2.6553776090318393,0.0,0.0,0.88,0.0,0.0,0.0,0.0,0.0,0.0,-0.04634508216134031,0.0,0.0,-0.04634508216134031,0.0,0.0,0.96,1.0,21.088874060705624,-0.001947806112986059,3.6517483295082487,5.252431991233465e-05,0.03558062647515092,-0.0042276311075126844,21.402707277452482,0.03583094478170513,1.0,0.0,78.47010077114346,-0.8516452103928671,129.39122922144884,102.53353285213993,0.0850059009284999,12.747346548694138,1.0,133.08020635557187,0.0,1.0,105.44664508681815,6839.679668594859,1.0,1.0,0.13683114751367328,16.256465932983673,-0.050423803963536386,-45.05398434636738,1.0,133.3718263333717,1.0,0.01404856070075804,0.8015009671297272,0.6667880087264194,1.0,0.053725249414190476,10.287580814265759
0.99,94.88546196257892,0.0,133.65505037858202,105.53364255124737,0.0,12.341795638326815,106.25285704258815,17.789495795951566,0.0,10.12457767749872,0.0,0.0,1.9299122189008417,0.0,3.4543322215767382,0.0,6826.630047582039,0.3127101782828983,106.25285704258813,2.183826971290356,1.209358691881541,99729.64971287409,287.2812421725392,0.0,0.0,0.0,412.91684210526313,0.2216094728980969,0.88,nominal,6955.5431146514575,nan,pitch_program,14.2575,0.0,0.0,-2.6853816097911425,-0.0,0.0,-2.6733800094874214,0.0,0.0,0.88,0.0,0.0,0.0,0.0,0.0,0.0,-0.046659283322552744,0.0,0.0,-0.046659283322552744,0.0,0.0,0.99,1.0,21.066951106158065,-0.0343680665899105,3.818816450917801,0.0026159633338736924,0.033659956300232934,-0.001652017912609501,21.41030053873733,0.033801850326296415,1.0,0.0,78.47010077114346,-0.8516452103928671,129.39122922144884,102.53353285213993,0.0850059009284999,12.747346548694138,1.0,133.08020635557187,0.0,1.0,106.63590091763434,6879.33476099614,1.0,1.0,0.13683114751367328,16.256465932983673,-0.050423803963536386,-45.05398434636738,1.0,133.3718263333717,1.0,0.01404856070075804,0.8015009671297272,0.6667880087264194,1.0,0.053725249414190476,10.287580814265759
1.02,98.06955797071747,0.0,134.02313998237884,106.13653360461863,0.0,12.269653459894293,106.84338145917246,17.782847511764622,0.0,10.067303771626232,0.0,0.0,1.9091303547224148,0.0,3.4730369999837127,0.0,6902.477348464839,0.3144494456411832,106.84338145917245,2.1827728192775133,1.209315827334857,99725.28433683084,287.27884959011453,0.0,0.0,0.0,412.8821052631579,0.2215908298870009,0.88,nominal,7022.072106523314,nan,pitch_program,14.235000000000001,0.0,0.0,-2.7021601500844037,-0.0,0.0,-2.6906480938456108,0.0,0.0,0.88,0.0,0.0,0.0,0.0,0.0,0.0,-0.04696066825011529,0.0,0.0,-0.04696066825011529,0.0,0.0,1.02,1.0,21.097512550464128,0.06297539969299493,3.820752866349397,0.0008763651793592248,0.03208149333641968,0.0003658794711427136,21.440782499332318,0.03209554639525143,1.0,0.0,78.47010077114346,-0.8516452103928671,129.39122922144884,102.53353285213993,0.0850059009284999,12.747346548694138,1.0,132.65790307616356,0.0,1.0,107.15835877675829,6947.1087597194755,1.0,1.0,0.4326273848719039,16.2858922691227,-0.06530322093568151,-45.20059383187335,1.0,133.9552882446236,1.0,-0.02278949769717865,0.8000979013088403,0.6649421500440529,1.0,-0.045292615424335214,9.992798146549957
1.05,101.27171729472278,0.0,134.38910184424012,106.73864413351038,0.0,12.198728728708891,107.43345444533,17.776199786868013,0.0,10.010689403398807,0.0,0.0,1.8871457611246085,0.0,3.4908735880529416,0.0,6978.6837401455305,0.31618739127437695,107.43345444533,2.181729068373207,1.2092732117189386,99720.94434823167,287.2764708380124,0.0,0.0,0.0,412.84736842105264,0.22157218687590494,0.88,nominal,7088.880452629215,nan,pitch_program,14.2125,0.0,0.0,-2.7182891356074714,-0.0,0.0,-2.707232718902727,0.0,0.0,0.88,0.0,0.0,0.0,0.0,0.0,0.0,-0.04725012456257072,0.0,0.0,-0.04725012456257072,0.0,0.0,1.05,1.0,21.01239361897051,0.004231374848058294,3.8935955939283495,0.002173803897874467,0.039546157720442614,-0.0007312121278034421,21.37009101880813,0.03961260765226627,1.0,0.0,102.92496371012773,0.21172645020589578,133.58319337541906,106.73076324334491,-0.018953816366794985,11.984059096825444,1.0,132.65790307616356,0.0,1.0,107.63823106638391,6964.380681298417,1.0,1.0,0.4326273848719039,16.2858922691227,-0.06530322093568151,-45.20059383187335,1.0,133.9552882446236,1.0,-0.02278949769717865,0.8000979013088403,0.6649421500440529,1.0,-0.045292615424335214,9.992798146549957
1.08,104.4919164929957,0.0,134.75297255271533,107.3399732757641,0.0,12.12902361584055,108.023067336173,17.769552621261735,0.0,9.95476425377174,0.0,0.0,1.864171802239666,0.0,3.5078965730120624,0.0,7055.247108295845,0.3179239896704175,108.02306733617301,2.180695683781467,1.2092308407532257,99716.62931051948,287.27410567840735,0.0,0.0,0.0,412.8126315789474,0.22155354386480894,0.88,nominal,7155.96677664177,nan,pitch_program,14.19,0.0,0.0,-2.7338048725099906,-0.0,0.0,-2.723176011067085,0.0,0.0,0.88,0.0,0.0,0.0,0.0,0.0,0.0,-0.04752838750444618,0.0,0.0,-0.04752838750444618,0.0,0.0,1.08,1.0,20.931147290294163,0.03466502411502258,3.9142266123029925,0.0015996699125496825,0.03809937655020498,-0.002381279101933478,21.29402025274576,0.038207223499028706,1.0,0.0,102.92496371012773,0.21172645020589578,133.58319337541906,106.73076324334491,-0.018953816366794985,11.984059096825444,1.0,134.01498655385947,0.0,1.0,107.56904523239515,7029.223860142071,1.0,1.0,1.1076103404378936,16.502374595538726,-0.007639861079135771,-44.9921839148835,1.0,135.0589167524015,1.0,-0.010241078104674211,0.7919606792271845,0.6631175686182116,1.0,0.6296209025269066,10.034969097342813
1.1099999999999999,107.73013208388673,0.0,135.11478879665864,107.94051969636772,0.0,12.060541464776868,108.61221134267338,17.76290601494579,0.0,9.899552309921052,0.0,0.0,1.8403982707698439,0.0,3.5241536378440097,0.0,7132.16529791409,0.31965921495489225,108.61221134267338,2.179672653255282,1.2091887101460468,99712.33878602358,287.2717538728217,0.0,0.0,0.0,412.77789473684214,0.22153490085371297,0.88,nominal,7223.329669925527,nan,pitch_program,14.167500000000002,0.0,0.0,-2.7487409482107528,-0.0,0.0,-2.7385149733532854,0.0,0.0,0.88,0.0,0.0,0.0,0.0,0.0,0.0,-0.04779610290017961,0.0,0.0,-0.04779610290017961,0.0,0.0,1.1099999999999999,1.0,20.922602247876572,-0.01233180480342562,4.011212277855574,-0.0005388987838662135,0.03235359658616701,-0.002685451344552687,21.303644308762735,0.032469328186515496,1.0,0.0,102.92496371012773,0.21172645020589578,133.58319337541906,106.73076324334491,-0.018953816366794985,11.984059096825444,1.0,134.01498655385947,0.0,1.0,109.06543420570681,7085.47696335421,1.0,1.0,1.1076103404378936,16.502374595538726,-0.007639861079135771,-44.9921839148835,1.0,135.0589167524015,1.0,-0.010241078104674211,0.7919606792271845,0.6631175686182116,1.0,0.6296209025269066,10.034969097342813
1.14,110.986340533831,0.0,135.47458739387787,108.54028166480897,0.0,11.993286573974524,109.20087759135247,17.75625996792018,0.0,9.845072546649236,0.0,0.0,1.815992245883244,0.0,3.539686394187737,0.0,7209.436118139233,0.32139304100795735,109.20087759135245,2.1786599774216366,1.2091468155912848,99708.07233561992,287.2694151819398,0.0,0.0,0.0,412.74315789473684,0.22151625784261694,0.88,nominal,7290.967695826945,nan,pitch_program,14.145,0.0,0.0,-2.7631280672909257,-0.0,0.0,-2.75328282971587,0.0,0.0,0.88,0.0,0.0,0.0,0.0,0.0,0.0,-0.0480538506171683,0.0,0.0,-0.0480538506171683,0.0,0.0,1.14,1.0,20.923913094754425,0.04610663924103084,4.097982766379864,-0.0034308775795495383,0.030225666023992317,0.005285290234046241,21.321485121176813,0.030875493525090152,1.0,0.0,102.92496371012773,0.21172645020589578,133.58319337541906,106.73076324334491,-0.018953816366794985,11.984059096825444,1.0,135.99001375506722,0.0,1.0,109.20168965649256,7219.072160906883,1.0,1.0,1.041464533056689,16.537311559740314,-0.06881669168608415,-45.06222531046976,1.0,135.7617660570382,1.0,0.021391862456293032,0.7939934199796258,0.6613135315153054,1.0,0.7185627237950644,9.614759338940512
1.17,114.26051824757286,0.0,135.83240531383456,109.13925712472886,0.0,11.92726399855664,109.78905716067035,17.749614480184903,0.0,9.79133972285772,0.0,0.0,1.7910942576556041,0.0,3.554531314800229,0.0,7287.057346799986,0.3231254415715275,109.78905716067037,2.1776576677168054,1.2091051527657237,99703.82951846071,287.26708936546004,0.0,0.0,0.0,412.7084210526316,0.22149761483152094,0.88,nominal,7358.879393685387,nan,pitch_program,14.1225,0.0,0.0,-2.7769926491112407,-0.0,0.0,-2.7675087213530922,0.0,0.0,0.88,0.0,0.0,0.0,0.0,0.0,0.0,-0.04830213926526976,0.0,0.0,-0.04830213926526976,0.0,0.0,1.17,1.0,20.91185374491211,-0.03376930128078738,4.109038173048386,0.0007612003263100515,0.03539918267237644,-7.417450676472736e-05,21.311756429770693,0.03540744359123523,1.0,0.0,102.92496371012773,0.21172645020589578,133.58319337541906,106.73076324334491,-0.018953816366794985,11.984059096825444,1.0,135.99001375506722,0.0,1.0,109.78581677692442,7367.27404182773,1.0,1.0,1.041464533056689,16.537311559740314,-0.06881669168608415,-45.06222531046976,1.0,135.7617660570382,1.0,0.021391862456293032,0.7939934199796258,0.6613135315153054,1.0,0.7185627237950644,9.614759338940512
1.2,117.55264156013814,0.0,136.18827969542446,109.7374437521762,0.0,11.862479386330289,110.37674111176297,17.742969551739957,0.0,9.738365084947732,0.0,0.0,1.7658213894591974,0.0,3.568720550025758,0.0,7365.0267343679925,0.3248563903398177,110.37674111176298,2.1766657442506987,1.2090637173269776,99699.60989176351,287.2647761819797,0.0,0.0,0.0,412.67368421052635,0.22147897182042497,0.88,nominal,7427.063282301708,nan,pitch_program,14.1,0.0,0.0,-2.790357211610637,-0.0,0.0,-2.781217815507619,0.0,0.0,0.88,0.0,0.0,0.0,0.0,0.0,0.0,-0.04854140809573216,0.0,0.0,-0.04854140809573216,0.0,0.0,1.2,1.0,20.883126011285533,0.011326083542563882,4.2176682742579,0.0010723662590994556,0.032799745268874456,0.0007025155751547534,21.304783640184674,0.03282478921836426,1.0,0.0,102.92496371012773,0.21172645020589578,133.58319337541906,106.73076324334491,-0.018953816366794985,11.984059096825444,1.0,136.9868649297495,0.0,1.0,110.30230561579242,7321.733183939482,1.0,1.0,1.6652534676802166,16.606097528596752,-0.046821548976483336,-45.014317479405975,1.0,136.29909533999123,1.0,-0.010609822849117727,0.8156998231299247,0.6595293007614389,1.0,0.694225953114338,9.451508621692655
1.23,120.86268673025756,0.0,136.5422478607099,110.33483900398055,0.0,11.798938842847482,110.96392051406423,17.736325182585343,0.0,9.686156880547125,0.0,0.0,1.74027360043181,0.0,3.5822825353615544,0.0,7443.342007358427,0.3265858610348201,110.96392051406423,2.175684231126589,1.2090225049118897,99695.41301064793,287.2624753889054,0.0,0.0,0.0,412.63894736842104,0.22146032880932895,0.88,nominal,7495.517862909012,nan,pitch_program,14.0775,0.0,0.0,-2.803241666034975,-0.0,0.0,-2.794432125824033,0.0,0.0,0.88,0.0,0.0,0.0,0.0,0.0,0.0,-0.04877204131913383,0.0,0.0,-0.04877204131913383,0.0,0.0,1.23,1.0,20.95150633291936,0.04261947676992204,4.250467246735298,0.0001960681944948157,0.03138889736882922,0.0016704730056965728,21.37835133619358,0.031433927543826706,1.0,0.0,102.92496371012773,0.21172645020589578,133.58319337541906,106.73076324334491,-0.018953816366794985,11.984059096825444,1.0,136.9868649297495,0.0,1.0,110.34932249383994,7523.569662336466,1.0,1.0,1.6652534676802166,16.606097528596752,-0.046821548976483336,-45.014317479405975,1.0,136.29909533999123,1.0,-0.010609822849117727,0.8156998231299247,0.6595293007614389,1.0,0.694225953114338,9.451508621692655
1.26,124.19062993504801,0.0,136.89434732511532,110.93144015968136,0.0,11.736648813514421,111.5505864676324,17.729681372721064,0.0,9.634720767529746,0.0,0.0,1.7145372157274088,0.0,3.59524248214964,0.0,7522.000871397408,0.32831382747207055,111.5505864676324,2.174713152060272,1.208981511135334,99691.2384280136,287.26018674238674,0.0,0.0,0.0,412.6042105263158,0.22144168579823295,0.88,nominal,7564.241621832209,nan,pitch_program,14.055,0.0,0.0,-2.815663962003861,-0.0,0.0,-2.8071712275319296,0.0,0.0,0.88,0.0,0.0,0.0,0.0,0.0,0.0,-0.048994380587683066,0.0,0.0,-0.048994380587683066,0.0,0.0,1.26,1.0,20.874609734692537,-0.03553731984340112,4.397390287217376,-0.0009550444884151634,0.03036386610592617,0.00040132597729996655,21.332783123983983,0.03038153283515366,1.0,0.0,123.74186989964834,-3.302901118377579,136.45212594118175,111.04614316036283,0.08777325787193392,11.809109480135515,1.0,136.36903778203276,0.0,1.0,111.05115387451616,7781.40781108542,1.0,1.0,-1.3387006135390411,16.7259908766437,-0.012764202181640361,-45.021141142102664,1.0,136.61808695716428,1.0,-0.020668237315235052,0.8069474169866939,0.6577641316872117,1.0,-0.4192394259763592,9.207237399472886
1.29,127.5364472658001,0.0,137.24461580447988,111.52724435840338,0.0,11.675615978818843,112.1367301229346,17.723038122147116,0.0,9.584060195162492,0.0,0.0,1.6886858555928146,0.0,3.607622830777048,0.0,7601.001014041996,0.3300402636189241,112.13673012293462,2.1737525280218195,1.2089407315894025,99687.08569445727,287.2579099972709,0.0,0.0,0.0,412.5694736842105,0.22142304278713695,0.88,nominal,7633.233032910936,nan,pitch_program,14.0325,0.0,0.0,-2.8276401076617343,-0.0,0.0,-2.8194525556098124,0.0,0.0,0.88,0.0,0.0,0.0,0.0,0.0,0.0,-0.04920873019915974,0.0,0.0,-0.04920873019915974,0.0,0.0,1.29,1.0,20.857395951621296,-0.0585570904213315,4.416454112066634,-0.0019097788210848013,0.03015206004411877,-0.0018100415270001153,21.319931091341203,0.03026665211712509,1.0,0.0,123.74186989964834,-3.302901118377579,136.45212594118175,111.04614316036283,0.08777325787193392,11.809109480135515,1.0,136.36903778203276,0.0,1.0,111.7216523086377,7713.566966877671,1.0,1.0,-1.3387006135390411,16.7259908766437,-0.012764202181640361,-45.021141142102664,1.0,136.61808695716428,1.0,-0.020668237315235052,0.8069474169866939,0.6577641316872117,1.0,-0.4192394259763592,9.207237399472886
1.3199999999999998,130.90011472471687,0.0,137.59309121940387,112.12224863055886,0.0,11.615847164133617,112.72234269794684,17.716395430863503,0.0,9.534176749416368,0.0,0.0,1.6627816299028164,0.0,3.619443658052023,0.0,7680.34010732005,0.33176514364492243,112.72234269794683,2.172802375819015,1.208900161842887,99682.95435821991,287.2556449070739,0.0,0.0,0.0,412.53473684210525,0.22140439977604096,0.88,nominal,7702.490559663452,nan,pitch_program,14.01,0.0,0.0,-2.8391842760535972,-0.0,0.0,-2.8312915878760836,0.0,0.0,0.88,0.0,0.0,0.0,0.0,0.0,0.0,-0.04941536029245602,0.0,0.0,-0.04941536029245602,0.0,0.0,1.3199999999999998,1.0,20.882006188750264,-0.05737543368282201,4.488411244957016,0.0019263782952406172,0.028433772160340955,-0.0030787862957038863,21.35901004052508,0.02866477381137288,1.0,0.0,123.74186989964834,-3.302901118377579,136.45212594118175,111.04614316036283,0.08777325787193392,11.809109480135515,1.0,136.22131856036447,0.0,1.0,112.50229168147206,7711.678790513695,1.0,1.0,0.8893804029269281,16.84637846716379,0.05337589318580282,-44.94194984104222,1.0,137.94176193092432,1.0,0.004130863466521811,0.8207092359347783,0.6560172719514903,1.0,-0.2228843115010255,10.248551582065835
1.3499999999999999,134.28160822245766,0.0,137.93981169730972,112.71644992469265,0.0,11.557349263528435,113.307415492654,17.709753298870222,0.0,9.485070438180662,0.0,0.0,1.6368771413895178,0.0,3.630723015181684,0.0,7760.015809988147,0.33348844196450117,113.307415492654,2.171862706470554,1.208859797441041,99678.8439651624,287.25339122396747,0.0,0.0,0.0,412.5,0.22138575676494499,0.88,nominal,7772.012657193887,nan,pitch_program,13.9875,0.0,0.0,-2.850309147162611,-0.0,0.0,-2.842702123448,0.0,0.0,0.88,0.0,0.0,0.0,0.0,0.0,0.0,-0.0496145117076019,0.0,0.0,-0.0496145117076019,0.0,0.0,1.3499999999999999,1.0,20.81436174673977,-0.05441845110850259,4.550393110684807,-0.00033325328066270243,0.027799744278920353,-0.0006100925825785121,21.306024822892997,0.027808434919674187,1.0,0.0,123.74186989964834,-3.302901118377579,136.45212594118175,111.04614316036283,0.08777325787193392,11.809109480135515,1.0,136.22131856036447,0.0,1.0,113.24232465336937,7765.971930563289,1.0,1.0,0.8893804029269281,16.84637846716379,0.05337589318580282,-44.94194984104222,1.0,137.94176193092432,1.0,0.004130863466521811,0.8207092359347783,0.6560172719514903,1.0,-0.2228843115010255,10.248551582065835
1.38,137.68090357637016,0.0,138.2848155725461,113.30984513041689,0.0,11.50012917454581,113.89193990142718,17.703111726167272,0.0,9.436739924902044,0.0,0.0,1.6110172048121338,0.0,3.6414772067992836,0.0,7840.025769559849,0.33521013327344235,113.89193990142718,2.170933523561705,1.2088196339055637,99674.75405876384,287.2511486987784,0.0,0.0,0.0,412.46526315789475,0.221367113753849,0.88,nominal,7841.797773889659,nan,pitch_program,13.965,0.0,0.0,-2.8610262076677624,-0.0,0.0,-2.8536965739798577,0.0,0.0,0.88,0.0,0.0,0.0,0.0,0.0,0.0,-0.049806401068830455,0.0,0.0,-0.049806401068830455,0.0,0.0,1.38,1.0,20.853126337836343,0.012443124703915094,4.542200006511105,-0.0023850282406007476,0.026315317261298578,-0.0009939924018020295,21.342085507097604,0.02644186648415921,1.0,0.0,123.74186989964834,-3.302901118377579,136.45212594118175,111.04614316036283,0.08777325787193392,11.809109480135515,1.0,138.13783392713913,0.0,1.0,114.32893621501805,7814.76401339091,1.0,1.0,1.2856462969956732,17.004535112496455,-0.06781971860672065,-44.98262899660631,1.0,138.6006181852751,1.0,-0.019081453322573612,0.8236557225591864,0.6542879610686347,1.0,-0.09964290725977093,9.344511293351529
1.41,141.097976509316,0.0,138.6281413847955,113.90243109819433,0.0,11.44419374164621,114.47590742368125,17.696470712754657,0.0,9.38918273097806,0.0,0.0,1.5852398884786127,0.0,3.651721032831548,0.0,7920.367624149513,0.3369301925802605,114.47590742368124,2.170014822083537,1.2087796667347819,99670.68418013996,287.2489170809988,0.0,0.0,0.0,412.4305263157895,0.221348470742753,0.88,nominal,7911.844352948825,nan,pitch_program,13.9425,0.0,0.0,-2.871345898671496,-0.0,0.0,-2.864286168794841,0.0,0.0,0.88,0.0,0.0,0.0,0.0,0.0,0.0,-0.049991224364804035,0.0,0.0,-0.049991224364804035,0.0,0.0,1.41,1.0,20.800851875292853,-0.013707415231707943,4.641204412746711,0.002671179382502333,0.025357791513008886,0.0037172366023911735,21.31235334335479,0.025767627707433367,1.0,0.0,123.74186989964834,-3.302901118377579,136.45212594118175,111.04614316036283,0.08777325787193392,11.809109480135515,1.0,138.13783392713913,0.0,1.0,114.5502710178107,7903.075291815785,1.0,1.0,1.2856462969956732,17.004535112496455,-0.06781971860672065,-44.98262899660631,1.0,138.6006181852751,1.0,-0.019081453322573612,0.8236557225591864,0.6542879610686347,1.0,-0.09964290725977093,9.344511293351529
1.44,144.53280264900548,0.0,138.96982787602164,114.49420465631623,0.0,11.389549707538063,115.05930967298085,17.689830258632373,0.0,9.342395413505187,0.0,0.0,1.5595773357593852,0.0,3.6614680004356095,0.0,8001.039004146223,0.3386485952330161,115.05930967298085,2.1691065876845994,1.2087398914040037,99666.63386807904,287.24669611880586,0.0,0.0,0.0,412.3957894736842,0.221329827731657,0.88,nominal,7982.15083375184,nan,pitch_program,13.920000000000002,0.0,0.0,-2.88127772211557,-0.0,0.0,-2.8744811007872784,0.0,0.0,0.88,0.0,0.0,0.0,0.0,0.0,0.0,-0.050169159495088975,0.0,0.0,-0.050169159495088975,0.0,0.0,1.44,1.0,20.793780587269392,-0.05439659056810225,4.71399218686136,-0.0037086976924977327,0.02766123892637998,-0.0036417517136702712,21.32149132772745,0.028145353667357556,1.0,0.0,123.74186989964834,-3.302901118377579,136.45212594118175,111.04614316036283,0.08777325787193392,11.809109480135515,1.0,139.26664681370193,0.0,1.0,115.46607806890759,8019.0635590193715,1.0,1.0,2.5876113938718874,16.934723009372508,0.001837469352921776,-44.93808219791947,1.0,138.82887904742864,1.0,-0.008957819045351261,0.8160960982573364,0.6525754303099459,1.0,-0.2617324924783082,8.859109958600383
1.47,147.98535752776598,0.0,139.30991398617428,115.0851626253505,0.0,11.336203671754584,115.64213838472062,17.683190363800424,0.0,9.296373716630477,0.0,0.0,1.534056644968716,0.0,3.6707305047807677,0.0,8082.037533727513,0.34036531694192723,115.64213838472062,2.1682087960358767,1.2087003033660146,99662.60265909239,287.24448555908987,0.0,0.0,0.0,412.36105263157896,0.221311184720561,0.88,nominal,8052.715653087954,nan,pitch_program,13.8975,0.0,0.0,-2.8908303764842147,-0.0,0.0,-2.88429066620544,0.0,0.0,0.88,0.0,0.0,0.0,0.0,0.0,0.0,-0.050340368709825674,0.0,0.0,-0.050340368709825674,0.0,0.0,1.47,1.0,20.797247818839374,-0.027252187938770517,4.7963215356853475,-0.0014060935555869148,0.025088264171508078,-0.0014220615467631613,21.34317126843257,0.02516784371513025,1.0,0.0,149.50005097814056,2.2768077467851655,139.42008949907554,115.20523660550204,0.13284785332749,11.60506518177334,1.0,139.26664681370193,0.0,1.0,115.7450500202665,7944.36879776671,1.0,1.0,2.5876113938718874,16.934723009372508,0.001837469352921776,-44.93808219791947,1.0,138.82887904742864,1.0,-0.008957819045351261,0.8160960982573364,0.6525754303099459,1.0,-0.2617324924783082,8.859109958600383
