time_s,sensor_time_s,imu_valid,imu_ax_mps2,imu_ay_mps2,imu_az_mps2,gyro_p_rps,gyro_q_rps,gyro_r_rps,imu_accel_norm_mps2,imu_gyro_norm_rps,gps_valid,gps_latency_s,gps_x_m,gps_y_m,gps_z_m,gps_vx_mps,gps_vy_mps,gps_vz_mps,baro_valid,baro_alt_m,baro_bias_m,pitot_valid,pitot_airspeed_mps,pitot_qbar_pa,pitot_compressibility_factor,mag_valid,mag_heading_deg,mag_x_ut,mag_y_ut,mag_z_ut,radar_valid,radar_agl_m,optical_flow_valid,optical_flow_x_radps,optical_flow_y_radps,optical_flow_quality,horizon_valid,horizon_roll_deg,horizon_pitch_deg
0.0,0.0,1.0,17.56339402572519,0.04248571114457688,-0.7813308927096466,-0.00027568490497605015,0.0007811719919156668,0.000485939220168199,17.58081604199399,0.0009604003193891711,1.0,0.0,-1.1162081080547748,-0.4584631380317187,119.8408002840318,86.00638427343237,0.12549532301118693,16.279364599631737,1.0,120.4318804253634,0.0,1.0,87.99906270437734,4695.892219494843,1.0,1.0,-0.0842050595302957,16.428433789951782,-0.02428695936758103,-45.07045146137096,1.0,119.96205820182428,1.0,0.00982307525529414,0.7345592020211932,0.7,1.0,0.016828686967098827,9.895241635134976
0.03,0.03,1.0,17.848734372452476,-0.020150611323537855,-0.12937815653641707,0.0014013198376487883,-0.22198741038037403,-0.0006567103192016969,17.849214645269186,0.22199280468770904,1.0,0.0,-1.1162081080547748,-0.4584631380317187,119.8408002840318,86.00638427343237,0.12549532301118693,16.279364599631737,1.0,120.4318804253634,0.0,1.0,87.80177974651848,4551.20589215681,1.0,1.0,-0.0842050595302957,16.428433789951782,-0.02428695936758103,-45.07045146137096,1.0,119.96205820182428,1.0,0.00982307525529414,0.7345592020211932,0.7,1.0,0.016828686967098827,9.895241635134976
0.06,0.06,1.0,18.185568801550048,-0.09282470438348522,0.5597640368941253,0.0012690051685581081,-0.24401123807369438,6.691650302092794e-05,18.194418507846144,0.24401454702167524,1.0,0.0,-1.1162081080547748,-0.4584631380317187,119.8408002840318,86.00638427343237,0.12549532301118693,16.279364599631737,1.0,120.50966063741403,0.0,1.0,88.11839013021853,4727.059606186884,1.0,1.0,-0.6798984261198893,15.741370535491098,-0.012755639329090402,-45.32936283380919,1.0,120.51354339296037,1.0,-0.007570696944051202,0.7318101456810738,0.6976483710940908,1.0,-0.9584155058592988,10.587445990957583
0.09,0.09,1.0,18.391159030342905,-0.04869298025269183,0.8688758840858031,-0.0008124208664803149,-0.143220606402007,0.001795024212695956,18.411736658654316,0.14323415876719864,1.0,0.0,-1.1162081080547748,-0.4584631380317187,119.8408002840318,86.00638427343237,0.12549532301118693,16.279364599631737,1.0,120.50966063741403,0.0,1.0,89.14141347607504,4738.163744720612,1.0,1.0,-0.6798984261198893,15.741370535491098,-0.012755639329090402,-45.32936283380919,1.0,120.51354339296037,1.0,-0.007570696944051202,0.7318101456810738,0.6976483710940908,1.0,-0.9584155058592988,10.587445990957583
0.12,0.12,1.0,18.81005117015915,-0.07421896129332882,1.027512834367189,0.0008288514001296105,-0.046563314416658994,-0.0002654340544112042,18.838240791087962,0.04657144725414254,1.0,0.0,-1.1162081080547748,-0.4584631380317187,119.8408002840318,86.00638427343237,0.12549532301118693,16.279364599631737,1.0,121.9964128832742,0.0,1.0,89.1432510331305,4768.733148768381,1.0,1.0,0.939779523144335,15.56642170147764,-0.02340851127904854,-45.382817873931266,1.0,121.62317243042368,1.0,0.0058785478850888855,0.7513002134429445,0.6953499708256378,1.0,0.31641176703809826,11.26830384482605
0.15,0.15,1.0,19.02991201756752,-0.004076526513633609,1.1271492153994236,0.0005341027584036471,-0.018028474312373876,-0.0037697934285378476,19.06326397467665,0.018426136173444126,1.0,0.0,-1.1162081080547748,-0.4584631380317187,119.8408002840318,86.00638427343237,0.12549532301118693,16.279364599631737,1.0,121.9964128832742,0.0,1.0,89.94351066247874,4813.746126130957,1.0,1.0,0.939779523144335,15.56642170147764,-0.02340851127904854,-45.382817873931266,1.0,121.62317243042368,1.0,0.0058785478850888855,0.7513002134429445,0.6953499708256378,1.0,0.31641176703809826,11.26830384482605
0.18,0.18,1.0,19.29767799540304,0.018910536891683094,1.340320104955512,-0.0005192007835643458,-0.025758896280625984,0.0003088937713254065,19.34417720158746,0.025765979942778513,1.0,0.0,-1.1162081080547748,-0.4584631380317187,119.8408002840318,86.00638427343237,0.12549532301118693,16.279364599631737,1.0,122.92598020897582,0.0,1.0,90.42159086650058,4888.704708055589,1.0,1.0,-0.8111352217777981,15.468718485207761,-0.030786737463831246,-45.4791933624763,1.0,122.85272743245683,1.0,-0.012853064863630205,0.7394270689337678,0.6930983487239593,1.0,0.11310694744292515,11.65542701380733
0.21,0.21,1.0,19.578546891995884,-0.029904349387834518,1.4825366276591665,0.0016542400990902355,-0.03363729575594311,-0.00027014707696579337,19.634620126820508,0.03367903139226869,1.0,0.0,18.132931727221244,1.7349939295591268,121.63122863076089,89.78373908425705,-0.17244246965250445,15.029373747132901,1.0,122.92598020897582,0.0,1.0,90.52472328417444,5058.709513666017,1.0,1.0,-0.8111352217777981,15.468718485207761,-0.030786737463831246,-45.4791933624763,1.0,122.85272743245683,1.0,-0.012853064863630205,0.7394270689337678,0.6930983487239593,1.0,0.11310694744292515,11.65542701380733
0.24,0.24,1.0,19.924137150967876,-0.06286415658082214,1.6560484501885189,0.0005369893937515798,-0.024591585536640124,-0.0013825964985370832,19.992940993814113,0.02463627426971571,1.0,0.0,18.132931727221244,1.7349939295591268,121.63122863076089,89.78373908425705,-0.17244246965250445,15.029373747132901,1.0,124.51967169813743,0.0,1.0,91.65485254066249,5026.899973901712,1.0,1.0,-1.2711005404741973,15.373558835726696,0.0458382843691642,-45.43593922972166,1.0,123.56799287577564,1.0,0.0037891423914814455,0.7566224689121959,0.6908898102000574,1.0,-0.14162378813977217,11.067430737730591
0.27,0.27,1.0,20.185519199049622,0.012986545480746896,1.7902167257073738,0.0001008581770616397,-0.007152855598965722,-0.0008899924228326387,20.264753388841594,0.007208717091427225,1.0,0.0,18.132931727221244,1.7349939295591268,121.63122863076089,89.78373908425705,-0.17244246965250445,15.029373747132901,1.0,124.51967169813743,0.0,1.0,91.69470724547001,5135.00911932998,1.0,1.0,-1.2711005404741973,15.373558835726696,0.0458382843691642,-45.43593922972166,1.0,123.56799287577564,1.0,0.0037891423914814455,0.7566224689121959,0.6908898102000574,1.0,-0.14162378813977217,11.067430737730591
0.3,0.3,1.0,20.558165951392578,-0.021831753381843528,1.9023221655226374,-0.0026664445242234897,0.0016697941157486891,-0.0025447543935231817,20.64600429942539,0.004046469289776696,1.0,0.0,18.132931727221244,1.7349939295591268,121.63122863076089,89.78373908425705,-0.17244246965250445,15.029373747132901,1.0,124.42245593883949,0.0,1.0,92.91232421879661,5203.097917722527,1.0,1.0,0.04486477584847279,15.331734866102366,-0.0854600085607019,-45.45037605249228,1.0,124.28520578431653,1.0,-0.009262370585037401,0.7636560765735324,0.6887199527899496,1.0,-0.23288319188166628,11.082057825282776
0.32999999999999996,0.32999999999999996,1.0,20.843046938161127,0.0011583273850309691,2.006765331005068,0.00030061734723406527,0.014247728457724375,-0.0028933809484607883,20.939429650824643,0.014541657068828947,1.0,0.0,18.132931727221244,1.7349939295591268,121.63122863076089,89.78373908425705,-0.17244246965250445,15.029373747132901,1.0,124.42245593883949,0.0,1.0,93.22816126174258,5191.858973699049,1.0,1.0,0.04486477584847279,15.331734866102366,-0.0854600085607019,-45.45037605249228,1.0,124.28520578431653,1.0,-0.009262370585037401,0.7636560765735324,0.6887199527899496,1.0,-0.23288319188166628,11.082057825282776
0.36,0.36,1.0,21.130832561095463,-0.0694051568041879,2.132809618888098,0.004333840613622339,0.015139266370137315,0.0015822324212361653,21.23830922345903,0.01582665536760891,1.0,0.0,18.132931727221244,1.7349939295591268,121.63122863076089,89.78373908425705,-0.17244246965250445,15.029373747132901,1.0,125.64943106173097,0.0,1.0,93.49182422426212,5300.642028743433,1.0,1.0,0.6407898259559309,15.429296859264564,-0.06114128968705463,-45.41441807823377,1.0,125.6174999480498,1.0,-0.015751990826704178,0.7287580452872691,0.6865853194178939,1.0,0.11945850824704976,11.188907374083117
0.39,0.39,1.0,21.39167189236832,0.04393977561045533,2.2377492330695103,0.0012364040593313287,0.016168461084727557,-0.0001230330099291876,21.50844203294894,0.01621613289190159,1.0,0.0,18.132931727221244,1.7349939295591268,121.63122863076089,89.78373908425705,-0.17244246965250445,15.029373747132901,1.0,125.64943106173097,0.0,1.0,94.49779603542767,5453.1654976774735,1.0,1.0,0.6407898259559309,15.429296859264564,-0.06114128968705463,-45.41441807823377,1.0,125.6174999480498,1.0,-0.015751990826704178,0.7287580452872691,0.6865853194178939,1.0,0.11945850824704976,11.188907374083117
0.42,0.42,1.0,21.441884455782446,0.02905222855639895,2.395574852171175,-0.0005434785269965214,0.019798007128103354,-0.0017964914686380428,21.575310702732974,0.01988677542364842,1.0,0.0,36.45570624753495,0.04586772371361476,126.0806809749827,94.10450111371338,0.009997325168780009,13.869707806509135,1.0,126.17922067925323,0.0,1.0,95.00898775110478,5432.496288466317,1.0,1.0,-0.5088732547899512,15.517415741368199,0.05971291821218362,-45.35872710840509,1.0,126.36731782586187,1.0,0.003268742441809963,0.7588955189492551,0.6844829972138887,1.0,0.2085838925536041,11.180232462215251
0.44999999999999996,0.44999999999999996,1.0,21.53652191494941,-0.011703519339981226,2.457618920251076,0.0034704749218375844,0.025360667058301683,-0.0009155566990363014,21.676295899499003,0.025613392471406086,1.0,0.0,36.45570624753495,0.04586772371361476,126.0806809749827,94.10450111371338,0.009997325168780009,13.869707806509135,1.0,126.17922067925323,0.0,1.0,95.55570686513374,5521.0550014650125,1.0,1.0,-0.5088732547899512,15.517415741368199,0.05971291821218362,-45.35872710840509,1.0,126.36731782586187,1.0,0.003268742441809963,0.7588955189492551,0.6844829972138887,1.0,0.2085838925536041,11.180232462215251
0.48,0.48,1.0,21.520647812780503,0.05737204919687159,2.5536788933694736,0.0021404129559412298,0.026408773781918412,0.0009296575816702622,21.671706202424488,0.026511675984472568,1.0,0.0,36.45570624753495,0.04586772371361476,126.0806809749827,94.10450111371338,0.009997325168780009,13.869707806509135,1.0,125.26894484969087,0.0,1.0,96.31262330906476,5576.463267658874,1.0,1.0,1.6663672279521697,15.5190198983723,-0.04876466344028175,-45.48074757464408,1.0,127.11909900829264,1.0,0.005677999722008882,0.7548363655010039,0.6824107265523347,1.0,0.3502319545730923,11.268976051291448
0.51,0.51,1.0,21.497989764656896,0.0033644878524813036,2.581729619865951,0.00032252780410555506,0.030785580729195135,0.00037665454911906747,21.652457206311816,0.030789574106628758,1.0,0.0,36.45570624753495,0.04586772371361476,126.0806809749827,94.10450111371338,0.009997325168780009,13.869707806509135,1.0,125.26894484969087,0.0,1.0,96.04249783072379,5659.039246512655,1.0,1.0,1.6663672279521697,15.5190198983723,-0.04876466344028175,-45.48074757464408,1.0,127.11909900829264,1.0,0.005677999722008882,0.7548363655010039,0.6824107265523347,1.0,0.3502319545730923,11.268976051291448
0.54,0.54,1.0,21.497368053979766,-0.023686661642629475,2.6018678170128706,0.0011728686017324587,0.02892633494159326,0.0020455331838079003,21.654263100909642,0.029022279026917033,1.0,0.0,36.45570624753495,0.04586772371361476,126.0806809749827,94.10450111371338,0.009997325168780009,13.869707806509135,1.0,128.02458147891704,0.0,1.0,97.46681199037256,5703.047800258548,1.0,1.0,-0.6061870045256743,15.568529304714435,0.0022070956969690043,-45.402826164149445,1.0,127.88849911727607,1.0,-0.008071365600740468,0.7614214692790916,0.6803672063447475,1.0,-0.05369640198116537,10.380358693018092
0.57,0.57,1.0,21.420230798518645,-0.027936732850592172,2.774603055154814,0.004733517316657072,0.030073382470110755,-0.0003935443219614688,21.599201143480364,0.030446172115949244,1.0,0.0,36.45570624753495,0.04586772371361476,126.0806809749827,94.10450111371338,0.009997325168780009,13.869707806509135,1.0,128.02458147891704,0.0,1.0,97.34590166846463,5784.922089673537,1.0,1.0,-0.6061870045256743,15.568529304714435,0.0022070956969690043,-45.402826164149445,1.0,127.88849911727607,1.0,-0.008071365600740468,0.7614214692790916,0.6803672063447475,1.0,-0.05369640198116537,10.380358693018092
0.6,0.6,1.0,21.36576807893793,-0.0609901936395525,2.9214614851380385,0.002227503122004446,0.03156414776516412,0.0004742997833916806,21.56466328547302,0.031646202846221216,1.0,0.0,36.45570624753495,0.04586772371361476,126.0806809749827,94.10450111371338,0.009997325168780009,13.869707806509135,1.0,129.02248550626913,0.0,1.0,97.45345716951864,5935.124005968172,1.0,1.0,0.2880387798023512,15.62011455237205,-0.04093110076241839,-45.29953029527313,1.0,129.12593506592987,1.0,0.01755385440893992,0.7709583381744816,0.6783513539082922,1.0,-0.02368615592339072,10.942957375112234
0.63,0.63,1.0,21.362111709011522,-0.022986801801989826,2.914214716967008,0.0005795482963934554,0.03246078694583514,-0.0006447297477413242,21.55998591089362,0.0324723611986929,1.0,0.0,54.80528865020995,0.1365807092451373,128.29954595796278,98.07830910721142,0.050096327820973695,13.330998428625767,1.0,129.02248550626913,0.0,1.0,98.62966292998524,5985.374131093061,1.0,1.0,0.2880387798023512,15.62011455237205,-0.04093110076241839,-45.29953029527313,1.0,129.12593506592987,1.0,0.01755385440893992,0.7709583381744816,0.6783513539082922,1.0,-0.02368615592339072,10.942957375112234
0.6599999999999999,0.6599999999999999,1.0,21.365158139125185,-0.04868332470548547,2.9687111487613986,1.374783010012161e-06,0.0332461499983394,0.00037403048189470385,21.57047978744821,0.03324825394518481,1.0,0.0,54.80528865020995,0.1365807092451373,128.29954595796278,98.07830910721142,0.050096327820973695,13.330998428625767,1.0,129.3935971177265,0.0,1.0,100.24451635996317,6042.865919418025,1.0,1.0,0.8465531592272253,15.838175718779363,0.017656670950178432,-45.36513668492627,1.0,129.67245905182358,1.0,-0.0015266324558953878,0.769003651899587,0.6763622036593162,1.0,-0.07654517462812913,10.69759483642434
0.69,0.69,1.0,21.236865290635038,0.010508479949862887,3.0803497326013605,-0.004229701698101445,0.03181253311428792,-0.0007937361351463424,21.459103249573765,0.03210229986550535,1.0,0.0,54.80528865020995,0.1365807092451373,128.29954595796278,98.07830910721142,0.050096327820973695,13.330998428625767,1.0,129.3935971177265,0.0,1.0,100.7878830567662,6097.475905300471,1.0,1.0,0.8465531592272253,15.838175718779363,0.017656670950178432,-45.36513668492627,1.0,129.67245905182358,1.0,-0.0015266324558953878,0.769003651899587,0.6763622036593162,1.0,-0.07654517462812913,10.69759483642434
0.72,0.72,1.0,21.283851156485085,-0.00560795882211825,3.1609451850968955,0.0013919734589398548,0.03324564529427635,-0.002037243883465783,21.51729364868642,0.03333707971289553,1.0,0.0,54.80528865020995,0.1365807092451373,128.29954595796278,98.07830910721142,0.050096327820973695,13.330998428625767,1.0,131.6375957078446,0.0,1.0,101.09484902380781,6156.003052311412,1.0,1.0,-2.1647769440206104,15.949594755909242,-0.10777287044554917,-45.28993018239305,1.0,130.1975038282394,1.0,0.004737698772513994,0.7626711933292327,0.6743988798913269,1.0,-0.047398849767143356,10.709168115543461
0.75,0.75,1.0,21.31595635202672,-0.03227755776447361,3.224107129279349,0.00038951685949504823,0.03458539706927107,0.003272411043908446,21.558429994396935,0.034742050714706936,1.0,0.0,54.80528865020995,0.1365807092451373,128.29954595796278,98.07830910721142,0.050096327820973695,13.330998428625767,1.0,131.6375957078446,0.0,1.0,101.17756481211046,6180.713535042064,1.0,1.0,-2.1647769440206104,15.949594755909242,-0.10777287044554917,-45.28993018239305,1.0,130.1975038282394,1.0,0.004737698772513994,0.7626711933292327,0.6743988798913269,1.0,-0.047398849767143356,10.709168115543461
0.78,0.78,1.0,21.297253493470752,-0.0004853309269504334,3.327966337671226,-0.00042434445277701814,0.037490752657438814,0.001026254099651017,21.555703805382255,0.037507196649615236,1.0,0.0,54.80528865020995,0.1365807092451373,128.29954595796278,98.07830910721142,0.050096327820973695,13.330998428625767,1.0,130.5008300124538,0.0,1.0,102.08264255859831,6296.084164011828,1.0,1.0,-0.2736557757693803,16.032400836349456,-0.0003075748663680105,-45.29758749400924,1.0,131.39162802315565,1.0,0.001511959928474807,0.780096092655887,0.6724605649943217,1.0,0.21374242102904722,10.373691306194404
0.8099999999999999,0.8099999999999999,1.0,21.1700039624209,0.03197862413447777,3.3330167550203007,-0.00224404555713542,0.03362726490673244,2.1995300498388612e-05,21.43079772408307,0.03370206476409572,1.0,0.0,54.80528865020995,0.1365807092451373,128.29954595796278,98.07830910721142,0.050096327820973695,13.330998428625767,1.0,130.5008300124538,0.0,1.0,102.84628545946471,6371.262984182398,1.0,1.0,-0.2736557757693803,16.032400836349456,-0.0003075748663680105,-45.29758749400924,1.0,131.39162802315565,1.0,0.001511959928474807,0.780096092655887,0.6724605649943217,1.0,0.21374242102904722,10.373691306194404
0.84,0.84,1.0,21.154402988362868,0.03858730597264373,3.4222710170847384,0.001461842191649886,0.03359497516932153,0.00012014656342607287,21.429470214837703,0.03362697985869859,1.0,0.0,78.47010077114346,-0.8516452103928671,129.39122922144884,102.53353285213993,0.0850059009284999,12.747346548694138,1.0,132.13650386816806,0.0,1.0,103.44074239329986,6398.1181530775,1.0,1.0,-0.6488824231975241,16.027730112543903,0.013751834395711041,-45.26590670071832,1.0,131.76870976549804,1.0,0.008623663377965426,0.7972358839081224,0.6705464810309474,1.0,-0.0271841979159737,10.13308172726713
0.87,0.87,1.0,21.14182027225307,0.05579291485438739,3.5181601243468665,0.0008738510174891957,0.03297937432190493,0.0026055674863541007,21.432618317278532,0.03309368109157751,1.0,0.0,78.47010077114346,-0.8516452103928671,129.39122922144884,102.53353285213993,0.0850059009284999,12.747346548694138,1.0,132.13650386816806,0.0,1.0,104.23629375429799,6552.595290694541,1.0,1.0,-0.6488824231975241,16.027730112543903,0.013751834395711041,-45.26590670071832,1.0,131.76870976549804,1.0,0.008623663377965426,0.7972358839081224,0.6705464810309474,1.0,-0.0271841979159737,10.13308172726713
0.8999999999999999,0.8999999999999999,1.0,21.125423870754645,0.01693232125975984,3.513520127251607,0.0005547747863844054,0.035634943497441694,0.0010522092090270226,21.415616827613338,0.03565479094524369,1.0,0.0,78.47010077114346,-0.8516452103928671,129.39122922144884,102.53353285213993,0.0850059009284999,12.747346548694138,1.0,131.44758917851868,0.0,1.0,104.93148038813436,6600.9696376559095,1.0,1.0,-0.3412957347910143,16.2223434977565,0.06525650573065132,-45.211722690847964,1.0,132.61246895554677,1.0,-0.005168576375154331,0.7786482962845426,0.6686558751318823,1.0,-0.44505581143298395,10.652659659740724
0.9299999999999999,0.9299999999999999,1.0,21.120384539174527,-0.01742093158076649,3.659615791012838,-0.001105564654190932,0.03319814669082296,0.0008936453757451633,21.435105185402985,0.033228569318699025,1.0,0.0,78.47010077114346,-0.8516452103928671,129.39122922144884,102.53353285213993,0.0850059009284999,12.747346548694138,1.0,131.44758917851868,0.0,1.0,104.90996832127516,6663.608583852077,1.0,1.0,-0.3412957347910143,16.2223434977565,0.06525650573065132,-45.211722690847964,1.0,132.61246895554677,1.0,-0.005168576375154331,0.7786482962845426,0.6686558751318823,1.0,-0.44505581143298395,10.652659659740724
0.96,0.96,1.0,21.088874060705624,-0.001947806112986059,3.6517483295082487,5.252431991233465e-05,0.03558062647515092,-0.0042276311075126844,21.402707277452482,0.03583094478170513,1.0,0.0,78.47010077114346,-0.8516452103928671,129.39122922144884,102.53353285213993,0.0850059009284999,12.747346548694138,1.0,133.08020635557187,0.0,1.0,105.44664508681815,6839.679668594859,1.0,1.0,0.13683114751367328,16.256465932983673,-0.050423803963536386,-45.05398434636738,1.0,133.3718263333717,1.0,0.01404856070075804,0.8015009671297272,0.6667880087264194,1.0,0.053725249414190476,10.287580814265759
0.99,0.99,1.0,21.066951106158065,-0.0343680665899105,3.818816450917801,0.0026159633338736924,0.033659956300232934,-0.001652017912609501,21.41030053873733,0.033801850326296415,1.0,0.0,78.47010077114346,-0.8516452103928671,129.39122922144884,102.53353285213993,0.0850059009284999,12.747346548694138,1.0,133.08020635557187,0.0,1.0,106.63590091763434,6879.33476099614,1.0,1.0,0.13683114751367328,16.256465932983673,-0.050423803963536386,-45.05398434636738,1.0,133.3718263333717,1.0,0.01404856070075804,0.8015009671297272,0.6667880087264194,1.0,0.053725249414190476,10.287580814265759
1.02,1.02,1.0,21.097512550464128,0.06297539969299493,3.820752866349397,0.0008763651793592248,0.03208149333641968,0.0003658794711427136,21.440782499332318,0.03209554639525143,1.0,0.0,78.47010077114346,-0.8516452103928671,129.39122922144884,102.53353285213993,0.0850059009284999,12.747346548694138,1.0,132.65790307616356,0.0,1.0,107.15835877675829,6947.1087597194755,1.0,1.0,0.4326273848719039,16.2858922691227,-0.06530322093568151,-45.20059383187335,1.0,133.9552882446236,1.0,-0.02278949769717865,0.8000979013088403,0.6649421500440529,1.0,-0.045292615424335214,9.992798146549957
1.05,1.05,1.0,21.01239361897051,0.004231374848058294,3.8935955939283495,0.002173803897874467,0.039546157720442614,-0.0007312121278034421,21.37009101880813,0.03961260765226627,1.0,0.0,102.92496371012773,0.21172645020589578,133.58319337541906,106.73076324334491,-0.018953816366794985,11.984059096825444,1.0,132.65790307616356,0.0,1.0,107.63823106638391,6964.380681298417,1.0,1.0,0.4326273848719039,16.2858922691227,-0.06530322093568151,-45.20059383187335,1.0,133.9552882446236,1.0,-0.02278949769717865,0.8000979013088403,0.6649421500440529,1.0,-0.045292615424335214,9.992798146549957
1.08,1.08,1.0,20.931147290294163,0.03466502411502258,3.9142266123029925,0.0015996699125496825,0.03809937655020498,-0.002381279101933478,21.29402025274576,0.038207223499028706,1.0,0.0,102.92496371012773,0.21172645020589578,133.58319337541906,106.73076324334491,-0.018953816366794985,11.984059096825444,1.0,134.01498655385947,0.0,1.0,107.56904523239515,7029.223860142071,1.0,1.0,1.1076103404378936,16.502374595538726,-0.007639861079135771,-44.9921839148835,1.0,135.0589167524015,1.0,-0.010241078104674211,0.7919606792271845,0.6631175686182116,1.0,0.6296209025269066,10.034969097342813
1.1099999999999999,1.1099999999999999,1.0,20.922602247876572,-0.01233180480342562,4.011212277855574,-0.0005388987838662135,0.03235359658616701,-0.002685451344552687,21.303644308762735,0.032469328186515496,1.0,0.0,102.92496371012773,0.21172645020589578,133.58319337541906,106.73076324334491,-0.018953816366794985,11.984059096825444,1.0,134.01498655385947,0.0,1.0,109.06543420570681,7085.47696335421,1.0,1.0,1.1076103404378936,16.502374595538726,-0.007639861079135771,-44.9921839148835,1.0,135.0589167524015,1.0,-0.010241078104674211,0.7919606792271845,0.6631175686182116,1.0,0.6296209025269066,10.034969097342813
1.14,1.14,1.0,20.923913094754425,0.04610663924103084,4.097982766379864,-0.0034308775795495383,0.030225666023992317,0.005285290234046241,21.321485121176813,0.030875493525090152,1.0,0.0,102.92496371012773,0.21172645020589578,133.58319337541906,106.73076324334491,-0.018953816366794985,11.984059096825444,1.0,135.99001375506722,0.0,1.0,109.20168965649256,7219.072160906883,1.0,1.0,1.041464533056689,16.537311559740314,-0.06881669168608415,-45.06222531046976,1.0,135.7617660570382,1.0,0.021391862456293032,0.7939934199796258,0.6613135315153054,1.0,0.7185627237950644,9.614759338940512
1.17,1.17,1.0,20.91185374491211,-0.03376930128078738,4.109038173048386,0.0007612003263100515,0.03539918267237644,-7.417450676472736e-05,21.311756429770693,0.03540744359123523,1.0,0.0,102.92496371012773,0.21172645020589578,133.58319337541906,106.73076324334491,-0.018953816366794985,11.984059096825444,1.0,135.99001375506722,0.0,1.0,109.78581677692442,7367.27404182773,1.0,1.0,1.041464533056689,16.537311559740314,-0.06881669168608415,-45.06222531046976,1.0,135.7617660570382,1.0,0.021391862456293032,0.7939934199796258,0.6613135315153054,1.0,0.7185627237950644,9.614759338940512
1.2,1.2,1.0,20.883126011285533,0.011326083542563882,4.2176682742579,0.0010723662590994556,0.032799745268874456,0.0007025155751547534,21.304783640184674,0.03282478921836426,1.0,0.0,102.92496371012773,0.21172645020589578,133.58319337541906,106.73076324334491,-0.018953816366794985,11.984059096825444,1.0,136.9868649297495,0.0,1.0,110.30230561579242,7321.733183939482,1.0,1.0,1.6652534676802166,16.606097528596752,-0.046821548976483336,-45.014317479405975,1.0,136.29909533999123,1.0,-0.010609822849117727,0.8156998231299247,0.6595293007614389,1.0,0.694225953114338,9.451508621692655
1.23,1.23,1.0,20.95150633291936,0.04261947676992204,4.250467246735298,0.0001960681944948157,0.03138889736882922,0.0016704730056965728,21.37835133619358,0.031433927543826706,1.0,0.0,102.92496371012773,0.21172645020589578,133.58319337541906,106.73076324334491,-0.018953816366794985,11.984059096825444,1.0,136.9868649297495,0.0,1.0,110.34932249383994,7523.569662336466,1.0,1.0,1.6652534676802166,16.606097528596752,-0.046821548976483336,-45.014317479405975,1.0,136.29909533999123,1.0,-0.010609822849117727,0.8156998231299247,0.6595293007614389,1.0,0.694225953114338,9.451508621692655
1.26,1.26,1.0,20.874609734692537,-0.03553731984340112,4.397390287217376,-0.0009550444884151634,0.03036386610592617,0.00040132597729996655,21.332783123983983,0.03038153283515366,1.0,0.0,123.74186989964834,-3.302901118377579,136.45212594118175,111.04614316036283,0.08777325787193392,11.809109480135515,1.0,136.36903778203276,0.0,1.0,111.05115387451616,7781.40781108542,1.0,1.0,-1.3387006135390411,16.7259908766437,-0.012764202181640361,-45.021141142102664,1.0,136.61808695716428,1.0,-0.020668237315235052,0.8069474169866939,0.6577641316872117,1.0,-0.4192394259763592,9.207237399472886
1.29,1.29,1.0,20.857395951621296,-0.0585570904213315,4.416454112066634,-0.0019097788210848013,0.03015206004411877,-0.0018100415270001153,21.319931091341203,0.03026665211712509,1.0,0.0,123.74186989964834,-3.302901118377579,136.45212594118175,111.04614316036283,0.08777325787193392,11.809109480135515,1.0,136.36903778203276,0.0,1.0,111.7216523086377,7713.566966877671,1.0,1.0,-1.3387006135390411,16.7259908766437,-0.012764202181640361,-45.021141142102664,1.0,136.61808695716428,1.0,-0.020668237315235052,0.8069474169866939,0.6577641316872117,1.0,-0.4192394259763592,9.207237399472886
1.3199999999999998,1.3199999999999998,1.0,20.882006188750264,-0.05737543368282201,4.488411244957016,0.0019263782952406172,0.028433772160340955,-0.0030787862957038863,21.35901004052508,0.02866477381137288,1.0,0.0,123.74186989964834,-3.302901118377579,136.45212594118175,111.04614316036283,0.08777325787193392,11.809109480135515,1.0,136.22131856036447,0.0,1.0,112.50229168147206,7711.678790513695,1.0,1.0,0.8893804029269281,16.84637846716379,0.05337589318580282,-44.94194984104222,1.0,137.94176193092432,1.0,0.004130863466521811,0.8207092359347783,0.6560172719514903,1.0,-0.2228843115010255,10.248551582065835
1.3499999999999999,1.3499999999999999,1.0,20.81436174673977,-0.05441845110850259,4.550393110684807,-0.00033325328066270243,0.027799744278920353,-0.0006100925825785121,21.306024822892997,0.027808434919674187,1.0,0.0,123.74186989964834,-3.302901118377579,136.45212594118175,111.04614316036283,0.08777325787193392,11.809109480135515,1.0,136.22131856036447,0.0,1.0,113.24232465336937,7765.971930563289,1.0,1.0,0.8893804029269281,16.84637846716379,0.05337589318580282,-44.94194984104222,1.0,137.94176193092432,1.0,0.004130863466521811,0.8207092359347783,0.6560172719514903,1.0,-0.2228843115010255,10.248551582065835
1.38,1.38,1.0,20.853126337836343,0.012443124703915094,4.542200006511105,-0.0023850282406007476,0.026315317261298578,-0.0009939924018020295,21.342085507097604,0.02644186648415921,1.0,0.0,123.74186989964834,-3.302901118377579,136.45212594118175,111.04614316036283,0.08777325787193392,11.809109480135515,1.0,138.13783392713913,0.0,1.0,114.32893621501805,7814.76401339091,1.0,1.0,1.2856462969956732,17.004535112496455,-0.06781971860672065,-44.98262899660631,1.0,138.6006181852751,1.0,-0.019081453322573612,0.8236557225591864,0.6542879610686347,1.0,-0.09964290725977093,9.344511293351529
1.41,1.41,1.0,20.800851875292853,-0.013707415231707943,4.641204412746711,0.002671179382502333,0.025357791513008886,0.0037172366023911735,21.31235334335479,0.025767627707433367,1.0,0.0,123.74186989964834,-3.302901118377579,136.45212594118175,111.04614316036283,0.08777325787193392,11.809109480135515,1.0,138.13783392713913,0.0,1.0,114.5502710178107,7903.075291815785,1.0,1.0,1.2856462969956732,17.004535112496455,-0.06781971860672065,-44.98262899660631,1.0,138.6006181852751,1.0,-0.019081453322573612,0.8236557225591864,0.6542879610686347,1.0,-0.09964290725977093,9.344511293351529
1.44,1.44,1.0,20.793780587269392,-0.05439659056810225,4.71399218686136,-0.0037086976924977327,0.02766123892637998,-0.0036417517136702712,21.32149132772745,0.028145353667357556,1.0,0.0,123.74186989964834,-3.302901118377579,136.45212594118175,111.04614316036283,0.08777325787193392,11.809109480135515,1.0,139.26664681370193,0.0,1.0,115.46607806890759,8019.0635590193715,1.0,1.0,2.5876113938718874,16.934723009372508,0.001837469352921776,-44.93808219791947,1.0,138.82887904742864,1.0,-0.008957819045351261,0.8160960982573364,0.6525754303099459,1.0,-0.2617324924783082,8.859109958600383
1.47,1.47,1.0,20.797247818839374,-0.027252187938770517,4.7963215356853475,-0.0014060935555869148,0.025088264171508078,-0.0014220615467631613,21.34317126843257,0.02516784371513025,1.0,0.0,149.50005097814056,2.2768077467851655,139.42008949907554,115.20523660550204,0.13284785332749,11.60506518177334,1.0,139.26664681370193,0.0,1.0,115.7450500202665,7944.36879776671,1.0,1.0,2.5876113938718874,16.934723009372508,0.001837469352921776,-44.93808219791947,1.0,138.82887904742864,1.0,-0.008957819045351261,0.8160960982573364,0.6525754303099459,1.0,-0.2617324924783082,8.859109958600383
1.5,1.5,1.0,20.673729125589624,0.007877330300639815,4.822378305625113,-0.0021787570006394663,0.021780994645192682,-0.001756114469244667,21.2287180614645,0.021960023857701936,1.0,0.0,149.50005097814056,2.2768077467851655,139.42008949907554,115.20523660550204,0.13284785332749,11.60506518177334,1.0,139.55872729846504,0.0,1.0,116.19688284213304,8084.118446676822,1.0,1.0,-0.4581410938431308,17.012226776645942,0.06318972725991803,-44.87556050799373,1.0,139.70211212658666,1.0,0.011276459686567833,0.834343269370281,0.6508789028804096,1.0,-0.029338510783721537,9.052140389242377
1.53,1.53,1.0,20.671954544540917,0.017579144889505616,4.906754643083275,-0.0024751369985886776,0.023187227698043926,0.0018268084270855155,21.246323325350204,0.023390405308843808,1.0,0.0,149.50005097814056,2.2768077467851655,139.42008949907554,115.20523660550204,0.13284785332749,11.60506518177334,1.0,139.55872729846504,0.0,1.0,116.69141923890434,8380.422262903905,1.0,1.0,-0.4581410938431308,17.012226776645942,0.06318972725991803,-44.87556050799373,1.0,139.70211212658666,1.0,0.011276459686567833,0.834343269370281,0.6508789028804096,1.0,-0.029338510783721537,9.052140389242377
1.56,1.56,1.0,20.638111959383806,-0.020593170190197626,5.006267276460918,-0.00036532715641652647,0.0263827860557044,0.0021392129627875556,21.236638184281492,0.026471892567257904,1.0,0.0,149.50005097814056,2.2768077467851655,139.42008949907554,115.20523660550204,0.13284785332749,11.60506518177334,1.0,140.81317420405713,0.0,1.0,117.14724154853195,8283.504671698143,1.0,1.0,-0.5244538749234371,17.03843155363839,0.0746391228227516,-44.83688667921394,1.0,140.65279765950248,1.0,0.008321825184981544,0.8258262984861094,0.6491975942978092,1.0,-0.27215434160396673,9.077658953031271
1.5899999999999999,1.5899999999999999,1.0,20.635872715696266,0.05575533999385204,5.0269947901757845,0.0017223609954131333,0.025004512154686864,-0.0023080846074073945,21.239421555607628,0.02516981148215764,1.0,0.0,149.50005097814056,2.2768077467851655,139.42008949907554,115.20523660550204,0.13284785332749,11.60506518177334,1.0,140.81317420405713,0.0,1.0,117.16617131851184,8435.01043090741,1.0,1.0,-0.5244538749234371,17.03843155363839,0.0746391228227516,-44.83688667921394,1.0,140.65279765950248,1.0,0.008321825184981544,0.8258262984861094,0.6491975942978092,1.0,-0.27215434160396673,9.077658953031271
1.6199999999999999,1.6199999999999999,1.0,20.579901684477893,-0.004078648433736829,5.086848247720653,-0.004662156802512534,0.025104572617681623,0.0014845717394976273,21.1992545876851,0.025576927603161777,1.0,0.0,149.50005097814056,2.2768077467851655,139.42008949907554,115.20523660550204,0.13284785332749,11.60506518177334,1.0,140.41873073262164,0.0,1.0,118.8081210165784,8567.564061395871,1.0,1.0,-1.2075770604644949,17.141353370934727,-0.025818343070462293,-44.824916960562724,1.0,140.96783217072937,1.0,-0.008527525794835195,0.8304435384942055,0.647530712918903,1.0,0.39530592735506787,9.113434319946471
1.65,1.65,1.0,20.57298499421583,-0.06993698310938962,5.14239641551523,-0.0005052362514345914,0.02366594279173021,0.0011967916755347204,21.206056768011823,0.02370157003672626,1.0,0.0,149.50005097814056,2.2768077467851655,139.42008949907554,115.20523660550204,0.13284785332749,11.60506518177334,1.0,140.41873073262164,0.0,1.0,118.6490176652359,8661.739500612724,1.0,1.0,-1.2075770604644949,17.141353370934727,-0.025818343070462293,-44.824916960562724,1.0,140.96783217072937,1.0,-0.008527525794835195,0.8304435384942055,0.647530712918903,1.0,0.39530592735506787,9.113434319946471
1.68,1.68,1.0,20.55849551053702,-0.03903579098248758,5.213757715972291,0.001904966970525197,0.023568738663858942,0.0008450283898527696,21.209350083644928,0.023660693445960716,1.0,0.0,173.01083200412603,-0.996445577336225,140.50970790581317,119.18658285393188,-0.18165206967627376,10.915356124285568,1.0,143.05322483547567,0.0,1.0,119.65935250289355,8662.026274954424,1.0,1.0,1.0034707404778558,17.145698010601688,-0.0501805704878113,-44.780371914249706,1.0,141.53243624238,1.0,-0.009252476405016596,0.8373359824113823,0.6458774605714033,1.0,0.20470279668470748,8.787243094261198
1.71,1.71,1.0,20.510869490434832,0.002776452417045074,5.287755715118041,-0.0008503598070652961,0.026123401642464673,-0.0010497426858578855,21.181504560939526,0.026158310054005977,1.0,0.0,173.01083200412603,-0.996445577336225,140.50970790581317,119.18658285393188,-0.18165206967627376,10.915356124285568,1.0,143.05322483547567,0.0,1.0,120.37264556480162,8729.215122467816,1.0,1.0,1.0034707404778558,17.145698010601688,-0.0501805704878113,-44.780371914249706,1.0,141.53243624238,1.0,-0.009252476405016596,0.8373359824113823,0.6458774605714033,1.0,0.20470279668470748,8.787243094261198
1.74,1.74,1.0,20.528506637671686,0.001369720683786844,5.390241804099077,-0.001525263140191873,0.022242806668549088,0.0007777455292065234,21.224379693072834,0.02230860292016245,1.0,0.0,173.01083200412603,-0.996445577336225,140.50970790581317,119.18658285393188,-0.18165206967627376,10.915356124285568,1.0,142.2915012581435,0.0,1.0,120.60149977553098,8647.265307021871,1.0,1.0,-1.4097116209679756,17.29958632038355,-0.007544745519006266,-44.776139453518844,1.0,142.24129933620802,1.0,0.003910372173798583,0.8570376151114485,0.6442370332606306,1.0,0.08327912698204137,9.39313737821581
1.77,1.77,1.0,20.511876176760516,0.020179359450260486,5.462007115742736,0.00022243566858980653,0.023623578030399772,0.003905986087514026,21.226657608529134,0.02394534701984711,1.0,0.0,173.01083200412603,-0.996445577336225,140.50970790581317,119.18658285393188,-0.18165206967627376,10.915356124285568,1.0,142.2915012581435,0.0,1.0,121.5474757326046,9131.813541759611,1.0,1.0,-1.4097116209679756,17.29958632038355,-0.007544745519006266,-44.776139453518844,1.0,142.24129933620802,1.0,0.003910372173798583,0.8570376151114485,0.6442370332606306,1.0,0.08327912698204137,9.39313737821581
1.7999999999999998,1.7999999999999998,1.0,20.386783690606254,0.013722318398265857,5.434895605540194,0.0008729804926723406,0.021403210787327848,0.001246824445710729,21.09879683282228,0.0214572621307052,1.0,0.0,173.01083200412603,-0.996445577336225,140.50970790581317,119.18658285393188,-0.18165206967627376,10.915356124285568,1.0,143.59641383098878,0.0,1.0,121.73406707822927,8855.648875926454,1.0,1.0,-0.8702184057906556,17.30642897216405,0.11837768115750293,-44.75056147302741,1.0,143.16278708387577,1.0,-0.00025849649397511064,0.8642817372285913,0.642608621927458,1.0,0.02493039949090079,8.647116056848649
1.8299999999999998,1.8299999999999998,1.0,20.386490811998744,0.009867997522056873,5.598476666665037,-0.003039753906119731,0.018750432591664062,-0.0016994680458727672,21.141240408081007,0.01907110426334172,1.0,0.0,173.01083200412603,-0.996445577336225,140.50970790581317,119.18658285393188,-0.18165206967627376,10.915356124285568,1.0,143.59641383098878,0.0,1.0,122.50515852813326,8996.241047635931,1.0,1.0,-0.8702184057906556,17.30642897216405,0.11837768115750293,-44.75056147302741,1.0,143.16278708387577,1.0,-0.00025849649397511064,0.8642817372285913,0.642608621927458,1.0,0.02493039949090079,8.647116056848649
1.8599999999999999,1.8599999999999999,1.0,20.413086359568776,-0.030871974703521037,5.537731933930036,-0.0026665935405472303,0.022960204985788556,-0.004709330816736469,21.150922504091955,0.02358939445686094,1.0,0.0,173.01083200412603,-0.996445577336225,140.50970790581317,119.18658285393188,-0.18165206967627376,10.915356124285568,1.0,144.00537112208548,0.0,1.0,123.81975974824364,9274.583693035473,1.0,1.0,1.4880832588255113,17.40169206490371,-0.002364976353606073,-44.79812632416407,1.0,143.2459289481178,1.0,-0.00932008639251315,0.8674207532398954,0.6409914132398986,1.0,0.20096017449104112,8.797779973366204
1.89,1.89,1.0,20.33702883146111,0.03376565963914393,5.73279121023162,-2.1707977598086193e-05,0.020224092790840063,0.0016645354347405508,21.12961847434923,0.020292488232405294,1.0,0.0,196.3573449660168,1.021212817287425,142.27133035996124,123.34693105226012,0.06555714263465995,10.751735041138367,1.0,144.00537112208548,0.0,1.0,123.92772704768825,9195.02818561194,1.0,1.0,1.4880832588255113,17.40169206490371,-0.002364976353606073,-44.79812632416407,1.0,143.2459289481178,1.0,-0.00932008639251315,0.8674207532398954,0.6409914132398986,1.0,0.20096017449104112,8.797779973366204
1.92,1.92,1.0,20.351784909912634,0.04918037054252938,5.627300209539696,0.0013510552172588924,0.02102533793545472,-0.0015452176140503921,21.115493727982773,0.021125290127591748,1.0,0.0,196.3573449660168,1.021212817287425,142.27133035996124,123.34693105226012,0.06555714263465995,10.751735041138367,1.0,145.47192551094622,0.0,1.0,124.7413725152348,9439.0557305972,1.0,1.0,0.2989923257144124,17.47087464423945,-0.0473283187102076,-44.76542974733735,1.0,144.36958507299542,1.0,-0.0072388728969230275,0.8657400063440264,0.6393845904050135,1.0,-0.6179578819522307,8.822794627530332
1.95,1.95,1.0,20.340854189529406,-0.07419267867635881,5.806018217738362,0.0025967240410219605,0.021152058483345896,0.0005238178907639775,21.15338510163267,0.021317292018706104,1.0,0.0,196.3573449660168,1.021212817287425,142.27133035996124,123.34693105226012,0.06555714263465995,10.751735041138367,1.0,145.47192551094622,0.0,1.0,124.5150375211185,9416.498255532082,1.0,1.0,0.2989923257144124,17.47087464423945,-0.0473283187102076,-44.76542974733735,1.0,144.36958507299542,1.0,-0.0072388728969230275,0.8657400063440264,0.6393845904050135,1.0,-0.6179578819522307,8.822794627530332
1.98,1.98,1.0,20.338416510844223,0.013722728386877707,5.8513247570424705,-0.003125247818973815,0.018990462885019457,-0.0010429993195231445,21.16339707831031,0.019274145949894326,1.0,0.0,196.3573449660168,1.021212817287425,142.27133035996124,123.34693105226012,0.06555714263465995,10.751735041138367,1.0,144.46076449706638,0.0,1.0,125.53987877069397,9509.736565286088,1.0,1.0,1.4705425253639874,17.482786790860047,-0.030701920880120373,-44.73617554574224,1.0,144.33940655390617,1.0,0.003460539637634519,0.8650033288928931,0.6377873339910518,1.0,0.282131519740926,9.001796200561532
2.01,2.01,1.0,20.346900037129107,0.051069998736312475,5.999104561771488,-0.0002601368995680216,0.015921423758018388,0.00037033448132730147,21.21292541845096,0.01592785463635857,1.0,0.0,196.3573449660168,1.021212817287425,142.27133035996124,123.34693105226012,0.06555714263465995,10.751735041138367,1.0,144.46076449706638,0.0,1.0,125.85718570030384,9582.993543749759,1.0,1.0,1.4705425253639874,17.482786790860047,-0.030701920880120373,-44.73617554574224,1.0,144.33940655390617,1.0,0.003460539637634519,0.8650033288928931,0.6377873339910518,1.0,0.282131519740926,9.001796200561532
2.04,2.04,1.0,20.30200489509272,0.042021198814192466,5.964603817857678,-0.001590102591342531,0.021661977637581868,-0.0007028214046892005,21.160096106717496,0.02173162808785804,1.0,0.0,196.3573449660168,1.021212817287425,142.27133035996124,123.34693105226012,0.06555714263465995,10.751735041138367,1.0,145.69769580382925,0.0,1.0,126.10176648730122,9657.799303110582,1.0,1.0,0.8758357647305478,17.452294988434257,0.039179520482825074,-44.76158298408916,1.0,145.46652141687005,1.0,0.0014355681651947133,0.8678281592034772,0.6361988227521616,1.0,-0.03864861708764146,8.157402559894312
2.07,2.07,1.0,20.27830009335545,0.014373213141808628,6.094900442183121,0.0013153530571874288,0.013191365392816252,0.0022173603078440495,21.17445330263711,0.01344094346862023,1.0,0.0,196.3573449660168,1.021212817287425,142.27133035996124,123.34693105226012,0.06555714263465995,10.751735041138367,1.0,145.69769580382925,0.0,1.0,127.46200788869868,9784.280817926045,1.0,1.0,0.8758357647305478,17.452294988434257,0.039179520482825074,-44.76158298408916,1.0,145.46652141687005,1.0,0.0014355681651947133,0.8678281592034772,0.6361988227521616,1.0,-0.03864861708764146,8.157402559894312
2.1,2.1,1.0,20.20310014783161,-0.02944450987218607,6.160403441792454,0.0017417126762541873,0.020718330491266954,-0.000280059132296255,21.121474691131855,0.020793297345769117,1.0,0.0,223.50489320492275,0.20835709846789896,145.4138398811829,127.33095196952296,-0.08434856031340002,10.56435288939097,1.0,146.0973888501336,0.0,1.0,127.58055844799289,9811.481263674035,1.0,1.0,-0.10363998456426948,17.653207437990435,0.07693660543737768,-44.71479291404364,1.0,146.09715639438184,1.0,-0.001320992341157497,0.8782696703014456,0.6346182344498429,1.0,0.004045159866328391,8.678795924169979
2.13,2.13,1.0,20.23554184921936,-0.0445190630083831,6.240700701456152,0.0026611945798395258,0.017037379809683062,0.004203562598297806,21.17605914998432,0.017748921259867358,1.0,0.0,223.50489320492275,0.20835709846789896,145.4138398811829,127.33095196952296,-0.08434856031340002,10.56435288939097,1.0,146.0973888501336,0.0,1.0,127.7293211346792,10121.11299118457,1.0,1.0,-0.10363998456426948,17.653207437990435,0.07693660543737768,-44.71479291404364,1.0,146.09715639438184,1.0,-0.001320992341157497,0.8782696703014456,0.6346182344498429,1.0,0.004045159866328391,8.678795924169979
2.16,2.16,1.0,20.139143424681855,0.024088806825168514,6.286596710760208,-0.0012870233246366583,0.016377059547525417,0.002551417270902384,21.09755854013117,0.01662450716717976,1.0,0.0,223.50489320492275,0.20835709846789896,145.4138398811829,127.33095196952296,-0.08434856031340002,10.56435288939097,1.0,147.0542607468714,0.0,1.0,128.67270972105473,10145.646745984192,1.0,1.0,1.8066965815050144,17.70795748221694,-0.013732336267989788,-44.685984162483884,1.0,146.50192193078493,1.0,0.013745273382497994,0.8733931827784249,0.6330447466666835,1.0,0.6662010857351114,8.153747775480399
2.19,2.19,1.0,20.114082717006536,-0.040962705490905846,6.2960034210334666,0.0020055941024990963,0.01481472028498482,-0.004643879821018442,21.076471729572937,0.015654518983935026,1.0,0.0,223.50489320492275,0.20835709846789896,145.4138398811829,127.33095196952296,-0.08434856031340002,10.56435288939097,1.0,147.0542607468714,0.0,1.0,129.5917592705888,10178.211482476501,1.0,1.0,1.8066965815050144,17.70795748221694,-0.013732336267989788,-44.685984162483884,1.0,146.50192193078493,1.0,0.013745273382497994,0.8733931827784249,0.6330447466666835,1.0,0.6662010857351114,8.153747775480399
2.2199999999999998,2.2199999999999998,1.0,20.095268769276615,-0.025069492190815258,6.28620905789107,-0.001747172305538644,0.016748977358416045,0.0002594705257070091,21.05556647797476,0.016841857931109774,1.0,0.0,223.50489320492275,0.20835709846789896,145.4138398811829,127.33095196952296,-0.08434856031340002,10.56435288939097,1.0,146.86192146017723,0.0,1.0,130.37125382845832,10347.462421420954,1.0,1.0,-1.3801359837503873,17.66754358929742,-0.03949146985780584,-44.57490505678147,1.0,147.58254553344597,1.0,-0.006815776245054037,0.8712706873673802,0.6314775376089612,1.0,-0.6322966337395459,8.265888901352561
2.25,2.25,1.0,20.08161877823929,0.008249293362620806,6.41977203025408,-0.0017666207765312785,0.018177769426818334,0.001391746548078025,21.082811807863923,0.018316364507093934,1.0,0.0,223.50489320492275,0.20835709846789896,145.4138398811829,127.33095196952296,-0.08434856031340002,10.56435288939097,1.0,146.86192146017723,0.0,1.0,130.38074073352075,10285.46726293219,1.0,1.0,-1.3801359837503873,17.66754358929742,-0.03949146985780584,-44.57490505678147,1.0,147.58254553344597,1.0,-0.006815776245054037,0.8712706873673802,0.6314775376089612,1.0,-0.6322966337395459,8.265888901352561
2.28,2.28,1.0,20.090105979319063,-0.027802317427373723,6.408229052773792,-0.001634504877190591,0.014337618428268566,0.0012083156863215542,21.087402182865958,0.014480985297485698,1.0,0.0,223.50489320492275,0.20835709846789896,145.4138398811829,127.33095196952296,-0.08434856031340002,10.56435288939097,1.0,147.37864243882234,0.0,1.0,130.7851813825792,10250.168558867146,1.0,1.0,-0.7251376031228725,17.772484616367944,-0.02695438912354063,-44.58576549419103,1.0,147.96689008325345,1.0,-0.0018379925212068347,0.8720691766091484,0.6299157868954757,1.0,0.28463170187128106,8.300172302884361
2.31,2.31,1.0,19.937172170153048,-0.047660472515725416,6.545631537908049,0.0018748656324829413,0.014803066348970672,-0.0010468063503038484,20.9842416563721,0.01495799779405419,1.0,0.0,250.54801333486765,1.4824169423803673,147.44153434311883,131.1774117782555,-0.04550137815155315,10.56600737880325,1.0,147.37864243882234,0.0,1.0,131.56810128657148,10345.98599321776,1.0,1.0,-0.7251376031228725,17.772484616367944,-0.02695438912354063,-44.58576549419103,1.0,147.96689008325345,1.0,-0.0018379925212068347,0.8720691766091484,0.6299157868954757,1.0,0.28463170187128106,8.300172302884361
2.34,2.34,1.0,19.957811326028057,0.013553887934899596,6.6244282908506635,0.0015823937757129564,0.015325774575128731,-6.884186517476017e-07,21.028491786474717,0.015407249490515742,1.0,0.0,250.54801333486765,1.4824169423803673,147.44153434311883,131.1774117782555,-0.04550137815155315,10.56600737880325,1.0,148.21726786093762,0.0,1.0,132.21343594023278,10736.36571383041,1.0,1.0,-0.15407392111254253,17.794594455029273,-0.019030473195659012,-44.65449971307338,1.0,148.83214838564837,1.0,-0.008660167215196041,0.8895593614426857,0.6283586763305775,1.0,-0.06782872851117837,8.88590034347095
2.37,2.37,1.0,19.990912477603736,0.09629899247179938,6.60807982776284,-0.0008249074944821934,0.013335494399919195,-0.0021584212463961043,21.05498929454133,0.013534203542936067,1.0,0.0,250.54801333486765,1.4824169423803673,147.44153434311883,131.1774117782555,-0.04550137815155315,10.56600737880325,1.0,148.21726786093762,0.0,1.0,132.6836754740612,10461.88958874978,1.0,1.0,-0.15407392111254253,17.794594455029273,-0.019030473195659012,-44.65449971307338,1.0,148.83214838564837,1.0,-0.008660167215196041,0.8895593614426857,0.6283586763305775,1.0,-0.06782872851117837,8.88590034347095
2.4,2.4,1.0,19.953527965263792,0.010117680662415671,6.699555609504823,-0.0009079509907065836,0.010281471694620549,-0.000762275501499786,21.048216693888197,0.010349594153830157,1.0,0.0,250.54801333486765,1.4824169423803673,147.44153434311883,131.1774117782555,-0.04550137815155315,10.56600737880325,1.0,148.2291874239724,0.0,1.0,133.09089539455113,10841.13247516995,1.0,1.0,-0.8821620700756045,17.77890367297927,-0.029620933090735744,-44.624788400317534,1.0,149.12027737832128,1.0,0.009641410320540219,0.8940634033484995,0.6268053951174286,1.0,-0.057831601270202,8.738695810979225
2.4299999999999997,2.4299999999999997,1.0,19.91821814315978,0.03232245135003418,6.738088371363145,-0.00011167393898603305,0.011486800580971393,-0.0003834344726299434,21.027084763220508,0.011493740933675788,1.0,0.0,250.54801333486765,1.4824169423803673,147.44153434311883,131.1774117782555,-0.04550137815155315,10.56600737880325,1.0,148.2291874239724,0.0,1.0,133.3341852499758,10795.954656103655,1.0,1.0,-0.8821620700756045,17.77890367297927,-0.029620933090735744,-44.624788400317534,1.0,149.12027737832128,1.0,0.009641410320540219,0.8940634033484995,0.6268053951174286,1.0,-0.057831601270202,8.738695810979225
2.46,2.46,1.0,19.839790170687383,0.025019160780283385,6.786785533205284,0.0014378539034320104,0.008784597546462016,-0.0011182151151123648,20.968508717813826,0.008971453780998201,1.0,0.0,250.54801333486765,1.4824169423803673,147.44153434311883,131.1774117782555,-0.04550137815155315,10.56600737880325,1.0,149.68628508423006,0.0,1.0,135.20340116280403,10907.532081932295,1.0,1.0,-1.915358043422178,17.861283883389188,0.04598216355677747,-44.58208627810327,1.0,149.8291618103978,1.0,-0.0014369140985606604,0.8859456006349216,0.6252549851443931,1.0,0.06717450600800416,8.178709161453575
2.4899999999999998,2.4899999999999998,1.0,19.910974651921453,0.029172223333139808,6.950725825440562,0.0027048858993630673,0.007437300362811147,-0.0004309096882907576,21.08934214499161,0.007925624743495417,1.0,0.0,250.54801333486765,1.4824169423803673,147.44153434311883,131.1774117782555,-0.04550137815155315,10.56600737880325,1.0,149.68628508423006,0.0,1.0,135.3375425759561,10972.145092166264,1.0,1.0,-1.915358043422178,17.861283883389188,0.04598216355677747,-44.58208627810327,1.0,149.8291618103978,1.0,-0.0014369140985606604,0.8859456006349216,0.6252549851443931,1.0,0.06717450600800416,8.178709161453575
2.52,2.52,1.0,19.807566117455206,0.02814009643611844,6.9707136475055345,-0.002344679978711612,0.005978102749713666,-0.0006988860785654278,20.998364605795064,0.006459386847024858,1.0,0.0,280.4340733175751,0.170284708858507,149.330349323066,135.1363169111443,0.017949046019392952,10.387114723146931,1.0,149.90887636985818,0.0,1.0,135.77577176280124,11156.378465045953,1.0,1.0,0.45634495414329435,17.946173624881972,-0.052959108449634744,-44.493006392767356,1.0,150.66389436008532,1.0,0.011170159435608265,0.9110502247845675,0.6237063699020637,1.0,0.7821629901486838,8.353797004814757
2.55,2.55,1.0,19.74310125788814,0.021234921577599385,7.079221844615664,-0.0011084508158520918,0.005679099110221953,-0.0009076419447727872,20.973933348954894,0.005857016630913547,1.0,0.0,280.4340733175751,0.170284708858507,149.330349323066,135.1363169111443,0.017949046019392952,10.387114723146931,1.0,149.90887636985818,0.0,1.0,135.9068912524415,11276.46489344589,1.0,1.0,0.45634495414329435,17.946173624881972,-0.052959108449634744,-44.493006392767356,1.0,150.66389436008532,1.0,0.011170159435608265,0.9110502247845675,0.6237063699020637,1.0,0.7821629901486838,8.353797004814757
2.58,2.58,1.0,19.684983528686935,-0.01261150282081396,7.129431443574572,-0.0010728256458007346,0.006628866845084931,-0.0012604075277942652,20.936273027530692,0.00683238301416676,1.0,0.0,280.4340733175751,0.170284708858507,149.330349323066,135.1363169111443,0.017949046019392952,10.387114723146931,1.0,151.07436111459305,0.0,1.0,136.46376011247926,11136.173415283236,1.0,1.0,-1.106212071982508,17.862178135521354,0.04071329667127856,-44.545772159891015,1.0,151.29693816190408,1.0,-0.005445857962135701,0.9082778651075001,0.6221583812386389,1.0,-0.17032315105096055,7.854107106608752
2.61,2.61,1.0,19.72680503562405,-0.06530040305669312,7.188125537912451,0.0018304867622306292,0.002982845566134664,0.001151903107047567,20.99571979725751,0.003684417216621461,1.0,0.0,280.4340733175751,0.170284708858507,149.330349323066,135.1363169111443,0.017949046019392952,10.387114723146931,1.0,151.07436111459305,0.0,1.0,136.83437705521916,11452.0018204441,1.0,1.0,-1.106212071982508,17.862178135521354,0.04071329667127856,-44.545772159891015,1.0,151.29693816190408,1.0,-0.005445857962135701,0.9082778651075001,0.6221583812386389,1.0,-0.17032315105096055,7.854107106608752
2.6399999999999997,2.6399999999999997,1.0,19.729903448157277,-0.002548663669442039,7.278997891315616,0.0013730432563943571,0.0020345616322476126,0.00047587906138938063,21.029809958035095,0.0025002299295090696,1.0,0.0,280.4340733175751,0.170284708858507,149.330349323066,135.1363169111443,0.017949046019392952,10.387114723146931,1.0,151.94175510368854,0.0,1.0,137.7533905820088,11526.200969704892,1.0,1.0,-0.7377396158514858,17.87035047493309,0.011809544214496155,-44.52623570319953,1.0,151.83149944528847,1.0,-0.008764630760847884,0.916516172117927,0.6206097893445075,1.0,0.631498929069438,8.259926103394099
2.67,2.67,1.0,19.73039359685729,0.07201878256143211,7.423001892617715,0.0024259809050747815,0.0019168927010809298,-0.004224898530971258,21.080668283755973,0.005235420573005372,1.0,0.0,280.4340733175751,0.170284708858507,149.330349323066,135.1363169111443,0.017949046019392952,10.387114723146931,1.0,151.94175510368854,0.0,1.0,138.39325917034992,11454.268387664144,1.0,1.0,-0.7377396158514858,17.87035047493309,0.011809544214496155,-44.52623570319953,1.0,151.83149944528847,1.0,-0.008764630760847884,0.916516172117927,0.6206097893445075,1.0,0.631498929069438,8.259926103394099
2.6999999999999997,2.6999999999999997,1.0,19.668218587066185,0.007041248737592102,7.4248159798767395,0.0002084648167727077,0.0003824277777335406,-0.0011345522945941757,21.023005596318345,0.0012152849436174228,1.0,0.0,280.4340733175751,0.170284708858507,149.330349323066,135.1363169111443,0.017949046019392952,10.387114723146931,1.0,151.9060765991257,0.0,1.0,138.7415876511213,11645.222068686233,1.0,1.0,-0.9012612954128387,17.908379079225128,-0.03234914689184237,-44.544300462345035,1.0,152.40141666117273,1.0,-0.0019503213176101035,0.8988332349282409,0.6190593185771811,1.0,0.04106775861862125,8.141357252577434
2.73,2.73,1.0,19.64396713822447,-0.03487915354559273,7.485893949491473,-0.0010715496512315459,0.00022881529658467983,-0.0014101274825877503,21.022018687700474,0.0017857868327868388,1.0,0.0,310.9713070091848,0.787750753353979,151.875687345998,139.42831660468732,0.18459912887756566,10.305578426446267,1.0,151.9060765991257,0.0,1.0,139.26993951820296,11793.696697131772,1.0,1.0,-0.9012612954128387,17.908379079225128,-0.03234914689184237,-44.544300462345035,1.0,152.40141666117273,1.0,-0.0019503213176101035,0.8988332349282409,0.6190593185771811,1.0,0.04106775861862125,8.141357252577434
2.76,2.76,1.0,19.55522030012653,-0.10978988137909441,7.597559172453689,0.0019528565148581487,0.0006666546012157174,0.0012987169799053464,20.979551953830402,0.002438184307807854,1.0,0.0,310.9713070091848,0.787750753353979,151.875687345998,139.42831660468732,0.18459912887756566,10.305578426446267,1.0,152.4546888977771,0.0,1.0,139.71040995559486,11818.602892763496,1.0,1.0,0.2118468677188099,17.93594631506215,0.04147323973144257,-44.481374143137984,1.0,152.97809560993028,1.0,-0.0016649705795938757,0.8994123987778632,0.617505662648618,1.0,0.5772683034070608,8.189654704817922
2.79,2.79,1.0,19.505293862593028,-0.06205772622909786,7.7611635605299965,-0.00200917408081998,0.001869890902539991,0.003188162523533383,20.992760648394786,0.004206857823946916,1.0,0.0,310.9713070091848,0.787750753353979,151.875687345998,139.42831660468732,0.18459912887756566,10.305578426446267,1.0,152.4546888977771,0.0,1.0,140.1114419454278,12193.345300742283,1.0,1.0,0.2118468677188099,17.93594631506215,0.04147323973144257,-44.481374143137984,1.0,152.97809560993028,1.0,-0.0016649705795938757,0.8994123987778632,0.617505662648618,1.0,0.5772683034070608,8.189654704817922
2.82,2.82,1.0,19.537316544722476,0.025135688924842556,7.841310909961406,-0.00022359703912735613,0.005310661838174192,-0.0026478533899639226,21.052162035245313,0.005938371188304891,1.0,0.0,310.9713070091848,0.787750753353979,151.875687345998,139.42831660468732,0.18459912887756566,10.305578426446267,1.0,153.7615705807963,0.0,1.0,141.14402860389853,12090.875891890242,1.0,1.0,1.2272848015896478,17.949158115668553,-0.0541604485438734,-44.58980433963384,1.0,153.33972988348805,1.0,-0.0004692891835060579,0.9247239905046962,0.6159474961979472,1.0,-0.04895331938008737,8.285025864350763
2.85,2.85,1.0,19.57365191253785,0.001895721365972951,7.868494570330823,0.001648291651911329,0.002016226241390361,0.00609438682409869,21.095996292905483,0.006627487034161545,1.0,0.0,310.9713070091848,0.787750753353979,151.875687345998,139.42831660468732,0.18459912887756566,10.305578426446267,1.0,153.7615705807963,0.0,1.0,142.27766645176348,11850.480689343176,1.0,1.0,1.2272848015896478,17.949158115668553,-0.0541604485438734,-44.58980433963384,1.0,153.33972988348805,1.0,-0.0004692891835060579,0.9247239905046962,0.6159474961979472,1.0,-0.04895331938008737,8.285025864350763
2.88,2.88,1.0,19.391892491737753,0.012910443959689271,7.973927961164014,-0.0012923059948033503,-7.28965637827023e-05,0.0036425429588258337,20.96733622138281,0.0038656807809372543,1.0,0.0,310.9713070091848,0.787750753353979,151.875687345998,139.42831660468732,0.18459912887756566,10.305578426446267,1.0,154.53367663257995,0.0,1.0,142.95480194049745,12083.897040178332,1.0,1.0,0.4681790415367432,17.93105329236385,-0.0626232500732612,-44.53579546987946,1.0,154.60249128024333,1.0,-0.00046843098560841605,0.910821696253245,0.6143834837934894,1.0,0.08964437941542282,8.47865316754204
2.9099999999999997,2.9099999999999997,1.0,19.497098021163254,-0.018404140516064916,8.031234170967872,0.0006235003165772848,0.0018044148058876494,-0.0017900622504115446,21.086438586640426,0.0026170571825672785,1.0,0.0,310.9713070091848,0.787750753353979,151.875687345998,139.42831660468732,0.18459912887756566,10.305578426446267,1.0,154.53367663257995,0.0,1.0,142.1862177643706,12335.324670031416,1.0,1.0,0.4681790415367432,17.93105329236385,-0.0626232500732612,-44.53579546987946,1.0,154.60249128024333,1.0,-0.00046843098560841605,0.910821696253245,0.6143834837934894,1.0,0.08964437941542282,8.47865316754204
2.94,2.94,1.0,19.406363979228598,-0.0008446387991832434,8.187736315816537,0.0011078858442437629,-0.00017183761702972578,-0.003910579137636299,21.062905535207076,0.004068116075312801,1.0,0.0,337.21334480833406,3.6985165774113256,154.23991579311846,142.9836018069629,-0.03982233384067338,10.465635641405758,1.0,155.50149426187053,0.0,1.0,143.31168753256586,12305.597635192808,1.0,1.0,1.2494348438613836,17.8909143054403,0.01121001786871875,-44.53019134689928,1.0,154.70995584945842,1.0,0.020003760839553332,0.9349756295934095,0.6128122873304938,1.0,-0.18017620916259383,7.48815635518382
2.9699999999999998,2.9699999999999998,1.0,19.388018882422603,-0.01768881563102183,8.19294436003666,0.0028312418219917264,0.0019106655185691527,-0.0005963737802229724,21.048038539636668,0.0034673094272333984,1.0,0.0,337.21334480833406,3.6985165774113256,154.23991579311846,142.9836018069629,-0.03982233384067338,10.465635641405758,1.0,155.50149426187053,0.0,1.0,143.72478315581566,12570.342615671127,1.0,1.0,1.2494348438613836,17.8909143054403,0.01121001786871875,-44.53019134689928,1.0,154.70995584945842,1.0,0.020003760839553332,0.9349756295934095,0.6128122873304938,1.0,-0.18017620916259383,7.48815635518382
3.0,3.0,1.0,19.26754334345875,0.07734921210822365,8.283512208037823,0.0012721666509270325,0.0004231271690073214,0.0065275320192073145,20.972858267136292,0.006663791627193918,1.0,0.0,337.21334480833406,3.6985165774113256,154.23991579311846,142.9836018069629,-0.03982233384067338,10.465635641405758,1.0,155.17169541755516,0.0,1.0,144.28036450172905,12700.882416635415,1.0,1.0,0.9319858234942108,17.894218681857463,-0.0024737901014726237,-44.59957876788511,1.0,155.23504092124327,1.0,-0.016591891797285537,0.9084298658495585,0.6112325720330934,1.0,-0.3560909338562999,8.264142102540044
