time_s,x_m,y_m,altitude_m,speed_mps,mass_kg,roll_deg,pitch_deg,yaw_deg,p_dps,q_dps,r_dps,elevator_deg,aileron_deg,rudder_deg,throttle,load_factor_g,alpha_deg,beta_deg,qbar_pa,mach,imu_ax_mps2,imu_ay_mps2,imu_az_mps2,gyro_p_rps,gyro_q_rps,gyro_r_rps,gps_x_m,gps_y_m,gps_z_m,baro_alt_m
0.0,0.0,0.0,20.0,85.37564055396598,18.0,0.0,6.000000000000002,0.0,0.0,0.0,0.0,-4.5,0.0,0.0,0.86,2.238629612507787,11.376705428050744,0.0,4455.946741876431,0.25110482515872345,0.014350936320156566,0.06042709232573829,-0.07145324949244729,-0.001605913436780724,-0.002165633033165182,-0.0004472907168149016,2.0239362103989023,-0.05678065458736507,19.040025698749815,20.500330507731295
0.03,2.55,0.0,20.24,86.0009177898677,17.993630530518093,0.0,5.528080830599704,0.0,0.0,-15.730727912005344,0.0,-9.0,0.0,0.0,0.86,2.2150706958631803,10.768745043846627,0.0,4521.350780166108,0.25294387585255207,21.76929873787001,0.025531440970247316,-2.8100536817087214,0.004366428002945281,-0.27213336413006883,-0.002048782670109113,0.6648454587703148,1.8645638091475825,21.402662438547992,21.01116347288736
0.06,5.119242563615101,0.0,20.475658065718374,86.62199966635008,17.987261061036186,0.0,5.3226400067018265,0.0,0.0,-6.848034800169969,0.0,-13.5,0.0,0.0,0.86,2.1970929060053774,10.417208437661618,0.0,4586.787398483715,0.25477058725397084,21.717482394337207,0.008592997107156773,-3.4769189224917074,0.0002489938879974277,-0.11635126272543864,-0.001548971506436297,5.1225788297837695,-0.1763984421365134,21.54670019965616,20.758319601364633
0.09,7.707636516143052,0.0,20.706418742815167,87.24006273304641,17.98089159155428,0.0,5.889674211704101,0.0,0.0,18.90129443773031,0.0,-9.0,0.0,0.0,0.86,2.2198566119068563,10.829200192949822,0.0,4652.372854098694,0.25658841980307767,21.73352649159351,-0.03457354159256724,-3.848658544699053,0.000788734797209103,0.32853913276971564,0.0004766964040971396,8.923931916533787,0.6209285656577271,20.5114125208003,20.34334272601825
0.12,10.315118459796889,0.0,20.931770921900462,87.86335297966923,17.974522122072372,0.0,6.396273974002372,0.0,0.0,16.886768757939183,0.0,-6.365814954363476,0.0,0.0,0.86,2.238449960357652,11.195779050133126,0.0,4718.986331915379,0.25842162641079186,21.77686729566751,0.03944357851533626,-2.949321643153353,-0.0027294851928002166,0.29452854267819417,0.00015730816665046284,11.334847031727195,-1.2410392089361808,20.585581998320254,20.813413324162134
0.15,12.941776479982153,0.0,21.152314709261123,88.49080683365041,17.968152652590465,0.0,6.493358316194629,0.0,0.0,3.2361455140252975,0.0,-9.627012492749595,0.0,0.0,0.86,2.227726141247003,11.163740603025659,0.0,4786.524482876319,0.2602670789225012,21.793874824013773,0.053607787604158956,-2.3676058944812626,-0.0014689585016740912,0.05613450310154226,0.00022212120534260323,11.483019274046322,1.4089373919070736,19.084631173815932,20.523864703658575
0.18,15.587685964902315,0.0,21.368471139359574,89.11688976851022,17.961783183108558,0.0,6.729949721685348,0.0,0.0,7.886391389004607,0.0,-8.089669413310919,0.0,0.0,0.86,2.238067047914302,11.266778562003275,0.0,4854.393752193137,0.26210849931914765,21.789530551840915,0.003066152749737475,-2.691822314358189,-0.0001201100621601654,0.13767989166424383,-3.919623432948343e-05,14.818245017789957,0.7995161426687653,22.486536402762678,21.09577816339447
0.21,18.252815747392205,0.0,21.579945204665247,89.74539524832858,17.95541371362665,0.0,6.851935061618394,0.0,0.0,4.066179533712067,0.0,-8.853232254695026,0.0,0.0,0.86,2.2373760304737913,11.262140366608728,0.0,4923.007370968899,0.26395704484802524,21.81554204257886,-0.041509783596834826,-2.319632996387716,0.001061349685093875,0.07381028984524085,-0.0005470916391786005,18.15182414301833,-0.16492727771603993,21.82059634052424,21.339241844896996
0.24,20.93720571391659,0.0,21.78697872628445,90.37427252461298,17.949044244144744,0.0,6.997311506254549,0.0,0.0,4.845884087640177,0.0,-8.429305683847506,0.0,0.0,0.86,2.242098170861402,11.282039511362894,0.0,4992.144290979482,0.26580668389592055,21.85425848817906,-0.03382010633293314,-2.271393369924235,0.001479164349220484,0.08667704193259977,0.0009998119988702692,22.048698519628058,0.832709715433696,21.643440778035973,21.618989077732532
0.27,23.640856233089636,0.0,21.989542521403486,91.00444678520788,17.942674774662837,0.0,7.0997560715869215,0.0,0.0,3.4148197541563614,0.0,-8.626700186537617,0.0,0.0,0.86,2.24347351640078,11.262939997896929,0.0,5061.908363439836,0.26766013760355256,21.78864564234336,0.037878494152877855,-2.177543766897795,-0.0028376729027249836,0.059401765324711725,-0.0005384680643527968,22.628974974890784,1.068718058467251,22.395348246229858,22.58510960468622
0.3,26.36378571934255,0.0,22.187742960625993,91.63528589732626,17.93630530518093,0.0,7.202169161971554,0.0,0.0,3.4137705883933163,0.0,-8.466580231656184,0.0,0.0,0.86,2.246488187917797,11.246066630449915,0.0,5132.231778333093,0.2695155467568419,21.786521446834435,-0.015422430001318892,-2.097570069248972,-0.0027680566631708634,0.06010767620077361,0.0016191841979894658,28.06646621497882,-1.3000678309438298,18.659224638018674,23.227868502222325
0.32999999999999996,29.106000001374845,0.0,22.38160861192702,92.26704059317078,17.929935835699023,0.0,7.284259129454538,0.0,0.0,2.736332717515511,0.0,-8.508025085719474,0.0,0.0,0.86,2.248270423364858,11.21192676945531,0.0,5203.144394607203,0.27137364880344345,21.8835945593281,-0.03209241214114667,-1.9469140298518386,0.002549152101820221,0.04595513261197603,-0.002047854556276307,29.092730706811142,-0.24114953352623256,22.402671667233864,22.34169535180079
0.36,31.867510042472233,0.0,22.57120923101339,92.89946466059605,17.923566366217116,0.0,7.362260415730749,0.0,0.0,2.600043277440366,0.0,-8.420678014817872,0.0,0.0,0.86,2.250631487928203,11.176148392951148,0.0,5274.620394976437,0.2732337195899884,21.868112779229637,-0.032578345173567315,-1.9397222205970954,0.0013702422219327845,0.04787079063891389,-0.00398194545340246,32.32070103452317,1.605402161198449,23.42679947854848,21.665013129331086
0.39,34.64832185739108,0.0,22.7565875760555,93.53262641241847,17.91719689673521,0.0,7.428993490886844,0.0,0.0,2.2244360900004336,0.0,-8.411149457807898,0.0,0.0,0.86,2.2524555339036807,11.131807323922379,0.0,5346.669176951327,0.2750959600365249,21.844816597165025,-0.04780444576139571,-1.853947228806475,-0.004086309363898801,0.036875784630785335,0.00269109577185315,34.73217066199497,-1.5412675894174828,22.224391153981113,22.43085051626195
0.42,37.44844302268899,0.0,22.937801380428134,94.16640659348454,17.910827427253302,0.0,7.491760605697639,0.0,0.0,2.0922373696018064,0.0,-8.347076687291366,0.0,0.0,0.86,2.254522205527157,11.085933593910346,0.0,5419.278754035014,0.27696001939260156,21.886965481545,0.028326168566416392,-1.7578112977358658,-0.0012711055311934636,0.03363608819745727,-0.0020442397857012525,38.14334469932721,0.25744234251457326,23.77468761526753,22.60491143077558
0.44999999999999996,40.26787876903801,0.0,23.114897370969487,94.80081892986144,17.904457957771395,0.0,7.547613979323249,0.0,0.0,1.8617792682885403,0.0,-8.318597230979336,0.0,0.0,0.86,2.25632248141212,11.03566438398268,0.0,5492.452187186244,0.27882593802900424,21.895624966097,-0.008172359477985596,-1.6732354426565617,0.003022663337830164,0.030038992485488806,-0.0011844703614280934,40.05226112224531,1.3197082398617102,22.42429869393394,23.62789896161509
0.48,43.106634806972274,0.0,23.287928870665077,95.43579412554709,17.89808848828949,0.0,7.600350058514942,0.0,0.0,1.757869430490932,0.0,-8.263436747853502,0.0,0.0,0.86,2.2582492674615557,10.984647888579826,0.0,5566.182893337454,0.2806935121339621,21.8941959992138,-0.03422037132316109,-1.5877174820651239,-0.0014262185932063394,0.03147497607087649,-0.0007342920741493776,42.255919135654565,1.0212255323308237,23.93561764709737,23.244778924015513
0.51,45.964715554874815,0.0,23.456944132713435,96.07132873357006,17.89171901880758,0.0,7.6485326936806475,0.0,0.0,1.6060879335076466,0.0,-8.22750077885539,0.0,0.0,0.86,2.260031843345242,10.931473665408387,0.0,5640.471810714278,0.2825627315693237,21.874741551778587,-0.02256176973167099,-1.4901878806118922,-0.0005434822850473286,0.025065803789359804,-0.000978144010719418,46.51705443227093,0.5111179869842327,24.78251178122874,23.577386266277717
0.54,48.84212556960467,0.0,23.621995007605573,96.70737643721768,17.885349549325674,0.0,7.694388420384496,0.0,0.0,1.5285243050508281,0.0,-8.176705886925804,0.0,0.0,0.86,2.2618993297066714,10.878273654412983,0.0,5715.314798744999,0.2844334601094637,21.871035069891427,0.023147521669002826,-1.4025470519014793,0.002066191040982793,0.02614990866931947,-0.002166615373037851,48.701017692595585,-0.132444167444282,22.437105965406165,22.953370678535897
0.57,51.73886860950919,0.0,23.783130827327536,97.34392860293426,17.878980079843767,0.0,7.737064450270675,0.0,0.0,1.4225343953057727,0.0,-8.138079473918337,0.0,0.0,0.86,2.2636848259974722,10.824198852501668,0.0,5790.712058634193,0.28630567236157134,21.851061226120724,0.06221596840734833,-1.330050574195483,0.0012531146495011903,0.02551523453209877,-0.0012814830238961853,49.70601792602308,-0.1483373290869686,24.09988238721956,24.030262672461788
0.6,54.65494846841599,0.0,23.940403357497097,97.9809508674247,17.87261061036186,0.0,7.778011800154148,0.0,0.0,1.3649117208762154,0.0,-8.090102573713907,0.0,0.0,0.86,2.2655413752666727,10.770632153567522,0.0,5866.660682942753,0.2881792672571315,21.842443016565802,-0.08962593694051053,-1.3176122520678313,-0.002090558849283284,0.02417002263478236,0.00018027058496920855,53.831787689846664,1.1443548105760448,25.207608967717807,23.078926058640096
0.63,57.59036839962959,0.0,24.09386308195322,98.61843350695962,17.866241140879954,0.0,7.816611168253036,0.0,0.0,1.2866456519586238,0.0,-8.051020132926276,0.0,0.0,0.86,2.267350428806183,10.71695004832228,0.0,5943.160628468035,0.2900542161969401,21.779016793174016,-0.003710616049651438,-1.2108372970800936,-0.0011572397494557477,0.020677390264601903,-0.0006483740193760299,56.87656990949517,-3.253399794493624,24.05848230759517,23.416729066012003
0.6599999999999999,60.54513166983088,0.0,24.24356245302514,99.25634893358034,17.859871671398047,0.0,7.853908606484779,0.0,0.0,1.2432479849605977,0.0,-8.00528130215113,0.0,0.0,0.86,2.2692281690406255,10.664144885920672,0.0,6020.209654046478,0.29193043803994223,21.87961432605349,0.0004241545969603937,-1.1669650536877698,-0.00028829351062780925,0.020784457674782535,-0.0034814313544996017,60.88337879899198,-0.03852026671736978,22.4217150068345,23.85233696625294
0.69,63.51924114959061,0.0,24.389553294057926,99.89468781753439,17.85350220191614,0.0,7.8893699613533075,0.0,0.0,1.1820452000169812,0.0,-7.96691020707814,0.0,0.0,0.86,2.2710782740816122,10.611676086808187,0.0,6097.807662388669,0.2938079053456894,21.869981493436914,-0.024779824913670964,-1.0152985288162808,0.003985305295683029,0.019967527602990805,-0.0017979141674900692,65.55710087176432,-0.36761443663352095,25.053674603213338,24.136154096969676
0.72,66.51269972958643,0.0,24.531889229772663,100.53342658517603,17.847132732434233,0.0,7.923832716517701,0.0,0.0,1.1487585401137603,0.0,-7.923137163386318,0.0,0.0,0.86,2.2730004181195116,10.56033572755978,0.0,6175.952776272461,0.29568654877992956,21.79326361559227,-0.05396740755448139,-0.9910002969884122,-0.001528632186354611,0.01966071415072213,-0.0005386086171727929,66.0125920521256,0.2957301078670292,25.117938162389688,24.130690289509083
0.75,69.52550998683705,0.0,24.67062361147634,101.17255691860252,17.840763262952326,0.0,7.956771177618617,0.0,0.0,1.0979487336024925,0.0,-7.886164013447259,0.0,0.0,0.86,2.274905773683584,10.509592245649475,0.0,6254.644931562611,0.29756634387824266,21.809743594552874,0.012622021498279946,-0.9313220671916622,-0.0022241183653683885,0.017451173045293485,-0.0005125028647193059,69.92425414642567,1.201106693395376,25.887684529409324,24.744805880197873
0.78,72.55767453725662,0.0,24.805811574261497,101.81205757682208,17.83439379347042,0.0,7.988935964996958,0.0,0.0,1.072159607435543,0.0,-7.844154273084385,0.0,0.0,0.86,2.276890559004676,10.46015550862901,0.0,6333.88242922256,0.29944722816712377,21.875335589229014,-0.03848708555768067,-0.8700003901281931,-0.0020119530082375846,0.018288640770653376,-0.0016155005747248606,72.85411737088573,1.47463814294128,26.4608927202478,25.31429905109696
0.8099999999999999,75.6091957269648,0.0,24.937508157305693,102.4519216480507,17.82802432398851,0.0,8.019753565817986,0.0,0.0,1.0272533854664496,0.0,-7.809060814275512,0.0,0.0,0.86,2.278862498016429,10.411448444665847,0.0,6413.665297993418,0.30132918131779624,21.849964512779554,-0.01431184632112564,-0.8022472926274566,-0.0006473236222540094,0.018154901365023034,3.602373300381787e-05,75.96313853508478,1.1763528720745962,24.01657518440943,25.14022835530109
0.84,78.68007596821958,0.0,25.065770265160715,103.09212900309443,17.821654854506605,0.0,8.049982384209976,0.0,0.0,1.00762730310618,0.0,-7.76857123565979,0.0,0.0,0.86,2.2809257025944305,10.364190679007896,0.0,6493.991878553122,0.30321214412674835,21.786040486875663,-0.023797104675803173,-0.787400985757985,-0.0012636159939613495,0.01938346242791996,-0.0002856054730688416,78.74695636344616,1.284188307457298,22.59713578031023,23.92874457342019
0.87,81.77031741860108,0.0,25.190654749767965,103.73267460451001,17.815285385024698,0.0,8.0789382055938,0.0,0.0,0.9651940666702697,0.0,-7.735802866923692,0.0,0.0,0.86,2.2829729036643513,10.317698410940949,0.0,6574.862361590721,0.30509610177797064,21.866419609012304,-0.05703878551444137,-0.5723860067268901,-4.435109278206495e-05,0.01804676542981388,0.001005012113417697,81.06874870004775,-0.8478545254880854,25.222988276750446,25.10189222341748
0.8999999999999999,84.87992234031461,0.0,25.31222050728067,104.3735382966571,17.80891591554279,0.0,8.10748663718204,0.0,0.0,0.9516144059625925,0.0,-7.696455799363399,0.0,0.0,0.86,2.285129898908355,10.272797820447996,0.0,6656.274992144309,0.306980994990168,21.865867548844186,0.02853899285193714,-0.5404607945020763,0.0013297979867849987,0.017557311194473516,7.94696760311034e-05,85.04206051125124,-0.11439025533755968,25.219123673665383,25.92128826131906
0.9299999999999999,88.00889272835491,0.0,25.43052628767328,105.01471769665426,17.802546446060884,0.0,8.134738119105823,0.0,0.0,0.9083827479173971,0.0,-7.666580499284372,0.0,0.0,0.86,2.28725792378818,10.22860601926799,0.0,6738.2302326425925,0.30886681675486544,21.795503479970687,0.01743584550211972,-0.43910359430172674,-0.0019142071023291179,0.01815842903297257,-0.0021195257045421995,86.67028752631224,-0.31693784522205165,27.43309404756718,25.673847521875665
0.96,91.15723074050891,0.0,25.54563319816676,105.65619120252828,17.796176976578977,0.0,8.16180489977594,0.0,0.0,0.9022260391160324,0.0,-7.627715744386194,0.0,0.0,0.86,2.2895260708496967,10.186191738993012,0.0,6820.7260546124235,0.3107535035368479,21.756100286486447,-0.0246555545961029,-0.4111660481464352,0.0017401199328614318,0.016133791594090747,0.003273383298076893,90.49864630454798,1.2102828706971225,26.54582635411269,26.16290862034057
0.99,94.3249382192931,0.0,25.657601918519156,106.29796053475124,17.78980750709707,0.0,8.18742546640786,0.0,0.0,0.8540189019610999,0.0,-7.60166216614693,0.0,0.0,0.86,2.29173552396905,10.144310267033426,0.0,6903.76339107928,0.3126410603963273,21.804083163063506,-0.04195142919533303,-0.28873504101446934,0.001539873048545139,0.01430852260630932,0.0011305902221319835,95.10752841784074,0.1132109234053199,26.513066735526806,25.865841212586776
1.02,97.51201726537383,0.0,25.76649602532013,106.94000038638136,17.783438037615163,0.0,8.21319790360481,0.0,0.0,0.8590812543834023,0.0,-7.562032759847707,0.0,0.0,0.86,2.2941381777917296,10.104506447806292,0.0,6987.339645966694,0.3145294129011216,21.79567751001103,-0.013671857348617778,-0.255815828258637,-0.0007396114957943134,0.012885102243175395,-0.0006831210544440717,97.65436640316224,1.7180614292695577,28.5576785325435,25.26541016894427
1.05,100.71846955836122,0.0,25.872378068987608,107.58231942154276,17.777068568133256,0.0,8.237167554783591,0.0,0.0,0.798988384278971,0.0,-7.541562234246867,0.0,0.0,0.86,2.2964198119512593,10.06485986978888,0.0,7071.456609672571,0.3164185865339493,21.75831056841993,0.01587128729277394,-0.1913856834070986,0.0036385496633759315,0.015940635806274785,0.0045343841161577785,101.44922961065141,0.9498651353680972,27.6921012986877,25.572601320491408
1.08,103.94429720494396,0.0,25.975314464151992,108.22488441378427,17.77069909865135,0.0,8.261882837002451,0.0,0.0,0.823842753403356,0.0,-7.498647060993837,0.0,0.0,0.86,2.2989947625670046,10.027845374765434,0.0,7156.110556439772,0.3183084835699537,21.777486521113918,0.0068822650554681035,-0.05704990117243715,0.0025519480866202913,0.015084920612200145,0.0009434365597190802,105.17380649825844,-0.3879212770729379,28.0313604235058,25.3972637529445
1.1099999999999999,107.1895016757799,0.0,26.075369390096533,108.86771683855122,17.764329629169442,0.0,8.284031996950873,0.0,0.0,0.7383053408084173,0.0,-7.487422338131852,0.0,0.0,0.86,2.301317149618708,9.990217786825005,0.0,7241.304933821675,0.32019916717220953,21.658668698932054,-0.0032364943291019323,0.023950595166582885,0.0035185150851194183,0.014358260056388376,0.0012486064796370703,107.47194637548422,-1.3077468057505843,25.54482984633673,25.895975032104374
1.14,110.45408519062103,0.0,26.172612730755933,109.5107668312531,17.757960159687535,0.0,8.308096054382144,0.0,0.0,0.8021352595002476,0.0,-7.43577750958544,0.0,0.0,0.86,2.3041368108478495,9.956342265749683,0.0,7327.033705453623,0.3220904906801561,21.778364275826014,0.05169502193167459,0.1226060492962464,-0.0005834898472815346,0.015202057427907827,-0.001039117724861579,109.98226176481539,0.3541920142928205,25.135677166097718,26.04221466260619
1.17,113.73804889017788,0.0,26.267109644806194,110.15408151850819,17.751590690205628,0.0,8.327942115874269,0.0,0.0,0.6615353896849682,0.0,-7.4419770120880555,0.0,0.0,0.86,2.3064145595726,9.920217145801322,0.0,7413.303735507792,0.3239825927014947,21.796857699252655,-0.006157437178846557,0.21293926542801697,-0.0006866254847819977,0.007578256884909231,-0.0023602383154615867,113.39610617719751,-1.3401975210199901,26.289109286610852,26.02512859192034
1.2,117.04139532359402,0.0,26.35893474216207,110.79757489981797,17.74522122072372,0.0,8.352213333953873,0.0,0.0,0.8090406147517315,0.0,-7.369055430264671,0.0,0.0,0.86,2.3096382656877976,9.890278535193161,0.0,7500.10400492526,0.32587522029358224,21.788540036295892,-0.022246639856556664,0.26143559218673845,0.0034063518963941427,0.016809164995101405,-0.0048126073959461535,117.80908953820263,0.364475167092883,25.973693659505564,26.939776897476712
1.23,120.36412500402572,0.0,26.448152532377357,111.4413496356038,17.738851751241814,0.0,8.368513747752452,0.0,0.0,0.5433471302841295,0.0,-7.412177028946828,0.0,0.0,0.86,2.3116461493756084,9.854401112118461,0.0,7587.448920235369,0.32776867539883475,21.741854949075964,0.03947670919336542,0.36329705827611125,0.003580439730147593,0.011603200570729489,0.0018618291093478467,121.36464879882958,2.312439942872308,28.503773111851906,27.01802119687736
1.26,123.70624130289185,0.0,26.534845165269346,112.08523686498953,17.732482281759907,0.0,8.395057338696263,0.0,0.0,0.8847863806183309,0.0,-7.287110439489909,0.0,0.0,0.86,2.315664730366402,9.830384050970457,0.0,7675.316010128774,0.32966246136761623,21.665094126493198,0.09079080485926824,0.4447799643815774,-0.004176825863146302,0.015929894636020493,-0.0024821743167877477,124.11143141078165,0.16121961168843477,27.117641391528384,25.957256306832292
1.29,127.06774335838281,0.0,26.619072368136067,112.72946893695729,17.726112812278,0.0,8.404551795537069,0.0,0.0,0.3164818954176318,0.0,-7.4167526949923595,0.0,0.0,0.86,2.3167925350027168,9.791529533642828,0.0,7763.737550462631,0.33155726157928617,21.625887624804417,-0.06757076683656861,0.5692460103285182,-0.0022787982872388987,0.0041414413289309355,-0.002478195291672314,126.5017394193521,-0.10696878043683458,26.43088206242787,26.440333609307395
1.3199999999999998,130.44863659174456,0.0,26.700930750335466,113.37367442751156,17.719743342796093,0.0,8.438795600318326,0.0,0.0,1.141460193353391,0.0,-7.158454763811716,0.0,0.0,0.86,2.322653407791569,9.778716524442276,0.0,7852.662879729259,0.33345198361032813,21.599151373524535,-0.015259615090994088,0.6425558186262675,-0.001984971665827409,0.021734171873905903,0.001041197883445812,131.8961419460039,1.3726241908746633,27.299468048603348,26.861980937044077
1.3499999999999999,133.84891679499052,0.0,26.780464311110148,114.0184118812765,17.713373873314186,0.0,8.432479283510762,0.0,0.0,-0.21054389379866734,0.0,-7.5093023963738785,0.0,0.0,0.86,2.3211647006676657,9.728039650702115,0.0,7942.1697632330815,0.33534827023904856,21.629723488785793,0.01567656012913251,0.8039739798728527,1.2509721532245603e-05,-0.003315598395189637,0.0016847210852947545,134.73738216330926,-0.26915068531219816,27.43423400176073,26.98670517904892
1.38,137.2685947360538,0.0,26.857802545772884,114.66277959417236,17.70700440383228,0.0,8.489771236472738,0.0,0.0,1.909731924522283,0.0,-6.890272494146688,0.0,0.0,0.86,2.331902020923961,9.741434982840063,0.0,8032.133075594676,0.33724346939462463,21.665991662912493,0.015364638940143862,0.7321416282900522,0.0011141667637941386,0.02967566205949355,0.002382543117453245,136.08265563291405,0.5798738144159028,26.152498286262805,26.798799902909415
1.41,140.7076573443149,0.0,26.932943069433385,115.3082189225712,17.700634934350372,0.0,8.441199441151005,0.0,0.0,-1.6190599410204627,0.0,-7.8529205493609915,0.0,0.0,0.86,2.3225627379906104,9.653010705969034,0.0,8122.755060261213,0.33914182036050355,21.72296759209685,-0.0983765858782377,0.9200946280743857,0.00025367802813541334,-0.02793255760862146,0.0010769887778306507,142.3836375859194,0.1896114883618505,27.298675494128467,26.33376124758343
1.44,144.16613023436278,0.0,27.00610101356762,115.95233927116317,17.694265464868465,0.0,8.567993915242146,0.0,0.0,4.226484194563043,0.0,-6.191323016025412,0.0,0.0,0.86,2.3476436322253824,9.738101855030806,0.0,8213.699437905245,0.34103629197400936,21.629053796634405,0.05188052889934051,0.8819176729079133,-0.0003848063444576026,0.07342464762632589,0.0009880980551768143,143.4324257245118,0.12088431788553516,28.25835585085194,27.5169564831217
1.47,147.643975038026,0.0,27.077136257228844,116.59915164219875,17.687895995386558,0.0,8.394337359754912,0.0,0.0,-5.788556280823761,0.0,-8.97569548220893,0.0,0.0,0.86,2.313749502626749,9.530754882513419,0.0,8305.534661131862,0.3429386813005845,21.69872425357903,-0.0048684823648027275,1.3428202171672101,0.0009388210488278629,-0.10117304320652591,-0.0016710189479306823,148.8986610430337,-2.259037880530252,27.259901111729153,27.433752199056947
1.5,151.1412615642382,0.0,27.146511331189963,117.24178394418385,17.68152652590465,0.0,8.740881018159511,0.0,0.0,11.551490495153113,0.0,-4.47569548220893,0.0,0.0,0.86,2.3809822083413534,9.834761176268296,0.0,8397.282339985384,0.3448287763064231,21.65016258436355,-0.0029535797633353134,0.7973512754351756,0.00012297713320464848,0.1994686264646503,-0.00247730204818979,150.90335940042308,1.8775838666598093,28.65179324419558,26.966518523780483
1.53,154.65787408746303,0.0,27.213657989122694,117.89188828140693,17.675157056422744,0.0,8.277428259941384,0.0,0.0,-15.448509504846887,0.0,-8.97569548220893,0.0,0.0,0.86,2.3119771292025844,9.348111151253553,0.0,8490.611430917535,0.346740847886491,21.627981680708466,0.01149978267414446,1.914650059655097,0.004621506992637463,-0.26842915630383585,0.001100869526870325,154.53649891012785,0.6649880286186234,25.226938745510513,26.451605141578927
1.56,158.1940132329987,0.0,27.27974530795437,118.53359424393523,17.668787586940837,0.0,8.544140898599942,0.0,0.0,8.890437342644605,0.0,-5.0743290654026065,0.0,0.0,0.86,2.3695011283794094,9.573820879770055,0.0,8583.240237826365,0.34862821836451535,21.52124287908694,0.04169506122276067,0.8211969285027454,0.001306562119265028,0.15301864884031924,0.0005812602449796677,155.31823272092842,1.4177364305951505,28.188099820527682,26.93761393822165
1.5899999999999999,161.74944683769485,0.0,27.343647972568665,119.18147664367046,17.66241811745893,0.0,8.186232388094895,0.0,0.0,-11.930322477987755,0.0,-9.574329065402607,0.0,0.0,0.86,2.3052675019957096,9.191609602726059,0.0,8677.272159774519,0.3505337548343249,21.61064237608768,0.07486148080189362,1.8223843798462316,0.000107999938125783,-0.20607157395900388,0.0030152939368187676,163.01127818084274,-0.3274665033454452,26.166884134912557,27.33340187228414
1.6199999999999999,165.32434070752026,0.0,27.406383584096698,119.82179548886515,17.656048647977023,0.0,8.638320368203217,0.0,0.0,15.069677522012245,0.0,-5.0743290654026065,0.0,0.0,0.86,2.3817371080610887,9.602612180409453,0.0,8770.709446131405,0.35241704555548575,21.532959211455694,-0.014171762092621807,0.6849810521984232,-0.0002538655740981199,0.2595124135824104,0.0002054702147788912,165.48057181334983,0.470217224085625,26.964269821977815,28.26190091095862
1.65,168.9184854892686,0.0,27.46687899374981,120.47053283291218,17.649679178495116,0.0,8.336439280729099,0.0,0.0,-10.062726194634413,0.0,-9.574329065402607,0.0,0.0,0.86,2.318087628746122,9.28085576890692,0.0,8865.887506257412,0.35432509656738875,21.566115212914166,0.025643657301155358,2.139748448633355,0.005917187550271525,-0.1751235311556415,-0.002080685130023718,168.06707745658565,0.30743539458111785,26.541927884876063,26.575625128416466
1.68,172.532110516513,0.0,27.52644841051696,121.11195170738289,17.64330970901321,0.0,8.844554164748812,0.0,0.0,16.937273805365585,0.0,-5.0743290654026065,0.0,0.0,0.86,2.4025572751726885,9.752877795589596,0.0,8960.496499422306,0.3562116226687732,21.56236398239146,0.026391928210524922,1.146617154829404,0.0022848573765325356,0.29465654757942006,0.0039377534655474465,170.95700408160332,-0.6184213696279749,26.12767064211757,27.864597366862228
1.71,176.16501250009435,0.0,27.584046495772462,121.762612643455,17.636940239531302,0.0,8.542673077274694,0.0,0.0,-10.062726194634413,0.0,-9.574329065402607,0.0,0.0,0.86,2.3358327374216135,9.437220329861681,0.0,9056.983617701784,0.3581253313042794,21.543405110314502,0.05536190573602445,2.5167358728537854,0.0022398713310571414,-0.1748260716593071,-0.0034551406163924343,175.22211074615794,-0.4267802849709215,28.918615541926446,27.294358768505322
1.74,179.8174456767869,0.0,27.64107581963086,122.40568102070353,17.630570770049395,0.0,9.049302050496463,0.0,0.0,16.887742474420932,0.0,-5.0743290654026065,0.0,0.0,0.86,2.4254996823051145,9.91371526389306,0.0,9152.851910492845,0.3600167088844221,21.441349904612704,0.05166430092585032,1.5719649048701734,0.0014854656675243434,0.29407008128127876,0.0001840164090894794,180.5771186769969,2.2779727885790195,27.60585446614783,27.693526407902663
1.77,183.48919819802236,0.0,27.696475226928737,123.05839955670103,17.62420130056749,0.0,8.745935033457418,0.0,0.0,-10.112257525579066,0.0,-9.52051617329284,0.0,0.0,0.86,2.35612918956442,9.602871374590011,0.0,9250.676644875026,0.36193646928441475,21.543664228621658,0.004544805060230296,3.0906032630640694,-0.000504953583606008,-0.18092085143758668,0.002028163141436096,185.78182903302485,-0.7241146794902639,28.045565115474414,27.860521096759292
1.7999999999999998,187.18053728339243,0.0,27.75168834249278,123.70328958075058,17.61783183108558,0.0,9.22545048564227,0.0,0.0,15.983941702177315,0.0,-5.020516173292841,0.0,0.0,0.86,2.449484537688115,10.058568578851842,0.0,9347.837831197243,0.36383320464926644,21.410863721308655,-0.027461748124351044,2.01263594428889,-0.002511743144732752,0.2756013246220846,0.0011263956395897916,187.56993661110295,1.9187739761163118,29.257698911534177,28.782539456954673
1.8299999999999998,190.89124365779304,0.0,27.805648242157154,124.35801386750548,17.611462361603675,0.0,8.894969652957114,0.0,0.0,-11.016058297822685,0.0,-9.512736993727783,0.0,0.0,0.86,2.374511188086833,9.7269073406828,0.0,9447.00130523317,0.3657588643161926,21.528131606786943,0.04330218600554186,3.5490521851582137,-0.0003954763933483555,-0.19084268624841064,-0.0011936862636079358,190.7952157737604,0.5655283659379118,27.3479736136819,27.22574558970335
1.8599999999999999,194.62159080117348,0.0,27.8598168828734,125.0043298263824,17.605092892121768,0.0,9.356121756381077,0.0,0.0,15.371819763511823,0.0,-5.012736993727783,0.0,0.0,0.86,2.4717417528946535,10.169866343089948,0.0,9545.40309696038,0.367659793607007,21.468880880562885,0.010734648661120392,2.46954540871611,2.8041448525953565e-05,0.2677601824112015,-0.001501617583748532,195.17032329500873,-0.6451352828344169,28.654972988066575,27.994043288621093
1.89,198.37134247989707,0.0,27.913076395810634,125.66069517322497,17.59872342263986,0.0,9.007277426917499,0.0,0.0,-11.628180236488177,0.0,-9.490655655701365,0.0,0.0,0.86,2.392438464317223,9.825552873626371,0.0,9645.857792158715,0.36959027992124993,21.500727169039312,0.0765255781752682,4.057348426761881,0.0033422908349674332,-0.20463585468725443,0.0028156463635724558,196.77936346470753,2.5079320804671803,25.49181912950139,27.813475362494795
1.92,202.14077888753263,0.0,27.966913641912644,126.30822748657451,17.592353953157954,0.0,9.454132753104485,0.0,0.0,14.895253041085745,0.0,-4.990655655701365,0.0,0.0,0.86,2.4936892664064247,10.259546332135184,0.0,9745.474155848278,0.37149478672521913,21.429315941617126,0.0019038851565584289,2.915377310435037,-0.0021316707268477157,0.25853682588111687,-0.0009884196524641174,202.78560621721482,-0.7517130149861642,28.55899707221684,27.91543924682015
1.95,205.92965133580367,0.0,28.020177780438097,126.96603766416088,17.585984483676047,0.0,9.0909915599681,0.0,0.0,-12.104746958914255,0.0,-9.480326498839277,0.0,0.0,0.86,2.4099251901860588,9.90640266085883,0.0,9847.19648166633,0.37342952254164963,21.52286994463875,-0.03295738712766802,4.4620691587710635,-0.001474918900734763,-0.21183745002311913,-0.0011612197487264882,204.59399886371722,-0.4753058707210083,28.705926338915084,28.075068892808165
1.98,209.73824673923463,0.0,28.074383878692135,127.61459860849776,17.57961501419414,0.0,9.531163876330965,0.0,0.0,14.672482709823521,0.0,-4.980326498839277,0.0,0.0,0.86,2.515702303826623,10.338762607994694,0.0,9948.003441385443,0.37533705473087575,21.291003925873415,0.02402258472371087,3.349408339581904,0.002015224408584275,0.2573591769344194,0.005810731508932576,208.74299595181716,-0.07626363389493582,26.990870713221074,27.954507471822144
2.01,213.5663043939048,0.0,28.128344908411467,128.2737284982473,17.573245544712233,0.0,9.161339641614958,0.0,0.0,-12.327517290176479,0.0,-9.427846079257042,0.0,0.0,0.86,2.428723254994509,9.984226934557347,0.0,10050.979677147005,0.3772756720536686,21.406919506610297,-0.01882839430324502,4.877285089038683,0.0008355009459746234,-0.2159540665266532,0.0026176836708106718,213.82946809871677,0.38527624157017865,29.25170205256716,28.486299817863195
2.04,217.41411937091252,0.0,28.18361138353774,128.9233356396488,17.566876075230326,0.0,9.586312732747212,0.0,0.0,14.165834648391302,0.0,-4.927846079257043,0.0,0.0,0.86,2.5384282450270246,10.406544277417424,0.0,10152.98440868513,0.3791862812930847,21.367146277891248,-0.046095567328640286,3.6837834127601923,0.002451598013547246,0.2468704819165867,0.0017499805544445451,216.66905809641128,-0.44461635747105965,25.587794904303205,28.664838185312465
2.07,221.28142312278817,0.0,28.23897848511085,129.58371164733893,17.56050660574842,0.0,9.201289221094914,0.0,0.0,-12.834165351608698,0.0,-9.427846079257042,0.0,0.0,0.86,2.4461047558322795,10.042077983724225,0.0,10257.20824470053,0.381128563668644,21.467723689842444,0.02423630645272609,5.373099367648425,-0.0034355768684984243,-0.22531666053212274,0.0006472928323576375,220.43778791003336,0.19555608417463952,30.39506064430038,29.239072882704566
2.1,225.1685159076874,0.0,28.296023848242402,130.23407945506847,17.55413713626651,0.0,9.626168436804745,0.0,0.0,14.16270542461533,0.0,-4.927846079257043,0.0,0.0,0.86,2.5608644379930774,10.468989293408741,0.0,10360.369665673179,0.3830414101619661,21.248443996068268,-0.015787873272242178,4.0982486335119415,0.0016244515780187423,0.24591711191934026,0.0009157892157271906,228.96742286852322,-0.9633707185279679,28.187508157379458,28.58827348701819
2.13,229.07511559026082,0.0,28.35349407075313,130.8955631467919,17.547767666784605,0.0,9.24105104949923,0.0,0.0,-12.83729457538467,0.0,-9.427846079257042,0.0,0.0,0.86,2.465139612809889,10.10945220779883,0.0,10465.823745276959,0.38498695043174086,21.355974007752657,0.017165120564030856,5.850539344209236,0.0006341191180877459,-0.2218025190806876,0.0004711226862555079,229.32371065108904,-0.4116845077765176,27.558648403200124,28.593552863896488
2.16,233.00153145677822,0.0,28.413009190886843,131.54677879702984,17.541398197302698,0.0,9.665930265209061,0.0,0.0,14.16270542461533,0.0,-4.927846079257043,0.0,0.0,0.86,2.585216266563101,10.541206597883358,0.0,10570.158937475002,0.38690229057949965,21.354652346338263,-0.026859242318233965,4.446445480031188,0.002662664891166708,0.24808784803220005,-0.00020561077943045687,233.4406405686538,-0.14694861725307656,29.21208235081646,28.780069806548134
2.19,236.9474743434833,0.0,28.473293894989997,132.20948135438098,17.53502872782079,0.0,9.280812877903548,0.0,0.0,-12.83729457538467,0.0,-9.37697090069124,0.0,0.0,0.86,2.4868214122214534,10.186855061607336,0.0,10676.86544867594,0.3888514157481794,21.349128420998014,8.511443324280642e-05,6.205120976397857,0.0015452797674206404,-0.22491025957796992,-0.0008969716713619021,237.85992775528308,-0.1297117518384612,27.210998124218747,28.916421709559714
2.2199999999999998,240.91326288151862,0.0,28.536011799790543,132.8617187596222,17.528659258338884,0.0,9.693465063989487,0.0,0.0,13.75513232707141,0.0,-4.876970900691242,0.0,0.0,0.86,2.6113545201282347,10.611569629587303,0.0,10782.406051784807,0.3907697610577123,21.170906093043335,-0.0035740283787384125,4.879807202601295,-0.0015811008825031075,0.24255718115243316,0.002291853428513029,239.18592239943447,0.45144611212036645,30.5008956557886,29.486554443839747
2.25,244.89860273789168,0.0,28.599878142954907,133.52569041520727,17.522289788856977,0.0,9.296120626292645,0.0,0.0,-13.24486767292859,0.0,-9.37697090069124,0.0,0.0,0.86,2.5074351438129474,10.250332385018181,0.0,10890.37789458616,0.39272261886825666,21.243846160366534,-0.022853924830118926,6.7539491641727825,0.0013927130609940465,-0.23208597829291308,-0.0002457091036293997,244.93466856606838,0.08991925391089747,29.54988130010968,29.035745222360028
2.28,248.90381794234935,0.0,28.666587713130543,134.17871243205397,17.51592031937507,0.0,9.707799205469923,0.0,0.0,13.722678343589756,0.0,-4.876970900691242,0.0,0.0,0.86,2.6373968389347,10.678877764713885,0.0,10997.089069113832,0.3946432718589823,21.16218029202231,-0.025390060516674376,5.375946595995888,0.0020353050926656597,0.23488736919829614,0.0004117529852987865,250.03591660004182,-0.26572041393226936,28.12268546123099,28.37166989626814
2.31,252.92860118205914,0.0,28.73480835723934,134.8438390599689,17.509550849893163,0.0,9.309481160003555,0.0,0.0,-13.277321656410244,0.0,-9.37697090069124,0.0,0.0,0.86,2.5297792935614267,10.321799924997496,0.0,11106.312095255078,0.3965995266469673,21.21351912730602,0.039337812732508325,7.156258635771398,-0.0025659817838476068,-0.2294909796726733,-0.0009535318708432641,256.7157669185037,-0.1274120535652073,29.306951310642187,28.937050129365776
2.34,256.9732849599614,0.0,28.80627846261208,135.49773079269818,17.503181380411256,0.0,9.721159181697955,0.0,0.0,13.722659760587256,0.0,-4.876970900691242,0.0,0.0,0.86,2.6655101359385207,10.755291801824644,0.0,11214.21087662163,0.3985227376255829,21.15095536165719,0.0519889705544222,5.773287890376565,-0.0027868058186744284,0.24086317877488742,0.004168124307875485,258.652506965556,-0.38303148499511624,27.839562799988517,28.686068190707353
2.37,261.037554791192,0.0,28.879642513223118,136.16413247255514,17.49681191092935,0.0,9.322840578748249,0.0,0.0,-13.277340239412744,0.0,-9.37697090069124,0.0,0.0,0.86,2.554209702744413,10.403510420931593,0.0,11324.709241429548,0.40048274256633853,21.19254470812092,-0.007673625837500539,7.644002046774729,-0.0011185087358909708,-0.23350715866456664,-0.0015197512707602516,258.9989737497604,1.1688812362087209,30.3176442873242,29.281390185993356
2.4,265.12175218793266,0.0,28.956684704651636,136.81901564967225,17.490442441447442,0.0,9.732021676649072,0.0,0.0,13.639427899738987,0.0,-4.876970900691242,0.0,0.0,0.86,2.6957038672437923,10.83964086932985,0.0,11433.819249478469,0.40240886955785954,21.101407040002588,-0.03500161321173523,6.145139891639324,-0.0011584333824635267,0.23973748536648753,0.0024146660472133628,265.3827948458188,0.4571344322128359,29.941082423376837,28.04098202401997
2.4299999999999997,269.2255557200953,0.0,29.03602768430313,137.48680714543133,17.484072971965535,0.0,9.331206148232718,0.0,0.0,-13.360572100261013,0.0,-9.37697090069124,0.0,0.0,0.86,2.5803876119956444,10.490812166025215,0.0,11545.616876460545,0.404372962192445,21.128388517091402,0.028655246075260182,8.15693555310581,-0.002655880984642116,-0.23404944515642254,0.0022306944916110154,268.684635573397,-2.2100204425858596,28.21690669479835,28.708877634718334
2.46,273.34931521379644,0.0,29.119499615216466,138.1427556680184,17.477703502483628,0.0,9.73553491041096,0.0,0.0,13.477681337678264,0.0,-4.876970900691242,0.0,0.0,0.86,2.7275716684907985,10.927343336000012,0.0,11655.954317408039,0.4063022225529953,20.98769532977084,-0.045002349727785655,6.71440116688073,0.0008249290726389237,0.23674781879373,-0.003832152467530164,272.69436327934466,-1.1565828052339153,31.45033704979643,30.018267318205297
2.4899999999999998,277.4927013403648,0.0,29.205698544206648,138.8119969330992,17.47133403300172,0.0,9.329867045220462,0.0,0.0,-13.522318662321736,0.0,-9.37697090069124,0.0,0.0,0.86,2.607913020980405,10.57919289048107,0.0,11769.066429672199,0.4082705792149975,21.154065156740813,-0.0024952747861325636,8.631000537718858,0.0007911080208243959,-0.23188213021333307,0.000411284041754842,276.88216352051796,1.3759057893884121,27.410195402102605,30.428952029423655
2.52,281.65607131208463,0.0,29.296494589721846,139.46903241955513,17.464964563519814,0.0,9.72810263872535,0.0,0.0,13.274573224493672,0.0,-4.876970900691242,0.0,0.0,0.86,2.760762679666924,11.01492796572575,0.0,11880.638952272902,0.41020303652810336,20.923763589789935,-0.009415822816931778,7.196489817720023,-0.0022769967479440776,0.2312036573011567,0.0015454845574284157,281.6494483817809,0.20051603039537302,28.8929371497746,29.983727346623215
2.55,285.83908706051034,0.0,29.3904581574734,140.13973797393615,17.458595094037907,0.0,9.316341607654973,0.0,0.0,-13.725426775506328,0.0,-9.37697090069124,0.0,0.0,0.86,2.6365496232234,10.66623876184551,0.0,11995.073243091943,0.41217569992334163,21.025954553040812,0.014992828378391262,9.133302230222029,0.0002589862009826061,-0.23871073055473674,0.0025757760128478453,285.70859433861847,-0.10451272660394602,29.308443473819683,29.894073670410528
2.58,290.0421124208202,0.0,29.489500391166747,140.79785175716768,17.452225624556,0.0,9.708107397870124,0.0,0.0,13.058910552279265,0.0,-4.876970900691242,0.0,0.0,0.86,2.7951001954258494,11.100803917594405,0.0,12107.883310984613,0.414111328697552,20.87950673082842,-0.04580691293517194,7.61874512815679,-0.003361923216046249,0.22842497096100237,0.00039734222120256746,290.1848631824575,0.2087900825141147,30.45146130097843,29.332759616908607
2.61,294.2648002061771,0.0,29.592162072858365,141.4700135399706,17.445856155074093,0.0,9.289876571489899,0.0,0.0,-13.941089447720735,0.0,-9.37697090069124,0.0,0.0,0.86,2.666216310134164,10.751195555904921,0.0,12223.643540069987,0.4160882751175607,20.938263690261625,0.012021863777626466,9.699314622218816,0.0031941451635948198,-0.2427092422660453,-0.001381986437961988,294.91972178537713,-2.3091017503851377,28.603482870871794,29.449016507389512
2.6399999999999997,298.50752030153285,0.0,29.70039538734186,142.1291863238738,17.439486685592186,0.0,9.675190178495422,0.0,0.0,12.843835305965621,0.0,-4.876970900691242,0.0,0.0,0.86,2.8305361526453496,11.184597268562948,0.0,12337.691606348717,0.4180270185996288,20.740647317467953,0.059946829551843786,8.205275965172008,0.0027949432221643614,0.22560618619038766,0.002989912869184626,299.66301205605976,1.5394678828523727,30.363154519472992,29.74194647763011
2.67,302.7699163846112,0.0,29.81271045995537,142.8027899753315,17.43311721611028,0.0,9.250507182006704,0.0,0.0,-14.156164694034379,0.0,-9.37697090069124,0.0,0.0,0.86,2.6969124764950836,10.83407618969582,0.0,12454.780264716055,0.42000820580979853,20.904788787021467,-0.018506656287822526,10.229358705447652,0.0016510940919787173,-0.24488866936676648,0.0006519048776058676,301.00672615933763,1.7004705657969736,31.602107046820027,30.164860916482606
2.6999999999999997,307.0523639116025,0.0,29.9311010036263,143.46300174496122,17.426747746628372,0.0,9.629479687393243,0.0,0.0,12.632462901266356,0.0,-4.876970900691242,0.0,0.0,0.86,2.8670789126836884,11.266413621262148,0.0,12570.066422633337,0.4219500051322389,20.669334313387676,0.0011068822802760123,8.580241544207258,-0.0019071679123297504,0.2232235703552991,0.002161836980673005,306.3648174105872,-0.22087091193785435,29.678453264202528,29.677228685849297
2.73,311.3544975831936,0.0,30.054045928162882,144.1380336030675,17.420378277146465,0.0,9.198455607165219,0.0,0.0,-14.367537098733644,0.0,-9.37697090069124,0.0,0.0,0.86,2.728660371722755,10.915080647683709,0.0,12688.48591321468,0.4239353929501985,20.794325546365737,-0.015469671526292765,10.833535662232363,-0.0005986024000608491,-0.24855329040993734,0.00022732488971947352,309.2010293509421,1.0702046660180362,30.012632928893975,29.900754790239596
2.76,315.67669796018725,0.0,30.18358109319173,144.7992663833761,17.41400880766456,0.0,9.571178970321704,0.0,0.0,12.424155919318757,0.0,-4.876970900691242,0.0,0.0,0.86,2.904748202712923,11.34643652789927,0.0,12805.010374166473,0.4258801952452239,20.698316011011148,-0.0592250430497005,9.225186826322508,0.006777155257406218,0.21947492829151863,-0.0014672377371984118,314.7850369370718,-0.878995277984304,32.184423256197576,28.94604824778943
2.79,320.01859097908937,0.0,30.31815376150374,145.47571488327782,17.40763933818265,0.0,9.133905770337257,0.0,0.0,-14.575844080681243,0.0,-9.37697090069124,0.0,0.0,0.86,2.7614799832274683,10.994375826086713,0.0,12924.76326159132,0.42786974965669944,20.784149834626692,0.004007649694841628,11.328637230662755,2.3446540970124455e-05,-0.2546169754500623,-0.004162199501423489,319.98305851985845,-0.6875723868269801,31.435619212135286,30.525303260816457
2.82,324.38056181187903,0.0,30.459842549390828,146.1379524914167,17.401269868700744,0.0,9.50043866156077,0.0,0.0,12.217804707844781,0.0,-4.876970900691242,0.0,0.0,0.86,2.9435588790334184,11.424801870876527,0.0,13042.526321742767,0.4298175073276962,20.515162953616912,0.03287855101270987,9.675893389200068,0.0012782736819485548,0.21430419230080572,0.0022648509801585105,322.07928563263545,-0.2905040215819446,29.1496623653883,30.052819472587096
2.85,328.7622278525939,0.0,30.60706262339946,146.81580761111937,17.394900399218837,0.0,9.056975016656134,0.0,0.0,-14.782195292155219,0.0,-9.37697090069124,0.0,0.0,0.86,2.7953842742836974,11.072066078497734,0.0,13163.615243954115,0.4318111988562334,20.72216226100075,-0.0511196048891307,11.926686526619209,0.0021791237596503594,-0.25852469265444744,-0.00020660322282621272,328.5853631410145,0.3772681836925013,30.68918216004789,31.48491269578072
2.88,333.1639783550331,0.0,30.76193593398242,147.47903488168427,17.38853092973693,0.0,9.417356262668289,0.0,0.0,12.012747804537312,0.0,-4.876970900691242,0.0,0.0,0.86,2.9835195346351764,11.501595416327607,0.0,13282.6171533019,0.4337618672990714,20.489799093117348,-0.017997967603288846,10.16380371013028,-0.00018532264768444815,0.21117409554792232,-0.00037357836306852756,333.2718523362337,0.04976649208791235,31.616320159257583,31.754280335246847
2.9099999999999997,337.585422396311,0.0,30.9228450590125,148.15828744869006,17.382161460255023,0.0,8.967741004079024,0.0,0.0,-14.987252195462688,0.0,-9.37697090069124,0.0,0.0,0.86,2.830381388755885,11.14821827114936,0.0,13405.044702489346,0.43575966896673546,20.625867991455678,0.029895751383599473,12.498736781333017,0.001971603068964268,-0.2653898124115836,-0.0035251726468803683,336.1111283765175,1.3166210897049015,30.512759207730067,29.777039698766224
2.94,342.0269527484606,0.0,31.091955841311524,148.8224897440095,17.375791990773116,0.0,9.322001361949928,0.0,0.0,11.808716215937157,0.0,-4.876970900691242,0.0,0.0,0.86,3.0246350519225746,11.57687659663764,0.0,13525.285578335033,0.4377132051294397,20.33835376589925,-0.01294011180141759,10.727304585415986,0.0015724681706620128,0.207617447884276,0.0007011828098648345,340.9319587008285,-0.338237262082157,30.348170791376006,31.508282925863014
2.9699999999999998,346.4881704076681,0.0,31.267617747882024,149.5031310629865,17.36942252129121,0.0,8.866265251222172,0.0,0.0,-15.191283784062843,0.0,-9.37697090069124,0.0,0.0,0.86,2.86647716717456,11.222884284395201,0.0,13649.0542339157,0.43971509136172504,20.617409925638945,0.027761547359216102,12.999745462844537,0.0010459706426231255,-0.2633305980429633,-0.002957813128749649,346.2998404240068,-0.2933679022824381,32.298891818081465,32.12605273273567
3.0,350.9694710690244,0.0,31.452041066365577,150.16829408656005,17.363053051809302,0.0,9.214432739773544,0.0,0.0,11.60561866406675,0.0,-4.876970900691242,0.0,0.0,0.86,3.0669086553953564,11.650694958273853,0.0,13770.53402527407,0.44167145319576495,20.31710270142246,0.039956418020339876,11.283858342854566,0.0023378431513242197,0.20083192023326424,-0.0021880665219218233,349.9773439394195,-0.9197492818163784,32.21581420968439,30.251848775645197
3.03,355.4704479000857,0.0,31.64354161526966,150.8503158150185,17.356683582327395,0.0,8.752603800154569,0.0,0.0,-15.39438133593325,0.0,-9.37697090069124,0.0,0.0,0.86,2.9036764271880395,11.29611130342705,0.0,13895.646129051,0.44367739945593676,20.43119203576109,-0.0284600665689432,13.631999693110043,-0.0007306290529579894,-0.26881827675479114,0.0003055854345507461,356.21163268422794,-0.562314677503047,30.336339846607377,31.725651106143886
3.06,359.9914988933229,0.0,31.84437468000349,151.5164255739677,17.35031411284549,0.0,9.094705214489931,0.0,0.0,11.403414355894538,0.0,-4.876970900691242,0.0,0.0,0.86,3.110342829018125,11.723096818915835,0.0,14018.364606825695,0.44563654580578727,20.225483845268236,0.02178326636587559,11.795120761138806,-0.0016222841698577113,0.20386463405856375,-0.0009996168916464698,358.75250374856745,-0.2076401183546315,34.04264242233554,32.267361880464236
3.09,364.5322096592412,0.0,32.05282188462414,152.19981970472745,17.34394464336358,0.0,8.626810245455129,0.0,0.0,-15.596585644105462,0.0,-9.37697090069124,0.0,0.0,0.86,2.941983378425591,11.367944776738815,0.0,14144.8223567915,0.447646528543316,20.31995104567622,-0.004062440347975806,14.291938446047963,0.000692658407846137,-0.2751363634837152,-0.0024819427673193014,363.14238429040086,-0.8598953782719279,32.42703349921216,32.22258189369841
3.12,369.0929798314328,0.0,32.271184067210655,152.86686251751678,17.337575173881675,0.0,8.962871349756705,0.0,0.0,11.20206892509344,0.0,-4.876970900691242,0.0,0.0,0.86,3.1549395862457232,11.794126957065304,0.0,14268.77911199402,0.449608419169167,20.152075767082394,0.028953470114299742,12.350853114224012,0.002005550573643021,0.1970047322850978,0.0025278673282638315,369.8343458275079,1.428419470086928,30.828805480715967,32.04475113074908
3.15,373.6733877554615,0.0,32.497708105338674,153.55162138953233,17.331205704399768,0.0,8.488936119808754,0.0,0.0,-15.79793107490656,0.0,-9.37697090069124,0.0,0.0,0.86,2.981401704383912,11.438428813448391,0.0,14396.58456123246,0.45162241585156565,20.296051875278195,0.003280855381944881,14.816507268740335,0.0005222003601432725,-0.27780709319307223,-0.003061088019808788,374.8698270862446,0.2736073799143496,31.32934246772447,31.888397256109386
3.1799999999999997,378.2738340186559,0.0,32.734740946268374,154.21958389990837,17.32483623491786,0.0,8.81898159615746,0.0,0.0,11.001546299398207,0.0,-4.876970900691242,0.0,0.0,0.86,3.2007005217159183,11.86382877107518,0.0,14521.779004388702,0.45358701147031877,20.046490963415202,0.004755502465245395,12.911190689877216,0.000847128737547872,0.1925630788620216,-0.002322709859001459,378.9168167768066,2.2676375607306953,31.413750922712584,32.44214973326394
3.21,382.8938900149274,0.0,32.980494163440255,154.9057002115191,17.318466765435954,0.0,8.339030791650144,0.0,0.0,-15.998453700601793,0.0,-9.37697090069124,0.0,0.0,0.86,3.0219345741187573,11.507606099495483,0.0,14650.934060475585,0.4556050006221151,20.216062788886344,0.0014028169585004594,15.410504493660559,0.0031144141540829723,-0.2816975069350924,0.0019368357837205887,383.79980289716246,0.2862465464807031,33.73626058016928,33.2616128579424
3.2399999999999998,387.5339565661813,0.0,33.23736137067758,155.57456940063065,17.312097295954047,0.0,8.663084210632325,0.0,0.0,10.801809426835252,0.0,-4.876970900691242,0.0,0.0,0.86,3.2476268255645455,11.932244213592435,0.0,14777.365420763575,0.4575722629430312,19.91359349437404,-0.00209047626951359,13.464146637001134,-0.003960082680102351,0.19013387255986905,-0.0009456078283994447,386.16809842419417,0.9474830159793197,32.33678284860408,33.45492841206567
3.27,392.19359844968784,0.0,33.50351827410847,156.2620362210023,17.30572782647214,0.0,8.177141406381008,0.0,0.0,-16.198190573164748,0.0,-9.37697090069124,0.0,0.0,0.86,3.063584656818327,11.57551785067746,0.0,14907.871844886055,0.4595942241794186,20.12369678918758,-0.01190890921836244,16.043512044953513,0.0009838714585982558,-0.28423202007781934,-0.0012742011404785545,389.23598379275944,-0.47818403441355023,32.174465950601494,33.56041909077906
3.3,396.87321597034224,0.0,33.78140571161659,156.93179941810357,17.299358356990233,0.0,8.495225233141017,0.0,0.0,10.60282145725822,0.0,-4.876970900691242,0.0,0.0,0.86,3.295719303156097,11.99941377714525,0.0,15035.539169064845,0.4615641159355987,19.80159245464714,-0.027721553808669343,14.033465864760348,-0.0002836118187114615,0.18407165321677832,0.0006614708968874351,397.3408127980708,-1.6969572378846374,34.67261411578019,34.37050974200501
3.33,401.57236764607194,0.0,34.069162953454544,157.62061019766423,17.292988887508326,0.0,8.003312898478637,0.0,0.0,-16.39717854274178,0.0,-9.37697090069124,0.0,0.0,0.86,3.10635414551513,11.642203831458467,0.0,15167.39857499713,0.4635900299931301,20.06507358753013,-0.04070013307487172,16.733653611175065,-0.0003398855577938001,-0.28640833013932016,-0.002477950681501689,401.60935661491544,1.523369255349535,32.82903257971496,33.80125737757247
3.36,406.2914524801059,0.0,34.36927861843509,158.29125509049243,17.28661941802642,0.0,8.315448514145924,0.0,0.0,10.404546254833026,0.0,-5.201253789531636,0.0,0.0,0.86,3.3344209313283626,12.065376526754154,0.0,15296.300726325368,0.4655625149720367,19.77726647748671,0.04314664569102081,14.657347841355241,-0.0026306296936241817,0.17923458722850605,-0.0015159451965232856,406.61212189739643,-0.5243488693466422,36.76468884526015,34.46679275106367
3.3899999999999997,411.0300231112036,0.0,34.67985496719516,158.98061086717925,17.280249948544512,0.0,7.817588034353297,0.0,0.0,-16.595453745166974,0.0,-9.701253789531636,0.0,0.0,0.86,3.1396540230144554,11.706381433612723,0.0,15429.360692855307,0.46759003196229193,19.902812324408803,0.02961142324829013,17.126044146961533,-0.0006046205995789539,-0.2908437867147066,0.002090758569381412,411.98574142441544,2.0396414338206186,35.68496120017054,33.67821372317406
3.42,415.7884601520154,0.0,35.003317634533886,159.65132984004617,17.273880479062605,0.0,8.129723650020587,0.0,0.0,10.404546254833026,0.0,-5.504445185121523,0.0,0.0,0.86,3.375036408678887,12.13341742635687,0.0,15559.34078122914,0.46956273482366523,19.60304348906782,-0.06591519352680249,15.085119421407699,-0.0021335775597806843,0.1804898421736138,-0.0011473500143286794,417.91554464272843,-0.5224968426521744,36.235878373299514,35.607699191466835
3.4499999999999997,420.56631141978795,0.0,35.337727070360536,160.34132515500028,17.267511009580698,0.0,7.631863170227958,0.0,0.0,-16.595453745166974,0.0,-10.004445185121522,0.0,0.0,0.86,3.175931114292113,11.778710549180209,0.0,15693.618655100368,0.47159213280882434,19.782818853786107,-0.026840327809862567,17.714286466859033,0.0007375120723331163,-0.2901706845427966,0.002200374561925831,422.3505068452983,0.050502997411298385,37.39106727377041,34.98935439249692
3.48,425.3639579200145,0.0,35.685569787804816,161.01232667021543,17.26114154009879,0.0,7.943998785895248,0.0,0.0,10.404546254833026,0.0,-5.80785945054839,0.0,0.0,0.86,3.4181960661796236,12.209866737978176,0.0,15824.714929747186,0.4735656666771042,19.48781169959923,0.003489316455486613,15.523627057654275,0.0019863924302803613,0.18378809910954685,-0.0004093678875474697,423.9567297428228,-0.9597043111123003,35.70644958580659,35.81228963799264
3.51,430.1809457730649,0.0,36.04487526973569,161.70315102446975,17.254772070616884,0.0,7.44613830610262,0.0,0.0,-16.595453745166974,0.0,-10.30785945054839,0.0,0.0,0.86,3.2147461894754583,11.859626144176291,0.0,15960.24731332758,0.4755975030131464,19.698857030901408,-0.055698226205463774,18.284145545747325,-0.001992711656787509,-0.2890338914374507,-0.0010987119628599544,429.30923123702917,0.8566103159707519,35.39276428293454,35.270000780003436
3.54,435.0176551804403,0.0,36.41818513395652,162.37461341893132,17.248402601134977,0.0,7.758273921769908,0.0,0.0,10.404546254833026,0.0,-6.111496585812224,0.0,0.0,0.86,3.464115275554796,12.295090081491765,0.0,16092.493185671325,0.47757239240862154,19.449813671327203,0.01166752733275031,16.116392922764856,-0.001127140996200163,0.1806981812316734,0.0007828565490089715,435.0879381894407,-0.6736211538471292,33.130109913322705,35.64459463207233
3.57,439.8736305950536,0.0,36.80349844455378,163.06647720748558,17.24203313165307,0.0,7.260413441977281,0.0,0.0,-16.595453745166974,0.0,-10.611496585812224,0.0,0.0,0.86,3.2563231685364036,11.94950958403886,0.0,16229.321866620214,0.47960728590436935,19.620368301694107,0.0005231820472401792,18.908910561804174,0.0011148677603585709,-0.28716342122759664,0.0009011821344025122,439.00876316137624,-0.003912561217025252,37.073992258220315,35.97897085036035
3.5999999999999996,444.7492512220797,0.0,37.203413299605735,163.73859926885297,17.235663662171163,0.0,7.5725490576445695,0.0,0.0,10.404546254833026,0.0,-6.415356590912994,0.0,0.0,0.86,3.5130288892028076,12.389485176753608,0.0,16362.755808367408,0.4815841154966262,19.357274600223892,-0.07765258938627768,16.679922657561676,-0.00015253430517534253,0.1794147480143136,0.0007147070283798416,446.27702555662137,-0.8052620683525312,37.14276140423273,36.641472242334274
3.63,449.64405985750176,0.0,37.61589896489695,164.43173611047166,17.229294192689256,0.0,7.074688577851942,0.0,0.0,-16.595453745166974,0.0,-10.915356590912992,0.0,0.0,0.86,3.3009066059468632,12.048775410486945,0.0,16500.928385843974,0.4836227532660931,19.5032488614984,0.023446179448019255,19.509998622312366,-0.00042517307270366773,-0.28976656298149184,0.001726512091311929,451.22985829325137,0.4961545337174935,38.188581592184136,38.07311867937544
3.6599999999999997,454.5584345130275,0.0,38.04361148680806,165.1047394228869,17.22292472320735,0.0,7.386824193519231,0.0,0.0,10.404546254833026,0.0,-6.719439465850712,0.0,0.0,0.86,3.565193107965242,12.493484050305991,0.0,16635.594557244138,0.4856021747731967,19.191558535974433,-0.00026450073107092464,17.278505678484326,0.0022021873780227507,0.1791944721914998,-0.0020703285431833487,453.2475906149137,-0.6151522846684833,38.30697918140661,37.340115066607446
3.69,459.49191631686597,0.0,38.48449103170019,165.7994087954207,17.216555253725442,0.0,6.8889637137266035,0.0,0.0,-16.595453745166974,0.0,-11.21943946585071,0.0,0.0,0.86,3.3487636756916515,12.157873640245725,0.0,16775.165152889575,0.4876453199865314,19.40406696634793,0.03128946643938824,20.176507132943236,-0.0010610928154375489,-0.291759476088407,8.591552522351525e-05,462.15252462051194,-1.3951291060674849,38.27183130267765,38.16622830749567
3.7199999999999998,464.44488188465425,0.0,38.9412531640226,166.47354039954166,17.210185784243535,0.0,7.201099329393893,0.0,0.0,10.404546254833026,0.0,-7.023745210625376,0.0,0.0,0.86,3.620887540539281,12.60755543070054,0.0,16911.114117952962,0.48962805999865194,19.05468870261315,-0.013674192895921138,17.799605176087855,-0.004207825245954506,0.17708474234840624,-0.0026846267565351577,465.13980796805555,0.6619372895395562,38.4340459489905,39.15816497797694
3.75,469.41687064183645,0.0,39.41180973479366,167.17003062486123,17.203816314761628,0.0,6.703238849601264,0.0,0.0,-16.595453745166974,0.0,-11.523745210625375,0.0,0.0,0.86,3.4001863552240494,12.277292259591599,0.0,17052.144184496043,0.4916765606613566,19.282804862329765,0.002655410889381817,20.80504999799404,-0.0005522258759060259,-0.2915396823747262,-0.003906492399727257,466.44712160341345,0.4166574338284089,38.60125294074444,39.84882165972579
3.78,474.40825759912707,0.0,39.8989375083753,167.84556603835293,17.19744684527972,0.0,7.015374465268554,0.0,0.0,10.404546254833026,0.0,-7.328273825236988,0.0,0.0,0.86,3.6804174769661557,12.732207347274032,0.0,17189.433726579828,0.49366342952456743,18.934771698384452,-0.04196353102967435,18.45052177135515,7.149624547488423e-05,0.18333746548070923,0.0006277958355700721,473.6571829692542,0.99615677672268,40.51425980342694,39.33458144396969
3.81,479.4185804169583,0.0,40.40052089723625,168.54419766801936,17.191077375797814,0.0,6.517513985475925,0.0,0.0,-16.595453745166974,0.0,-11.828273825236987,0.0,0.0,0.86,3.4554938308517835,12.40755993013704,0.0,17331.992969070965,0.49571822843535107,19.159091418358837,-0.0030877289891365913,21.49514752106377,0.0014551103477245602,-0.28929363777144396,-0.0007404005647917829,480.7246540122547,0.47796173483317633,38.6981196422415,40.12146115207769
3.84,484.448212285084,0.0,40.919399671069975,169.22144432010438,17.184707906315907,0.0,6.829649601143216,0.0,0.0,10.404546254833026,0.0,-7.63302530968555,0.0,0.0,0.86,3.744116402028712,12.867989948421572,0.0,17470.68902252537,0.4977101303532482,18.747345818592265,-0.05759360417569643,19.217606200784033,-0.0007690909338831859,0.18087110106260545,0.0009533903601165557,484.9769589887901,-0.4120017312357466,41.196829167274146,41.19367634986748
3.8699999999999997,489.49668900592974,0.0,41.45343178160538,169.9225739811565,17.178338436834,0.0,6.331789121350587,0.0,0.0,-16.595453745166974,0.0,-12.13302530968555,0.0,0.0,0.86,3.5150351505427664,12.549248922520814,0.0,17614.856449758794,0.49977227641516625,19.062457864316514,-0.018657662510209137,22.309733861365345,0.0007449094774603571,-0.2911843705366466,-0.0009208263868649518,489.2837360307738,0.23539932664154142,42.8914482552899,41.10129100281442
3.9,494.56438172395127,0.0,42.00552194566816,170.60187512359175,17.171968967352093,0.0,6.643924737017877,0.0,0.0,10.404546254833026,0.0,-7.937999663971079,0.0,0.0,0.86,3.812348778481132,13.015498556694933,0.0,17755.034166031208,0.5017702209517404,18.639658152395114,-0.026332778583589147,19.928261305603133,9.739853815039272e-05,0.18164088424145355,0.0015947148971181665,494.3479654324078,0.3571993303921965,41.000384131692776,42.142185110379074
3.9299999999999997,499.6508242558987,0.0,42.573502742273874,171.3058998935437,17.165599497870186,0.0,6.146064257225247,0.0,0.0,-16.595453745166974,0.0,-12.437999663971079,0.0,0.0,0.86,3.579192154419054,12.702978295986231,0.0,17900.89929274847,0.5038408820398345,18.89636321533299,0.009842734876036256,23.155287298660387,-0.0019290653249526793,-0.29395885940219607,0.0008627180544157626,499.4832258969191,-1.7437576023522892,42.95270227808985,42.53424595150656
3.96,504.7563854669743,0.0,43.16034592785549,171.98763906071667,17.15923002838828,0.0,6.458199872892537,0.0,0.0,10.404546254833026,0.0,-8.243196888093552,0.0,0.0,0.86,3.8855131349743637,13.175376979408288,0.0,18042.644262564314,0.505845997237402,18.513863956011637,0.01616459072851281,20.728254225547936,-2.475920507279969e-05,0.1776168661340066,0.0008898182702178508,505.95057705464814,0.028586817608267076,42.7632289812803,42.292774419335935
