time_s,x_m,y_m,altitude_m,vx_mps,vy_mps,vz_mps,speed_mps,mass_kg,roll_deg,pitch_deg,yaw_deg,p_dps,q_dps,r_dps,alpha_deg,beta_deg,qbar_pa,mach,airspeed_mps,load_factor_g,density_kgpm3,pressure_pa,temperature_k,wind_x_mps,wind_y_mps,wind_z_mps,thrust_n,mass_flow_kgps,propulsion_throttle_actual,propulsion_health,energy_j_per_kg,target_distance_m,guidance_mode,pitch_command_deg,heading_command_deg,roll_command_deg,elevator_command_deg,aileron_command_deg,rudder_command_deg,elevator_deg,aileron_deg,rudder_deg,throttle,elevator_saturated,aileron_saturated,rudder_saturated,elevator_failed,aileron_failed,rudder_failed,elevator_raw_rad,aileron_raw_rad,rudder_raw_rad,elevator_effective_rad,aileron_effective_rad,rudder_effective_rad,imu_ax_mps2,imu_ay_mps2,imu_az_mps2,gyro_p_rps,gyro_q_rps,gyro_r_rps,gps_valid,gps_x_m,gps_y_m,gps_z_m,gps_vx_mps,gps_vy_mps,gps_vz_mps,baro_alt_m,pitot_airspeed_mps,pitot_qbar_pa,mag_heading_deg
0.0,0.0,0.0,20.0,86.0,0.0,6.0,86.20904824900923,18.0,0.0,5.000000000000001,0.0,0.0,0.0,0.0,1.0090869015702202,0.0,4543.366193665201,0.2533941375411892,86.20904824900923,1.7400872986971718,1.2226496753673843,101084.96761777384,288.02,0.0,0.0,0.0,326.8,0.17539118863220368,0.86,nominal,3912.133,nan,pitch_program,12.000000000000002,0.0,0.0,-20.05352282957881,-0.0,0.0,-2.6999999999999997,0.0,0.0,0.86,0.0,0.0,0.0,0.0,0.0,0.0,-0.047123889803846894,0.0,0.0,-0.047123889803846894,0.0,0.0,17.08237503538411,0.01421251978619979,0.4606039154704186,0.000988985189910357,-0.0019892199963123243,0.0018790631541648138,1.0,0.11140188189044599,-0.7015888405932479,21.088827502213036,85.93905660319169,-0.1992551608878452,5.726199720431493,21.63744828955775,86.04135887015845,4540.488943892901,-0.3872112908568312
0.03,2.5952546510678514,0.0,20.1729526389325,86.50848836892838,0.0,5.765087964416636,86.70037369650997,17.994738264341034,0.0,5.234794727757629,0.0,0.0,-7.826501877873444,0.0,1.4221340050852367,0.0,4595.22483836377,0.2548387870971885,86.70037369650997,1.7690183208935115,1.2226293655258118,101082.89391600437,288.01887580784694,0.0,0.0,0.0,332.605,0.1785066900092231,0.86,nominal,3956.306485553827,nan,pitch_program,11.987142857142857,0.0,0.0,-1.7237007728769524,-0.0,0.0,-2.1142204637261712,0.0,0.0,0.86,0.0,0.0,0.0,0.0,0.0,0.0,-0.03690010820506303,0.0,0.0,-0.03690010820506303,0.0,0.0,17.333756331433076,0.016186268813138213,0.881378385065833,0.0026674889701805015,-0.13570332071793448,-0.001452428869052167,1.0,0.11140188189044599,-0.7015888405932479,21.088827502213036,85.93905660319169,-0.1992551608878452,5.726199720431493,21.63744828955775,86.40294463643146,4707.955689309306,-0.3872112908568312
0.06,5.205963901329536,0.0,20.339300027015604,87.02364167538947,0.0,5.544912936103398,87.20011622650253,17.98938306364076,0.0,5.5739886936700085,0.0,0.0,-11.306498552012421,0.0,1.9281838985107471,0.0,4648.277161990505,0.25630816360489794,87.20011622650253,1.7985487209606494,1.2226098315828546,101080.89944367715,288.0177945498244,0.0,0.0,0.0,338.40999999999997,0.18162219138624247,0.86,nominal,4001.3905315677075,nan,pitch_program,11.974285714285715,0.0,0.0,-0.6603986788887833,-0.0,0.0,-1.2419273928237384,0.0,0.0,0.86,0.0,0.0,0.0,0.0,0.0,0.0,-0.021675722075483232,0.0,0.0,-0.021675722075483232,0.0,0.0,17.557265502790038,0.024088589004197667,1.3600072040002678,0.0009268134178762467,-0.19514151358091153,-0.0008076921861329596,1.0,0.11140188189044599,-0.7015888405932479,21.088827502213036,85.93905660319169,-0.1992551608878452,5.726199720431493,20.409415256422673,87.79629526598393,4640.863420325654,1.0683892489204136
0.09,7.832298701185458,0.0,20.49961879492696,87.54449332853072,0.0,5.3439589303784905,87.7074467146247,17.983934397899173,0.0,5.851985313410126,0.0,0.0,-9.266572170413179,0.0,2.358826313964668,0.0,4702.449468302384,0.25779983149452296,87.70744671462471,1.8288472840953747,1.222591005798339,101078.97728346949,288.01675247783294,0.0,0.0,0.0,344.215,0.18473769276326188,0.86,nominal,4047.330691254636,nan,pitch_program,11.961428571428572,0.0,0.0,-1.011164122557917,-0.0,0.0,-1.1034694306642456,0.0,0.0,0.86,0.0,0.0,0.0,0.0,0.0,0.0,-0.019259174760198366,0.0,0.0,-0.019259174760198366,0.0,0.0,17.86355232002697,-0.005248104131969815,1.7998262273205643,-0.0009805663954867041,-0.16066488395438863,0.0011948755498690736,1.0,0.11140188189044599,-0.7015888405932479,21.088827502213036,85.93905660319169,-0.1992551608878452,5.726199720431493,20.409415256422673,87.92650826255478,4630.493574185333,1.0683892489204136
0.12,10.474445936356936,0.0,20.65435370132958,88.07157450571596,0.0,5.157830213420677,88.22247700232833,17.978392267116273,0.0,6.014824272248575,0.0,0.0,-5.4279689482699265,0.0,2.6631782684526857,0.0,4757.767778820667,0.2593141206218117,88.22247700232833,1.8593152849149013,1.2225728359213792,101077.12209967739,288.01574670094135,0.0,0.0,0.0,350.02,0.1878531941402813,0.86,nominal,4094.1527419383197,nan,pitch_program,11.948571428571428,0.0,0.0,-1.8759817280828814,-0.0,0.0,-1.5669768091154272,0.0,0.0,0.86,0.0,0.0,0.0,0.0,0.0,0.0,-0.0273489046214589,0.0,0.0,-0.0273489046214589,0.0,0.0,18.170647514275878,-0.0193478173557523,1.979942870117967,-0.0011834404831108421,-0.09528202895622959,0.0028379889460046015,1.0,0.11140188189044599,-0.7015888405932479,21.088827502213036,85.93905660319169,-0.1992551608878452,5.726199720431493,21.208823938883235,87.96266556117051,4721.130302664517,1.1952044546169287
0.15,13.132623428929834,0.0,20.80377386601636,88.60591641909663,0.0,4.9806721562260305,88.74579155991422,17.972756671292064,0.0,6.101475655103521,0.0,0.0,-2.8883799790254687,0.0,2.8841792511258366,0.0,4814.309964566602,0.2608527495594302,88.74579155991424,1.8900053359506968,1.2225552903285153,101075.33066279205,288.01477546987087,0.0,0.0,0.0,355.825,0.1909686955173007,0.86,nominal,4141.923088781041,nan,pitch_program,11.935714285714285,0.0,0.0,-2.4586539633916344,-0.0,0.0,-2.1019831016811517,0.0,0.0,0.86,0.0,0.0,0.0,0.0,0.0,0.0,-0.03668652594561885,0.0,0.0,-0.03668652594561885,0.0,0.0,18.39668385444379,-0.004307570333310237,2.21804550360791,-0.002341685227951984,-0.05099272810070997,0.0008338834782699445,1.0,0.11140188189044599,-0.7015888405932479,21.088827502213036,85.93905660319169,-0.1992551608878452,5.726199720431493,21.208823938883235,88.45387166093558,4848.137400570637,1.1952044546169287
0.18,15.80706747547757,0.0,20.948064084919928,89.14813488492452,0.0,4.8096739634521875,89.27778512651065,17.967027610426545,0.0,6.1654557323785415,0.0,0.0,-2.13266946410925,0.0,3.0772575501020105,0.0,4872.134957091147,0.2624168789694035,89.27778512651065,1.9211233388017523,1.2225383472999625,101073.60075455025,288.013837583448,0.0,0.0,0.0,361.63,0.19408419689432013,0.86,nominal,4190.691791206083,nan,pitch_program,11.922857142857143,0.0,0.0,-2.608007107463138,-0.0,0.0,-2.4055975051503435,0.0,0.0,0.86,0.0,0.0,0.0,0.0,0.0,0.0,-0.04198559694263474,0.0,0.0,-0.04198559694263474,0.0,0.0,18.628192585636086,-0.03453127051426105,2.341362192334639,-0.000137137496174557,-0.03915547975716929,0.0019693560860418458,1.0,0.11140188189044599,-0.7015888405932479,21.088827502213036,85.93905660319169,-0.1992551608878452,5.726199720431493,21.071926760039347,89.67600327369323,4901.17365942077,-0.6211776040121522
0.21,18.498016961045888,0.0,21.087410365156206,89.69831618561055,0.0,4.644876007875893,89.81849920624539,17.961205084519715,0.0,6.228856306829531,0.0,0.0,-2.113352697340952,0.0,3.2645387318391355,0.0,4931.264191679682,0.2640066312532579,89.81849920624539,1.95263061238258,1.2225219849753384,101071.93014238428,288.01293183262646,0.0,0.0,0.0,367.435,0.19719969827133954,0.86,nominal,4240.478252688611,nan,pitch_program,11.91,0.0,0.0,-2.5735406621868293,-0.0,0.0,-2.5063633993722347,0.0,0.0,0.86,0.0,0.0,0.0,0.0,0.0,0.0,-0.04374429357052308,0.0,0.0,-0.04374429357052308,0.0,0.0,18.99219374246921,-0.0013842643488433512,2.496386109970181,-0.00027636045831099155,-0.03701990913270336,0.0009038371518157357,1.0,18.98208958471666,-1.713619975241069,19.957706161922253,89.65247608418532,-0.10526843776182238,4.493583764303853,21.071926760039347,89.60824645300426,4969.586259722546,-0.6211776040121522
0.24,21.205708139533563,0.0,21.222020050296525,90.25637261625587,0.0,4.4869895046772985,90.3678364942943,17.955289093571576,0.0,6.285850283413729,0.0,0.0,-1.8997993761263474,0.0,3.43980102619422,0.0,4991.704144549778,0.2656217208753353,90.36783649429428,1.9843259764926104,1.2225061789904685,101070.31633813608,288.0120568696731,0.0,0.0,0.0,373.24,0.20031519964835895,0.86,nominal,4291.289859255994,nan,pitch_program,11.897142857142857,0.0,0.0,-2.5911791264004838,-0.0,0.0,-2.557252835589184,0.0,0.0,0.86,0.0,0.0,0.0,0.0,0.0,0.0,-0.04463248178699249,0.0,0.0,-0.04463248178699249,0.0,0.0,19.23244484942061,0.011991379123843782,2.709930886580129,-0.001156052878014876,-0.03218482657899468,0.002059746144980635,1.0,18.98208958471666,-1.713619975241069,19.957706161922253,89.65247608418532,-0.10526843776182238,4.493583764303853,22.149132751049702,90.57874246552936,5030.366623780897,0.96636479327656
0.27,23.930377973376718,0.0,21.352099451782756,90.82232779477187,0.0,4.335980049540982,90.92577164396796,17.949279637582126,0.0,6.325559355287328,0.0,0.0,-1.3236357821011655,0.0,3.592257153774751,0.0,5053.469302849227,0.2672620738116485,90.92577164396796,2.0160383129314603,1.2224909051039314,101068.75686622964,288.0112113535634,0.0,0.0,0.0,379.045,0.20343070102537836,0.86,nominal,4343.140540614329,nan,pitch_program,11.884285714285713,0.0,0.0,-2.709118154555073,-0.0,0.0,-2.648372026968717,0.0,0.0,0.86,0.0,0.0,0.0,0.0,0.0,0.0,-0.046222811688320174,0.0,0.0,-0.046222811688320174,0.0,0.0,19.611650070281126,-0.014648023339348011,2.8154751782148897,-0.00012926503656805364,-0.021244591496258104,0.0019921313363578906,1.0,18.98208958471666,-1.713619975241069,19.957706161922253,89.65247608418532,-0.10526843776182238,4.493583764303853,22.149132751049702,90.5386538316256,5126.0341419535525,0.96636479327656
0.3,26.672268326899886,0.0,21.477832123366294,91.39634511743895,0.0,4.191089052784584,91.4923883624992,17.943176716551363,0.0,6.345710506807538,0.0,0.0,-0.6717050575975976,0.0,3.720183081020063,0.0,5116.586562648079,0.26892793652350894,91.4923883624992,2.047731412829811,1.2224761417479466,101067.24952411422,288.0103940911981,0.0,0.0,0.0,384.84999999999997,0.20654620240239774,0.86,nominal,4396.054146529799,nan,pitch_program,11.871428571428572,0.0,0.0,-2.8569316101541675,-0.0,0.0,-2.7735077768799874,0.0,0.0,0.86,0.0,0.0,0.0,0.0,0.0,0.0,-0.04840684253622404,0.0,0.0,-0.04840684253622404,0.0,0.0,19.84946573995553,-0.008599618327622044,3.0150458358479595,0.001327540893980221,-0.011530906661808456,-0.003169499137861095,1.0,18.98208958471666,-1.713619975241069,19.957706161922253,89.65247608418532,-0.10526843776182238,4.493583764303853,21.03472711436707,91.53983026886735,5101.367503383418,0.15315084236627227
0.32999999999999996,29.43162678553464,0.0,21.599376493045455,91.97861528782515,0.0,4.0514789893053536,92.06780193024336,17.93698033047929,0.0,6.351426063746436,0.0,0.0,-0.19051856478794546,0.0,3.8292888217833823,0.0,5181.086890276646,0.27061964820762746,92.06780193024338,2.0794542234147344,1.2224618703062202,101065.79241062608,288.00960405279517,0.0,0.0,0.0,390.655,0.20966170377941715,0.86,nominal,4450.057601618786,nan,pitch_program,11.85857142857143,0.0,0.0,-2.9701318069980505,-0.0,0.0,-2.8914821949508256,0.0,0.0,0.86,0.0,0.0,0.0,0.0,0.0,0.0,-0.05046588456468446,0.0,0.0,-0.05046588456468446,0.0,0.0,20.110632569546283,-0.037993567675712256,3.1188756971123768,0.0004128106067157047,-0.0018654300297591176,0.0007710212336951604,1.0,18.98208958471666,-1.713619975241069,19.957706161922253,89.65247608418532,-0.10526843776182238,4.493583764303853,21.03472711436707,92.11579352040019,5120.186079487363,0.15315084236627227
0.36,32.208704910930216,0.0,21.716875578539312,92.56927084651926,0.0,3.9166361831286367,92.65209087790319,17.930690479365907,0.0,6.348425082451474,0.0,0.0,0.10003270985497448,0.0,3.925666898106873,0.0,5246.997701147641,0.2723374399996327,92.65209087790319,2.111242208358652,1.2224480739730088,101064.38380949321,288.0088403087395,0.0,0.0,0.0,396.46,0.21277720515643656,0.86,nominal,4505.174769915899,nan,pitch_program,11.845714285714285,0.0,0.0,-3.0405485486608685,-0.0,0.0,-2.9809220071768516,0.0,0.0,0.86,0.0,0.0,0.0,0.0,0.0,0.0,-0.052026903770394095,0.0,0.0,-0.052026903770394095,0.0,0.0,20.46668709972053,-0.010010926938536517,3.2900695106336197,-0.002764898565117342,0.0034765482754838288,-0.0017905408690657711,1.0,18.98208958471666,-1.713619975241069,19.957706161922253,89.65247608418532,-0.10526843776182238,4.493583764303853,20.95021440092125,92.25962345620192,5174.858257688663,1.4453165796110432
0.39,35.00375645458167,0.0,21.830465490584682,93.16838478838189,0.0,3.7863304015123522,93.24529061558769,17.924307163211214,0.0,6.339321600133142,0.0,0.0,0.3034494112494301,0.0,4.012121887381944,0.0,5314.342009033379,0.2740814162719839,93.24529061558769,2.143082681251478,1.2224347367545603,101063.02208737926,288.00810197431116,0.0,0.0,0.0,402.265,0.21589270653345596,0.86,nominal,4561.4258453959455,nan,pitch_program,11.832857142857144,0.0,0.0,-3.092596795279305,-0.0,0.0,-3.047926880038324,0.0,0.0,0.86,0.0,0.0,0.0,0.0,0.0,0.0,-0.05319635941670698,0.0,0.0,-0.05319635941670698,0.0,0.0,20.7471241394037,0.05568343899821002,3.3559709060090355,-0.00030060286488892997,0.004273824015756187,-0.00014273670584920425,1.0,18.98208958471666,-1.713619975241069,19.957706161922253,89.65247608418532,-0.10526843776182238,4.493583764303853,20.95021440092125,92.0681329448327,5301.834706319738,1.4453165796110432
0.42,37.81703674851817,0.0,21.940277538488683,93.77600979788326,0.0,3.66040159679997,93.84742166656766,17.91783038201521,0.0,6.324391791379354,0.0,0.0,0.49766029460875605,0.0,4.089074387963719,0.0,5383.1415142011465,0.275851637628624,93.84742166656767,2.153084038973388,1.22242184322182,101061.70566863226,288.0073881959998,0.0,0.0,0.0,404.1773684210526,0.21691906078826353,0.86,nominal,4618.829899454096,nan,pitch_program,11.82,0.0,0.0,-3.1456075734022293,-0.0,0.0,-3.106535296056667,0.0,0.0,0.86,0.0,0.0,0.0,0.0,0.0,0.0,-0.054219269245605654,0.0,0.0,-0.054219269245605654,0.0,0.0,20.957534416560563,0.09481826429925523,3.425556869999631,-0.001155627257381093,0.005915644631636512,0.00016049970822573835,1.0,35.01686978282205,-1.266305003242795,21.332051564457426,93.94478605517747,-0.3243909562470774,3.773768069351769,21.167232899706946,94.16417609424511,5403.748199336083,1.1337337587800282
0.44999999999999996,40.64860853123129,0.0,22.046415241713753,94.38572609043743,0.0,3.537923440835604,94.45200999392387,17.911322810191564,0.0,6.303711856430373,0.0,0.0,0.6893311724495214,0.0,4.1570607358816725,0.0,5452.668401424141,0.2776290746977364,94.45200999392387,2.152181084688704,1.2224093812095014,101060.4333108546,288.00669830092886,0.0,0.0,0.0,404.14342105263154,0.21690084148196515,0.86,nominal,4676.7925739762995,nan,pitch_program,11.807142857142857,0.0,0.0,-3.2012081138673123,-0.0,0.0,-3.1633389867430544,0.0,0.0,0.86,0.0,0.0,0.0,0.0,0.0,0.0,-0.05521068067536755,0.0,0.0,-0.05521068067536755,0.0,0.0,20.855815751897875,-0.012458758332970315,3.5557239714659232,0.0016350972903421046,0.013236662739788727,0.005445729120409785,1.0,35.01686978282205,-1.266305003242795,21.332051564457426,93.94478605517747,-0.3243909562470774,3.773768069351769,21.167232899706946,94.15590772521858,5408.03448579888,1.1337337587800282
0.48,43.498439188065745,0.0,22.148964198121924,94.99435522781525,0.0,3.418298546939086,95.05583774868515,17.904815784947104,0.0,6.278083820440451,0.0,0.0,0.854267880573573,0.0,4.217228623740834,0.0,5522.554217316848,0.27940426910557836,95.05583774868514,2.151307306155195,1.2223973406572686,101059.20398658398,288.0060317327122,0.0,0.0,0.0,404.1094736842105,0.2168826221756668,0.86,nominal,4735.01328480569,nan,pitch_program,11.794285714285714,0.0,0.0,-3.252903710499031,-0.0,0.0,-3.21707782099664,0.0,0.0,0.86,0.0,0.0,0.0,0.0,0.0,0.0,-0.056148600269276136,0.0,0.0,-0.056148600269276136,0.0,0.0,20.793674819322014,0.09655088740866077,3.6882950049617245,0.0015122417566516674,0.015225164560998957,0.0018155659153368054,1.0,35.01686978282205,-1.266305003242795,21.332051564457426,93.94478605517747,-0.3243909562470774,3.773768069351769,23.101969028181525,94.57032143762062,5545.876521565369,-0.9360214423231078
0.51,46.366497735290366,0.0,22.24800377117702,95.60195157415411,0.0,3.3013191018365586,95.6589350379726,17.898309306281835,0.0,6.248674339089093,0.0,0.0,0.9803160665688635,0.0,4.2709268440006625,0.0,5592.800817280855,0.28117730937654184,95.65893503797257,2.1504659709033036,1.222385712237419,101058.01674317899,288.00538797548734,0.0,0.0,0.0,404.0755263157895,0.21686440286936848,0.86,nominal,4793.494312482144,nan,pitch_program,11.781428571428572,0.0,0.0,-3.297004717274018,-0.0,0.0,-3.265033958763067,0.0,0.0,0.86,0.0,0.0,0.0,0.0,0.0,0.0,-0.05698559276984028,0.0,0.0,-0.05698559276984028,0.0,0.0,20.731862206828126,0.011311172025383398,3.7993550571769044,0.0006754766099980939,0.015322665504552862,-0.0003839143398617853,1.0,35.01686978282205,-1.266305003242795,21.332051564457426,93.94478605517747,-0.3243909562470774,3.773768069351769,23.101969028181525,95.38611613877077,5692.896044995516,-0.9360214423231078
0.54,49.25275445470047,0.0,22.343608727456033,96.2085573136702,0.0,3.186831875967055,96.26132347824563,17.891803374195753,0.0,6.216427503726777,0.0,0.0,1.0748945404507133,0.0,4.319244085067853,0.0,5663.409149457287,0.2829482590703627,96.26132347824563,2.1496566587580506,1.2223744871625672,101056.87068318207,288.0047665432715,0.0,0.0,0.0,404.0415789473684,0.2168461835630701,0.86,nominal,4852.237149418828,nan,pitch_program,11.768571428571429,0.0,0.0,-3.3348388481897246,-0.0,0.0,-3.3069168924190615,0.0,0.0,0.86,0.0,0.0,0.0,0.0,0.0,0.0,-0.05771658786253173,0.0,0.0,-0.05771658786253173,0.0,0.0,20.71211315389814,-0.027458270573710936,3.8017270476365757,0.00393094204361173,0.014794157088004925,-0.00029524504872654127,1.0,35.01686978282205,-1.266305003242795,21.332051564457426,93.94478605517747,-0.3243909562470774,3.773768069351769,21.803170990592452,96.19299043327672,5662.887843485,-1.2885637769773606
0.57,52.157180617745155,0.0,22.435850349724895,96.81420543482287,0.0,3.0747207422953733,96.86301813189174,17.885297988688862,0.0,6.181909728330145,0.0,0.0,1.150592548021214,0.0,4.362865436778202,0.0,5734.379452097012,0.28471716247742623,96.86301813189174,2.148874068937662,1.2223636570549172,101055.76495097157,288.00416697272675,0.0,0.0,0.0,404.0076315789474,0.21682796425677175,0.86,nominal,4911.2426726417225,nan,pitch_program,11.755714285714285,0.0,0.0,-3.3692375854321215,-0.0,0.0,-3.3443093082268978,0.0,0.0,0.86,0.0,0.0,0.0,0.0,0.0,0.0,-0.05836920863365325,0.0,0.0,-0.05836920863365325,0.0,0.0,20.7865552033467,0.034030603800769214,3.9876185467108187,-0.002262628445509831,0.01883429589471362,0.0010606990675177458,1.0,35.01686978282205,-1.266305003242795,21.332051564457426,93.94478605517747,-0.3243909562470774,3.773768069351769,21.803170990592452,97.01997622759374,5736.149919469464,-1.2885637769773606
0.6,55.07974834596267,0.0,22.524796883336975,97.41892427391717,0.0,2.9648844537360795,97.46403103971852,17.878793149761158,0.0,6.145500090574409,0.0,0.0,1.2136546326992927,0.0,4.402276715460044,0.0,5805.711650024091,0.2864840550030697,97.46403103971852,2.1481127934636244,1.2223532138938196,101054.69872740586,288.0035888202583,0.0,0.0,0.0,403.9736842105263,0.21680974495047337,0.86,nominal,4970.5114726115835,nan,pitch_program,11.742857142857144,0.0,0.0,-3.401550916466128,-0.0,0.0,-3.378654273170436,0.0,0.0,0.86,0.0,0.0,0.0,0.0,0.0,0.0,-0.05896864135340002,0.0,0.0,-0.05896864135340002,0.0,0.0,20.613296299308157,0.03293162099586162,4.038550406844296,-0.0013563986814435615,0.02007383318736925,0.0053743220808201595,1.0,35.01686978282205,-1.266305003242795,21.332051564457426,93.94478605517747,-0.3243909562470774,3.773768069351769,22.57081886296581,98.44187498704198,5806.912528504903,-0.7202502274641386
0.63,58.02043052388469,0.0,22.610513779405345,98.02273926406743,0.0,2.857229868945658,98.0643726098084,17.872288857412645,0.0,6.107571797282019,0.0,0.0,1.2642764892477356,0.0,4.437950307533001,0.0,5877.405509858645,0.2882489672503741,98.0643726098084,2.1473704021330264,1.2223431499871826,101053.67122690393,288.00303166043386,0.0,0.0,0.0,403.9397368421053,0.21679152564417503,0.86,nominal,5030.0439826324755,nan,pitch_program,11.73,0.0,0.0,-3.4316196804368486,-0.0,0.0,-3.4104335175302833,0.0,0.0,0.86,0.0,0.0,0.0,0.0,0.0,0.0,-0.0595232938012752,0.0,0.0,-0.0595232938012752,0.0,0.0,20.655722439483196,-0.0194766681470115,4.112480035571733,0.00027243414667101046,0.026133486273557733,0.0013543441549672315,1.0,54.18638890613277,-1.4027394120559824,23.34598815462553,98.1371080389599,0.25608222538913405,3.0656904079135825,22.57081886296581,97.32744663832625,5847.53052046241,-0.7202502274641386
0.6599999999999999,60.97920069620199,0.0,22.69306405890296,98.62567241057677,0.0,2.75167598325379,98.66405109843818,17.86578511164332,0.0,6.06851238511964,0.0,0.0,1.3019804558357189,0.0,4.470363270441495,0.0,5949.460571203083,0.29001192349524735,98.66405109843816,2.1466466208931583,1.2223334579287009,101052.6816930773,288.00249508361713,0.0,0.0,0.0,403.9057894736842,0.21677330633787664,0.86,nominal,5089.84042623085,nan,pitch_program,11.717142857142859,0.0,0.0,-3.4591081201142777,-0.0,0.0,-3.4396382790806803,0.0,0.0,0.86,0.0,0.0,0.0,0.0,0.0,0.0,-0.06003301304758946,0.0,0.0,-0.06003301304758946,0.0,0.0,20.687714350553726,0.00026455899341258356,4.231515677244569,-0.0011964725875130916,0.024737454146364458,-0.0006564053285177824,1.0,54.18638890613277,-1.4027394120559824,23.34598815462553,98.1371080389599,0.25608222538913405,3.0656904079135825,23.135683812797968,99.04987107396114,6057.134782501486,-0.5725423344887232
0.69,63.956032949465566,0.0,22.77250876710542,99.22774177545257,0.0,2.6481569400821243,99.26307205116714,17.859281912453184,0.0,6.0286633339377955,0.0,0.0,1.328301759604939,0.0,4.49993551094149,0.0,6021.876070672749,0.2917729400447658,99.26307205116714,2.145941268622046,1.22232413054447,101051.72939327898,288.00197869301377,0.0,0.0,0.0,403.8718421052631,0.21675508703157828,0.86,nominal,5149.900759618535,nan,pitch_program,11.704285714285714,0.0,0.0,-3.484209287366438,-0.0,0.0,-3.4663808840521346,0.0,0.0,0.86,0.0,0.0,0.0,0.0,0.0,0.0,-0.06049975955490155,0.0,0.0,-0.06049975955490155,0.0,0.0,20.594741556164237,-0.04777508865833993,4.248800499169389,0.0006294828520748582,0.023165433782789326,-0.004276383895413285,1.0,54.18638890613277,-1.4027394120559824,23.34598815462553,98.1371080389599,0.25608222538913405,3.0656904079135825,23.135683812797968,99.52357744147439,5958.968928336023,-0.5725423344887232
0.72,66.95090180726157,0.0,22.848907364830154,99.8289619265337,0.0,2.5466199241577767,99.86143856548148,17.852779259842237,0.0,5.988289945394682,0.0,0.0,1.3457796737887358,0.0,4.5270012300898905,0.0,6094.6509638032085,0.2935320260102314,99.86143856548148,2.145253504429839,1.222315160847037,101050.8136139111,288.0014821021286,0.0,0.0,0.0,403.8378947368421,0.21673686772527995,0.86,nominal,5210.224693593027,nan,pitch_program,11.691428571428572,0.0,0.0,-3.507409746136764,-0.0,0.0,-3.490998201302912,0.0,0.0,0.86,0.0,0.0,0.0,0.0,0.0,0.0,-0.060929412793935614,0.0,0.0,-0.060929412793935614,0.0,0.0,20.62098228905941,0.0184027045599661,4.379058205849707,-0.00022809051842206916,0.024930134470191004,0.0034209931113473708,1.0,54.18638890613277,-1.4027394120559824,23.34598815462553,98.1371080389599,0.25608222538913405,3.0656904079135825,23.812745188119973,99.81795058429498,6102.996283925448,0.3595644295784214
0.75,69.96378215123417,0.0,22.922318001651178,100.42934479908648,0.0,2.447021227367488,100.45915194575846,17.84627715381048,0.0,5.947600683696849,0.0,0.0,1.3563087802633076,0.0,4.551830818652723,0.0,6167.783996367701,0.29528918523307607,100.45915194575846,2.1445823775620823,1.2223065420032881,101049.93365714606,288.00100493298925,0.0,0.0,0.0,403.80394736842106,0.21671864841898159,0.86,nominal,5270.811754661385,nan,pitch_program,11.678571428571429,0.0,0.0,-3.52906659142384,-0.0,0.0,-3.513839235375469,0.0,0.0,0.86,0.0,0.0,0.0,0.0,0.0,0.0,-0.06132806404306194,0.0,0.0,-0.06132806404306194,0.0,0.0,20.597771581757787,0.01799430661643311,4.437518972042286,-0.0015881406576979695,0.02475649666336118,-0.001193794579857806,1.0,54.18638890613277,-1.4027394120559824,23.34598815462553,98.1371080389599,0.25608222538913405,3.0656904079135825,23.812745188119973,100.3146948155899,6134.9697167938475,0.3595644295784214
0.78,72.99464915930514,0.0,22.992797720362315,101.02890026903259,0.0,2.3493239570379445,101.05621214267457,17.83977559435791,0.0,5.9067754066406355,0.0,0.0,1.3608426261162483,0.0,4.574660613017801,0.0,6241.2737519928605,0.29704441757697475,101.05621214267457,2.143927397853479,1.2222982673104392,101049.0888384743,288.0005468148176,0.0,0.0,0.0,403.77,0.21670042911268322,0.86,nominal,5331.661326077014,nan,pitch_program,11.665714285714285,0.0,0.0,-3.549317571222712,-0.0,0.0,-3.5351262368838143,0.0,0.0,0.86,0.0,0.0,0.0,0.0,0.0,0.0,-0.06169959230725957,0.0,0.0,-0.06169959230725957,0.0,0.0,20.555046512148223,0.06341541074927895,4.504231448310326,0.00043992166622639276,0.023568382157836097,-0.0011131633412628113,1.0,54.18638890613277,-1.4027394120559824,23.34598815462553,98.1371080389599,0.25608222538913405,3.0656904079135825,23.98187428746603,100.95033261375491,6374.317240789067,-0.581020224777842
0.8099999999999999,76.04347825009143,0.0,23.060402646082434,101.62763635954296,0.0,2.2534975240039645,101.65261788620198,17.83327458148453,0.0,5.865974794850537,0.0,0.0,1.3600204504747209,0.0,4.595702785087837,0.0,6315.118663645088,0.2987977193192747,101.65261788620197,2.143288492856632,1.2222903301738066,101048.27848443443,288.0001073828004,0.0,0.0,0.0,403.73605263157896,0.21668220980638486,0.86,nominal,5392.7726591682995,nan,pitch_program,11.652857142857142,0.0,0.0,-3.5682324993495276,-0.0,0.0,-3.5549899943632424,0.0,0.0,0.86,0.0,0.0,0.0,0.0,0.0,0.0,-0.06204628027709323,0.0,0.0,-0.06204628027709323,0.0,0.0,20.508577514170945,5.758046559290369e-05,4.659585246890381,-0.0003510551127169748,0.023086458495527547,0.0012090523247497555,1.0,54.18638890613277,-1.4027394120559824,23.34598815462553,98.1371080389599,0.25608222538913405,3.0656904079135825,23.98187428746603,101.2043067071974,6367.101910318641,-0.581020224777842
0.84,79.11024503114217,0.0,23.125188167095747,102.22555936835825,0.0,2.159517367110438,102.24836675190753,17.82677411519034,0.0,5.825336681203699,0.0,0.0,1.3546038450154623,0.0,4.615141981312548,0.0,6389.317017375273,0.300549083346372,102.24836675190753,2.14266567780174,1.2222827240855612,101047.50193044345,287.99968627691385,0.0,0.0,0.0,403.7021052631579,0.2166639905000865,0.86,nominal,5454.144878255144,nan,pitch_program,11.64,0.0,0.0,-3.585924489789179,-0.0,0.0,-3.5735506916188045,0.0,0.0,0.86,0.0,0.0,0.0,0.0,0.0,0.0,-0.062370225555668665,0.0,0.0,-0.062370225555668665,0.0,0.0,20.43202603521786,0.00971989456398706,4.683846069079428,0.0035995817432740713,0.023787556064373088,0.0037892704497510168,1.0,80.34897867610474,-1.4314217142118406,24.870520401821114,102.48550400863962,-0.03819985940987618,2.134117081357865,23.425636430732133,102.67746126835546,6358.196788775791,1.0682838812359439
0.87,82.19492525372354,0.0,23.187209090985355,102.82267408604557,0.0,2.067364129653599,102.84345531267279,17.82027419547534,0.0,5.78497438486874,0.0,0.0,1.3454099334710983,0.0,4.6331342607035095,0.0,6463.866967112668,0.30229849960011473,102.84345531267279,2.1420588998751495,1.2222754426063822,101046.75851892328,287.9992831409086,0.0,0.0,0.0,403.66815789473685,0.21664577119378817,0.86,nominal,5515.776994356974,nan,pitch_program,11.627142857142857,0.0,0.0,-3.6025341992212714,-0.0,0.0,-3.590940796180284,0.0,0.0,0.86,0.0,0.0,0.0,0.0,0.0,0.0,-0.06267374013753257,0.0,0.0,-0.06267374013753257,0.0,0.0,20.441857512659606,-0.0037659741424757314,4.7943372320442075,0.000655601890552994,0.02043673940344788,0.0015588339788827955,1.0,80.34897867610474,-1.4314217142118406,24.870520401821114,102.48550400863962,-0.03819985940987618,2.134117081357865,23.425636430732133,102.80091807512855,6492.510687921559,1.0682838812359439
0.8999999999999999,85.29749477535407,0.0,23.246519769722404,103.41898405435103,0.0,1.9770226245682743,103.4378793348557,17.813774822339525,0.0,5.744981093431687,0.0,0.0,1.333109768695294,0.0,4.649812176170539,0.0,6538.766555765136,0.3040459556547545,103.4378793348557,2.1414681035205647,1.2222684793507592,101046.04759779954,287.9988976214968,0.0,0.0,0.0,403.6342105263158,0.2166275518874898,0.86,nominal,5577.667923745832,nan,pitch_program,11.614285714285714,0.0,0.0,-3.618176984382616,-0.0,0.0,-3.607282509101683,0.0,0.0,0.86,0.0,0.0,0.0,0.0,0.0,0.0,-0.06295895683342669,0.0,0.0,-0.06295895683342669,0.0,0.0,20.505109273794012,0.0153134361164435,4.817827908293938,0.0013561712547920126,0.022330187360060507,-0.003211893560546307,1.0,80.34897867610474,-1.4314217142118406,24.870520401821114,102.48550400863962,-0.03819985940987618,2.134117081357865,23.638597629727624,103.64818465319853,6441.573717686112,0.30053722470699523
0.9299999999999999,88.41792952847267,0.0,23.30317420181134,104.01449177062027,0.0,1.88848106963119,104.0316339343509,17.8072759957829,0.0,5.705435291971775,0.0,0.0,1.3181934343273782,0.0,4.665290728284536,0.0,6614.013732095226,0.3057914371759621,104.0316339343509,2.14089331083859,1.2222618279749806,101045.36851927494,287.9985293676882,0.0,0.0,0.0,403.6002631578947,0.21660933258119142,0.86,nominal,5639.816502811587,nan,pitch_program,11.601428571428572,0.0,0.0,-3.6329311460248577,-0.0,0.0,-3.6226716912555883,0.0,0.0,0.86,0.0,0.0,0.0,0.0,0.0,0.0,-0.06322754873120148,0.0,0.0,-0.06322754873120148,0.0,0.0,20.42658644363119,-0.00792524228171694,4.853813108430837,-0.0019423194439798605,0.020694244275348078,-0.0008350813126064751,1.0,80.34897867610474,-1.4314217142118406,24.870520401821114,102.48550400863962,-0.03819985940987618,2.134117081357865,23.638597629727624,104.6506215430734,6678.431840453804,0.30053722470699523
0.96,91.55620549327126,0.0,23.357226120481357,104.60919882662003,0.0,1.80173062233386,104.62471367885685,17.800777715805463,0.0,5.666403492581637,0.0,0.0,1.3010600299874635,0.0,4.679670435873835,0.0,6689.606361410164,0.30753492822168965,104.62471367885685,2.140334606699228,1.2222554821667695,101044.72063877065,287.9981780302168,0.0,0.0,0.0,403.56631578947366,0.21659111327489305,0.86,nominal,5702.221497725806,nan,pitch_program,11.588571428571429,0.0,0.0,-3.646858903863693,-0.0,0.0,-3.6371840188204514,0.0,0.0,0.86,0.0,0.0,0.0,0.0,0.0,0.0,-0.06348083662933628,0.0,0.0,-0.06348083662933628,0.0,0.0,20.412529982666353,0.0268647186421784,4.986107096870775,0.003562558390458581,0.019262257873587516,-0.0017402553561391698,1.0,80.34897867610474,-1.4314217142118406,24.870520401821114,102.48550400863962,-0.03819985940987618,2.134117081357865,22.588974720544122,104.60679658780028,6662.277474113361,0.24570937867123185
0.99,94.71229867395772,0.0,23.408729070337444,105.20310602288184,0.0,1.7167649952028983,105.21711267142085,17.794279982407215,0.0,5.62794111058471,0.0,0.0,1.282079448043712,0.0,4.693038496999149,0.0,6765.54223430013,0.30927641148797314,105.21711267142086,2.139792082563587,1.2222494356362763,101044.1033140062,287.99784326104276,0.0,0.0,0.0,403.53236842105264,0.21657289396859472,0.86,nominal,5764.88161239286,nan,pitch_program,11.575714285714287,0.0,0.0,-3.6600213567434237,-0.0,0.0,-3.650886421574235,0.0,0.0,0.86,0.0,0.0,0.0,0.0,0.0,0.0,-0.06371998867282413,0.0,0.0,-0.06371998867282413,0.0,0.0,20.383710400847995,0.03797359632484058,5.008578403823401,0.0008505721270980389,0.022655598276625617,-0.003390685689237821,1.0,80.34897867610474,-1.4314217142118406,24.870520401821114,102.48550400863962,-0.03819985940987618,2.134117081357865,22.588974720544122,105.23330513571533,6792.818126457814,0.24570937867123185
1.02,97.8861850784324,0.0,23.4577364716211,105.79621348248968,0.0,1.6335800427885379,105.80882463664705,17.787782795588157,0.0,5.5900935309225925,0.0,0.0,1.261586034611192,0.0,4.70547014523752,0.0,6841.819076095117,0.31101586856252855,105.80882463664705,2.139265812654104,1.2222436821085108,101043.51590422672,287.9975247129344,0.0,0.0,0.0,403.49842105263156,0.21655467466229633,0.86,nominal,5827.795496863787,nan,pitch_program,11.562857142857142,0.0,0.0,-3.6724763067313666,-0.0,0.0,-3.6638403526685135,0.0,0.0,0.86,0.0,0.0,0.0,0.0,0.0,0.0,-0.06394607742149577,0.0,0.0,-0.06394607742149577,0.0,0.0,20.330644598786954,0.06344058257907315,5.138477403115303,-0.004734375364891658,0.021077373378701282,-0.0006401560940663499,1.0,80.34897867610474,-1.4314217142118406,24.870520401821114,102.48550400863962,-0.03819985940987618,2.134117081357865,23.369387120703905,105.70067115945402,6841.214330036567,-1.1541441503801662
1.05,101.07784070115274,0.0,23.50430167268746,106.38852075734448,0.0,1.5521733688787602,106.39984300318761,17.781286155348287,0.0,5.5528977697399275,0.0,0.0,1.2398587496332398,0.0,4.71703057997027,0.0,6918.434556223261,0.31275328016739107,106.39984300318761,2.1387558636306028,1.2222382153171818,101042.9577695732,287.9972220391275,0.0,0.0,0.0,403.46447368421053,0.216536455355998,0.86,nominal,5890.961755549946,nan,pitch_program,11.55,0.0,0.0,-3.684272373669801,-0.0,0.0,-3.6760995652692863,0.0,0.0,0.86,0.0,0.0,0.0,0.0,0.0,0.0,-0.06416004104508123,0.0,0.0,-0.06416004104508123,0.0,0.0,20.359008259739433,0.059211008585928315,5.2440519303838125,0.004053366781907528,0.02273328153333307,-0.0011659615676391333,1.0,101.44914925010703,-2.379007345780121,23.07479200678698,106.53218200644379,0.03018616179329834,1.4632411578775895,23.369387120703905,105.87526892289324,6916.733303173145,-1.1541441503801662
1.08,104.28724150863766,0.0,23.54847799301727,106.98002691616433,0.0,1.4725440109935721,106.99016097215463,17.774790061687607,0.0,5.51638400354762,0.0,0.0,1.2171255809364703,0.0,4.727776713330316,0.0,6995.386296094161,0.3144886263601419,106.99016097215461,2.138262302470008,1.2222330289996257,101042.42827056478,287.99693489304536,0.0,0.0,0.0,403.43052631578945,0.21651823604969964,0.86,nominal,5954.378954134002,nan,pitch_program,11.537142857142857,0.0,0.0,-3.695449246463219,-0.0,0.0,-3.687709373985646,0.0,0.0,0.86,0.0,0.0,0.0,0.0,0.0,0.0,-0.06436267043270845,0.0,0.0,-0.06436267043270845,0.0,0.0,20.31422748197136,0.027796398448423642,5.293284968294228,-0.00023198706297344077,0.02386293856833143,-0.0012146511413577423,1.0,101.44914925010703,-2.379007345780121,23.07479200678698,106.53218200644379,0.03018616179329834,1.4632411578775895,23.312796082960165,107.25703050445227,7194.239848883645,-1.8088252817689265
1.1099999999999999,107.51436342711314,0.0,23.59031875876989,107.57073061584939,0.0,1.3946921917540072,107.57977157224947,17.768294514606115,0.0,5.480576582060371,0.0,0.0,1.1935807550898767,0.0,4.737758357521232,0.0,7072.671875539017,0.31622188669607243,107.57977157224948,2.1377851894539512,1.2222281168926297,101041.92676767166,287.99666292806796,0.0,0.0,0.0,403.3965789473684,0.21650001674340127,0.86,nominal,6018.045625224378,nan,pitch_program,11.524285714285714,0.0,0.0,-3.706041422100011,-0.0,0.0,-3.698708602854265,0.0,0.0,0.86,0.0,0.0,0.0,0.0,0.0,0.0,-0.06455464319164626,0.0,0.0,-0.06455464319164626,0.0,0.0,20.21809098265427,0.048416571222195455,5.320628080967366,0.003393730486188572,0.02335707061564359,-0.0021462032821860672,1.0,101.44914925010703,-2.379007345780121,23.07479200678698,106.53218200644379,0.03018616179329834,1.4632411578775895,23.312796082960165,107.73261031696144,6947.3660511426815,-1.8088252817689265
1.14,110.75918233201547,0.0,23.629877331808032,108.16063016341083,0.0,1.3186191012714295,108.16866770779963,17.761799514103814,0.0,5.445494757549178,0.0,0.0,1.169394186907245,0.0,4.7470191061288505,0.0,7150.288838557405,0.31795304036948024,108.16866770779963,2.1373245684611653,1.2222234727290076,101041.45262096538,287.99640579734324,0.0,0.0,0.0,403.3626315789474,0.21648179743710294,0.86,nominal,6081.960273376162,nan,pitch_program,11.51142857142857,0.0,0.0,-3.716080162647442,-0.0,0.0,-3.7091315387301718,0.0,0.0,0.86,0.0,0.0,0.0,0.0,0.0,0.0,-0.06473655774040507,0.0,0.0,-0.06473655774040507,0.0,0.0,20.252673488681815,0.0008950594244146106,5.471146902546608,0.001462607289684708,0.020286681366966434,0.0019362838996578597,1.0,101.44914925010703,-2.379007345780121,23.07479200678698,106.53218200644379,0.03018616179329834,1.4632411578775895,23.970320069646913,108.17140632605346,7159.390900754998,-0.7152330197948935
1.17,114.02167403916383,0.0,23.667207132751066,108.74972357161165,0.0,1.244326698101098,108.75684220238078,17.7553050601807,0.0,5.41115339782395,0.0,0.0,1.1447120251101632,0.0,4.755597184036778,0.0,7228.234698690186,0.3196820663419722,108.75684220238078,2.136880464380097,1.2222190902348862,101041.00518984125,287.9961631536371,0.0,0.0,0.0,403.3286842105263,0.21646357813080455,0.86,nominal,6146.121379745171,nan,pitch_program,11.498571428571429,0.0,0.0,-3.7255932350290535,-0.0,0.0,-3.719008556509501,0.0,0.0,0.86,0.0,0.0,0.0,0.0,0.0,0.0,-0.06490894422093238,0.0,0.0,-0.06490894422093238,0.0,0.0,20.293875172238035,-0.014338737545421157,5.562629396594082,0.0026023131730513903,0.020835278694010747,0.0003601411075385581,1.0,101.44914925010703,-2.379007345780121,23.07479200678698,106.53218200644379,0.03018616179329834,1.4632411578775895,23.970320069646913,109.10246067318971,7305.903689251686,-0.7152330197948935
1.2,117.30181429738884,0.0,23.702361658826078,109.33800860750043,0.0,1.1718175358337026,109.34428783704764,17.748811152836776,0.0,5.377563679765028,0.0,0.0,1.119657300698719,0.0,4.763526259767614,0.0,7306.506943864636,0.3214089434549031,109.34428783704764,2.1364528846090773,1.222214963127597,101040.58383280296,287.9959346492176,0.0,0.0,0.0,403.2947368421053,0.21644535882450622,0.86,nominal,6210.52740625709,nan,pitch_program,11.485714285714286,0.0,0.0,-3.7346046869529994,-0.0,0.0,-3.7283662347756,0.0,0.0,0.86,0.0,0.0,0.0,0.0,0.0,0.0,-0.06507226651701813,0.0,0.0,-0.06507226651701813,0.0,0.0,20.235242927110956,0.0018516484450157098,5.59524792412087,0.0021715912524956807,0.019318428699394423,-0.0011535177192977509,1.0,101.44914925010703,-2.379007345780121,23.07479200678698,106.53218200644379,0.03018616179329834,1.4632411578775895,22.230043478469543,108.97992284586665,7302.948467807684,1.3010839321806325
1.23,120.5995787823938,0.0,23.73539449737286,109.92548283349856,0.0,1.1010946182259935,109.93099738261303,17.74231779207204,0.0,5.344733664919039,0.0,0.0,1.0943338581405848,0.0,4.7708361209752095,0.0,7385.103040608489,0.32313365052430637,109.93099738261306,2.1360418189908112,1.222211085114084,101040.1879072996,287.99571993576706,0.0,0.0,0.0,403.26078947368416,0.2164271395182078,0.86,nominal,6275.176799215698,nan,pitch_program,11.472857142857142,0.0,0.0,-3.74313550924555,-0.0,0.0,-3.73722779945757,0.0,0.0,0.86,0.0,0.0,0.0,0.0,0.0,0.0,-0.06522692999759695,0.0,0.0,-0.06522692999759695,0.0,0.0,20.107237856098166,0.01212089030896153,5.691239040954073,-0.0005616662321371039,0.015473108104887931,-0.0023788195122700167,1.0,101.44914925010703,-2.379007345780121,23.07479200678698,106.53218200644379,0.03018616179329834,1.4632411578775895,22.230043478469543,109.97877354332661,7425.335362412889,1.3010839321806325
1.26,123.91494309166714,0.0,23.766359335665676,110.51214364244449,0.0,1.032161276427249,110.5169636270778,17.735824977886494,0.0,5.312668750797234,0.0,0.0,1.0688304986228712,0.0,4.777553210817929,0.0,7464.02043775089,0.3248561664215586,110.5169636270778,2.135647237963658,1.222207449889735,101039.81676960608,287.9955186643181,0.0,0.0,0.0,403.22684210526313,0.21640892021190947,0.86,nominal,6340.067992453525,nan,pitch_program,11.46,0.0,0.0,-3.751204420535432,-0.0,0.0,-3.7456137721042873,0.0,0.0,0.86,0.0,0.0,0.0,0.0,0.0,0.0,-0.06537329283126435,0.0,0.0,-0.06537329283126435,0.0,0.0,20.09730344922935,-0.02974079635064626,5.7913779211923835,-0.0009517610175167798,0.021009427773839323,0.001978294552321319,1.0,124.08357770147465,1.1566949750188344,23.77803747856703,110.66462301061982,-0.21388751521807736,1.1383521975837814,23.247793422903605,110.95081561211072,7564.296963769496,-0.7028083325729101
1.29,127.24788274030972,0.0,23.795309967521174,111.09798828808614,0.0,0.9650210618499225,111.10217939945885,17.729332710280136,0.0,5.28137205487837,0.0,0.0,1.043223223234109,0.0,4.7837010861298435,0.0,7543.256569754868,0.3265764701434472,111.10217939945885,2.1352690914245858,1.222204051137604,101039.46977474335,287.99533048521107,0.0,0.0,0.0,403.1928947368421,0.21639070090561113,0.86,nominal,6405.19941014776,nan,pitch_program,11.447142857142858,0.0,0.0,-3.758828214373172,-0.0,0.0,-3.7535424374656183,0.0,0.0,0.86,0.0,0.0,0.0,0.0,0.0,0.0,-0.0655116741471084,0.0,0.0,-0.0655116741471084,0.0,0.0,20.102435553971414,-0.026712535747061412,5.831237378609878,-0.0009216608130440438,0.014608574938621175,-0.0008137255452803577,1.0,124.08357770147465,1.1566949750188344,23.77803747856703,110.66462301061982,-0.21388751521807736,1.1383521975837814,23.247793422903605,110.57211159871102,7559.761950519403,-0.7028083325729101
1.3199999999999998,130.59837315765833,0.0,23.822300297108868,111.6830139116202,0.0,0.8996776529230777,111.68663759045806,17.72284098925297,0.0,5.25084476018657,0.0,0.0,1.0175765137989496,0.0,4.789300827593523,0.0,7622.808859722805,0.3282945408729402,111.68663759045806,2.1349073089114623,1.2222008825279485,101039.14627643104,287.9951550480688,0.0,0.0,0.0,403.158947368421,0.21637248159931274,0.86,nominal,6470.569469339802,nan,pitch_program,11.434285714285714,0.0,0.0,-3.7660218870810707,-0.0,0.0,-3.7610301072348897,0.0,0.0,0.86,0.0,0.0,0.0,0.0,0.0,0.0,-0.06564235863788423,0.0,0.0,-0.06564235863788423,0.0,0.0,20.105753987642384,0.030882672025244754,5.912009238543818,0.0031183053994189936,0.018222323310071318,0.001389095059138676,1.0,124.08357770147465,1.1566949750188344,23.77803747856703,110.66462301061982,-0.21388751521807736,1.1383521975837814,24.036963208699014,110.90270336106845,7577.386165549824,-1.8969124801825508
1.3499999999999999,133.96638968459374,0.0,23.847384340373278,112.2672175645137,0.0,0.8361347754802999,112.27033117008527,17.71634981480499,0.0,5.221086414919422,0.0,0.0,0.9919448645369411,0.0,4.794371394889164,0.0,7702.674722074299,0.3300103580309959,112.27033117008527,2.134561800003074,1.2221979377180532,101038.84562706901,287.9949920017875,0.0,0.0,0.0,403.125,0.2163542622930144,0.86,nominal,6536.176582161832,nan,pitch_program,11.42142857142857,0.0,0.0,-3.7727988538523753,-0.0,0.0,-3.7680913552053807,0.0,0.0,0.86,0.0,0.0,0.0,0.0,0.0,0.0,-0.06576560066426906,0.0,0.0,-0.06576560066426906,0.0,0.0,20.041945253345723,-0.006974978118734232,5.920053390395217,-0.0031038341397664083,0.017953178705350348,0.0010785767522512402,1.0,124.08357770147465,1.1566949750188344,23.77803747856703,110.66462301061982,-0.21388751521807736,1.1383521975837814,24.036963208699014,111.89382568552064,7660.464534912406,-1.8969124801825508
1.38,137.3519075714356,0.0,23.870616224427085,112.85059622806202,0.0,0.7743961351268555,112.85325320256915,17.7098591869362,0.0,5.192095181836735,0.0,0.0,0.9663744567078348,0.0,4.7989299237210705,0.0,7782.851564926664,0.3317239013203913,112.85325320256915,2.134232454369061,1.222195210352299,101038.56717774426,287.9948409945412,0.0,0.0,0.0,403.0910526315789,0.21633604298671602,0.86,nominal,6602.01915779887,nan,pitch_program,11.40857142857143,0.0,0.0,-3.779171228589612,-0.0,0.0,-3.7747392792359196,0.0,0.0,0.86,0.0,0.0,0.0,0.0,0.0,0.0,-0.06588162882702442,0.0,0.0,-0.06588162882702442,0.0,0.0,20.055931435544352,-0.017048039656463385,5.992932785483499,-0.00045584235968212775,0.013817403432133052,0.003253565878270021,1.0,124.08357770147465,1.1566949750188344,23.77803747856703,110.66462301061982,-0.21388751521807736,1.1383521975837814,23.781769643324175,112.98145983261143,7669.842834909343,-1.7118310209512133
1.41,140.75490197634312,0.0,23.892050185205918,113.43314683025078,0.0,0.7144653592943927,113.4353968590178,17.703369105646598,0.0,5.163868048445077,0.0,0.0,0.9409044654192338,0.0,4.802991977216485,0.0,7863.336792228008,0.33343515076293084,113.43539685901779,2.133919141827353,1.2221926940624221,101038.31027825695,287.99470167379616,0.0,0.0,0.0,403.0571052631579,0.2163178236804177,0.86,nominal,6668.095604230182,nan,pitch_program,11.395714285714286,0.0,0.0,-3.785150033606152,-0.0,0.0,-3.780985731858059,0.0,0.0,0.86,0.0,0.0,0.0,0.0,0.0,0.0,-0.06599064999185059,0.0,0.0,-0.06599064999185059,0.0,0.0,20.037010178806142,0.035055844267383014,6.0191385523421035,0.0015686047331624606,0.016793763853831297,0.00012717063319742404,1.0,124.08357770147465,1.1566949750188344,23.77803747856703,110.66462301061982,-0.21388751521807736,1.1383521975837814,23.781769643324175,112.93301997350211,7789.2254238136375,-1.7118310209512133
1.44,144.17534796415316,0.0,23.911740563630527,114.01486626033456,0.0,0.6563459474870096,114.01675542815958,17.696879570936186,0.0,5.136401009064138,0.0,0.0,0.9155679968988941,0.0,4.806571763779414,0.0,7944.127805677523,0.3351440867310038,114.0167554281596,2.1336217126968906,1.2221903824679587,101038.07427716568,287.99457368633637,0.0,0.0,0.0,403.02315789473687,0.21629960437411935,0.86,nominal,6734.404329780707,nan,pitch_program,11.382857142857143,0.0,0.0,-3.790745332583617,-0.0,0.0,-3.7868414922933935,0.0,0.0,0.86,0.0,0.0,0.0,0.0,0.0,0.0,-0.0660928522916552,0.0,0.0,-0.0660928522916552,0.0,0.0,20.009777453099307,-0.027388009475164066,6.188798540908523,-0.001282739156412908,0.014024183571164223,-0.0003787894096931749,1.0,124.08357770147465,1.1566949750188344,23.77803747856703,110.66462301061982,-0.21388751521807736,1.1383521975837814,23.71509415602531,113.78837349159498,7921.504278182541,-0.4723865971527451
1.47,147.61322050559508,0.0,23.929741800497258,114.5957513813976,0.0,0.6000412288910132,114.59732232536439,17.690390582804962,0.0,5.1096892220194325,0.0,0.0,0.8903929176174713,0.0,4.809682325262817,0.0,8025.222006451025,0.336850689974083,114.5973223253644,2.1333399982949306,1.2221882691768406,101037.85852184797,287.99445667829673,0.0,0.0,0.0,402.9892105263158,0.21628138506782096,0.86,nominal,6800.9437444995765,nan,pitch_program,11.37,0.0,0.0,-3.7959663503268133,-0.0,0.0,-3.792316407113445,0.0,0.0,0.86,0.0,0.0,0.0,0.0,0.0,0.0,-0.06618840758153133,0.0,0.0,-0.06618840758153133,0.0,0.0,20.035661691592523,-0.03041516577120863,6.19898121176771,0.0010922776546069724,0.011729806144304241,-0.0032185672486644483,1.0,150.5458644764741,-1.8932853789479465,24.885408100437832,114.55979249112046,0.025645176260573044,0.6711192193005516,23.71509415602531,114.41387026103168,8090.61644375645,-0.4723865971527451
1.5,151.0684944768295,0.0,23.946108430291872,115.17579904114716,0.0,0.5455543264871874,115.17709110013963,17.68390214125293,0.0,5.083727143093861,0.0,0.0,0.8654026456594698,0.0,4.812335697200212,0.0,8106.616796750261,0.33855494164073463,115.17709110013963,2.1330738113993686,1.2221863477861084,101037.6623585728,287.9943502952031,0.0,0.0,0.0,402.9552631578947,0.2162631657615226,0.86,nominal,6867.712261382854,nan,pitch_program,11.357142857142858,0.0,0.0,-3.800821596294085,-0.0,0.0,-3.797419520621829,0.0,0.0,0.86,0.0,0.0,0.0,0.0,0.0,0.0,-0.06627747371435562,0.0,0.0,-0.06627747371435562,0.0,0.0,19.991845415935256,0.09622433648863751,6.259803355062248,-0.00012799984121926293,0.014618100786108413,0.0022440360676911253,1.0,150.5458644764741,-1.8932853789479465,24.885408100437832,114.55979249112046,0.025645176260573044,0.6711192193005516,24.077669505736974,115.27311007907672,8401.914913851737,1.8417452587240697
1.53,154.54114465926546,0.0,23.960895074092644,115.75500608119901,0.0,0.49288812669236537,115.75605544231307,17.677414246280083,0.0,5.058508638740974,0.0,0.0,0.8406168253338944,0.0,4.814543045237232,0.0,8188.3095811981575,0.3402568232967637,115.75605544231306,2.1328229467023814,1.2221846118827357,101037.48513258458,287.9942541820184,0.0,0.0,0.0,402.9213157894737,0.21624494645522424,0.86,nominal,6934.708297460278,nan,pitch_program,11.344285714285714,0.0,0.0,-3.8053189702048704,-0.0,0.0,-3.8021591903716536,0.0,0.0,0.86,0.0,0.0,0.0,0.0,0.0,0.0,-0.06636019655694723,0.0,0.0,-0.06636019655694723,0.0,0.0,19.938840834803376,-0.05160534847201721,6.408853245300051,-0.0012415731344817544,0.01377522593044257,0.002746336965336932,1.0,150.5458644764741,-1.8932853789479465,24.885408100437832,114.55979249112046,0.025645176260573044,0.6711192193005516,24.077669505736974,116.16401776041761,8043.6810001486165,1.8417452587240697
1.56,158.03114573961776,0.0,23.974156431704383,116.33336934507626,0.0,0.4420452537246251,116.33420918708423,17.670926897886428,0.0,5.034027083071995,0.0,0.0,0.8160518680482729,0.0,4.81631478230337,0.0,8270.297768099186,0.3419563169400292,116.33420918708424,2.132587181324633,1.2221830550445527,101037.32618819718,287.9941679831939,0.0,0.0,0.0,402.8873684210526,0.21622672714892588,0.86,nominal,7001.930274763109,nan,pitch_program,11.331428571428571,0.0,0.0,-3.809465843239792,-0.0,0.0,-3.806543182092536,0.0,0.0,0.86,0.0,0.0,0.0,0.0,0.0,0.0,-0.06643671164685681,0.0,0.0,-0.06643671164685681,0.0,0.0,19.896983982435398,-0.01013182632282004,6.46296563564028,-0.0006892727386550009,0.01251109060835949,-0.0012633550021053934,1.0,150.5458644764741,-1.8932853789479465,24.885408100437832,114.55979249112046,0.025645176260573044,0.6711192193005516,24.18406646127945,116.13084016139916,8133.800041465434,0.8676912710956485
1.5899999999999999,161.5384723101705,0.0,23.98594727314739,116.9108856850919,0.0,0.3930280481001717,116.91154631908356,17.66444009607196,0.0,5.01027544103521,0.0,0.0,0.7917214125640891,0.0,4.817660669343494,0.0,8352.578770578746,0.3436534050123387,116.91154631908356,2.1323662753715094,1.2221816708412292,101037.18486889405,287.9940913427245,0.0,0.0,0.0,402.8534210526316,0.21620850784262752,0.86,nominal,7069.37662118582,nan,pitch_program,11.31857142857143,0.0,0.0,-3.813269126771228,-0.0,0.0,-3.8105787488997516,0.0,0.0,0.86,0.0,0.0,0.0,0.0,0.0,0.0,-0.06650714557482691,0.0,0.0,-0.06650714557482691,0.0,0.0,19.878155885540895,0.004415476074549591,6.53125064285165,-0.0026173555673786497,0.014625619413025504,0.00496570417316751,1.0,150.5458644764741,-1.8932853789479465,24.885408100437832,114.55979249112046,0.025645176260573044,0.6711192193005516,24.18406646127945,117.33156736671458,8366.548333859217,0.8676912710956485
1.6199999999999999,165.0630988692184,0.0,23.99632242960968,117.48755196826312,0.0,0.34583854874310027,117.48806097556093,17.657953840836683,0.0,4.987246339325046,0.0,0.0,0.7676367340064469,0.0,4.818589901494951,0.0,8435.150007614211,0.34534807040878157,117.48806097556093,2.132159972487854,1.222180452835336,101037.06051743642,287.9940239042075,0.0,0.0,0.0,402.8194736842105,0.21619028853632916,0.86,nominal,7137.045771252893,nan,pitch_program,11.305714285714286,0.0,0.0,-3.816735335108398,-0.0,0.0,-3.8142727006249397,0.0,0.0,0.86,0.0,0.0,0.0,0.0,0.0,0.0,-0.06657161719484117,0.0,0.0,-0.06657161719484117,0.0,0.0,19.836603523271403,0.037506153621895695,6.606540000286725,-0.0030763074660966234,0.01122002352910372,-0.0008874695719797486,1.0,150.5458644764741,-1.8932853789479465,24.885408100437832,114.55979249112046,0.025645176260573044,0.6711192193005516,24.304222966651846,117.6732019599633,8498.145607831686,0.26308420695990453
1.65,168.60499982166021,0.0,24.00533678395604,118.06336508139347,0.0,0.3004784782119293,118.06374744881795,17.651468132180593,0.0,4.9649321267423945,0.0,0.0,0.7438070954899283,0.0,4.819111181754594,0.0,8518.008904969443,0.3470402964848346,118.06374744881795,2.131968000408623,1.2221793945834512,101036.9524759759,287.9939653109043,0.0,0.0,0.0,402.78552631578947,0.21617206923003082,0.86,nominal,7204.936166801516,nan,pitch_program,11.292857142857143,0.0,0.0,-3.819870639768348,-0.0,0.0,-3.8176314641109848,0.0,0.0,0.86,0.0,0.0,0.0,0.0,0.0,0.0,-0.06663023867646842,0.0,0.0,-0.06663023867646842,0.0,0.0,19.83484937454021,-0.0062677889980100624,6.608537122092929,0.0007065514117288302,0.014159268910154649,-0.001441418332133902,1.0,150.5458644764741,-1.8932853789479465,24.885408100437832,114.55979249112046,0.025645176260573044,0.6711192193005516,24.304222966651846,118.46169801641165,8638.43775332986,0.26308420695990453
1.68,172.16414947972345,0.0,24.013045260874442,118.63832193544096,0.0,0.2569492306134186,118.63860018798452,17.64498297010369,0.0,4.943324925733349,0.0,0.0,0.7202400421707362,0.0,4.819232784140239,0.0,8601.152896043619,0.3487300670615386,118.63860018798455,2.131790071518712,1.2221784896373045,101036.86008617122,287.9939152058043,0.0,0.0,0.0,402.75157894736844,0.21615384992373246,0.86,nominal,7273.046257589775,nan,pitch_program,11.28,0.0,0.0,-3.8226809142646205,-0.0,0.0,-3.820661134203166,0.0,0.0,0.86,0.0,0.0,0.0,0.0,0.0,0.0,-0.06668311639482619,0.0,0.0,-0.06668311639482619,0.0,0.0,19.766479689570225,-0.00036757035060344217,6.7893608872147055,-0.002012999632775625,0.011791874519176803,-0.0004291830042452384,1.0,171.54036416277123,-1.297144704962495,24.782845364612694,118.82470398887328,-0.17020142362918167,0.30245888818515504,25.401976902541556,118.80840147253444,8639.580414678967,-0.4066256917776794
1.71,175.74052206380156,0.0,24.01950281673002,119.21241946927024,0.0,0.2152518618526498,119.21261380022365,17.63849835460598,0.0,4.922416676415899,0.0,0.0,0.6969416516489766,0.0,4.818962607884184,0.0,8684.57942264331,0.35041736642899046,119.21261380022365,2.1316258834185677,1.2221777315449731,101036.7826893101,287.9938732316912,0.0,0.0,0.0,402.71763157894736,0.2161356306174341,0.86,nominal,7341.374501838322,nan,pitch_program,11.267142857142858,0.0,0.0,-3.825171772160704,-0.0,0.0,-3.823367516977689,0.0,0.0,0.86,0.0,0.0,0.0,0.0,0.0,0.0,-0.06673035168506086,0.0,0.0,-0.06673035168506086,0.0,0.0,19.786572173528803,0.015023969931922922,6.780413851317562,-0.0023975026347730294,0.012607294304429865,-0.00022918694536648704,1.0,171.54036416277123,-1.297144704962495,24.782845364612694,118.82470398887328,-0.17020142362918167,0.30245888818515504,25.401976902541556,119.17948653350295,8606.817150199076,-0.4066256917776794
1.74,179.33409170338777,0.0,24.024764429187506,119.78565465287342,0.0,0.17538708191610086,119.78578305143711,17.632014285687454,0.0,4.902199174099091,0.0,0.0,0.673916750886125,0.0,4.818308223859316,0.0,8768.28593568539,0.35210217934836757,119.78578305143712,2.1314751194855686,1.2221771138520834,101036.71962643173,287.99383903121026,0.0,0.0,0.0,402.68368421052634,0.21611741131113574,0.86,nominal,7409.919366712471,nan,pitch_program,11.254285714285714,0.0,0.0,-3.8273486003770234,-0.0,0.0,-3.825756167017289,0.0,0.0,0.86,0.0,0.0,0.0,0.0,0.0,0.0,-0.06677204149292978,0.0,0.0,-0.06677204149292978,0.0,0.0,19.73323482821482,-0.023478697783494394,6.898585424825947,-0.0010776385175902564,0.010059679865271334,0.0037358099703412415,1.0,171.54036416277123,-1.297144704962495,24.782845364612694,118.82470398887328,-0.17020142362918167,0.30245888818515504,23.652894907652684,119.020374473141,8750.151561210969,-0.20476421201085984
1.77,182.9448324380918,0.0,24.028885086654984,120.35802449013381,0.0,0.137355248915886,120.35810286653764,17.62553076334812,0.0,4.882664101227235,0.0,0.0,0.6511691020366597,0.0,4.817276914343383,0.0,8852.269895838004,0.3537844910526733,120.35810286653765,2.13133744942982,1.2221766301030494,101036.6702384531,287.9938122469367,0.0,0.0,0.0,402.64973684210526,0.21609919200483738,0.86,nominal,7478.679328751073,nan,pitch_program,11.241428571428571,0.0,0.0,-3.829216587826088,-0.0,0.0,-3.8278324195025686,0.0,0.0,0.86,0.0,0.0,0.0,0.0,0.0,0.0,-0.06680827893490063,0.0,0.0,-0.06680827893490063,0.0,0.0,19.683463752857573,-0.005951427750520084,6.927675128427476,-0.00293477565337393,0.01132541051412954,0.0008907682524234557,1.0,171.54036416277123,-1.297144704962495,24.782845364612694,118.82470398887328,-0.17020142362918167,0.30245888818515504,23.652894907652684,120.38653848523855,8922.069274631705,-0.20476421201085984
1.7999999999999998,186.57271821872772,0.0,24.03191977759477,120.92952602119709,0.0,0.10115636465952038,120.92956832934406,17.619047787587974,0.0,4.863803054595567,0.0,0.0,0.628701560066329,0.0,4.815875707116761,0.0,8936.52877410576,0.3554642872463744,120.92956832934406,2.131212529846685,1.2221762738423223,101036.63386629618,287.9937925214456,0.0,0.0,0.0,402.6157894736842,0.216080972698539,0.86,nominal,7547.652874247698,nan,pitch_program,11.228571428571428,0.0,0.0,-3.830780749629376,-0.0,0.0,-3.8296014175786532,0.0,0.0,0.86,0.0,0.0,0.0,0.0,0.0,0.0,-0.06683915377578975,0.0,0.0,-0.06683915377578975,0.0,0.0,19.589144591750514,0.03338394867784987,7.004617542007605,-0.0007112086951020605,0.01168749029884125,-0.0010908954384578188,1.0,171.54036416277123,-1.297144704962495,24.782845364612694,118.82470398887328,-0.17020142362918167,0.30245888818515504,24.04844647489537,120.61354189335822,8900.587417557987,-0.398088405351463
1.8299999999999998,190.21772290846286,0.0,24.03392347974112,121.5001563245046,0.0,0.06679007154505698,121.50017468214897,17.612565358407018,0.0,4.845607568529202,0.0,0.0,0.606516207309517,0.0,4.81411140471173,0.0,9021.060052364512,0.3571415541040729,121.50017468214897,2.1311000047649937,1.22217603861565,101036.60985101666,287.99377949738164,0.0,0.0,0.0,402.58184210526315,0.21606275339224065,0.86,nominal,7616.838499588959,nan,pitch_program,11.215714285714286,0.0,0.0,-3.832045947812548,-0.0,0.0,-3.83106813571899,0.0,0.0,0.86,0.0,0.0,0.0,0.0,0.0,0.0,-0.06686475283653735,0.0,0.0,-0.06686475283653735,0.0,0.0,19.60694540479613,-0.01092174845150665,7.115177083504626,0.003357172917414887,0.011618402117222709,-0.00020027499108537245,1.0,171.54036416277123,-1.297144704962495,24.782845364612694,118.82470398887328,-0.17020142362918167,0.30245888818515504,24.04844647489537,121.50264833697105,9137.771657551075,-0.398088405351463
1.8599999999999999,193.87982028401893,0.0,24.034951149259363,122.06991251853604,0.0,0.03425565060819356,122.06991732500126,17.60608347580525,0.0,4.828069134596365,0.0,0.0,0.5846144689927576,0.0,4.811990609492929,0.0,9105.861223850485,0.358816278268338,122.06991732500126,2.1309995061887728,1.2221759179713456,101036.59753393303,287.9937728175298,0.0,0.0,0.0,402.54789473684207,0.2160445340859423,0.86,nominal,7686.234711554204,nan,pitch_program,11.202857142857143,0.0,0.0,-3.833016909173917,-0.0,0.0,-3.832237399791946,0.0,0.0,0.86,0.0,0.0,0.0,0.0,0.0,0.0,-0.06688516034443572,0.0,0.0,-0.06688516034443572,0.0,0.0,19.629581734109372,-0.023774747177484623,7.168435680001811,0.002340972989809951,0.01322355519789957,0.0031908554136557492,1.0,171.54036416277123,-1.297144704962495,24.782845364612694,118.82470398887328,-0.17020142362918167,0.30245888818515504,24.634383663071002,122.38580587650353,9147.253406778998,0.5807500502852853
1.89,197.55898403691802,0.0,24.03505770987644,122.63879176330248,0.0,0.0035520205692557393,122.63879181474155,17.59960213978267,0.0,4.811179218360309,0.0,0.0,0.5629972119454507,0.0,4.8095197451677,0.0,9190.92979360794,0.36048844684681075,122.63879181474155,2.1309106546323484,1.222175905461554,101036.59625675587,287.99377212488577,0.0,0.0,0.0,402.51394736842104,0.21602631477964393,0.86,nominal,7755.840027580319,nan,pitch_program,11.19,0.0,0.0,-3.8336982405951607,-0.0,0.0,-3.8331139042738753,0.0,0.0,0.86,0.0,0.0,0.0,0.0,0.0,0.0,-0.06690045823355387,0.0,0.0,-0.06690045823355387,0.0,0.0,19.627694567748176,-0.009975117724252332,7.282560147815838,0.0033253383755549276,0.012942642302849415,0.002113230358068348,1.0,195.33383468938104,-1.4685430373265003,22.2910900628069,122.76439050033308,0.06855132252185792,0.05542886413462722,24.634383663071002,122.89946860284493,9045.116679334384,0.5807500502852853
