time_s,x_m,y_m,altitude_m,vx_mps,vy_mps,vz_mps,speed_mps,mass_kg,roll_deg,pitch_deg,yaw_deg,p_dps,q_dps,r_dps,alpha_deg,beta_deg,qbar_pa,mach,airspeed_mps,load_factor_g,density_kgpm3,pressure_pa,temperature_k,wind_x_mps,wind_y_mps,wind_z_mps,thrust_n,mass_flow_kgps,propulsion_throttle_actual,propulsion_health,energy_j_per_kg,target_distance_m,guidance_mode,pitch_command_deg,heading_command_deg,roll_command_deg
0.0,0.0,0.0,20.0,86.0,0.0,6.0,86.20904824900923,18.0,0.0,5.000000000000001,0.0,0.0,0.0,0.0,1.0090869015702202,0.0,4543.366193665201,0.2533941375411892,86.20904824900923,1.7400872986971718,1.2226496753673843,101084.96761777384,288.02,0.0,0.0,0.0,326.8,0.17539118863220368,0.86,nominal,3912.133,nan,pitch_program,12.000000000000002,0.0,0.0
0.03,2.5952546510678514,0.0,20.1729526389325,86.50848836892838,0.0,5.765087964416636,86.70037369650997,17.994738264341034,0.0,5.234794727757629,0.0,0.0,-7.826501877873444,0.0,1.4221340050852367,0.0,4595.22483836377,0.2548387870971885,86.70037369650997,1.7690183208935115,1.2226293655258118,101082.89391600437,288.01887580784694,0.0,0.0,0.0,332.605,0.1785066900092231,0.86,nominal,3956.306485553827,nan,pitch_program,11.987142857142857,0.0,0.0
0.06,5.205963901329536,0.0,20.339300027015604,87.02364167538947,0.0,5.544912936103398,87.20011622650253,17.98938306364076,0.0,5.5739886936700085,0.0,0.0,-11.306498552012421,0.0,1.9281838985107471,0.0,4648.277161990505,0.25630816360489794,87.20011622650253,1.7985487209606494,1.2226098315828546,101080.89944367715,288.0177945498244,0.0,0.0,0.0,338.40999999999997,0.18162219138624247,0.86,nominal,4001.3905315677075,nan,pitch_program,11.974285714285715,0.0,0.0
0.09,7.832298701185458,0.0,20.49961879492696,87.54449332853072,0.0,5.3439589303784905,87.7074467146247,17.983934397899173,0.0,5.851985313410126,0.0,0.0,-9.266572170413179,0.0,2.358826313964668,0.0,4702.449468302384,0.25779983149452296,87.70744671462471,1.8288472840953747,1.222591005798339,101078.97728346949,288.01675247783294,0.0,0.0,0.0,344.215,0.18473769276326188,0.86,nominal,4047.330691254636,nan,pitch_program,11.961428571428572,0.0,0.0
0.12,10.474445936356936,0.0,20.65435370132958,88.07157450571596,0.0,5.157830213420677,88.22247700232833,17.978392267116273,0.0,6.014824272248575,0.0,0.0,-5.4279689482699265,0.0,2.6631782684526857,0.0,4757.767778820667,0.2593141206218117,88.22247700232833,1.8593152849149013,1.2225728359213792,101077.12209967739,288.01574670094135,0.0,0.0,0.0,350.02,0.1878531941402813,0.86,nominal,4094.1527419383197,nan,pitch_program,11.948571428571428,0.0,0.0
0.15,13.132623428929834,0.0,20.80377386601636,88.60591641909663,0.0,4.9806721562260305,88.74579155991422,17.972756671292064,0.0,6.101475655103521,0.0,0.0,-2.8883799790254687,0.0,2.8841792511258366,0.0,4814.309964566602,0.2608527495594302,88.74579155991424,1.8900053359506968,1.2225552903285153,101075.33066279205,288.01477546987087,0.0,0.0,0.0,355.825,0.1909686955173007,0.86,nominal,4141.923088781041,nan,pitch_program,11.935714285714285,0.0,0.0
0.18,15.80706747547757,0.0,20.948064084919928,89.14813488492452,0.0,4.8096739634521875,89.27778512651065,17.967027610426545,0.0,6.1654557323785415,0.0,0.0,-2.13266946410925,0.0,3.0772575501020105,0.0,4872.134957091147,0.2624168789694035,89.27778512651065,1.9211233388017523,1.2225383472999625,101073.60075455025,288.013837583448,0.0,0.0,0.0,361.63,0.19408419689432013,0.86,nominal,4190.691791206083,nan,pitch_program,11.922857142857143,0.0,0.0
0.21,18.498016961045888,0.0,21.087410365156206,89.69831618561055,0.0,4.644876007875893,89.81849920624539,17.961205084519715,0.0,6.228856306829531,0.0,0.0,-2.113352697340952,0.0,3.2645387318391355,0.0,4931.264191679682,0.2640066312532579,89.81849920624539,1.95263061238258,1.2225219849753384,101071.93014238428,288.01293183262646,0.0,0.0,0.0,367.435,0.19719969827133954,0.86,nominal,4240.478252688611,nan,pitch_program,11.91,0.0,0.0
0.24,21.205708139533563,0.0,21.222020050296525,90.25637261625587,0.0,4.4869895046772985,90.3678364942943,17.955289093571576,0.0,6.285850283413729,0.0,0.0,-1.8997993761263474,0.0,3.43980102619422,0.0,4991.704144549778,0.2656217208753353,90.36783649429428,1.9843259764926104,1.2225061789904685,101070.31633813608,288.0120568696731,0.0,0.0,0.0,373.24,0.20031519964835895,0.86,nominal,4291.289859255994,nan,pitch_program,11.897142857142857,0.0,0.0
0.27,23.930377973376718,0.0,21.352099451782756,90.82232779477187,0.0,4.335980049540982,90.92577164396796,17.949279637582126,0.0,6.325559355287328,0.0,0.0,-1.3236357821011655,0.0,3.592257153774751,0.0,5053.469302849227,0.2672620738116485,90.92577164396796,2.0160383129314603,1.2224909051039314,101068.75686622964,288.0112113535634,0.0,0.0,0.0,379.045,0.20343070102537836,0.86,nominal,4343.140540614329,nan,pitch_program,11.884285714285713,0.0,0.0
0.3,26.672268326899886,0.0,21.477832123366294,91.39634511743895,0.0,4.191089052784584,91.4923883624992,17.943176716551363,0.0,6.345710506807538,0.0,0.0,-0.6717050575975976,0.0,3.720183081020063,0.0,5116.586562648079,0.26892793652350894,91.4923883624992,2.047731412829811,1.2224761417479466,101067.24952411422,288.0103940911981,0.0,0.0,0.0,384.84999999999997,0.20654620240239774,0.86,nominal,4396.054146529799,nan,pitch_program,11.871428571428572,0.0,0.0
0.32999999999999996,29.43162678553464,0.0,21.599376493045455,91.97861528782515,0.0,4.0514789893053536,92.06780193024336,17.93698033047929,0.0,6.351426063746436,0.0,0.0,-0.19051856478794546,0.0,3.8292888217833823,0.0,5181.086890276646,0.27061964820762746,92.06780193024338,2.0794542234147344,1.2224618703062202,101065.79241062608,288.00960405279517,0.0,0.0,0.0,390.655,0.20966170377941715,0.86,nominal,4450.057601618786,nan,pitch_program,11.85857142857143,0.0,0.0
0.36,32.208704910930216,0.0,21.716875578539312,92.56927084651926,0.0,3.9166361831286367,92.65209087790319,17.930690479365907,0.0,6.348425082451474,0.0,0.0,0.10003270985497448,0.0,3.925666898106873,0.0,5246.997701147641,0.2723374399996327,92.65209087790319,2.111242208358652,1.2224480739730088,101064.38380949321,288.0088403087395,0.0,0.0,0.0,396.46,0.21277720515643656,0.86,nominal,4505.174769915899,nan,pitch_program,11.845714285714285,0.0,0.0
0.39,35.00375645458167,0.0,21.830465490584682,93.16838478838189,0.0,3.7863304015123522,93.24529061558769,17.924307163211214,0.0,6.339321600133142,0.0,0.0,0.3034494112494301,0.0,4.012121887381944,0.0,5314.342009033379,0.2740814162719839,93.24529061558769,2.143082681251478,1.2224347367545603,101063.02208737926,288.00810197431116,0.0,0.0,0.0,402.265,0.21589270653345596,0.86,nominal,4561.4258453959455,nan,pitch_program,11.832857142857144,0.0,0.0
0.42,37.81703674851817,0.0,21.940277538488683,93.77600979788326,0.0,3.66040159679997,93.84742166656766,17.91783038201521,0.0,6.324391791379354,0.0,0.0,0.49766029460875605,0.0,4.089074387963719,0.0,5383.1415142011465,0.275851637628624,93.84742166656767,2.153084038973388,1.22242184322182,101061.70566863226,288.0073881959998,0.0,0.0,0.0,404.1773684210526,0.21691906078826353,0.86,nominal,4618.829899454096,nan,pitch_program,11.82,0.0,0.0
0.44999999999999996,40.64860853123129,0.0,22.046415241713753,94.38572609043743,0.0,3.537923440835604,94.45200999392387,17.911322810191564,0.0,6.303711856430373,0.0,0.0,0.6893311724495214,0.0,4.1570607358816725,0.0,5452.668401424141,0.2776290746977364,94.45200999392387,2.152181084688704,1.2224093812095014,101060.4333108546,288.00669830092886,0.0,0.0,0.0,404.14342105263154,0.21690084148196515,0.86,nominal,4676.7925739762995,nan,pitch_program,11.807142857142857,0.0,0.0
0.48,43.498439188065745,0.0,22.148964198121924,94.99435522781525,0.0,3.418298546939086,95.05583774868515,17.904815784947104,0.0,6.278083820440451,0.0,0.0,0.854267880573573,0.0,4.217228623740834,0.0,5522.554217316848,0.27940426910557836,95.05583774868514,2.151307306155195,1.2223973406572686,101059.20398658398,288.0060317327122,0.0,0.0,0.0,404.1094736842105,0.2168826221756668,0.86,nominal,4735.01328480569,nan,pitch_program,11.794285714285714,0.0,0.0
0.51,46.366497735290366,0.0,22.24800377117702,95.60195157415411,0.0,3.3013191018365586,95.6589350379726,17.898309306281835,0.0,6.248674339089093,0.0,0.0,0.9803160665688635,0.0,4.2709268440006625,0.0,5592.800817280855,0.28117730937654184,95.65893503797257,2.1504659709033036,1.222385712237419,101058.01674317899,288.00538797548734,0.0,0.0,0.0,404.0755263157895,0.21686440286936848,0.86,nominal,4793.494312482144,nan,pitch_program,11.781428571428572,0.0,0.0
0.54,49.25275445470047,0.0,22.343608727456033,96.2085573136702,0.0,3.186831875967055,96.26132347824563,17.891803374195753,0.0,6.216427503726777,0.0,0.0,1.0748945404507133,0.0,4.319244085067853,0.0,5663.409149457287,0.2829482590703627,96.26132347824563,2.1496566587580506,1.2223744871625672,101056.87068318207,288.0047665432715,0.0,0.0,0.0,404.0415789473684,0.2168461835630701,0.86,nominal,4852.237149418828,nan,pitch_program,11.768571428571429,0.0,0.0
0.57,52.157180617745155,0.0,22.435850349724895,96.81420543482287,0.0,3.0747207422953733,96.86301813189174,17.885297988688862,0.0,6.181909728330145,0.0,0.0,1.150592548021214,0.0,4.362865436778202,0.0,5734.379452097012,0.28471716247742623,96.86301813189174,2.148874068937662,1.2223636570549172,101055.76495097157,288.00416697272675,0.0,0.0,0.0,404.0076315789474,0.21682796425677175,0.86,nominal,4911.2426726417225,nan,pitch_program,11.755714285714285,0.0,0.0
0.6,55.07974834596267,0.0,22.524796883336975,97.41892427391717,0.0,2.9648844537360795,97.46403103971852,17.878793149761158,0.0,6.145500090574409,0.0,0.0,1.2136546326992927,0.0,4.402276715460044,0.0,5805.711650024091,0.2864840550030697,97.46403103971852,2.1481127934636244,1.2223532138938196,101054.69872740586,288.0035888202583,0.0,0.0,0.0,403.9736842105263,0.21680974495047337,0.86,nominal,4970.5114726115835,nan,pitch_program,11.742857142857144,0.0,0.0
0.63,58.02043052388469,0.0,22.610513779405345,98.02273926406743,0.0,2.857229868945658,98.0643726098084,17.872288857412645,0.0,6.107571797282019,0.0,0.0,1.2642764892477356,0.0,4.437950307533001,0.0,5877.405509858645,0.2882489672503741,98.0643726098084,2.1473704021330264,1.2223431499871826,101053.67122690393,288.00303166043386,0.0,0.0,0.0,403.9397368421053,0.21679152564417503,0.86,nominal,5030.0439826324755,nan,pitch_program,11.73,0.0,0.0
0.6599999999999999,60.97920069620199,0.0,22.69306405890296,98.62567241057677,0.0,2.75167598325379,98.66405109843818,17.86578511164332,0.0,6.06851238511964,0.0,0.0,1.3019804558357189,0.0,4.470363270441495,0.0,5949.460571203083,0.29001192349524735,98.66405109843816,2.1466466208931583,1.2223334579287009,101052.6816930773,288.00249508361713,0.0,0.0,0.0,403.9057894736842,0.21677330633787664,0.86,nominal,5089.84042623085,nan,pitch_program,11.717142857142859,0.0,0.0
0.69,63.956032949465566,0.0,22.77250876710542,99.22774177545257,0.0,2.6481569400821243,99.26307205116714,17.859281912453184,0.0,6.0286633339377955,0.0,0.0,1.328301759604939,0.0,4.49993551094149,0.0,6021.876070672749,0.2917729400447658,99.26307205116714,2.145941268622046,1.22232413054447,101051.72939327898,288.00197869301377,0.0,0.0,0.0,403.8718421052631,0.21675508703157828,0.86,nominal,5149.900759618535,nan,pitch_program,11.704285714285714,0.0,0.0
0.72,66.95090180726157,0.0,22.848907364830154,99.8289619265337,0.0,2.5466199241577767,99.86143856548148,17.852779259842237,0.0,5.988289945394682,0.0,0.0,1.3457796737887358,0.0,4.5270012300898905,0.0,6094.6509638032085,0.2935320260102314,99.86143856548148,2.145253504429839,1.222315160847037,101050.8136139111,288.0014821021286,0.0,0.0,0.0,403.8378947368421,0.21673686772527995,0.86,nominal,5210.224693593027,nan,pitch_program,11.691428571428572,0.0,0.0
0.75,69.96378215123417,0.0,22.922318001651178,100.42934479908648,0.0,2.447021227367488,100.45915194575846,17.84627715381048,0.0,5.947600683696849,0.0,0.0,1.3563087802633076,0.0,4.551830818652723,0.0,6167.783996367701,0.29528918523307607,100.45915194575846,2.1445823775620823,1.2223065420032881,101049.93365714606,288.00100493298925,0.0,0.0,0.0,403.80394736842106,0.21671864841898159,0.86,nominal,5270.811754661385,nan,pitch_program,11.678571428571429,0.0,0.0
0.78,72.99464915930514,0.0,22.992797720362315,101.02890026903259,0.0,2.3493239570379445,101.05621214267457,17.83977559435791,0.0,5.9067754066406355,0.0,0.0,1.3608426261162483,0.0,4.574660613017801,0.0,6241.2737519928605,0.29704441757697475,101.05621214267457,2.143927397853479,1.2222982673104392,101049.0888384743,288.0005468148176,0.0,0.0,0.0,403.77,0.21670042911268322,0.86,nominal,5331.661326077014,nan,pitch_program,11.665714285714285,0.0,0.0
0.8099999999999999,76.04347825009143,0.0,23.060402646082434,101.62763635954296,0.0,2.2534975240039645,101.65261788620198,17.83327458148453,0.0,5.865974794850537,0.0,0.0,1.3600204504747209,0.0,4.595702785087837,0.0,6315.118663645088,0.2987977193192747,101.65261788620197,2.143288492856632,1.2222903301738066,101048.27848443443,288.0001073828004,0.0,0.0,0.0,403.73605263157896,0.21668220980638486,0.86,nominal,5392.7726591682995,nan,pitch_program,11.652857142857142,0.0,0.0
0.84,79.11024503114217,0.0,23.125188167095747,102.22555936835825,0.0,2.159517367110438,102.24836675190753,17.82677411519034,0.0,5.825336681203699,0.0,0.0,1.3546038450154623,0.0,4.615141981312548,0.0,6389.317017375273,0.300549083346372,102.24836675190753,2.14266567780174,1.2222827240855612,101047.50193044345,287.99968627691385,0.0,0.0,0.0,403.7021052631579,0.2166639905000865,0.86,nominal,5454.144878255144,nan,pitch_program,11.64,0.0,0.0
0.87,82.19492525372354,0.0,23.187209090985355,102.82267408604557,0.0,2.067364129653599,102.84345531267279,17.82027419547534,0.0,5.78497438486874,0.0,0.0,1.3454099334710983,0.0,4.6331342607035095,0.0,6463.866967112668,0.30229849960011473,102.84345531267279,2.1420588998751495,1.2222754426063822,101046.75851892328,287.9992831409086,0.0,0.0,0.0,403.66815789473685,0.21664577119378817,0.86,nominal,5515.776994356974,nan,pitch_program,11.627142857142857,0.0,0.0
0.8999999999999999,85.29749477535407,0.0,23.246519769722404,103.41898405435103,0.0,1.9770226245682743,103.4378793348557,17.813774822339525,0.0,5.744981093431687,0.0,0.0,1.333109768695294,0.0,4.649812176170539,0.0,6538.766555765136,0.3040459556547545,103.4378793348557,2.1414681035205647,1.2222684793507592,101046.04759779954,287.9988976214968,0.0,0.0,0.0,403.6342105263158,0.2166275518874898,0.86,nominal,5577.667923745832,nan,pitch_program,11.614285714285714,0.0,0.0
0.9299999999999999,88.41792952847267,0.0,23.30317420181134,104.01449177062027,0.0,1.88848106963119,104.0316339343509,17.8072759957829,0.0,5.705435291971775,0.0,0.0,1.3181934343273782,0.0,4.665290728284536,0.0,6614.013732095226,0.3057914371759621,104.0316339343509,2.14089331083859,1.2222618279749806,101045.36851927494,287.9985293676882,0.0,0.0,0.0,403.6002631578947,0.21660933258119142,0.86,nominal,5639.816502811587,nan,pitch_program,11.601428571428572,0.0,0.0
0.96,91.55620549327126,0.0,23.357226120481357,104.60919882662003,0.0,1.80173062233386,104.62471367885685,17.800777715805463,0.0,5.666403492581637,0.0,0.0,1.3010600299874635,0.0,4.679670435873835,0.0,6689.606361410164,0.30753492822168965,104.62471367885685,2.140334606699228,1.2222554821667695,101044.72063877065,287.9981780302168,0.0,0.0,0.0,403.56631578947366,0.21659111327489305,0.86,nominal,5702.221497725806,nan,pitch_program,11.588571428571429,0.0,0.0
0.99,94.71229867395772,0.0,23.408729070337444,105.20310602288184,0.0,1.7167649952028983,105.21711267142085,17.794279982407215,0.0,5.62794111058471,0.0,0.0,1.282079448043712,0.0,4.693038496999149,0.0,6765.54223430013,0.30927641148797314,105.21711267142086,2.139792082563587,1.2222494356362763,101044.1033140062,287.99784326104276,0.0,0.0,0.0,403.53236842105264,0.21657289396859472,0.86,nominal,5764.88161239286,nan,pitch_program,11.575714285714287,0.0,0.0
1.02,97.8861850784324,0.0,23.4577364716211,105.79621348248968,0.0,1.6335800427885379,105.80882463664705,17.787782795588157,0.0,5.5900935309225925,0.0,0.0,1.261586034611192,0.0,4.70547014523752,0.0,6841.819076095117,0.31101586856252855,105.80882463664705,2.139265812654104,1.2222436821085108,101043.51590422672,287.9975247129344,0.0,0.0,0.0,403.49842105263156,0.21655467466229633,0.86,nominal,5827.795496863787,nan,pitch_program,11.562857142857142,0.0,0.0
1.05,101.07784070115274,0.0,23.50430167268746,106.38852075734448,0.0,1.5521733688787602,106.39984300318761,17.781286155348287,0.0,5.5528977697399275,0.0,0.0,1.2398587496332398,0.0,4.71703057997027,0.0,6918.434556223261,0.31275328016739107,106.39984300318761,2.1387558636306028,1.2222382153171818,101042.9577695732,287.9972220391275,0.0,0.0,0.0,403.46447368421053,0.216536455355998,0.86,nominal,5890.961755549946,nan,pitch_program,11.55,0.0,0.0
1.08,104.28724150863766,0.0,23.54847799301727,106.98002691616433,0.0,1.4725440109935721,106.99016097215463,17.774790061687607,0.0,5.51638400354762,0.0,0.0,1.2171255809364703,0.0,4.727776713330316,0.0,6995.386296094161,0.3144886263601419,106.99016097215461,2.138262302470008,1.2222330289996257,101042.42827056478,287.99693489304536,0.0,0.0,0.0,403.43052631578945,0.21651823604969964,0.86,nominal,5954.378954134002,nan,pitch_program,11.537142857142857,0.0,0.0
1.1099999999999999,107.51436342711314,0.0,23.59031875876989,107.57073061584939,0.0,1.3946921917540072,107.57977157224947,17.768294514606115,0.0,5.480576582060371,0.0,0.0,1.1935807550898767,0.0,4.737758357521232,0.0,7072.671875539017,0.31622188669607243,107.57977157224948,2.1377851894539512,1.2222281168926297,101041.92676767166,287.99666292806796,0.0,0.0,0.0,403.3965789473684,0.21650001674340127,0.86,nominal,6018.045625224378,nan,pitch_program,11.524285714285714,0.0,0.0
1.14,110.75918233201547,0.0,23.629877331808032,108.16063016341083,0.0,1.3186191012714295,108.16866770779963,17.761799514103814,0.0,5.445494757549178,0.0,0.0,1.169394186907245,0.0,4.7470191061288505,0.0,7150.288838557405,0.31795304036948024,108.16866770779963,2.1373245684611653,1.2222234727290076,101041.45262096538,287.99640579734324,0.0,0.0,0.0,403.3626315789474,0.21648179743710294,0.86,nominal,6081.960273376162,nan,pitch_program,11.51142857142857,0.0,0.0
1.17,114.02167403916383,0.0,23.667207132751066,108.74972357161165,0.0,1.244326698101098,108.75684220238078,17.7553050601807,0.0,5.41115339782395,0.0,0.0,1.1447120251101632,0.0,4.755597184036778,0.0,7228.234698690186,0.3196820663419722,108.75684220238078,2.136880464380097,1.2222190902348862,101041.00518984125,287.9961631536371,0.0,0.0,0.0,403.3286842105263,0.21646357813080455,0.86,nominal,6146.121379745171,nan,pitch_program,11.498571428571429,0.0,0.0
1.2,117.30181429738884,0.0,23.702361658826078,109.33800860750043,0.0,1.1718175358337026,109.34428783704764,17.748811152836776,0.0,5.377563679765028,0.0,0.0,1.119657300698719,0.0,4.763526259767614,0.0,7306.506943864636,0.3214089434549031,109.34428783704764,2.1364528846090773,1.222214963127597,101040.58383280296,287.9959346492176,0.0,0.0,0.0,403.2947368421053,0.21644535882450622,0.86,nominal,6210.52740625709,nan,pitch_program,11.485714285714286,0.0,0.0
1.23,120.5995787823938,0.0,23.73539449737286,109.92548283349856,0.0,1.1010946182259935,109.93099738261303,17.74231779207204,0.0,5.344733664919039,0.0,0.0,1.0943338581405848,0.0,4.7708361209752095,0.0,7385.103040608489,0.32313365052430637,109.93099738261306,2.1360418189908112,1.222211085114084,101040.1879072996,287.99571993576706,0.0,0.0,0.0,403.26078947368416,0.2164271395182078,0.86,nominal,6275.176799215698,nan,pitch_program,11.472857142857142,0.0,0.0
1.26,123.91494309166714,0.0,23.766359335665676,110.51214364244449,0.0,1.032161276427249,110.5169636270778,17.735824977886494,0.0,5.312668750797234,0.0,0.0,1.0688304986228712,0.0,4.777553210817929,0.0,7464.02043775089,0.3248561664215586,110.5169636270778,2.135647237963658,1.222207449889735,101039.81676960608,287.9955186643181,0.0,0.0,0.0,403.22684210526313,0.21640892021190947,0.86,nominal,6340.067992453525,nan,pitch_program,11.46,0.0,0.0
1.29,127.24788274030972,0.0,23.795309967521174,111.09798828808614,0.0,0.9650210618499225,111.10217939945885,17.729332710280136,0.0,5.28137205487837,0.0,0.0,1.043223223234109,0.0,4.7837010861298435,0.0,7543.256569754868,0.3265764701434472,111.10217939945885,2.1352690914245858,1.222204051137604,101039.46977474335,287.99533048521107,0.0,0.0,0.0,403.1928947368421,0.21639070090561113,0.86,nominal,6405.19941014776,nan,pitch_program,11.447142857142858,0.0,0.0
1.3199999999999998,130.59837315765833,0.0,23.822300297108868,111.6830139116202,0.0,0.8996776529230777,111.68663759045806,17.72284098925297,0.0,5.25084476018657,0.0,0.0,1.0175765137989496,0.0,4.789300827593523,0.0,7622.808859722805,0.3282945408729402,111.68663759045806,2.1349073089114623,1.2222008825279485,101039.14627643104,287.9951550480688,0.0,0.0,0.0,403.158947368421,0.21637248159931274,0.86,nominal,6470.569469339802,nan,pitch_program,11.434285714285714,0.0,0.0
1.3499999999999999,133.96638968459374,0.0,23.847384340373278,112.2672175645137,0.0,0.8361347754802999,112.27033117008527,17.71634981480499,0.0,5.221086414919422,0.0,0.0,0.9919448645369411,0.0,4.794371394889164,0.0,7702.674722074299,0.3300103580309959,112.27033117008527,2.134561800003074,1.2221979377180532,101038.84562706901,287.9949920017875,0.0,0.0,0.0,403.125,0.2163542622930144,0.86,nominal,6536.176582161832,nan,pitch_program,11.42142857142857,0.0,0.0
1.38,137.3519075714356,0.0,23.870616224427085,112.85059622806202,0.0,0.7743961351268555,112.85325320256915,17.7098591869362,0.0,5.192095181836735,0.0,0.0,0.9663744567078348,0.0,4.7989299237210705,0.0,7782.851564926664,0.3317239013203913,112.85325320256915,2.134232454369061,1.222195210352299,101038.56717774426,287.9948409945412,0.0,0.0,0.0,403.0910526315789,0.21633604298671602,0.86,nominal,6602.01915779887,nan,pitch_program,11.40857142857143,0.0,0.0
1.41,140.75490197634312,0.0,23.892050185205918,113.43314683025078,0.0,0.7144653592943927,113.4353968590178,17.703369105646598,0.0,5.163868048445077,0.0,0.0,0.9409044654192338,0.0,4.802991977216485,0.0,7863.336792228008,0.33343515076293084,113.43539685901779,2.133919141827353,1.2221926940624221,101038.31027825695,287.99470167379616,0.0,0.0,0.0,403.0571052631579,0.2163178236804177,0.86,nominal,6668.095604230182,nan,pitch_program,11.395714285714286,0.0,0.0
1.44,144.17534796415316,0.0,23.911740563630527,114.01486626033456,0.0,0.6563459474870096,114.01675542815958,17.696879570936186,0.0,5.136401009064138,0.0,0.0,0.9155679968988941,0.0,4.806571763779414,0.0,7944.127805677523,0.3351440867310038,114.0167554281596,2.1336217126968906,1.2221903824679587,101038.07427716568,287.99457368633637,0.0,0.0,0.0,403.02315789473687,0.21629960437411935,0.86,nominal,6734.404329780707,nan,pitch_program,11.382857142857143,0.0,0.0
1.47,147.61322050559508,0.0,23.929741800497258,114.5957513813976,0.0,0.6000412288910132,114.59732232536439,17.690390582804962,0.0,5.1096892220194325,0.0,0.0,0.8903929176174713,0.0,4.809682325262817,0.0,8025.222006451025,0.336850689974083,114.5973223253644,2.1333399982949306,1.2221882691768406,101037.85852184797,287.99445667829673,0.0,0.0,0.0,402.9892105263158,0.21628138506782096,0.86,nominal,6800.9437444995765,nan,pitch_program,11.37,0.0,0.0
1.5,151.0684944768295,0.0,23.946108430291872,115.17579904114716,0.0,0.5455543264871874,115.17709110013963,17.68390214125293,0.0,5.083727143093861,0.0,0.0,0.8654026456594698,0.0,4.812335697200212,0.0,8106.616796750261,0.33855494164073463,115.17709110013963,2.1330738113993686,1.2221863477861084,101037.6623585728,287.9943502952031,0.0,0.0,0.0,402.9552631578947,0.2162631657615226,0.86,nominal,6867.712261382854,nan,pitch_program,11.357142857142858,0.0,0.0
1.53,154.54114465926546,0.0,23.960895074092644,115.75500608119901,0.0,0.49288812669236537,115.75605544231307,17.677414246280083,0.0,5.058508638740974,0.0,0.0,0.8406168253338944,0.0,4.814543045237232,0.0,8188.3095811981575,0.3402568232967637,115.75605544231306,2.1328229467023814,1.2221846118827357,101037.48513258458,287.9942541820184,0.0,0.0,0.0,402.9213157894737,0.21624494645522424,0.86,nominal,6934.708297460278,nan,pitch_program,11.344285714285714,0.0,0.0
1.56,158.03114573961776,0.0,23.974156431704383,116.33336934507626,0.0,0.4420452537246251,116.33420918708423,17.670926897886428,0.0,5.034027083071995,0.0,0.0,0.8160518680482729,0.0,4.81631478230337,0.0,8270.297768099186,0.3419563169400292,116.33420918708424,2.132587181324633,1.2221830550445527,101037.32618819718,287.9941679831939,0.0,0.0,0.0,402.8873684210526,0.21622672714892588,0.86,nominal,7001.930274763109,nan,pitch_program,11.331428571428571,0.0,0.0
1.5899999999999999,161.5384723101705,0.0,23.98594727314739,116.9108856850919,0.0,0.3930280481001717,116.91154631908356,17.66444009607196,0.0,5.01027544103521,0.0,0.0,0.7917214125640891,0.0,4.817660669343494,0.0,8352.578770578746,0.3436534050123387,116.91154631908356,2.1323662753715094,1.2221816708412292,101037.18486889405,287.9940913427245,0.0,0.0,0.0,402.8534210526316,0.21620850784262752,0.86,nominal,7069.37662118582,nan,pitch_program,11.31857142857143,0.0,0.0
1.6199999999999999,165.0630988692184,0.0,23.99632242960968,117.48755196826312,0.0,0.34583854874310027,117.48806097556093,17.657953840836683,0.0,4.987246339325046,0.0,0.0,0.7676367340064469,0.0,4.818589901494951,0.0,8435.150007614211,0.34534807040878157,117.48806097556093,2.132159972487854,1.222180452835336,101037.06051743642,287.9940239042075,0.0,0.0,0.0,402.8194736842105,0.21619028853632916,0.86,nominal,7137.045771252893,nan,pitch_program,11.305714285714286,0.0,0.0
1.65,168.60499982166021,0.0,24.00533678395604,118.06336508139347,0.0,0.3004784782119293,118.06374744881795,17.651468132180593,0.0,4.9649321267423945,0.0,0.0,0.7438070954899283,0.0,4.819111181754594,0.0,8518.008904969443,0.3470402964848346,118.06374744881795,2.131968000408623,1.2221793945834512,101036.9524759759,287.9939653109043,0.0,0.0,0.0,402.78552631578947,0.21617206923003082,0.86,nominal,7204.936166801516,nan,pitch_program,11.292857142857143,0.0,0.0
1.68,172.16414947972345,0.0,24.013045260874442,118.63832193544096,0.0,0.2569492306134186,118.63860018798452,17.64498297010369,0.0,4.943324925733349,0.0,0.0,0.7202400421707362,0.0,4.819232784140239,0.0,8601.152896043619,0.3487300670615386,118.63860018798455,2.131790071518712,1.2221784896373045,101036.86008617122,287.9939152058043,0.0,0.0,0.0,402.75157894736844,0.21615384992373246,0.86,nominal,7273.046257589775,nan,pitch_program,11.28,0.0,0.0
1.71,175.74052206380156,0.0,24.01950281673002,119.21241946927024,0.0,0.2152518618526498,119.21261380022365,17.63849835460598,0.0,4.922416676415899,0.0,0.0,0.6969416516489766,0.0,4.818962607884184,0.0,8684.57942264331,0.35041736642899046,119.21261380022365,2.1316258834185677,1.2221777315449731,101036.7826893101,287.9938732316912,0.0,0.0,0.0,402.71763157894736,0.2161356306174341,0.86,nominal,7341.374501838322,nan,pitch_program,11.267142857142858,0.0,0.0
1.74,179.33409170338777,0.0,24.024764429187506,119.78565465287342,0.0,0.17538708191610086,119.78578305143711,17.632014285687454,0.0,4.902199174099091,0.0,0.0,0.673916750886125,0.0,4.818308223859316,0.0,8768.28593568539,0.35210217934836757,119.78578305143712,2.1314751194855686,1.2221771138520834,101036.71962643173,287.99383903121026,0.0,0.0,0.0,402.68368421052634,0.21611741131113574,0.86,nominal,7409.919366712471,nan,pitch_program,11.254285714285714,0.0,0.0
1.77,182.9448324380918,0.0,24.028885086654984,120.35802449013381,0.0,0.137355248915886,120.35810286653764,17.62553076334812,0.0,4.882664101227235,0.0,0.0,0.6511691020366597,0.0,4.817276914343383,0.0,8852.269895838004,0.3537844910526733,120.35810286653765,2.13133744942982,1.2221766301030494,101036.6702384531,287.9938122469367,0.0,0.0,0.0,402.64973684210526,0.21609919200483738,0.86,nominal,7478.679328751073,nan,pitch_program,11.241428571428571,0.0,0.0
1.7999999999999998,186.57271821872772,0.0,24.03191977759477,120.92952602119709,0.0,0.10115636465952038,120.92956832934406,17.619047787587974,0.0,4.863803054595567,0.0,0.0,0.628701560066329,0.0,4.815875707116761,0.0,8936.52877410576,0.3554642872463744,120.92956832934406,2.131212529846685,1.2221762738423223,101036.63386629618,287.9937925214456,0.0,0.0,0.0,402.6157894736842,0.216080972698539,0.86,nominal,7547.652874247698,nan,pitch_program,11.228571428571428,0.0,0.0
1.8299999999999998,190.21772290846286,0.0,24.03392347974112,121.5001563245046,0.0,0.06679007154505698,121.50017468214897,17.612565358407018,0.0,4.845607568529202,0.0,0.0,0.606516207309517,0.0,4.81411140471173,0.0,9021.060052364512,0.3571415541040729,121.50017468214897,2.1311000047649937,1.22217603861565,101036.60985101666,287.99377949738164,0.0,0.0,0.0,402.58184210526315,0.21606275339224065,0.86,nominal,7616.838499588959,nan,pitch_program,11.215714285714286,0.0,0.0
1.8599999999999999,193.87982028401893,0.0,24.034951149259363,122.06991251853604,0.0,0.03425565060819356,122.06991732500126,17.60608347580525,0.0,4.828069134596365,0.0,0.0,0.5846144689927576,0.0,4.811990609492929,0.0,9105.861223850485,0.358816278268338,122.06991732500126,2.1309995061887728,1.2221759179713456,101036.59753393303,287.9937728175298,0.0,0.0,0.0,402.54789473684207,0.2160445340859423,0.86,nominal,7686.234711554204,nan,pitch_program,11.202857142857143,0.0,0.0
1.89,197.55898403691802,0.0,24.03505770987644,122.63879176330248,0.0,0.0035520205692557393,122.63879181474155,17.59960213978267,0.0,4.811179218360309,0.0,0.0,0.5629972119454507,0.0,4.8095197451677,0.0,9190.92979360794,0.36048844684681075,122.63879181474155,2.1309106546323484,1.222175905461554,101036.59625675587,287.99377212488577,0.0,0.0,0.0,402.51394736842104,0.21602631477964393,0.86,nominal,7755.840027580319,nan,pitch_program,11.19,0.0,0.0
1.92,201.25518777476677,0.0,24.034298042008892,123.20679126162491,0.0,-0.025322262251628015,123.20679386382302,17.59312135033928,0.0,4.7949292736082825,0.0,0.0,0.5416648286983728,0.0,4.806705075245971,0.0,9276.263278899185,0.36215804740867563,123.20679386382302,2.1308330596492646,1.2221759946435322,101036.60536171848,287.9937770627269,0.0,0.0,0.0,402.48,0.2160080954733456,0.86,nominal,7825.652975994956,nan,pitch_program,11.177142857142858,0.0,0.0
1.95,204.96840502257362,0.0,24.032726971910954,123.7739082602287,0.0,-0.052369003264641036,123.7739193389464,17.58664110747508,0.0,4.779310754425784,0.0,0.0,0.5206173093071289,0.0,4.803552718887436,0.0,9361.859209580001,0.3638250679805853,123.77391933894641,2.1307663203547595,1.222176179080913,101036.62419170553,287.9937872746826,0.0,0.0,0.0,402.44605263157894,0.2159898761670472,0.86,nominal,7895.672096221097,nan,pitch_program,11.164285714285715,0.0,0.0
1.98,208.698609224094,0.0,24.030399260862428,124.3401400506798,0.0,-0.0775903682842188,124.34016425953409,17.58016141119007,0.0,4.764315125427948,0.0,0.0,0.49985430278117104,0.0,4.800068664507965,0.0,9447.71512844353,0.36548949704211053,124.34016425953408,2.130710025941476,1.2221764523449705,101036.65209038243,287.9938024048044,0.0,0.0,0.0,402.4121052631579,0.21597165686074887,0.86,nominal,7965.895938955497,nan,pitch_program,11.151428571428571,0.0,0.0
2.01,212.44577374319957,0.0,24.027369594413447,124.90548397018539,0.0,-0.1009888816326811,124.90552479606518,17.573682261484247,0.0,4.749933870418518,0.0,0.0,0.47937516949782033,0.0,4.796258781467606,0.0,9533.828591535113,0.36715132352078106,124.90552479606518,2.1306637561884916,1.2221768080158808,101036.68840232368,287.99382209763627,0.0,0.0,0.0,402.37815789473683,0.2159534375544505,0.86,nominal,8036.323066323281,nan,pitch_program,11.138571428571428,0.0,0.0
2.04,216.2098718652679,0.0,24.023692571701005,125.46993740227781,0.0,-0.12256742374800987,125.4699972682907,17.567203658357613,0.0,4.7361584997084,0.0,0.0,0.459179025882451,0.0,4.792128830116896,0.0,9620.19716844034,0.3688105367867715,125.4699972682907,2.1306270819638877,1.2221772396839747,101036.73247314086,287.9938459982839,0.0,0.0,0.0,402.3442105263158,0.21593521824815215,0.86,nominal,8106.95205201071,nan,pitch_program,11.125714285714286,0.0,0.0
2.07,219.99087679858985,0.0,24.019422694850196,126.03349777739874,0.0,-0.14232922836030304,126.03357814334566,17.56072560181017,0.0,4.722980556290056,0.0,0.0,0.43926478254784074,0.0,4.7876844704362895,0.0,9706.818442548283,0.37046712664728537,126.03357814334568,2.1305995657207837,1.222177740950973,101036.78364960846,287.99387375248347,0.0,0.0,0.0,402.3102631578947,0.2159169989418538,0.86,nominal,8177.781481377861,nan,pitch_program,11.112857142857143,0.0,0.0
2.1,223.78876167579176,0.0,24.014614358471402,126.59616257339741,0.0,-0.16027787929311338,126.59626403377257,17.554248091841913,0.0,4.710391621036029,0.0,0.0,0.4196311768224414,0.0,4.782931269470306,0.0,9793.690011291745,0.3721210833406756,126.59626403377257,2.1305807619869,1.2221783054312227,101036.84127979007,287.99390500666993,0.0,0.0,0.0,402.27631578947364,0.2158987796355554,0.86,nominal,8248.809951552832,nan,pitch_program,11.1,0.0,0.0
2.13,227.60349955527042,0.0,24.009321839263244,127.1579293159552,0.0,-0.17641730693857932,127.15805169546931,17.547771128452847,0.0,4.698383317065994,0.0,0.0,0.40027680046640546,0.0,4.777874707729625,0.0,9880.809486366048,0.3737723975303438,127.15805169546933,2.130570217847733,1.2221789267529088,101036.90471316215,287.99393940804475,0.0,0.0,0.0,402.2423684210526,0.21588056032925707,0.86,nominal,8320.036071508834,nan,pitch_program,11.08714285714286,0.0,0.0
2.16,231.43506342263882,0.0,24.003599285729777,127.71879557894687,0.0,-0.19075178444889482,127.71893802557273,17.54129471164297,0.0,4.686947313405616,0.0,0.0,0.3812001232780884,0.0,4.772520184709259,0.0,9968.174493927827,0.37542106029844796,127.71893802557273,2.130567473423426,1.2221795985592665,101036.97330073747,287.99397660464274,0.0,0.0,0.0,402.2084210526316,0.2158623410229587,0.86,nominal,8391.458462125445,nan,pitch_program,11.074285714285715,0.0,0.0
2.19,235.28342619218125,0.0,23.99750070801934,128.27875898474738,0.0,-0.2032859236811732,128.27892006028767,17.53481884141228,0.0,4.676075328041998,0.0,0.0,0.3623995132080406,0.0,4.766873023649134,0.0,10055.782674775035,0.3770670631394511,128.27892006028767,2.1305720623392945,1.2221803145097665,101037.04639518622,287.99401624539786,0.0,0.0,0.0,402.1744736842105,0.21584412171666034,0.86,nominal,8463.075756235135,nan,pitch_program,11.061428571428571,0.0,0.0
2.2199999999999998,239.148560708316,0.0,23.991079967891498,128.83781720449193,0.0,-0.2140246709280846,128.8379949726704,17.52834351776078,0.0,4.665759130466085,0.0,0.0,0.3438732534594402,0.0,4.760938475646133,0.0,10143.631684509297,0.3787103979535332,128.8379949726704,2.130583512190121,1.2221810682812906,101037.12335095598,287.9940579802087,0.0,0.0,0.0,402.1405263157895,0.215825902410362,0.86,nominal,8534.886598656045,nan,pitch_program,11.04857142857143,0.0,0.0
2.25,243.03043974706486,0.0,23.984390768817622,129.39596795829522,0.0,-0.2229733024624695,129.3961600703737,17.521868740688472,0.0,4.655990543778413,0.0,0.0,0.3256195570445078,0.0,4.754721723210091,0.0,10231.719193681665,0.38035105703989097,129.3961600703737,2.1306013449981194,1.222181853569295,101037.20352439032,287.99410146000264,0.0,0.0,0.0,402.1065789473684,0.21580768310406362,0.86,nominal,8606.889646211912,nan,pitch_program,11.035714285714285,0.0,0.0
2.28,246.92903601752795,0.0,23.97748664622,129.95320901543622,0.0,-0.2301374199206601,129.95341279336105,17.51539451019535,0.0,4.6467614464242315,0.0,0.0,0.3076365791378844,0.0,4.748227883343884,0.0,10320.042887922744,0.3819890330899467,129.95341279336108,2.130625077664673,1.2221826640889577,101037.28627384601,287.99414633679953,0.0,0.0,0.0,402.0726315789474,0.21578946379776529,0.86,nominal,8679.083567740003,nan,pitch_program,11.022857142857143,0.0,0.0
2.31,250.8443221633633,0.0,23.97042095785362,130.5095381945122,0.0,-0.23552294554607847,130.5097507115952,17.508920826281418,0.0,4.638063773613472,0.0,0.0,0.28992242758208797,0.0,4.7414620102152085,0.0,10408.600468057728,0.3836243191804792,130.50975071159516,2.130654222415699,1.2221834935762972,101037.37095980717,287.9941922637739,0.0,0.0,0.0,402.03868421052636,0.21577124449146692,0.86,nominal,8751.467044087696,nan,pitch_program,11.01,0.0,0.0
2.34,254.7762707642703,0.0,23.963246874334256,131.0649533635665,0.0,-0.23913611731211815,131.06517152270646,17.502447688946674,0.0,4.629889518473814,0.0,0.0,0.2724751717841242,0.0,4.7344290974789445,0.0,10497.389650207588,0.38525690876669805,131.06517152270644,2.13068828724066,1.2221843357892932,101037.45694499965,287.9942388953168,0.0,0.0,0.0,402.0047368421053,0.21575302518516856,0.86,nominal,8824.038768098422,nan,pitch_program,10.997142857142858,0.0,0.0
2.37,258.7248543374761,0.0,23.956017369816028,131.61945244019324,0.0,-0.2409834839409346,131.61967304964645,17.49597509819112,0.0,4.622230732977822,0.0,0.0,0.2552928502465096,0.0,4.727134080300302,0.0,10586.408165876615,0.38688679567527107,131.61967304964645,2.130539345527064,1.2221851845089744,101037.54359450203,287.99428588709617,0.0,0.0,0.0,401.9707894736842,0.21573480587887017,0.86,nominal,8896.797444587619,nan,pitch_program,10.984285714285715,0.0,0.0
2.4,262.690045675531,0.0,23.948781053117695,132.17304460182982,0.0,-0.24121055661107876,132.17326470148913,17.489503054014754,0.0,4.620177358280444,0.0,0.0,0.06844582325326555,0.0,4.72473976407721,0.0,10675.655618055162,0.38851400777423056,132.17326470148913,2.1308895788456628,1.2221860340288349,101037.63032571235,287.99433292315473,0.0,0.0,0.0,401.9368421052631,0.2157165865725718,0.86,nominal,8969.743264639512,nan,pitch_program,10.971428571428572,0.0,0.0
2.4299999999999997,266.67181432101967,0.0,23.941601589435102,132.72562151628972,0.0,-0.2393154560863997,132.72583726905967,17.483031556417576,0.0,4.621176645597799,0.0,0.0,-0.03330957724604216,0.0,4.724485641930877,0.0,10765.112379260903,0.3901382243314989,132.72583726905967,2.131349958645205,1.2221868768747837,101037.71637556775,287.99437958966865,0.0,0.0,0.0,401.9028947368421,0.21569836726627348,0.86,nominal,9042.860846613488,nan,pitch_program,10.958571428571428,0.0,0.0
2.46,270.670128447086,0.0,23.934546664165314,133.2771375355437,0.0,-0.23516417565964207,133.2773450060352,17.476560605399587,0.0,4.623619688387955,0.0,0.0,-0.08143475968416916,0.0,4.724716553342011,0.0,10854.768861564497,0.391759311182092,133.2773450060352,2.1317709700191174,1.2221877051007566,101037.800932819,287.9944254466829,0.0,0.0,0.0,401.86894736842106,0.21568014795997512,0.86,nominal,9116.143067973007,nan,pitch_program,10.945714285714285,0.0,0.0
2.4899999999999998,274.68495584776514,0.0,23.927683313439214,133.82758002263833,0.0,-0.2287783575366167,133.82777557089017,17.470090200960787,0.0,4.628678057084894,0.0,0.0,-0.16861229000751157,0.0,4.726625143624495,0.0,10944.620819830736,0.3933772323541443,133.82777557089017,2.1323608119978656,1.2221885108368953,101037.88319399656,287.99447005846264,0.0,0.0,0.0,401.835,0.21566192865367675,0.86,nominal,9189.58717269201,nan,pitch_program,10.932857142857143,0.0,0.0
2.52,278.71626302373073,0.0,23.921083397966605,134.3769058655202,0.0,-0.21999718242032526,134.37708595125565,17.463620343101177,0.0,4.635990466891264,0.0,0.0,-0.24374699387648027,0.0,4.729793034487215,0.0,11034.65893527514,0.39499186174740986,134.37708595125568,2.1330696023882867,1.222189285646932,101037.96229780317,287.9945129579132,0.0,0.0,0.0,401.80105263157895,0.2156437093473784,0.86,nominal,9263.186306880245,nan,pitch_program,10.92,0.0,0.0
2.55,282.7640154408927,0.0,23.914822109566455,134.92508057206587,0.0,-0.2087096133383855,134.92524199378397,17.457151031820754,0.0,4.644833155497564,0.0,0.0,-0.2947562874617348,0.0,4.733461380878017,0.0,11124.875232886669,0.3966030993222324,134.92524199378397,2.1338177999103802,1.2221900207035274,101038.03734301483,287.9945536562878,0.0,0.0,0.0,401.7671052631579,0.21562549004108003,0.86,nominal,9336.934753781361,nan,pitch_program,10.907142857142858,0.0,0.0
2.58,286.8281780034914,0.0,23.90897560974906,135.47208541995747,0.0,-0.19488332724648857,135.47222559456048,17.45068226711952,0.0,4.655328851618486,0.0,0.0,-0.349856538342392,0.0,4.737751620941708,0.0,11215.264304569095,0.39821089222489703,135.47222559456048,2.1346504061612763,1.222190707065484,101038.10741678285,287.9945916585366,0.0,0.0,0.0,401.73315789473685,0.2156072707347817,0.86,nominal,9410.828909435091,nan,pitch_program,10.894285714285715,0.0,0.0
2.61,290.90871491345933,0.0,23.90362205050648,136.01789699892973,0.0,-0.17845197475261607,136.01801406107484,17.444214048997477,0.0,4.667378345367074,0.0,0.0,-0.4016497930999671,0.0,4.742548888055026,0.0,11305.81993113759,0.3998151741282728,136.01801406107484,2.1355641644579277,1.2221913355579206,101038.17158240033,287.9946264566717,0.0,0.0,0.0,401.6992105263158,0.21558905142848334,0.86,nominal,9484.864529740973,nan,pitch_program,10.881428571428572,0.0,0.0
2.6399999999999997,295.0055897209933,0.0,23.898841372832145,136.56249358446587,0.0,-0.15935592247789798,136.5625865613174,17.437746377454623,0.0,4.680694856253719,0.0,0.0,-0.44388369821960655,0.0,4.747553752972169,0.0,11396.53614382251,0.40141588418770613,136.56258656131743,2.136529434436139,1.222191896795918,101038.22888171644,287.99465753107654,0.0,0.0,0.0,401.6652631578947,0.21557083212218495,0.86,nominal,9559.03759690754,nan,pitch_program,10.868571428571428,0.0,0.0
2.67,299.11876550887104,0.0,23.89471441847804,137.1058595959227,0.0,-0.13756514513687457,137.10592860888994,17.431279252490956,0.0,4.695216079132167,0.0,0.0,-0.4840407652058944,0.0,4.7527037722384,0.0,11487.40798324407,0.40301298022076415,137.10592860888997,2.1375519850036153,1.222192381288813,101038.27834578417,287.9946843562799,0.0,0.0,0.0,401.63131578947366,0.21555261281588659,0.86,nominal,9633.344931004982,nan,pitch_program,10.855714285714285,0.0,0.0
2.6999999999999997,303.2482049085355,0.0,23.891322976013612,137.6479799888153,0.0,-0.11304808214761108,137.64802641109742,17.42481267410648,0.0,4.710864775514136,0.0,0.0,-0.5216232159748986,0.0,4.757920871312503,0.0,11578.430569813723,0.40460642209411113,137.64802641109745,2.138630018794991,1.2221927794347782,101038.31899430735,287.9947064006559,0.0,0.0,0.0,401.59736842105264,0.21553439350958825,0.86,nominal,9707.783429897812,nan,pitch_program,10.842857142857143,0.0,0.0
2.73,307.3938701371666,0.0,23.88874965949084,138.18884095436783,0.0,-0.08577721742570499,138.1888675763811,17.41834664230119,0.0,4.727508961604138,0.0,0.0,-0.5548062069015969,0.0,4.763073858680637,0.0,11669.599225812963,0.40619617380244805,138.18886757638114,2.1397519575577086,1.2221930815350863,101038.34983709689,287.99472312721326,0.0,0.0,0.0,401.56342105263155,0.21551617420328986,0.86,nominal,9782.350167869545,nan,pitch_program,10.83,0.0,0.0
2.76,311.5557230779704,0.0,23.88707755200797,138.72843136012781,0.0,-0.05573691609573729,138.7284425568366,17.411881157075094,0.0,4.745078224973009,0.0,0.0,-0.5856421168846119,0.0,4.768097946685571,0.0,11760.909725165871,0.40778220770708573,138.72844255683657,2.1409158471965806,1.2221932778359548,101038.36987834309,287.99473399591193,0.0,0.0,0.0,401.52947368421053,0.21549795489699153,0.86,nominal,9857.042596198155,nan,pitch_program,10.817142857142857,0.0,0.0
2.79,315.7337253142033,0.0,23.886390101849482,139.266741207762,0.0,-0.02291500528296285,139.2667430929841,17.405416218428183,0.0,4.763508223614239,0.0,0.0,-0.6143332933380262,0.0,4.77293569399948,0.0,11852.358038357737,0.4093644999639847,139.2667430929841,2.142118623532823,1.2221933585407394,101038.37811786089,287.99473846433796,0.0,0.0,0.0,401.49552631578945,0.21547973559069317,0.86,nominal,9931.858333355916,nan,pitch_program,10.804285714285717,0.0,0.0
2.82,319.92783816242445,0.0,23.886771005084064,139.80376160737148,0.0,0.01269677448607983,139.8037621839228,17.398951826360463,0.0,4.782724167352216,0.0,0.0,-0.640531463936506,0.0,4.777520647925287,0.0,11943.940331823067,0.41094303043547464,139.8037621839228,2.143354433829628,1.2221933138237315,101038.37355249855,287.9947359884669,0.0,0.0,0.0,401.4615789473684,0.2154615162843948,0.86,nominal,10006.795163266428,nan,pitch_program,10.791428571428572,0.0,0.0
2.85,324.1380227157526,0.0,23.888304029717165,140.33948511093814,0.0,0.051100821103331175,140.33949441442755,17.39248798087193,0.0,4.802671155251791,0.0,0.0,-0.6648996033680923,0.0,4.7818084504530525,0.0,12035.653028484536,0.4125177836508981,140.33949441442758,2.144620173505915,1.2221931338508074,101038.3551782461,287.99472602380683,0.0,0.0,0.0,401.4276315789474,0.21544329697809647,0.86,nominal,10081.851082961599,nan,pitch_program,10.778571428571428,0.0,0.0
2.88,328.36423987274674,0.0,23.891072914684898,140.87390523313823,0.0,0.09229616559105942,140.87393546791188,17.38602468196259,0.0,4.823299248035751,0.0,0.0,-0.6876031002259102,0.0,4.785760855185681,0.0,12127.492729293372,0.41408874737449725,140.87393546791185,2.1459125314144356,1.22219280879129,101038.32199144662,287.9947080260545,0.0,0.0,0.0,401.3936842105263,0.21542507767179808,0.86,nominal,10157.024237307493,nan,pitch_program,10.765714285714287,0.0,0.0
2.9099999999999997,332.60645036433107,0.0,23.89516127219619,141.40701638614465,0.0,0.13627858370974538,141.4070820542018,17.379561929632434,0.0,4.8445591180358,0.0,0.0,-0.7086623414658054,0.0,4.789341311545189,0.0,12219.456204520782,0.4156559123926131,141.4070820542018,2.14722758384173,1.2221923288294283,101038.27298996846,287.9946814517307,0.0,0.0,0.0,401.3597368421053,0.21540685836549975,0.86,nominal,10232.312910831863,nan,pitch_program,10.752857142857144,0.0,0.0
2.94,336.86461478156576,0.0,23.900652482220085,141.93881390782357,0.0,0.18304033412987206,141.9389319296284,17.37309972388147,0.0,4.8664094054168,0.0,0.0,-0.7283429215272094,0.0,4.7925224077446975,0.0,12311.54040077144,0.41721927257220043,141.9389319296284,2.1485622753120213,1.2221916841767904,101038.2071744709,287.99464575886554,0.0,0.0,0.0,401.3257894736842,0.21538863905920136,0.86,nominal,10307.715532326609,nan,pitch_program,10.74,0.0,0.0
2.9699999999999998,341.1386935980537,0.0,23.90762961301953,142.4692938829315,0.0,0.2325710266481459,142.46948371066534,17.366638064709694,0.0,4.888811942524056,0.0,0.0,-0.7467512464220929,0.0,4.795280725626418,0.0,12403.74241207683,0.41877882431259733,142.46948371066534,2.149913505518055,1.2221908650816,101038.12354935758,287.99460040751535,0.0,0.0,0.0,401.29184210526313,0.215370419752903,0.86,nominal,10383.230650336289,nan,pitch_program,10.727142857142857,0.0,0.0
3.0,345.4286471909209,0.0,23.91617534588108,142.99845309557352,0.0,0.28485776205163177,142.99873681844724,17.360176952117108,0.0,4.9117309481372455,0.0,0.0,-0.7639668639598333,0.0,4.797595965657936,0.0,12496.059473114206,0.4203345663820211,142.9987368184472,2.151278134376529,1.2221898618375897,101038.02112368062,287.9945448602518,0.0,0.0,0.0,401.2578947368421,0.21535220044660466,0.86,nominal,10458.856926791455,nan,pitch_program,10.714285714285715,0.0,0.0
3.03,349.7344358607488,0.0,23.926371903327535,143.5262889942638,0.0,0.339885248215184,143.52669143558938,17.35371638610371,0.0,4.935134478473151,0.0,0.0,-0.7801176887101997,0.0,4.799452339854386,0.0,12588.488954348066,0.4218864997902322,143.52669143558936,2.1526533320784815,1.2221886647924307,101037.89891200172,287.99447858262835,0.0,0.0,0.0,401.223947368421,0.21533398114030627,0.86,nominal,10534.59313224921,nan,pitch_program,10.701428571428572,0.0,0.0
3.06,354.05601984911624,0.0,23.938300988192335,144.05279961224736,0.0,0.3976361621599951,144.05334841871516,17.3472563666695,0.0,4.958992738208032,0.0,0.0,-0.7952753359872932,0.0,4.80083672825761,0.0,12681.028349178505,0.4234346275310492,144.0533484187152,2.154036284563676,1.2221872643549045,101037.7559351247,287.9944010435767,0.0,0.0,0.0,401.19,0.21531576183400794,0.86,nominal,10610.43813470773,nan,pitch_program,10.688571428571429,0.0,0.0
3.09,358.39335935510206,0.0,23.952043726432038,144.57798353286066,0.0,0.4580912746567831,144.57870925569935,17.34079689381448,0.0,4.983277988026264,0.0,0.0,-0.8095083393937637,0.0,4.801738529550575,0.0,12773.675268634675,0.42497895445631517,144.57870925569935,2.155424253596269,1.222185651001627,101037.59122078215,287.99431171577817,0.0,0.0,0.0,401.156052631579,0.21529754252770958,0.86,nominal,10686.390894631835,nan,pitch_program,10.675714285714285,0.0,0.0
3.12,362.74641455068434,0.0,23.96768061452127,145.10183985274153,0.0,0.5212296029743781,145.10277602082488,17.33433796753865,0.0,5.007964604484346,0.0,0.0,-0.822887227999678,0.0,4.802149654195258,0.0,12866.427435515478,0.42651948714374893,145.10277602082485,2.156814632295376,1.2221838152832276,101037.40380426704,287.9942100760056,0.0,0.0,0.0,401.1221052631579,0.21527932322141122,0.86,nominal,10762.45045957323,nan,pitch_program,10.662857142857142,0.0,0.0
3.15,367.1151455949029,0.0,23.98529147226775,145.62436814061917,0.0,0.587028591549324,145.62555132572675,17.32787958784201,0.0,5.033028468286979,0.0,0.0,-0.8354621400772693,0.0,4.802063836500572,0.0,12959.282677589938,0.4280562337524331,145.62555132572678,2.158204857487359,1.2221817478299146,101037.19272900092,287.99409560543023,0.0,0.0,0.0,401.08815789473687,0.21526110391511288,0.86,nominal,10838.615958077453,nan,pitch_program,10.65,0.0,0.0
3.1799999999999997,371.499512647245,0.0,24.004955398787995,146.14556841140362,0.0,0.6554642173414531,146.147038285531,17.321421754724557,0.0,5.058446923860116,0.0,0.0,-0.8472818663342312,0.0,4.801476549223279,0.0,13052.238923308818,0.42958920392297806,146.147038285531,2.1595924448069215,1.2221794393566463,101036.95704706239,287.99396778990786,0.0,0.0,0.0,401.0542105263158,0.2152428846088145,0.86,nominal,10914.886595677759,nan,pitch_program,10.637142857142857,0.0,0.0
3.21,375.89947588020897,0.0,24.0267507320904,146.66544109879874,0.0,0.7265111100801209,146.6672404836822,17.314964468186293,0.0,5.084198611129385,0.0,0.0,-0.8583895900923361,0.0,4.80038478556124,0.0,13145.294197137526,0.4311184086738469,146.6672404836822,2.1609749825805946,1.2221768806678912,101036.69581967373,287.9938261202414,0.0,0.0,0.0,401.0202631578947,0.21522466530251613,0.86,nominal,10991.26165061599,nan,pitch_program,10.624285714285714,0.0,0.0
3.2399999999999998,380.31499549114,0.0,24.05075501187336,147.1839870310337,0.0,0.8001426594320614,147.1861619399967,17.308507728227216,0.0,5.110263238844841,0.0,0.0,-0.8688209388317841,0.0,4.798786788879952,0.0,13238.446615321824,0.4326438603071729,147.1861619399967,2.162350111674994,1.2221740626620101,101036.4081176484,287.9936700924228,0.0,0.0,0.0,400.9863157894737,0.21520644599621777,0.86,nominal,11067.740469950657,nan,pitch_program,10.611428571428572,0.0,0.0
3.27,384.746031713487,0.0,24.077044944876164,147.70120741156734,0.0,0.8763311000935056,147.70380708374387,17.30205153484733,0.0,5.136621516801057,0.0,0.0,-0.8786092807026261,0.0,4.7966819508531335,0.0,13331.694382428052,0.4341655723293667,147.70380708374387,2.1637155368125396,1.222170976335341,101036.0930218086,287.9934992078583,0.0,0.0,0.0,400.9523684210526,0.2151882266899194,0.86,nominal,11144.322466324584,nan,pitch_program,10.598571428571429,0.0,0.0
3.3,389.19254482749363,0.0,24.105696372814577,148.21710380022154,0.0,0.9550475979471473,148.22018072732197,17.29559588804663,0.0,5.163255019257312,0.0,0.0,-0.8877834311943552,0.0,4.794070641127247,0.0,13425.0357878776,0.4356835593734821,148.22018072732197,2.165069017001684,1.222167612785967,101035.74962337055,287.9933129735767,0.0,0.0,0.0,400.9184210526316,0.21517000738362105,0.86,nominal,11221.007114754455,nan,pitch_program,10.585714285714285,0.0,0.0
3.33,393.65449517040855,0.0,24.136784242522488,148.73167809716475,0.0,1.0362623235969621,148.73528804289163,17.289140787825122,0.0,5.190146088334586,0.0,0.0,-0.8963689856966698,0.0,4.790954082547726,0.0,13518.469202909513,0.4371978371302829,148.73528804289163,2.1664083633743005,1.2221639632172492,101035.37702430537,287.9931109024236,0.0,0.0,0.0,400.8844736842105,0.2151517880773227,0.86,nominal,11297.793949792904,nan,pitch_program,10.572857142857142,0.0,0.0
3.36,398.13184314626767,0.0,24.170382578094763,149.24493252863815,0.0,1.1199445190759012,149.24913454088622,17.2826862341828,0.0,5.2172777646122785,0.0,0.0,-0.9043892261562857,0.0,4.787334256801152,0.0,13611.993077787627,0.4387084222848368,149.24913454088625,2.167731440043472,1.2221600189410975,101034.97433767367,287.99289251324234,0.0,0.0,0.0,400.85052631578947,0.21513356877102435,0.86,nominal,11374.682562911254,nan,pitch_program,10.56,0.0,0.0
3.3899999999999997,402.62454923528117,0.0,24.206564454908072,149.7568696337833,0.0,1.206062560443615,149.7617260497811,17.27623222711967,0.0,5.244633707212631,0.0,0.0,-0.9118647706674164,0.0,4.783213801636694,0.0,13705.605939148672,0.44021533245681455,149.76172604978106,2.1690361600487105,1.2221557713810478,101034.54068794008,287.99265733104306,0.0,0.0,0.0,400.81657894736844,0.215115349464726,0.86,nominal,11451.672600016562,nan,pitch_program,10.547142857142857,0.0,0.0
3.42,407.13257400287273,0.0,24.24540197531211,150.2674922530522,0.0,1.294584013467944,150.2730686975848,17.269778766635728,0.0,5.272198140047983,0.0,0.0,-0.9188144455665542,0.0,4.778595937357462,0.0,13799.306387582556,0.4417185861458606,150.2730686975848,2.1703204857708824,1.2221512120751212,101034.0752112656,287.99240488716043,0.0,0.0,0.0,400.78263157894736,0.21509713015842763,0.86,nominal,11528.763759175712,nan,pitch_program,10.534285714285714,0.0,0.0
3.4499999999999997,411.6558781083973,0.0,24.28696624588794,150.77680351748532,0.0,1.3854756858609767,150.78316889436462,17.263325852730976,0.0,5.299955799966925,0.0,0.0,-0.9252553487281526,0.0,4.773484396918284,0.0,13893.093095326394,0.4432182026800079,150.78316889436462,2.1715824277650593,1.2221463326785131,101033.57705578263,287.9921347194017,0.0,0.0,0.0,400.74868421052633,0.21507891085212927,0.86,nominal,11605.95578844848,nan,pitch_program,10.521428571428572,0.0,0.0
3.48,416.1944223135649,0.0,24.33132735615057,151.28480683892155,0.0,1.4787036754209981,151.29203331586731,17.25687348540541,0.0,5.3278918925199905,0.0,0.0,-0.9312031035502307,0.0,4.767883365551381,0.0,13986.964804088915,0.44471420216731944,151.29203331586731,2.1728200440334158,1.222141124966106,101033.04538185202,287.991846372185,0.0,0.0,0.0,400.71473684210525,0.2150606915458309,0.86,nominal,11683.248483841948,nan,pitch_program,10.508571428571429,0.0,0.0
3.51,420.7481674905944,0.0,24.37855435859205,151.79150590098328,0.0,1.574233414715992,151.79966888808502,17.250421664659036,0.0,5.355992056491779,0.0,0.0,-0.9366721511678633,0.0,4.761797430777466,0.0,14080.920322982704,0.44620660545031415,151.79966888808502,2.1740314400996503,1.2221355808348273,101032.47936230413,287.9915393966691,0.0,0.0,0.0,400.6807894736842,0.21504247223953252,0.86,nominal,11760.641687366811,nan,pitch_program,10.495714285714286,0.0,0.0
3.54,425.3170746301135,0.0,24.42871524998629,152.2969046506358,0.0,1.672029713141278,152.30608277257505,17.24397039049185,0.0,5.384242331138427,0.0,0.0,-0.9416758406323777,0.0,4.7552315363856845,0.0,14174.958526533472,0.447695434062613,152.30608277257502,2.175214768561907,1.222129692305863,101031.87818266543,287.99121335087506,0.0,0.0,0.0,400.64684210526315,0.21502425293323418,0.86,nominal,11838.13528516952,nan,pitch_program,10.482857142857142,0.0,0.0
3.57,429.9011048488227,0.0,24.48187695387454,152.80100729030548,0.0,1.7720567962750406,152.81128235251876,17.237519662903853,0.0,5.412629129817916,0.0,0.0,-0.9462266420050235,0.0,4.7481909440655485,0.0,14269.078352767305,0.4491807101877642,152.81128235251876,2.176368229290883,1.2221234515267223,101031.24104136965,287.9908677997998,0.0,0.0,0.0,400.61289473684207,0.21500603362693582,0.86,nominal,11915.72920574032,nan,pitch_program,10.47,0.0,0.0
3.5999999999999996,434.5002193969348,0.0,24.53810530416996,153.30381827040452,0.0,1.8742783431807015,153.31527521937574,17.231069481895045,0.0,5.44113921663452,0.0,0.0,-0.9503362468287614,0.0,4.740681199036828,0.0,14363.278801352786,0.45066245661982235,153.31527521937576,2.1774900694861414,1.2221168507731792,101030.56714995661,287.99050231552286,0.0,0.0,0.0,400.57894736842104,0.21498781432063746,0.86,nominal,11993.423418177603,nan,pitch_program,10.457142857142857,0.0,0.0
3.63,439.1143796654014,0.0,24.597465029823024,153.8053422822174,0.0,1.978657521768743,153.8180691600909,17.224619847465426,0.0,5.469759686630792,0.0,0.0,-0.9540156863797129,0.0,4.7327081001430855,0.0,14457.558931793146,0.45214069672555857,153.8180691600909,2.17857858389896,1.222109882451092,101029.8557332582,287.9901164773061,0.0,0.0,0.0,400.545,0.21496959501433913,0.86,nominal,12071.217930503964,nan,pitch_program,10.444285714285714,0.0,0.0
3.6599999999999997,443.7435471929336,0.0,24.66001974049811,154.3055842510745,0.0,2.0851570225029565,154.31967214478505,17.218170759614996,0.0,5.49847794889062,0.0,0.0,-0.9572754287022165,0.0,4.724277673642614,0.0,14551.917861657987,0.45361545440809614,154.31967214478505,2.1796321151419655,1.2221025390980917,101029.10602957147,287.9897098716867,0.0,0.0,0.0,400.51105263157893,0.21495137570804074,0.86,nominal,12149.112788025128,nan,pitch_program,10.431428571428572,0.0,0.0
3.69,448.38768367282626,0.0,24.72583191321806,154.80454932975522,0.0,2.193739090664954,154.82009231487535,17.211722218343755,0.0,5.527281711834091,0.0,0.0,-0.960125451669969,0.0,4.715396149877769,0.0,14646.354764847145,0.4550867540718144,154.82009231487535,2.1806490539924024,1.2220948133851701,101028.31729082104,287.98928209256405,0.0,0.0,0.0,400.4771052631579,0.2149331564017424,0.86,nominal,12227.108071725024,nan,pitch_program,10.418571428571429,0.0,0.0
3.7199999999999998,453.0467509595887,0.0,24.794962879937472,155.30224289208022,0.0,2.3043655573137594,155.3193379715881,17.205274223651703,0.0,5.556158970733614,0.0,0.0,-0.9625753170268425,0.0,4.7060699427835875,0.0,14740.868869881762,0.45655462058841084,155.3193379715881,2.181627839780694,1.22208669811815,101027.48878270971,287.98883274128036,0.0,0.0,0.0,400.4431578947368,0.21491493709544401,0.86,nominal,12305.203896692745,nan,pitch_program,10.405714285714286,0.0,0.0
3.75,457.72071107538807,0.0,24.867472816011066,155.79867052664665,0.0,2.416997869119786,155.81741756482143,17.19882677553884,0.0,5.585097996803371,0.0,0.0,-0.9646342228322362,0.0,4.696305631505602,0.0,14835.459458216594,0.4580190792639956,155.81741756482143,2.182566960751542,1.2220781862390568,101026.61978485892,287.9883614266959,0.0,0.0,0.0,400.4092105263158,0.21489671778914568,0.86,nominal,12383.400410576096,nan,pitch_program,10.392857142857142,0.0,0.0
3.78,462.40952621630845,0.0,24.943420729526142,156.2938380306785,0.0,2.531597117169155,156.31433968233247,17.192379874005166,0.0,5.6140873278407,0.0,0.0,-0.9663110551918674,0.0,4.686109944056157,0.0,14930.125862570461,0.45948015580714546,156.3143396823325,2.18346495445683,1.2220692708273766,101025.70959093768,287.98786776525804,0.0,0.0,0.0,400.3752631578947,0.21487849848284732,0.86,nominal,12461.69779205902,nan,pitch_program,10.38,0.0,0.0
3.81,467.1131587584273,0.0,25.02286445147194,156.78775140396087,0.0,2.648124064859943,156.81011303922054,17.185933519050682,0.0,5.643115760036912,0.0,0.0,-0.9676144272381191,0.0,4.675489742569447,0.0,15024.867465271338,0.46093787629783,156.81011303922054,2.1843204081212932,1.2220599451012335,101024.7575087831,287.9873513810654,0.0,0.0,0.0,400.34131578947364,0.21486027917654893,0.86,nominal,12540.096249359589,nan,pitch_program,10.367142857142857,0.0,0.0
3.84,471.8315712637124,0.0,25.105860626720922,157.28041684283764,0.0,2.76653917496611,157.30474646768732,17.179487710675385,0.0,5.672172340861767,0.0,0.0,-0.9685527149198506,0.0,4.6644520100206215,0.0,15119.683696613847,0.46239226715716003,157.3047464676873,2.185131959001187,1.2220502024184543,101023.76286050958,287.9868119059263,0.0,0.0,0.0,400.3073684210526,0.2148420598702506,0.86,nominal,12618.596018746726,nan,pitch_program,10.354285714285714,0.0,0.0
3.8699999999999997,476.56472648574,0.0,25.192464705799395,157.77184073425224,0.0,2.886802635949042,157.79824890705592,17.17304244887928,0.0,5.701246362801453,0.0,0.0,-0.9691340854516288,0.0,4.6530038381495284,0.0,15214.57403322729,0.46384335511789687,157.79824890705592,2.185898294709913,1.2220400362775539,101022.72498260977,287.98624897941227,0.0,0.0,0.0,400.2734210526316,0.21482384056395223,0.86,nominal,12697.197363073714,nan,pitch_program,10.341428571428573,0.0,0.0
