time_s,sensor_time_s,imu_valid,imu_ax_mps2,imu_ay_mps2,imu_az_mps2,gyro_p_rps,gyro_q_rps,gyro_r_rps,imu_accel_norm_mps2,imu_gyro_norm_rps,gps_valid,gps_latency_s,gps_x_m,gps_y_m,gps_z_m,gps_vx_mps,gps_vy_mps,gps_vz_mps,baro_valid,baro_alt_m,baro_bias_m,pitot_valid,pitot_airspeed_mps,pitot_qbar_pa,pitot_compressibility_factor,mag_valid,mag_heading_deg,mag_x_ut,mag_y_ut,mag_z_ut,radar_valid,radar_agl_m,optical_flow_valid,optical_flow_x_radps,optical_flow_y_radps,optical_flow_quality,horizon_valid,horizon_roll_deg,horizon_pitch_deg
0.0,0.0,1.0,17.089474510188992,-0.04331266066330364,0.17662148382067971,0.0016677683591043149,0.0011681274632859406,0.0012765720485123657,17.090442070628836,0.00240324973008537,1.0,0.0,-1.885154541229685,1.8645638091475825,21.162662438547994,85.32748210022089,0.18147237523479218,7.846341299741817,1.0,20.771163472887363,0.0,1.0,85.6269982596741,4465.519226242078,1.0,1.0,-0.8198733225718878,19.523475325297145,-0.00615746722134172,-43.81279554351524,1.0,20.39618647858491,1.0,-0.0077448575321814855,4.273240466216326,0.95,1.0,0.17459483210835952,5.697481511065039
0.03,0.03,1.0,17.3962452862122,-0.024205067786461216,0.688627239720865,0.001972178925766813,-0.15518944895900577,0.0016995476198838452,17.409886370067216,0.15521128509237772,1.0,0.0,-1.885154541229685,1.8645638091475825,21.162662438547994,85.32748210022089,0.18147237523479218,7.846341299741817,1.0,20.771163472887363,0.0,1.0,85.44841255458797,4493.766976450421,1.0,1.0,-0.8198733225718878,19.523475325297145,-0.00615746722134172,-43.81279554351524,1.0,20.39618647858491,1.0,-0.0077448575321814855,4.273240466216326,0.95,1.0,0.17459483210835952,5.697481511065039
0.06,0.06,1.0,17.704006294798113,-0.048625240197861,1.2236148678348648,-0.003446139225741984,-0.18272111010679384,-0.00034689119184351384,17.74630769047528,0.18275393371339851,1.0,0.0,-1.885154541229685,1.8645638091475825,21.162662438547994,85.32748210022089,0.18147237523479218,7.846341299741817,1.0,20.526029304428423,0.0,1.0,85.93804450466565,4525.838509978779,1.0,1.0,0.07665381874344163,19.051633640018895,-0.026858555853548426,-44.01670154844924,1.0,20.44437918505562,1.0,0.00018197912592243334,4.2191320580192055,0.9488515176429358,1.0,-0.15907090264631085,6.398144082080089
0.09,0.09,1.0,17.977928727385894,-0.01094183278357201,1.4143958341450533,0.0004011470069548937,-0.11381451894947815,0.0025448602353110453,18.03348431741128,0.11384367332548426,1.0,0.0,-1.885154541229685,1.8645638091475825,21.162662438547994,85.32748210022089,0.18147237523479218,7.846341299741817,1.0,20.526029304428423,0.0,1.0,87.23038722860076,4643.928202436921,1.0,1.0,0.07665381874344163,19.051633640018895,-0.026858555853548426,-44.01670154844924,1.0,20.44437918505562,1.0,0.00018197912592243334,4.2191320580192055,0.9488515176429358,1.0,-0.15907090264631085,6.398144082080089
0.12,0.12,1.0,18.243749351799643,-0.01413003862604277,1.5290865305656438,0.0017811967641120853,-0.05630955554400065,-0.0028376729027249836,18.307722296540298,0.05640914017230042,1.0,0.0,-1.885154541229685,1.8645638091475825,21.162662438547994,85.32748210022089,0.18147237523479218,7.846341299741817,1.0,20.835296551368934,0.0,1.0,87.26350873265253,4712.60400698869,1.0,1.0,-1.8951218293581098,18.840834155859998,-0.005790965511073151,-44.081409544691695,1.0,20.159613391730442,1.0,-0.013840283315854317,4.181138701960757,0.9477631965609826,1.0,0.28335723464815654,7.474549068298338
0.15,0.15,1.0,18.542976454613253,-0.03605765477427094,1.68967948224919,-0.00013304420042076212,-0.049497236971823344,-0.0016289172586783655,18.61983600098409,0.04952421165490392,1.0,0.0,-1.885154541229685,1.8645638091475825,21.162662438547994,85.32748210022089,0.18147237523479218,7.846341299741817,1.0,20.835296551368934,0.0,1.0,87.53960925208372,4739.75326123941,1.0,1.0,-1.8951218293581098,18.840834155859998,-0.005790965511073151,-44.081409544691695,1.0,20.159613391730442,1.0,-0.013840283315854317,4.181138701960757,0.9477631965609826,1.0,0.28335723464815654,7.474549068298338
0.18,0.18,1.0,18.748352535464466,-0.04780444576139571,1.9094903084461845,0.00013974800767314763,-0.059288645402648284,-0.0008869940367906495,18.84540159553893,0.059295444695253934,1.0,0.0,-1.885154541229685,1.8645638091475825,21.162662438547994,85.32748210022089,0.18147237523479218,7.846341299741817,1.0,20.0823052968037,0.0,1.0,88.03081168945901,4843.1409969445385,1.0,1.0,-0.5428950996559269,18.72998768441606,0.02966309435753329,-44.221196232889284,1.0,21.36183192733054,1.0,0.006974051956994979,4.138845238767417,0.9467295047350667,1.0,-0.5040599611879599,6.692412068389966
0.21,0.21,1.0,19.039183827716847,0.06045326675660328,2.1094659377036757,-0.0011844703614280934,-0.04988825422240432,0.0010356537480328346,19.15578299014134,0.04991305899343536,1.0,0.0,18.15849798223063,-0.8507156713177079,22.528518510000584,88.79108600883337,-0.10696639449047544,6.69607322486291,1.0,20.0823052968037,0.0,1.0,88.81116166963318,4833.558087321833,1.0,1.0,-0.5428950996559269,18.72998768441606,0.02966309435753329,-44.221196232889284,1.0,21.36183192733054,1.0,0.006974051956994979,4.138845238767417,0.9467295047350667,1.0,-0.5040599611879599,6.692412068389966
0.24,0.24,1.0,19.340020882448126,-0.05931437453800777,2.311370495688182,0.0004014737785476082,-0.036782937998071294,0.0011573760834501412,19.477740102406496,0.036803331756287506,1.0,0.0,18.15849798223063,-0.8507156713177079,22.528518510000584,88.79108600883337,-0.10696639449047544,6.69607322486291,1.0,22.18547230163528,0.0,1.0,89.4571820283734,4891.12171085949,1.0,1.0,-0.9874075351661772,18.642365238577856,-0.01105574941250553,-44.295505313039946,1.0,21.597930179006728,1.0,0.015553992101837083,4.126186188410609,0.9457459459420904,1.0,-0.5929147826834491,7.158880621929557
0.27,0.27,1.0,19.55241013583741,-0.02835453910261265,2.4549108241171047,0.0019072580176267414,-0.022790394621487586,-0.002090558849283284,19.70594157238503,0.02296541217682035,1.0,0.0,18.15849798223063,-0.8507156713177079,22.528518510000584,88.79108600883337,-0.10696639449047544,6.69607322486291,1.0,22.18547230163528,0.0,1.0,90.12867658811003,4961.80565607893,1.0,1.0,-0.9874075351661772,18.642365238577856,-0.01105574941250553,-44.295505313039946,1.0,21.597930179006728,1.0,0.015553992101837083,4.126186188410609,0.9457459459420904,1.0,-0.5929147826834491,7.158880621929557
0.3,0.3,1.0,19.93320480856912,-0.023144794989114953,2.596322958732041,-0.0006483740193760299,-0.02130486512718926,0.0011196854561373627,20.10159402952754,0.021344117748864962,1.0,0.0,18.15849798223063,-0.8507156713177079,22.528518510000584,88.79108600883337,-0.10696639449047544,6.69607322486291,1.0,22.08313854321062,0.0,1.0,90.39901006174803,5033.646704045028,1.0,1.0,-0.032100222264470346,18.477136413847127,-0.006038005167106243,-44.293761672141954,1.0,21.913765604767796,1.0,0.0042634016461290366,4.091608988231679,0.9448080594393594,1.0,0.49262759900427344,7.872066178603733
0.32999999999999996,0.32999999999999996,1.0,20.1726103381906,-0.05396740755448139,2.788681326210101,-0.0008335127957680589,-0.014515459212089802,0.0009767482210283772,20.364524641560024,0.014572142491954774,1.0,0.0,18.15849798223063,-0.8507156713177079,22.528518510000584,88.79108600883337,-0.10696639449047544,6.69607322486291,1.0,22.08313854321062,0.0,1.0,90.88954237753045,5073.143555770167,1.0,1.0,-0.032100222264470346,18.477136413847127,-0.006038005167106243,-44.293761672141954,1.0,21.913765604767796,1.0,0.0042634016461290366,4.091608988231679,0.9448080594393594,1.0,0.49262759900427344,7.872066178603733
0.36,0.36,1.0,20.561912914183203,0.04056869726443273,2.87625530702923,-0.0017116473741721086,-0.010409411093186986,0.0002472742290717788,20.762147121645814,0.01055209555419385,1.0,0.0,18.15849798223063,-0.8507156713177079,22.528518510000584,88.79108600883337,-0.10696639449047544,6.69607322486291,1.0,22.998145062383625,0.0,1.0,91.39166828439694,5125.455088274733,1.0,1.0,0.24703569469091746,18.559120186840172,0.05777323077028381,-44.33059107617996,1.0,22.233176215361368,1.0,0.008474791280591054,4.087009805030356,0.9439122155319951,1.0,-0.12522865530984933,7.106563010808354
0.39,0.39,1.0,20.830869612003703,-0.03998306635079582,3.0277103011390483,-0.004200210305302578,-0.0043742695198172935,0.0021403138457621635,21.049792329272933,0.006430936463621283,1.0,0.0,18.15849798223063,-0.8507156713177079,22.528518510000584,88.79108600883337,-0.10696639449047544,6.69607322486291,1.0,22.998145062383625,0.0,1.0,91.5437532049669,5181.324990676532,1.0,1.0,0.24703569469091746,18.559120186840172,0.05777323077028381,-44.33059107617996,1.0,22.233176215361368,1.0,0.008474791280591054,4.087009805030356,0.9439122155319951,1.0,-0.12522865530984933,7.106563010808354
0.42,0.42,1.0,20.87315876297865,-0.028261817516269515,3.1770345342617268,-4.435109278206495e-05,0.001061346198304281,0.001005012113417697,21.113576293625233,0.001462351572024395,1.0,0.0,38.988745448728594,0.8561697855581142,23.1065288677339,92.8138496939187,-0.01429878191719496,5.640911620271574,1.0,23.176918321505195,0.0,1.0,93.15528767286084,5284.125445045239,1.0,1.0,1.0151129233973093,18.49051645933245,0.018258774712861983,-44.25501688202764,1.0,22.711950207715102,1.0,0.016688064665782515,4.0626337826286045,0.9430550526863257,1.0,0.4032278623625569,6.957532777190292
0.44999999999999996,0.44999999999999996,1.0,20.90112582067806,0.03480239865722864,3.3039869077323387,0.003273383298076893,0.0052070048426156425,0.0006495057299919682,21.160685273998904,0.006184641892659906,1.0,0.0,38.988745448728594,0.8561697855581142,23.1065288677339,92.8138496939187,-0.01429878191719496,5.640911620271574,1.0,23.176918321505195,0.0,1.0,93.14741702577348,5387.170377817355,1.0,1.0,1.0151129233973093,18.49051645933245,0.018258774712861983,-44.25501688202764,1.0,22.711950207715102,1.0,0.016688064665782515,4.0626337826286045,0.9430550526863257,1.0,0.4032278623625569,6.957532777190292
0.48,0.48,1.0,20.85354454307478,0.012525986310875077,3.3984537444298457,-0.0009259558692904829,0.006280686125609951,0.002863435715449263,21.128652696359186,0.006964458096421663,1.0,0.0,38.988745448728594,0.8561697855581142,23.1065288677339,92.8138496939187,-0.01429878191719496,5.640911620271574,1.0,24.50204958214582,0.0,1.0,94.01951177406588,5362.170895021896,1.0,1.0,-0.341560527222041,18.478731685670585,-0.01746976429002118,-44.26929602295352,1.0,23.258700006094593,1.0,0.007915542794734144,4.080534376065001,0.9422338541786647,1.0,0.636746191090788,7.661888534840148
0.51,0.51,1.0,20.7992201675015,0.06853486531179354,3.5741628307775177,0.0007061520466158617,0.009717991518556925,-0.0019268357040249766,21.104191444944675,0.009932306162115098,1.0,0.0,38.988745448728594,0.8561697855581142,23.1065288677339,92.8138496939187,-0.01429878191719496,5.640911620271574,1.0,24.50204958214582,0.0,1.0,93.77672304337842,5484.027203095475,1.0,1.0,-0.341560527222041,18.478731685670585,-0.01746976429002118,-44.26929602295352,1.0,23.258700006094593,1.0,0.007915542794734144,4.080534376065001,0.9422338541786647,1.0,0.636746191090788,7.661888534840148
0.54,0.54,1.0,20.81016157247995,-0.011959623866143985,3.659611261565181,0.00258475109658373,0.01270723472144312,-0.000786372376342729,21.1294988651198,0.012991271454765899,1.0,0.0,38.988745448728594,0.8561697855581142,23.1065288677339,92.8138496939187,-0.01429878191719496,5.640911620271574,1.0,23.598457202979876,0.0,1.0,95.02035147653577,5541.7578185596785,1.0,1.0,0.6010780516446778,18.518451356416158,-0.00910350250981173,-44.214508660499405,1.0,23.615231747791263,1.0,-0.0028495226081697673,4.049874306388246,0.9414465970104163,1.0,0.0064165621930257054,7.158199108065254
0.57,0.57,1.0,20.78428191712786,0.012149172236429435,3.7199469519695767,0.0034063518963941427,0.015848621418460176,-0.0048126073959461535,21.11455724703935,0.01690985582597493,1.0,0.0,38.988745448728594,0.8561697855581142,23.1065288677339,92.8138496939187,-0.01429878191719496,5.640911620271574,1.0,23.598457202979876,0.0,1.0,96.35132827089684,5659.029242074364,1.0,1.0,0.6010780516446778,18.518451356416158,-0.00910350250981173,-44.214508660499405,1.0,23.615231747791263,1.0,-0.0028495226081697673,4.049874306388246,0.9414465970104163,1.0,0.0064165621930257054,7.158199108065254
0.6,0.6,1.0,20.774995062646113,0.03723658218695693,3.870668840226244,-0.00218884881802764,0.019370276835008055,0.0005021721522843135,21.132531407446713,0.019500022068796755,1.0,0.0,38.988745448728594,0.8561697855581142,23.1065288677339,92.8138496939187,-0.01429878191719496,5.640911620271574,1.0,23.92599281464556,0.0,1.0,96.61518206786185,5725.696381486722,1.0,1.0,-2.0884129315731466,18.58759575661169,-0.05198653732366435,-44.299567690247706,1.0,23.301080467972113,1.0,0.0059601927122216744,4.05427347252378,0.9406915055982483,1.0,-0.031199227627410092,7.175357405384559
0.63,0.63,1.0,20.74336439561763,0.0482501784753116,3.975318234301611,0.000997562163779802,0.01429804217464923,0.0018119332194381364,21.1209055107273,0.014446876558286104,1.0,0.0,57.720465420402796,-1.4405247638228156,24.34009046504872,97.24629459781579,0.11105817103984193,4.846219513471973,1.0,23.92599281464556,0.0,1.0,97.37596020027972,5768.929648115103,1.0,1.0,-2.0884129315731466,18.58759575661169,-0.05198653732366435,-44.299567690247706,1.0,23.301080467972113,1.0,0.0059601927122216744,4.05427347252378,0.9406915055982483,1.0,-0.031199227627410092,7.175357405384559
0.6599999999999999,0.6599999999999999,1.0,20.641899500147492,0.01932912714719676,4.000176875058862,0.0011141667637941386,0.013874091580142254,0.002382543117453245,21.025931694483866,0.01412120024850018,1.0,0.0,57.720465420402796,-1.4405247638228156,24.34009046504872,97.24629459781579,0.11105817103984193,4.846219513471973,1.0,23.954206163063045,0.0,1.0,98.41643655346112,5695.844903659058,1.0,1.0,-1.670335623109286,18.680775158957466,0.0066186895430424015,-44.22761067814199,1.0,24.053879949592865,1.0,0.005384943889153253,4.049022606987774,0.9399669779851837,1.0,-0.05654672738215016,7.6260813757539685
0.69,0.69,1.0,20.67603954893541,0.03405703130360546,4.174319376988394,-0.00024342411824013636,0.019273048062231412,0.002091143341679508,21.093238574757155,0.01938768984138836,1.0,0.0,57.720465420402796,-1.4405247638228156,24.34009046504872,97.24629459781579,0.11105817103984193,4.846219513471973,1.0,23.954206163063045,0.0,1.0,97.59602279927225,5919.703115915634,1.0,1.0,-1.670335623109286,18.680775158957466,0.0066186895430424015,-44.22761067814199,1.0,24.053879949592865,1.0,0.005384943889153253,4.049022606987774,0.9399669779851837,1.0,-0.05654672738215016,7.6260813757539685
0.72,0.72,1.0,20.612750020330957,-0.007930072127170567,4.267472092055374,0.0025088031883426986,0.019542024644718423,-0.0021429161886015883,21.04986566092927,0.019818600113125837,1.0,0.0,57.720465420402796,-1.4405247638228156,24.34009046504872,97.24629459781579,0.11105817103984193,4.846219513471973,1.0,23.548190343119472,0.0,1.0,98.82346503206703,5964.786778470231,1.0,1.0,0.2874945668536168,18.626495816532476,-0.004236792949381907,-44.19591463130037,1.0,24.86906933165609,1.0,0.005990995406906327,4.066425309572445,0.939271547606059,1.0,-0.44453082773386493,6.758956217549964
0.75,0.75,1.0,20.56365807188193,0.011625204899593356,4.269610955433251,0.0011903280909354376,0.023862671309200067,0.0013521571613500842,21.002231932664195,0.023930572328383214,1.0,0.0,57.720465420402796,-1.4405247638228156,24.34009046504872,97.24629459781579,0.11105817103984193,4.846219513471973,1.0,23.548190343119472,0.0,1.0,99.95779021278167,6037.696857566387,1.0,1.0,0.2874945668536168,18.626495816532476,-0.004236792949381907,-44.19591463130037,1.0,24.86906933165609,1.0,0.005990995406906327,4.066425309572445,0.939271547606059,1.0,-0.44453082773386493,6.758956217549964
0.78,0.78,1.0,20.567908387000866,-0.06683260163433906,4.383358434686923,0.0007836953734760417,0.01994945770043985,-0.0002538655740981199,21.029910917063887,0.019966459092932796,1.0,0.0,57.720465420402796,-1.4405247638228156,24.34009046504872,97.24629459781579,0.11105817103984193,4.846219513471973,1.0,23.50753475334399,0.0,1.0,100.17129449589208,6213.850024398304,1.0,1.0,0.02320020698432135,18.75364722312346,0.020512500027092834,-44.225955046375205,1.0,24.36575952280702,1.0,0.02958593775135763,4.067088922532245,0.9386038558237774,1.0,-0.3641198977541506,6.516796064332061
0.8099999999999999,0.8099999999999999,1.0,20.60336657666882,-0.01909293271997271,4.541015925207553,0.001127163187817565,0.02057845024610811,0.0027680952868012225,21.097864926709107,0.02079436132465552,1.0,0.0,57.720465420402796,-1.4405247638228156,24.34009046504872,97.24629459781579,0.11105817103984193,4.846219513471973,1.0,23.50753475334399,0.0,1.0,99.90289902652437,6150.405662313411,1.0,1.0,0.02320020698432135,18.75364722312346,0.020512500027092834,-44.225955046375205,1.0,24.36575952280702,1.0,0.02958593775135763,4.067088922532245,0.9386038558237774,1.0,-0.3641198977541506,6.516796064332061
0.84,0.84,1.0,20.491121698001162,0.05166430092585032,4.529099987333564,0.0012661216670166629,0.025260792368463344,-5.870225580505489e-05,20.985744788726205,0.02529257086800671,1.0,0.0,77.87346328020686,0.11040984545368764,24.919849951915722,101.23472359234069,0.017043018975863612,4.179551621307377,1.0,25.961264192873355,0.0,1.0,101.07279323456676,6290.325065536916,1.0,1.0,-0.2524767918030103,18.690499236156445,0.042477749502781575,-44.160817124232416,1.0,24.643312849594917,1.0,-0.015716378217716927,4.07305453536919,0.9379626280615697,1.0,0.559642409700591,7.402733339961284
0.87,0.87,1.0,20.454722292254726,-0.0032009294677551336,4.645094199948855,-0.0007627910474587565,0.021308194285068235,0.001423801640237294,20.975523221736577,0.021369328603937005,1.0,0.0,77.87346328020686,0.11040984545368764,24.919849951915722,101.23472359234069,0.017043018975863612,4.179551621307377,1.0,25.961264192873355,0.0,1.0,101.66637788957891,6284.056389625401,1.0,1.0,-0.2524767918030103,18.690499236156445,0.042477749502781575,-44.160817124232416,1.0,24.643312849594917,1.0,-0.015716378217716927,4.07305453536919,0.9379626280615697,1.0,0.559642409700591,7.402733339961284
0.8999999999999999,0.8999999999999999,1.0,20.485618996142446,-0.010573689704318741,4.676342699233372,0.00044742135249231185,0.021810924396523775,0.00382627890876341,21.012588572060785,0.02214852182844692,1.0,0.0,77.87346328020686,0.11040984545368764,24.919849951915722,101.23472359234069,0.017043018975863612,4.179551621307377,1.0,25.04742562589612,0.0,1.0,101.96472063101093,6553.1853915518395,1.0,1.0,-2.017714388591032,18.9109667090568,-0.03530780576572019,-44.088713241919145,1.0,25.201601295569585,1.0,0.0004759712891396072,4.075584786614971,0.9373466555380092,1.0,0.18807463782397235,6.669350360506915
0.9299999999999999,0.9299999999999999,1.0,20.42803909185836,-0.03394187802056017,4.740900472004414,-0.0007921764512016805,0.02308487376680931,-0.001474918900734763,20.970981628789545,0.023145503367244007,1.0,0.0,77.87346328020686,0.11040984545368764,24.919849951915722,101.23472359234069,0.017043018975863612,4.179551621307377,1.0,25.04742562589612,0.0,1.0,102.97100905649978,6455.317974796634,1.0,1.0,-2.017714388591032,18.9109667090568,-0.03530780576572019,-44.088713241919145,1.0,25.201601295569585,1.0,0.0004759712891396072,4.075584786614971,0.9373466555380092,1.0,0.18807463782397235,6.669350360506915
0.96,0.96,1.0,20.400861118206098,0.0403044881716855,4.889007800252888,0.005810731508932576,0.02155899039504384,-0.0017345670483146591,20.978540370746334,0.022395610962141523,1.0,0.0,77.87346328020686,0.11040984545368764,24.919849951915722,101.23472359234069,0.017043018975863612,4.179551621307377,1.0,25.015661960596436,0.0,1.0,103.1749674018311,6581.743132332611,1.0,1.0,0.32106353464181236,18.93830534842198,0.01749869089294133,-44.139551447161374,1.0,25.44723575408333,1.0,0.008488511521670595,4.0730569449137395,0.9367547803121372,1.0,-0.2852912671137542,6.595830987972316
0.99,0.99,1.0,20.47400077483921,0.02423630645272609,4.957090991702905,-0.0014060586879246736,0.022243920685467506,0.003593470265315887,21.065565414360215,0.02257613866547969,1.0,0.0,77.87346328020686,0.11040984545368764,24.919849951915722,101.23472359234069,0.017043018975863612,4.179551621307377,1.0,25.015661960596436,0.0,1.0,103.57495398306376,6598.222705741183,1.0,1.0,0.32106353464181236,18.93830534842198,0.01749869089294133,-44.139551447161374,1.0,25.44723575408333,1.0,0.008488511521670595,4.0730569449137395,0.9367547803121372,1.0,-0.2852912671137542,6.595830987972316
1.02,1.02,1.0,20.356905812328918,-0.003617189695431459,5.0495070258453,-0.0012687287302588265,0.022743027842978197,0.0009741654625859581,20.973820551824915,0.022799210214521925,1.0,0.0,77.87346328020686,0.11040984545368764,24.919849951915722,101.23472359234069,0.017043018975863612,4.179551621307377,1.0,25.35505717216419,0.0,1.0,105.02124587984234,6838.047188336779,1.0,1.0,0.20716255069020592,18.94261089915399,-0.02774534788802444,-44.08471056164784,1.0,25.584536922999074,1.0,0.004000979885722656,4.1212791618121365,0.9361858835319572,1.0,-0.2350183702845472,6.392738837964116
1.05,1.05,1.0,20.38952380665306,0.023065120251563386,5.0927217498487245,-0.0009619480502852831,0.02321314286238856,-0.000216186253064102,21.015923198451844,0.023234071578118253,1.0,0.0,100.96229800122198,-0.5143213134600304,25.097932694456834,105.48289297839538,-0.10413279965858194,3.6689010621410993,1.0,25.35505717216419,0.0,1.0,105.07857990610103,6694.550886412943,1.0,1.0,0.20716255069020592,18.94261089915399,-0.02774534788802444,-44.08471056164784,1.0,25.584536922999074,1.0,0.004000979885722656,4.1212791618121365,0.9361858835319572,1.0,-0.2350183702845472,6.392738837964116
1.08,1.08,1.0,20.301561977063706,-0.022853924830118926,5.236539023554151,6.010971362783861e-05,0.02166883589977374,0.0015833385952579505,20.966050700016073,0.021726689198684392,1.0,0.0,100.96229800122198,-0.5143213134600304,25.097932694456834,105.48289297839538,-0.10413279965858194,3.6689010621410993,1.0,26.16226349251383,0.0,1.0,105.8386924886493,6859.54413073079,1.0,1.0,0.7264451323418568,19.029180473598558,-0.02658840919779483,-44.01603506241114,1.0,25.68909115464639,1.0,-0.0045325187658295995,4.114528159211111,0.935638876064461,1.0,-0.808246265656688,6.735729935586563
1.1099999999999999,1.1099999999999999,1.0,20.336175625459337,-0.051319635676952136,5.286741286347618,-0.0009535318708432641,0.02198610773068459,0.002824344071052272,21.01219422628929,0.022187272829387362,1.0,0.0,100.96229800122198,-0.5143213134600304,25.097932694456834,105.48289297839538,-0.10413279965858194,3.6689010621410993,1.0,26.16226349251383,0.0,1.0,107.12792071967807,6986.477048803697,1.0,1.0,0.7264451323418568,19.029180473598558,-0.02658840919779483,-44.01603506241114,1.0,25.68909115464639,1.0,-0.0045325187658295995,4.114528159211111,0.935638876064461,1.0,-0.808246265656688,6.735729935586563
1.14,1.14,1.0,20.285090228286343,0.00532466447862414,5.307980636967648,0.00121304139877298,0.01767811122780657,0.0019481353936812015,20.96806076784864,0.017826449941868716,1.0,0.0,100.96229800122198,-0.5143213134600304,25.097932694456834,105.48289297839538,-0.10413279965858194,3.6689010621410993,1.0,26.673924432015745,0.0,1.0,106.96908525533634,6958.020346744377,1.0,1.0,-0.7598756353801139,19.098208459121008,0.06539829339394247,-44.08581877790355,1.0,26.009307432024816,1.0,0.0038094536017736326,4.124076614691176,0.935112691137587,1.0,-0.20272584193111715,6.885612125640579
1.17,1.17,1.0,20.195410807691353,-0.02730403298349267,5.335764650780515,-0.0008634720567739232,0.023044857491537913,-0.001090500165282645,20.888411802005262,0.023086797772939448,1.0,0.0,100.96229800122198,-0.5143213134600304,25.097932694456834,105.48289297839538,-0.10413279965858194,3.6689010621410993,1.0,26.673924432015745,0.0,1.0,107.84437114485982,7017.0814253673425,1.0,1.0,-0.7598756353801139,19.098208459121008,0.06539829339394247,-44.08581877790355,1.0,26.009307432024816,1.0,0.0038094536017736326,4.124076614691176,0.935112691137587,1.0,-0.20272584193111715,6.885612125640579
1.2,1.2,1.0,20.16837707592001,0.05991784686592215,5.533234899051006,-0.00012476373930662816,0.020078014944644406,-0.0010175630330780644,20.913720675024443,0.02010417082682837,1.0,0.0,100.96229800122198,-0.5143213134600304,25.097932694456834,105.48289297839538,-0.10413279965858194,3.6689010621410993,1.0,26.84544146378417,0.0,1.0,107.76169255513425,7202.2668023785045,1.0,1.0,2.06342647402825,19.13339657569283,0.08539920361413032,-44.021605343827986,1.0,26.402369282097684,1.0,-5.519108586433316e-05,4.1300422403920205,0.9346062785772751,1.0,-0.11770425331794655,6.12127308121739
1.23,1.23,1.0,20.21657535574404,-0.0034837575534648673,5.531181658485523,0.0002589862009826061,0.021071512264409446,0.0025757760128478453,20.95957780562888,0.021229939355302443,1.0,0.0,100.96229800122198,-0.5143213134600304,25.097932694456834,105.48289297839538,-0.10413279965858194,3.6689010621410993,1.0,26.84544146378417,0.0,1.0,109.27857979141491,7293.570538909069,1.0,1.0,2.06342647402825,19.13339657569283,0.08539920361413032,-44.021605343827986,1.0,26.402369282097684,1.0,-5.519108586433316e-05,4.1300422403920205,0.9346062785772751,1.0,-0.11770425331794655,6.12127308121739
1.26,1.26,1.0,20.206868456826296,0.00794684442405135,5.595335829936719,-0.0014282419835606125,0.020511012162980177,-0.00016546531227039135,20.96724538497109,0.02056134416527992,1.0,0.0,120.34749977329278,-0.9886792019865726,28.269046959658905,109.5230478365359,-0.10364898284714909,3.185037971028701,1.0,25.62672935531112,0.0,1.0,110.12423395764421,7439.223676485862,1.0,1.0,0.9629097954391108,19.231519549542675,0.023134658006696746,-43.94387957755097,1.0,26.72629897015009,1.0,0.0006925181714708218,4.1418424247397265,0.9341186003462449,1.0,-0.16193324251844712,6.321137220262823
1.29,1.29,1.0,20.196083993910005,-0.049476832008403165,5.678366882534319,-0.003389608958674506,0.018431870014359475,-0.0003681181865630906,20.97923037431631,0.01874456700268771,1.0,0.0,120.34749977329278,-0.9886792019865726,28.269046959658905,109.5230478365359,-0.10364898284714909,3.185037971028701,1.0,25.62672935531112,0.0,1.0,110.02176176703576,7336.0730213851875,1.0,1.0,0.9629097954391108,19.231519549542675,0.023134658006696746,-43.94387957755097,1.0,26.72629897015009,1.0,0.0006925181714708218,4.1418424247397265,0.9341186003462449,1.0,-0.16193324251844712,6.321137220262823
1.3199999999999998,1.3199999999999998,1.0,20.07659526366741,0.03567348886726788,5.746982145872595,-0.0005986024000608491,0.02144162296918648,0.00022732488971947352,20.882977607704774,0.02145118171550439,1.0,0.0,120.34749977329278,-0.9886792019865726,28.269046959658905,109.5230478365359,-0.10364898284714909,3.185037971028701,1.0,26.387258010183,0.0,1.0,111.21499543294452,7374.114850848675,1.0,1.0,1.6927284296326035,19.197878606377646,-0.030682723420617862,-43.91021457709639,1.0,26.53769600507108,1.0,0.013162503591316774,4.148644625351236,0.9336486271297343,1.0,-0.7218941598180079,6.502035245595677
1.3499999999999999,1.3499999999999999,1.0,20.11968667526835,-0.08324399002846977,5.8329225037487324,-0.002692286164653651,0.020524662821017316,0.00011597472438910492,20.948310347318827,0.020700812516554347,1.0,0.0,120.34749977329278,-0.9886792019865726,28.269046959658905,109.5230478365359,-0.10364898284714909,3.185037971028701,1.0,26.387258010183,0.0,1.0,110.49913814800786,7545.177969502034,1.0,1.0,1.6927284296326035,19.197878606377646,-0.030682723420617862,-43.91021457709639,1.0,26.53769600507108,1.0,0.013162503591316774,4.148644625351236,0.9336486271297343,1.0,-0.7218941598180079,6.502035245595677
1.38,1.38,1.0,20.048643146342172,0.016192227366680224,5.88363113458942,0.000628780306154169,0.01865628081341912,0.0021791237596503594,20.894149169696046,0.01879363612562589,1.0,0.0,120.34749977329278,-0.9886792019865726,28.269046959658905,109.5230478365359,-0.10364898284714909,3.185037971028701,1.0,26.563851453029674,0.0,1.0,111.80394035446137,7754.161932837457,1.0,1.0,0.008506569961628012,19.25948972709726,-0.03420361459673876,-43.95468892538396,1.0,26.899862406688797,1.0,-0.0009266132384222408,4.178504275325733,0.9331953357672755,1.0,-0.06537621353699231,6.898623668369464
1.41,1.41,1.0,20.11480567507277,-0.07625831548021851,5.889115582682171,-0.003819351200820914,0.014728240897232733,-0.0006470055900708794,20.9593154712364,0.015229154269220401,1.0,0.0,120.34749977329278,-0.9886792019865726,28.269046959658905,109.5230478365359,-0.10364898284714909,3.185037971028701,1.0,26.563851453029674,0.0,1.0,112.4342482492549,7651.05762028182,1.0,1.0,0.008506569961628012,19.25948972709726,-0.03420361459673876,-43.95468892538396,1.0,26.899862406688797,1.0,-0.0009266132384222408,4.178504275325733,0.9331953357672755,1.0,-0.06537621353699231,6.898623668369464
1.44,1.44,1.0,20.120958561385528,0.027761547359216102,5.97127350823811,-0.00031388330610222076,0.017289726535370684,0.001718790116999069,20.98832655174518,0.017377784837661114,1.0,0.0,120.34749977329278,-0.9886792019865726,28.269046959658905,109.5230478365359,-0.10364898284714909,3.185037971028701,1.0,27.210708246555296,0.0,1.0,113.36257115330886,7685.620752280535,1.0,1.0,1.430724974756069,19.321521047279,0.04184226310548753,-43.915744704544935,1.0,26.705302620056614,1.0,0.00636477619432341,4.198273949110201,0.9327577073655791,1.0,-0.3017590074810985,5.875084837956229
1.47,1.47,1.0,19.982850968793635,-0.014612581059159788,6.096171601734912,0.0003055854345507461,0.017675447164493294,-0.0003411062948706504,20.892052425894903,0.01768137914380561,1.0,0.0,145.7897662902077,-1.2389951447554337,26.774580202192656,113.81709670702786,-0.12167131273932834,3.206255294390447,1.0,27.210708246555296,0.0,1.0,113.37798846816162,7936.325563052649,1.0,1.0,1.430724974756069,19.321521047279,0.04184226310548753,-43.915744704544935,1.0,26.705302620056614,1.0,0.00636477619432341,4.198273949110201,0.9327577073655791,1.0,-0.3017590074810985,5.875084837956229
1.5,1.5,1.0,20.01571537749362,-0.05849183849588691,6.118436144609132,0.0005658666969142462,0.017603792757126216,0.001447673505714987,20.93006316817187,0.017672280077388858,1.0,0.0,145.7897662902077,-1.2389951447554337,26.774580202192656,113.81709670702786,-0.12167131273932834,3.206255294390447,1.0,26.96812499168109,0.0,1.0,114.40108688020558,8055.6088563328585,1.0,1.0,-1.2019821554122339,19.413077792185103,0.031243065780116114,-43.864723827308715,1.0,27.05869824165777,1.0,0.0008202138454862203,4.198156941819029,0.932334725959142,1.0,0.3489614714784054,6.2786287657121305
1.53,1.53,1.0,19.981996309756216,-0.004045045969823648,6.258412752030681,0.003779395934551159,0.014438348398659316,0.000847128737547872,20.939148097768644,0.014948824877198518,1.0,0.0,145.7897662902077,-1.2389951447554337,26.774580202192656,113.81709670702786,-0.12167131273932834,3.206255294390447,1.0,26.96812499168109,0.0,1.0,114.83923554594435,7947.837993577886,1.0,1.0,-1.2019821554122339,19.413077792185103,0.031243065780116114,-43.864723827308715,1.0,27.05869824165777,1.0,0.0008202138454862203,4.198156941819029,0.932334725959142,1.0,0.3489614714784054,6.2786287657121305
1.56,1.56,1.0,19.977751994942167,0.06228828308165944,6.256167828172297,0.0019368357837205887,0.017193964222240073,-0.0016953108876864049,20.934519113079315,0.01738556348050532,1.0,0.0,145.7897662902077,-1.2389951447554337,26.774580202192656,113.81709670702786,-0.12167131273932834,3.206255294390447,1.0,27.19849181184842,0.0,1.0,115.14276982945078,8029.45544651252,1.0,1.0,0.7895691799827573,19.38297073073527,-0.08293977770278484,-43.86487718943579,1.0,27.320501889802827,1.0,0.002017349946885081,4.216653951267303,0.9319253776102722,1.0,-0.12955041479895812,5.279643399648997
1.5899999999999999,1.5899999999999999,1.0,19.88297441609628,-0.027721553808669343,6.354931692050779,0.0007793280462142175,0.013045049586880488,0.0014853473402726709,20.873873548680802,0.013152449492358524,1.0,0.0,145.7897662902077,-1.2389951447554337,26.774580202192656,113.81709670702786,-0.12167131273932834,3.206255294390447,1.0,27.19849181184842,0.0,1.0,115.82083971117295,8162.573341283645,1.0,1.0,0.7895691799827573,19.38297073073527,-0.08293977770278484,-43.86487718943579,1.0,27.320501889802827,1.0,0.002017349946885081,4.216653951267303,0.9319253776102722,1.0,-0.12955041479895812,5.279643399648997
1.6199999999999999,1.6199999999999999,1.0,19.953797367329454,-0.04133767912465263,6.435224802350921,-0.00022357653111030915,0.013011909409064912,-0.0008930185862735824,20.965873614923648,0.013044433875427688,1.0,0.0,145.7897662902077,-1.2389951447554337,26.774580202192656,113.81709670702786,-0.12167131273932834,3.206255294390447,1.0,27.91280188203677,0.0,1.0,116.88202378531018,8336.6198684087,1.0,1.0,0.2672245144087914,19.43739893529647,0.0836155907880831,-43.9353379542483,1.0,27.199046906194056,1.0,0.0016252355438096673,4.232336966946273,0.9315286498606014,1.0,0.2590999534225386,5.550362287848992
1.65,1.65,1.0,19.811382165806354,-0.03149770820662431,6.443905100945574,-0.00031166391982524196,0.018652245533215255,-0.0008708280710869574,20.833045105678735,0.01867516370369112,1.0,0.0,145.7897662902077,-1.2389951447554337,26.774580202192656,113.81709670702786,-0.12167131273932834,3.206255294390447,1.0,27.91280188203677,0.0,1.0,117.43362946263602,8276.438325876015,1.0,1.0,0.2672245144087914,19.43739893529647,0.0836155907880831,-43.9353379542483,1.0,27.199046906194056,1.0,0.0016252355438096673,4.232336966946273,0.9315286498606014,1.0,0.2590999534225386,5.550362287848992
1.68,1.68,1.0,19.91271206205171,0.0016834332470432795,6.645789158864906,0.0007375120723331163,0.014200160548332551,0.002200374561925831,20.992441926660497,0.014388541686634806,1.0,0.0,169.3794234951912,0.10467949366459839,25.723469545835798,117.39068092888135,-0.11996303888903753,2.551559150043904,1.0,28.13850514397496,0.0,1.0,118.03311491604751,8430.23057373521,1.0,1.0,0.21119975031304736,19.481715596801195,-0.05832704608835584,-43.846931349501745,1.0,27.72104789738476,1.0,-0.00543425822334291,4.244634568455878,0.9311435314627728,1.0,0.10699802367398142,5.844818562296615
1.71,1.71,1.0,19.718658259668892,-0.022542819924003258,6.626686360248887,0.0007828565490089715,0.011766951722517996,0.0008870477358788632,20.802378802854424,0.011826278827345618,1.0,0.0,169.3794234951912,0.10467949366459839,25.723469545835798,117.39068092888135,-0.11996303888903753,2.551559150043904,1.0,28.13850514397496,0.0,1.0,118.17009567074692,8650.014666758376,1.0,1.0,0.21119975031304736,19.481715596801195,-0.05832704608835584,-43.846931349501745,1.0,27.72104789738476,1.0,-0.00543425822334291,4.244634568455878,0.9311435314627728,1.0,0.10699802367398142,5.844818562296615
1.74,1.74,1.0,19.74825599605258,0.06386807782458512,6.633916503326325,0.0012293759769343958,0.01651392537840434,-0.0013421034472542188,20.83282367299491,0.016613920017843533,1.0,0.0,169.3794234951912,0.10467949366459839,25.723469545835798,117.39068092888135,-0.11996303888903753,2.551559150043904,1.0,27.662069118544057,0.0,1.0,118.70421707322221,8518.2304460427,1.0,1.0,0.35735351418991396,19.492985272721974,0.013098680850136067,-43.82168459284596,1.0,28.022769740345062,1.0,0.0041346211143124464,4.27741672796697,0.9307690123344237,1.0,-0.07440528772314185,5.967206817019389
1.77,1.77,1.0,19.757625712198344,0.008778923153284957,6.822309971801384,-0.002399117131381455,0.011521684394254881,-0.002344988067335383,20.902338725706112,0.012000164304160581,1.0,0.0,169.3794234951912,0.10467949366459839,25.723469545835798,117.39068092888135,-0.11996303888903753,2.551559150043904,1.0,27.662069118544057,0.0,1.0,119.588307817464,8762.752499409851,1.0,1.0,0.35735351418991396,19.492985272721974,0.013098680850136067,-43.82168459284596,1.0,28.022769740345062,1.0,0.0041346211143124464,4.27741672796697,0.9307690123344237,1.0,-0.07440528772314185,5.967206817019389
1.7999999999999998,1.7999999999999998,1.0,19.754698729678335,-0.021217514946967615,6.850509893080838,-0.0006837096447960569,0.010408605981483889,0.001158210139002124,20.908803358358263,0.010495141165427773,1.0,0.0,169.3794234951912,0.10467949366459839,25.723469545835798,117.39068092888135,-0.11996303888903753,2.551559150043904,1.0,28.169335169764953,0.0,1.0,119.70298455612486,8593.029085400796,1.0,1.0,-2.254423487237513,19.51125002226559,0.015143301359906294,-43.803478689195074,1.0,27.85455187795638,1.0,-0.02474790865352522,4.2944558809536915,0.930404083687512,1.0,-0.23641239826435617,5.8457020289840615
1.8299999999999998,1.8299999999999998,1.0,19.70273844966244,0.033205225890756,6.931328173295315,7.149624547488423e-05,0.014592761508974908,0.0006277958355700721,20.886414609711036,0.014606434465060108,1.0,0.0,169.3794234951912,0.10467949366459839,25.723469545835798,117.39068092888135,-0.11996303888903753,2.551559150043904,1.0,28.169335169764953,0.0,1.0,120.06327707065748,8915.263638818436,1.0,1.0,-2.254423487237513,19.51125002226559,0.015143301359906294,-43.803478689195074,1.0,27.85455187795638,1.0,-0.02474790865352522,4.2944558809536915,0.930404083687512,1.0,-0.23641239826435617,5.8457020289840615
1.8599999999999999,1.8599999999999999,1.0,19.709546709313088,-0.014808011295835657,6.9580609322314135,-0.0020288310169881587,0.009602174377722258,0.0005026141464205757,20.901699995465393,0.009827030530931565,1.0,0.0,169.3794234951912,0.10467949366459839,25.723469545835798,117.39068092888135,-0.11996303888903753,2.551559150043904,1.0,28.245278033888923,0.0,1.0,120.86883297515551,8965.138621657765,1.0,1.0,-0.38454546694159275,19.585647080952743,0.019967761008969995,-43.79648229301209,1.0,27.864294291347072,1.0,0.003225422314104629,4.3077809523634025,0.9300477382949103,1.0,0.06865813693711625,6.31822269457196
1.89,1.89,1.0,19.657409519993625,-0.007213876384782036,7.0541285483053535,-0.001675229689958972,0.012215510057907029,4.729491857227685e-05,20.88479185083646,0.012329935818903136,1.0,0.0,195.90381660913462,0.5803632647016573,28.346294015347823,121.71152392795332,-0.020949794872449978,2.118939867401221,1.0,28.245278033888923,0.0,1.0,121.69840664604637,8941.16503263096,1.0,1.0,-0.38454546694159275,19.585647080952743,0.019967761008969995,-43.79648229301209,1.0,27.864294291347072,1.0,0.003225422314104629,4.3077809523634025,0.9300477382949103,1.0,0.06865813693711625,6.31822269457196
1.92,1.92,1.0,19.691637316820703,0.0009528939202755693,7.094246913367118,-2.475920507279969e-05,0.007781099112683215,0.0008898182702178508,20.930573819010107,0.007831851184340063,1.0,0.0,195.90381660913462,0.5803632647016573,28.346294015347823,121.71152392795332,-0.020949794872449978,2.118939867401221,1.0,27.252840146130644,0.0,1.0,122.27008464361853,9096.671047544694,1.0,1.0,0.027167083226558676,19.597948397550248,0.06485926045376163,-43.88488239052928,1.0,27.895395779675056,1.0,-0.01561150849108961,4.341508831239766,0.9296989708633745,1.0,0.04638167746826721,6.651509647348301
1.95,1.95,1.0,19.655846857088534,-0.029418256994016394,7.175282683250804,0.0002499554068132249,0.013660341411696062,0.0006055810501484147,20.92457556768406,0.013676042322170269,1.0,0.0,195.90381660913462,0.5803632647016573,28.346294015347823,121.71152392795332,-0.020949794872449978,2.118939867401221,1.0,27.252840146130644,0.0,1.0,122.42872696844651,9265.554888629627,1.0,1.0,0.027167083226558676,19.597948397550248,0.06485926045376163,-43.88488239052928,1.0,27.895395779675056,1.0,-0.01561150849108961,4.341508831239766,0.9296989708633745,1.0,0.04638167746826721,6.651509647348301
1.98,1.98,1.0,19.63856380215896,0.02372509537056146,7.216843988036158,-0.0022144301550635105,0.01469879571252145,0.00044669641978878404,20.92263339637896,0.014871376331784012,1.0,0.0,195.90381660913462,0.5803632647016573,28.346294015347823,121.71152392795332,-0.020949794872449978,2.118939867401221,1.0,28.9933347972114,0.0,1.0,123.39553929415945,9365.40412187656,1.0,1.0,0.22990760679561076,19.610940335462995,-0.030262560087283178,-43.77253918940357,1.0,28.179730217578822,1.0,-0.0008272722942451474,4.3578424392883175,0.9293567784878533,1.0,0.5447030672880988,5.139055374630041
2.01,2.01,1.0,19.555118033075367,0.008599499041272819,7.329906500054088,0.0002276717814214487,0.011491356080636337,0.00047190024471040166,20.883731576000212,0.01150329469556401,1.0,0.0,195.90381660913462,0.5803632647016573,28.346294015347823,121.71152392795332,-0.020949794872449978,2.118939867401221,1.0,28.9933347972114,0.0,1.0,123.99555841674022,9389.16097734756,1.0,1.0,0.22990760679561076,19.610940335462995,-0.030262560087283178,-43.77253918940357,1.0,28.179730217578822,1.0,-0.0008272722942451474,4.3578424392883175,0.9293567784878533,1.0,0.5447030672880988,5.139055374630041
2.04,2.04,1.0,19.524686107004975,0.00901287799253271,7.361878754000744,0.0012959509496534008,0.008297403602273275,-0.0010481736513931015,20.866497252717103,0.0084631591859305,1.0,0.0,195.90381660913462,0.5803632647016573,28.346294015347823,121.71152392795332,-0.020949794872449978,2.118939867401221,1.0,27.31283324717777,0.0,1.0,124.31679676804954,9544.381140838963,1.0,1.0,0.5174757826812354,19.676345816920286,0.022011415832582027,-43.76216911681221,1.0,28.167472928752996,1.0,-0.00815869616760906,4.370905307320268,0.9290201611668356,1.0,0.21326898200569677,5.935805119263069
2.07,2.07,1.0,19.46281943347801,0.022062440982930705,7.424293167240092,-5.2136427482700744e-05,0.008142523567132489,-0.0012669380291954451,20.830793457873835,0.008240663821452752,1.0,0.0,195.90381660913462,0.5803632647016573,28.346294015347823,121.71152392795332,-0.020949794872449978,2.118939867401221,1.0,27.31283324717777,0.0,1.0,125.43296014858264,9620.746892246747,1.0,1.0,0.5174757826812354,19.676345816920286,0.022011415832582027,-43.76216911681221,1.0,28.167472928752996,1.0,-0.00815869616760906,4.370905307320268,0.9290201611668356,1.0,0.21326898200569677,5.935805119263069
2.1,2.1,1.0,19.498698725443884,0.004081106689045281,7.4702133835603215,-0.002733906544495553,0.008710099991606799,0.002438693497912051,20.880693394544696,0.009449196412107374,1.0,0.0,220.69641521977942,-0.9126351324079304,27.729695754774674,125.38532066776388,-0.16126875235301044,2.113955847602026,1.0,28.914226706313464,0.0,1.0,125.79806693825431,9779.135276902038,1.0,1.0,-0.132208708406364,19.630654117974238,-0.021724524062429765,-43.806187095006365,1.0,28.351872259246758,1.0,0.009225769955652965,4.377056329847852,0.9286881223622913,1.0,0.002188521992375938,6.345348307053161
2.13,2.13,1.0,19.436866577352216,-0.03772153904689924,7.561192142330907,-0.003215320442064753,0.007747498215452069,0.0021725951250623253,20.855810506272498,0.008664997618062976,1.0,0.0,220.69641521977942,-0.9126351324079304,27.729695754774674,125.38532066776388,-0.16126875235301044,2.113955847602026,1.0,28.914226706313464,0.0,1.0,125.5865199717193,9739.596455231094,1.0,1.0,-0.132208708406364,19.630654117974238,-0.021724524062429765,-43.806187095006365,1.0,28.351872259246758,1.0,0.009225769955652965,4.377056329847852,0.9286881223622913,1.0,0.002188521992375938,6.345348307053161
2.16,2.16,1.0,19.413007837430712,0.0008643724797329816,7.576512552567139,-0.002053445989291011,0.010866903857756597,0.00012167427065311867,20.839107862442035,0.01105988447104216,1.0,0.0,220.69641521977942,-0.9126351324079304,27.729695754774674,125.38532066776388,-0.16126875235301044,2.113955847602026,1.0,28.94563569027386,0.0,1.0,126.13192109389183,9760.315599803811,1.0,1.0,-1.1808146066566236,19.737775108785684,0.017835522692160915,-43.73397149695334,1.0,28.49890888888421,1.0,0.005341512196297713,4.399593220843117,0.9283596695908817,1.0,0.4447806537253375,5.658226309277384
2.19,2.19,1.0,19.38632963678423,-0.0680490998716121,7.685763579445752,0.002127563673337678,0.01006970626860902,-0.0016183734827011527,20.854384892995206,0.010418476100163603,1.0,0.0,220.69641521977942,-0.9126351324079304,27.729695754774674,125.38532066776388,-0.16126875235301044,2.113955847602026,1.0,28.94563569027386,0.0,1.0,126.53289149839426,9628.463096924452,1.0,1.0,-1.1808146066566236,19.737775108785684,0.017835522692160915,-43.73397149695334,1.0,28.49890888888421,1.0,0.005341512196297713,4.399593220843117,0.9283596695908817,1.0,0.4447806537253375,5.658226309277384
2.2199999999999998,2.2199999999999998,1.0,19.35254230962405,-0.03674808958546651,7.716802219407511,0.0005881574895730492,0.007737170212882092,-0.0001691356679671133,20.83437737877784,0.007761336161372569,1.0,0.0,220.69641521977942,-0.9126351324079304,27.729695754774674,125.38532066776388,-0.16126875235301044,2.113955847602026,1.0,28.83700089662784,0.0,1.0,127.815710309276,10027.388204741574,1.0,1.0,1.1001754087521782,19.721623398919334,-0.012095677645621642,-43.748344175118994,1.0,28.97858963335061,1.0,0.006808794125097082,4.416476395408189,0.9280338150356602,1.0,0.5526411510499093,5.859668649594871
2.25,2.25,1.0,19.33097264305656,-0.04122723800333921,7.821661888740769,0.0015116432580279864,0.006752369068810862,0.001822756685767126,20.853455294351924,0.0071555569536189065,1.0,0.0,220.69641521977942,-0.9126351324079304,27.729695754774674,125.38532066776388,-0.16126875235301044,2.113955847602026,1.0,28.83700089662784,0.0,1.0,128.74317347569317,10164.07782430915,1.0,1.0,1.1001754087521782,19.721623398919334,-0.012095677645621642,-43.748344175118994,1.0,28.97858963335061,1.0,0.006808794125097082,4.416476395408189,0.9280338150356602,1.0,0.5526411510499093,5.859668649594871
2.28,2.28,1.0,19.409344181287686,0.01221413090344737,7.876842835410786,0.0010587851842506692,0.008220847483614428,0.002181179473663335,20.9467764533458,0.00857093363126612,1.0,0.0,220.69641521977942,-0.9126351324079304,27.729695754774674,125.38532066776388,-0.16126875235301044,2.113955847602026,1.0,29.54689616255445,0.0,1.0,129.52275381336688,10140.415051786042,1.0,1.0,0.7489650167228306,19.756137513511213,-0.014113850951209258,-43.675150860785685,1.0,28.48029471956121,1.0,-0.0046198615492057185,4.436614990525428,0.9277095761695386,1.0,-0.5889626797749533,5.74351187719118
2.31,2.31,1.0,19.40514714137628,0.0027120919167082113,7.927677076439186,4.77148430652025e-05,0.006872558843215761,-0.0006233268279356578,20.962056358148786,0.0069009331321304825,1.0,0.0,248.81761697498928,0.39841727765723006,29.35492963250937,129.29927131712444,0.275570978637166,2.023405136246358,1.0,29.54689616255445,0.0,1.0,129.77910854601947,10217.458249430658,1.0,1.0,0.7489650167228306,19.756137513511213,-0.014113850951209258,-43.675150860785685,1.0,28.48029471956121,1.0,-0.0046198615492057185,4.436614990525428,0.9277095761695386,1.0,-0.5889626797749533,5.74351187719118
2.34,2.34,1.0,19.302472080159244,0.008517984442994285,7.899845530382063,0.00017656879866341583,0.008953048528912343,-0.0003304306777197846,20.85648724894208,0.008960883825521859,1.0,0.0,248.81761697498928,0.39841727765723006,29.35492963250937,129.29927131712444,0.275570978637166,2.023405136246358,1.0,29.12393957113717,0.0,1.0,129.92741540182325,10136.405170286349,1.0,1.0,0.8814232332534068,19.776251028282932,-0.05036015320854237,-43.683616574743766,1.0,29.197292364994937,1.0,0.001965513710947383,4.453983370902787,0.9273859763834764,1.0,0.3201883821516754,5.379582453066124
2.37,2.37,1.0,19.220501345458935,0.04330105164029876,8.039883385971304,0.0016188102975515004,0.00831166280989533,-0.0032302341210303106,20.834329166351367,0.009063040214052036,1.0,0.0,248.81761697498928,0.39841727765723006,29.35492963250937,129.29927131712444,0.275570978637166,2.023405136246358,1.0,29.12393957113717,0.0,1.0,130.7753242988472,10382.373256285342,1.0,1.0,0.8814232332534068,19.776251028282932,-0.05036015320854237,-43.683616574743766,1.0,29.197292364994937,1.0,0.001965513710947383,4.453983370902787,0.9273859763834764,1.0,0.3201883821516754,5.379582453066124
2.4,2.4,1.0,19.24700252238109,-0.026595376024048878,8.165897567463588,-0.00102717545926293,0.003722607296317003,0.003772060297661713,20.907646842552076,0.005398271334038367,1.0,0.0,248.81761697498928,0.39841727765723006,29.35492963250937,129.29927131712444,0.275570978637166,2.023405136246358,1.0,30.401406714448814,0.0,1.0,130.49159307633357,10538.75568386464,1.0,1.0,-1.2292660481253275,19.848007398007173,-0.013679138290930001,-43.76795054137181,1.0,28.99596779265142,1.0,0.0047068960552744945,4.472111405329816,0.9270620456137043,1.0,0.5933274989912868,6.000365805314419
2.4299999999999997,2.4299999999999997,1.0,19.217969746201472,0.037674202403097524,8.11726170480795,0.001272348202470435,0.009498857566360638,-0.002397425815906407,20.861968222001092,0.009879008834752147,1.0,0.0,248.81761697498928,0.39841727765723006,29.35492963250937,129.29927131712444,0.275570978637166,2.023405136246358,1.0,30.401406714448814,0.0,1.0,131.92411490765866,10613.073087197432,1.0,1.0,-1.2292660481253275,19.848007398007173,-0.013679138290930001,-43.76795054137181,1.0,28.99596779265142,1.0,0.0047068960552744945,4.472111405329816,0.9270620456137043,1.0,0.5933274989912868,6.000365805314419
2.46,2.46,1.0,19.13785909706606,0.01725438232334368,8.261931735277988,-0.0001487685996427187,0.0033155182720263753,-0.0036123455428427372,20.845082502385473,0.004905490172172013,1.0,0.0,248.81761697498928,0.39841727765723006,29.35492963250937,129.29927131712444,0.275570978637166,2.023405136246358,1.0,28.754508224677434,0.0,1.0,132.08643627104604,10643.241524294564,1.0,1.0,2.090500705405645,19.864256806199478,-0.04437813586878794,-43.62014769062767,1.0,29.04826561168537,1.0,-0.007722047058818455,4.495010114030306,0.9267368303236151,1.0,0.8662572561451346,5.529553291083848
2.4899999999999998,2.4899999999999998,1.0,19.21876750780903,0.024032802005368833,8.320783536989886,-0.0019050035423399088,0.00031861031504782245,-0.0011308485599816366,20.942708534576663,0.0022381620796526366,1.0,0.0,248.81761697498928,0.39841727765723006,29.35492963250937,129.29927131712444,0.275570978637166,2.023405136246358,1.0,28.754508224677434,0.0,1.0,132.61316686593918,10682.320279746706,1.0,1.0,2.090500705405645,19.864256806199478,-0.04437813586878794,-43.62014769062767,1.0,29.04826561168537,1.0,-0.007722047058818455,4.495010114030306,0.9267368303236151,1.0,0.8662572561451346,5.529553291083848
2.52,2.52,1.0,19.163643237585948,0.011535326374274377,8.39697981620982,0.002291227630734123,0.0015020696538997653,0.0007244888954484719,20.9225864853049,0.0028338704029355704,1.0,0.0,273.9103278693297,0.20176025599158562,29.471156930966067,133.30865312018332,-0.0696421494113209,2.255558527034838,1.0,29.690001778569467,0.0,1.0,133.1210189929858,10747.880562278664,1.0,1.0,-0.6098023610345005,19.852753910454172,0.036790822791022346,-43.63418875302817,1.0,29.568685303299436,1.0,0.012029913998308855,4.503100186676222,0.9264092985439079,1.0,0.22765828148255066,5.452496660535849
2.55,2.55,1.0,19.0707195055604,-0.009835198927267665,8.553741060371584,0.0001440186347443477,5.9557138545972125e-06,-0.0006658152489848269,20.901170429399084,0.0006812391529131827,1.0,0.0,273.9103278693297,0.20176025599158562,29.471156930966067,133.30865312018332,-0.0696421494113209,2.255558527034838,1.0,29.690001778569467,0.0,1.0,133.52990255431865,11131.850133799222,1.0,1.0,-0.6098023610345005,19.852753910454172,0.036790822791022346,-43.63418875302817,1.0,29.568685303299436,1.0,0.012029913998308855,4.503100186676222,0.9264092985439079,1.0,0.22765828148255066,5.452496660535849
2.58,2.58,1.0,19.068493553584098,0.05370447164653571,8.51166413160747,-0.0036574406157678244,0.003081020796128601,-0.0012609970144927824,20.8820199421092,0.004945672297534962,1.0,0.0,273.9103278693297,0.20176025599158562,29.471156930966067,133.30865312018332,-0.0696421494113209,2.255558527034838,1.0,29.408138565625038,0.0,1.0,134.9470869964778,10849.714473808152,1.0,1.0,-0.4421226376729621,19.86482382585797,0.028040520701193124,-43.68362362041754,1.0,29.809880268194213,1.0,-0.00389804089071116,4.531178675273551,0.926078283995055,1.0,-0.29934993309376307,6.204671967233833
2.61,2.61,1.0,19.0379353768349,0.0664022513206286,8.581903466845281,-0.00024114491760876216,-0.0013215963348786122,0.002171356915759841,20.882922683038725,0.00255334263256446,1.0,0.0,273.9103278693297,0.20176025599158562,29.471156930966067,133.30865312018332,-0.0696421494113209,2.255558527034838,1.0,29.408138565625038,0.0,1.0,135.72733764753812,11171.195791149843,1.0,1.0,-0.4421226376729621,19.86482382585797,0.028040520701193124,-43.68362362041754,1.0,29.809880268194213,1.0,-0.00389804089071116,4.531178675273551,0.926078283995055,1.0,-0.29934993309376307,6.204671967233833
2.6399999999999997,2.6399999999999997,1.0,18.98773205045254,0.0904396940321086,8.70428683274863,0.0015596281021600699,-0.004347663586815235,0.0004070795264131864,20.88795722479344,0.004636845072028105,1.0,0.0,273.9103278693297,0.20176025599158562,29.471156930966067,133.30865312018332,-0.0696421494113209,2.255558527034838,1.0,29.344174033568876,0.0,1.0,135.20091394645917,11062.267719517173,1.0,1.0,-0.5640543747808037,19.944555495980634,-0.021717159203047003,-43.67971492336888,1.0,29.841629145160457,1.0,0.008479129042409857,4.535850688937714,0.9257425203361287,1.0,0.5719898668425217,6.363522756258677
2.67,2.67,1.0,19.056560926192237,-0.04863038105835259,8.785671876771982,0.001541810122804799,-0.003782067889194473,-0.0015914128913733369,20.984349157739935,0.004383356130191629,1.0,0.0,273.9103278693297,0.20176025599158562,29.471156930966067,133.30865312018332,-0.0696421494113209,2.255558527034838,1.0,29.344174033568876,0.0,1.0,136.13320842817703,11552.166543255686,1.0,1.0,-0.5640543747808037,19.944555495980634,-0.021717159203047003,-43.67971492336888,1.0,29.841629145160457,1.0,0.008479129042409857,4.535850688937714,0.9257425203361287,1.0,0.5719898668425217,6.363522756258677
2.6999999999999997,2.6999999999999997,1.0,18.867000346752686,-0.04796357526115563,8.779009814928497,0.0006356576811287177,-0.003709538306123855,-0.0021755139739447864,20.809541463461628,0.004347136549846026,1.0,0.0,273.9103278693297,0.20176025599158562,29.471156930966067,133.30865312018332,-0.0696421494113209,2.255558527034838,1.0,30.306599153628472,0.0,1.0,135.81601522247882,11368.350669517144,1.0,1.0,1.356642701192511,19.75731129829857,0.027156923288884763,-43.67109235317568,1.0,29.891204210471997,1.0,-0.014418349992410054,4.564067693963818,0.9254006654105351,1.0,-0.4059408602265983,5.428925754560572
2.73,2.73,1.0,18.846911983597384,-0.007278845032513286,8.94423521424112,-0.0012000749088391701,-0.005960129184003767,-0.0009280501254632214,20.861579227535067,0.006150170462045019,1.0,0.0,302.7251086852341,0.9234410924736416,32.38337077551184,137.11979043283333,0.011270291125223627,2.383537548771076,1.0,30.306599153628472,0.0,1.0,137.2654927566473,11437.190269786537,1.0,1.0,1.356642701192511,19.75731129829857,0.027156923288884763,-43.67109235317568,1.0,29.891204210471997,1.0,-0.014418349992410054,4.564067693963818,0.9254006654105351,1.0,-0.4059408602265983,5.428925754560572
2.76,2.76,1.0,18.861079197917224,0.030824936769150945,8.961626621408758,0.000304903391135432,-0.00565331417353327,-0.0037273558382535585,20.881858403608977,0.0067783559044624474,1.0,0.0,302.7251086852341,0.9234410924736416,32.38337077551184,137.11979043283333,0.011270291125223627,2.383537548771076,1.0,29.849165959856624,0.0,1.0,137.7753150694926,11602.265871378964,1.0,1.0,-1.4421442425219928,19.748495799900837,0.026670993516435048,-43.76383864340989,1.0,29.467874276318728,1.0,0.020682851812615907,4.578227977657513,0.9250513195262343,1.0,0.1256258689012356,5.576258158147602
2.79,2.79,1.0,18.90820276944586,0.0404730276103574,8.991139821186927,0.003993726602763566,-0.009131946500457679,-0.001959319294788977,20.93710498900403,0.01015781625959906,1.0,0.0,302.7251086852341,0.9234410924736416,32.38337077551184,137.11979043283333,0.011270291125223627,2.383537548771076,1.0,29.849165959856624,0.0,1.0,138.03818960993922,11566.155699096837,1.0,1.0,-1.4421442425219928,19.748495799900837,0.026670993516435048,-43.76383864340989,1.0,29.467874276318728,1.0,0.020682851812615907,4.578227977657513,0.9250513195262343,1.0,0.1256258689012356,5.576258158147602
2.82,2.82,1.0,18.85075830229506,0.02293663732086746,9.14776184580076,-0.002564169592683705,-0.00791594685987585,0.0019164528533044678,20.95311817960195,0.008538733625506821,1.0,0.0,302.7251086852341,0.9234410924736416,32.38337077551184,137.11979043283333,0.011270291125223627,2.383537548771076,1.0,30.463628599253845,0.0,1.0,138.5693299785203,11839.062192625317,1.0,1.0,-1.8266271924628283,19.763150524751275,0.0030350272323798264,-43.71580465022599,1.0,30.15328153608084,1.0,0.003368237854427196,4.590585966763755,0.9246930405756197,1.0,-0.35809540184838956,5.598653468041591
2.85,2.85,1.0,18.87987694610289,0.05353413402624443,9.231343225887592,-0.00028237044305409227,-0.01038106117194013,0.002668347357816831,21.01595387218087,0.010722231192463703,1.0,0.0,302.7251086852341,0.9234410924736416,32.38337077551184,137.11979043283333,0.011270291125223627,2.383537548771076,1.0,30.463628599253845,0.0,1.0,139.72865821750568,12106.918100970437,1.0,1.0,-1.8266271924628283,19.763150524751275,0.0030350272323798264,-43.71580465022599,1.0,30.15328153608084,1.0,0.003368237854427196,4.590585966763755,0.9246930405756197,1.0,-0.35809540184838956,5.598653468041591
2.88,2.88,1.0,18.772740337569193,-0.03615650005563831,9.30127789757269,0.0006034458294573401,-0.008540056130847498,0.001600319573296504,20.950676781482933,0.008709634224454624,1.0,0.0,302.7251086852341,0.9234410924736416,32.38337077551184,137.11979043283333,0.011270291125223627,2.383537548771076,1.0,29.90659385102474,0.0,1.0,139.56799272218942,11870.3088272391,1.0,1.0,0.29787603331982676,19.785626258275833,0.0458927442708022,-43.747881042288014,1.0,30.36874977879611,1.0,0.018989474823699035,4.611437953093151,0.9243243568364078,1.0,-0.6145416429887318,5.755420254693109
2.9099999999999997,2.9099999999999997,1.0,18.742149716935234,-0.024628922534964213,9.414390513892203,0.002396700685191622,-0.009732929489054557,-0.00020077747661171683,20.973781999055493,0.010025687119016849,1.0,0.0,302.7251086852341,0.9234410924736416,32.38337077551184,137.11979043283333,0.011270291125223627,2.383537548771076,1.0,29.90659385102474,0.0,1.0,140.5772629943109,11838.46104751552,1.0,1.0,0.29787603331982676,19.785626258275833,0.0458927442708022,-43.747881042288014,1.0,30.36874977879611,1.0,0.018989474823699035,4.611437953093151,0.9243243568364078,1.0,-0.6145416429887318,5.755420254693109
2.94,2.94,1.0,18.746529591184473,0.012246636495848735,9.531404142803419,0.004059827262651679,-0.009177601124964506,-9.796278652709261e-05,21.03045854532684,0.010035943230163458,1.0,0.0,335.1762622606807,-2.2542872146042616,30.505265595605202,141.21452329235896,0.025456919087767427,2.8677275223783387,1.0,31.992488023470617,0.0,1.0,141.1854201882435,12407.500127357856,1.0,1.0,0.20243712099329267,19.68180338319472,-0.013421981974192084,-43.68064074304837,1.0,30.612950366482963,1.0,-0.01461027070043123,4.615088078917375,0.9239437777868291,1.0,-0.6431591562241735,5.794195072210801
2.9699999999999998,2.9699999999999998,1.0,18.700212240297827,0.03704693588504008,9.53020377927931,0.0027584679670912783,-0.007451825408391033,-0.001437560076455922,20.98866585522369,0.008074987703769637,1.0,0.0,335.1762622606807,-2.2542872146042616,30.505265595605202,141.21452329235896,0.025456919087767427,2.8677275223783387,1.0,31.992488023470617,0.0,1.0,141.20124063623356,12142.071677260228,1.0,1.0,0.20243712099329267,19.68180338319472,-0.013421981974192084,-43.68064074304837,1.0,30.612950366482963,1.0,-0.01461027070043123,4.615088078917375,0.9239437777868291,1.0,-0.6431591562241735,5.794195072210801
3.0,3.0,1.0,18.648806842963996,0.0596521370930404,9.611088780446167,-0.0014416629791642013,-0.012586489550615032,-0.0010842513525904714,20.97986135772252,0.012715097811217506,1.0,0.0,335.1762622606807,-2.2542872146042616,30.505265595605202,141.21452329235896,0.025456919087767427,2.8677275223783387,1.0,31.30554879502615,0.0,1.0,141.72689262316354,12502.28994530613,1.0,1.0,-0.3837121961309631,19.73968199946756,-0.03950730821613547,-43.72349756618814,1.0,30.540786184303208,1.0,-0.014780175839994046,4.6245539844040975,0.9235498032446163,1.0,0.30255840620065566,5.488845125598809
