time_s,x_m,y_m,altitude_m,vx_mps,vy_mps,vz_mps,speed_mps,mass_kg,roll_deg,pitch_deg,yaw_deg,p_dps,q_dps,r_dps,alpha_deg,beta_deg,qbar_pa,mach,airspeed_mps,load_factor_g,density_kgpm3,pressure_pa,temperature_k,wind_x_mps,wind_y_mps,wind_z_mps,thrust_n,mass_flow_kgps,propulsion_throttle_actual,propulsion_health,energy_j_per_kg,target_distance_m,guidance_mode,pitch_command_deg,heading_command_deg,roll_command_deg
0.0,0.0,0.0,20.0,85.0,0.0,8.0,85.37564055396598,18.0,0.0,6.000000000000002,0.0,0.0,0.0,0.0,0.623294571949261,0.0,4455.946741876431,0.2509445034436674,85.37564055396597,1.7460191153368827,1.2226496753673843,101084.96761777384,288.02,0.0,0.0,0.0,326.8,0.17539118863220368,0.86,nominal,3840.633,nan,pitch_program,13.0,0.0,0.0
0.03,2.5653075616539396,0.0,20.23295089060798,85.51025205513132,0.0,7.765029686932638,85.86209229090004,17.994738264341034,0.0,6.265582975204377,0.0,0.0,-8.852781691043555,0.0,1.0768889448804941,0.0,4506.768587835821,0.25237499376300476,85.86209229090004,1.7743108870921553,1.222622319986844,101082.17454514331,288.01848581921104,0.0,0.0,0.0,332.605,0.1785066900092231,0.86,nominal,3884.5669141368985,nan,pitch_program,12.985,0.0,0.0
0.06,5.146102795330778,0.0,20.45939294282564,86.02650778922796,0.0,7.54806840725539,86.35701117506734,17.98938306364076,0.0,6.5771317070121285,0.0,0.0,-10.384983314638712,0.0,1.56277306685444,0.0,4558.774230517912,0.2538303605667935,86.35701117506736,1.803494440501083,1.2225957293868015,101079.45957314344,288.0170139458716,0.0,0.0,0.0,338.40999999999997,0.18162219138624247,0.86,nominal,3929.404795348114,nan,pitch_program,12.97,0.0,0.0
0.09,7.742554552548879,0.0,20.679880257210876,86.54839190727003,0.0,7.349577146174434,86.85988962669694,17.983934397899173,0.0,6.769857648755731,0.0,0.0,-6.424204115338793,0.0,1.9160193511248047,0.0,4611.924913418138,0.2553091133813042,86.85988962669694,1.833254469128029,1.222569838463865,101076.81605339547,288.0155807783281,0.0,0.0,0.0,344.215,0.18473769276326188,0.86,nominal,3975.120560705364,nan,pitch_program,12.955,0.0,0.0
0.12,10.354871071123615,0.0,20.894721375606967,87.0772172858245,0.0,7.161370613203007,87.3712023455231,17.978392267116273,0.0,6.867809169033811,0.0,0.0,-3.2650514711533876,0.0,2.1662927738951416,0.0,4666.285902245958,0.2568126482753906,87.37120234552309,1.8633095735303018,1.2225446109541038,101074.2402822338,288.01418431105856,0.0,0.0,0.0,350.02,0.1878531941402813,0.86,nominal,4021.7707190292667,nan,pitch_program,12.94,0.0,0.0
0.15,12.983287111814269,0.0,21.104092345727974,87.61386802302182,0.0,6.979032337366907,87.89139185563907,17.972756671292064,0.0,6.952659786171766,0.0,0.0,-2.8283544215113765,0.0,2.3982831362847694,0.0,4721.920495956509,0.2583422663816928,87.89139185563906,1.8938985924963303,1.2225200261543614,101071.73014486139,288.01282339975273,0.0,0.0,0.0,355.825,0.1909686955173007,0.86,nominal,4069.4088283629826,nan,pitch_program,12.925,0.0,0.0
0.18,15.628035020914421,0.0,21.30819810597334,88.15826363667178,0.0,6.8035253415122385,88.42040151744123,17.967027610426545,0.0,7.050154030887685,0.0,0.0,-3.2498089413295848,0.0,2.637157007443903,0.0,4778.839424101712,0.25989780171960997,88.42040151744125,1.9249648951541611,1.2224960599712198,101069.28318039863,288.01149671231116,0.0,0.0,0.0,361.63,0.19408419689432013,0.86,nominal,4118.045743208706,nan,pitch_program,12.91,0.0,0.0
0.21,18.2893387682678,0.0,21.50729297766976,88.71012491177933,0.0,6.636495723214,88.95802008446303,17.961205084519715,0.0,7.1388448882073625,0.0,0.0,-2.9563625009777796,0.0,2.8604583918585416,0.0,4837.036718594321,0.2614786340142686,88.95802008446306,1.956226719167011,1.2224726825150012,101066.89633623611,288.0102025956451,0.0,0.0,0.0,367.435,0.19719969827133954,0.86,nominal,4167.679163353329,nan,pitch_program,12.895,0.0,0.0
0.24,20.967424075221082,0.0,21.701621623163867,89.269510231776,0.0,6.477621516470243,89.50421798737642,17.955289093571576,0.0,7.202145676246589,0.0,0.0,-2.1100264825988035,0.0,3.051892892992989,0.0,4896.526013452999,0.2630846769795173,89.50421798737642,1.987505677373272,1.222449865032572,101064.56667588095,288.00893945944944,0.0,0.0,0.0,373.24,0.20031519964835895,0.86,nominal,4218.322726456699,nan,pitch_program,12.88,0.0,0.0
0.27,23.662524766079883,0.0,21.89138905779154,89.83668969529339,0.0,6.325581154255717,90.05911276682393,17.949279637582126,0.0,7.244949753675297,0.0,0.0,-1.4268026473171347,0.0,3.2172866308002472,0.0,4957.337345563058,0.26471627662883895,90.05911276682392,2.0188620647577595,1.2224275834281781,101062.29173842544,288.0077059711243,0.0,0.0,0.0,379.045,0.20343070102537836,0.86,nominal,4270.003086677345,nan,pitch_program,12.865,0.0,0.0
0.3,26.374880403211414,0.0,22.076776224256214,90.41185457105098,0.0,6.1795722154892125,90.62279271653085,17.943176716551363,0.0,7.277690426303068,0.0,0.0,-1.0913557839561392,0.0,3.3676545021171953,0.0,5019.498113821448,0.26637369294601315,90.62279271653087,2.0503817206300243,1.2224058164344074,101060.06935179132,288.00650095454233,0.0,0.0,0.0,384.84999999999997,0.20654620240239774,0.86,nominal,4322.744497431261,nan,pitch_program,12.850000000000001,0.0,0.0
0.32999999999999996,29.104732386767928,0.0,22.257959823558302,90.99506611855047,0.0,6.039453310069586,91.19526881480137,17.93698033047929,0.0,7.303487866736451,0.0,0.0,-0.8599146956399193,0.0,3.5062664593677413,0.0,5083.027622042671,0.26805695865106877,91.19526881480137,2.0820328417083953,1.2223845432835354,101057.89739497,288.0053232611468,0.0,0.0,0.0,390.655,0.20966170377941715,0.86,nominal,4376.56454880564,nan,pitch_program,12.835,0.0,0.0
0.36,31.852323385447562,0.0,22.435113787201974,91.58636662265451,0.0,5.9051321214557,91.77653913997374,17.930690479365907,0.0,7.320499398763066,0.0,0.0,-0.5670510717194943,0.0,3.6313971640678586,0.0,5147.944040143616,0.26976606854395146,91.77653913997375,2.113736933754971,1.2223637435345824,101055.77378036235,288.00417176038314,0.0,0.0,0.0,396.46,0.21277720515643656,0.86,nominal,4431.4798768768305,nan,pitch_program,12.82,0.0,0.0
0.39,34.6178985816038,0.0,22.60840246373549,92.18583987187449,0.0,5.7762892177839165,92.36663136658373,17.924307163211214,0.0,7.328209812428511,0.0,0.0,-0.2570137892359981,0.0,3.74279062118687,0.0,5214.269160214867,0.27150110439609804,92.36663136658373,2.1454644074196327,1.2223433978731821,101053.69653544045,288.0030453839857,0.0,0.0,0.0,402.265,0.21589270653345596,0.86,nominal,4487.509985026177,nan,pitch_program,12.805,0.0,0.0
0.42,37.401706054280346,0.0,22.777978925469696,92.79358242255162,0.0,5.652548724473485,92.96558635265755,17.91783038201521,0.0,7.3284497754851765,0.0,0.0,-0.007998768555572236,0.0,3.8425676917195424,0.0,5282.026640315771,0.2732621867022447,92.96558635265757,2.1553247085572536,1.222323488310257,101051.66382302795,288.00194313698444,0.0,0.0,0.0,404.1773684210526,0.21691906078826353,0.86,nominal,4544.6757899761715,nan,pitch_program,12.79,0.0,0.0
0.44999999999999996,40.203802183417956,0.0,22.943963429766317,93.40320430458709,0.0,5.5328168098873975,93.56693131772683,17.911322810191564,0.0,7.323036321096397,0.0,0.0,0.18044847976033979,0.0,3.933034310933877,0.0,5350.495586975578,0.27503028969699345,93.56693131772681,2.15430524103397,1.2223040007106458,101049.67419946019,288.0008642377065,0.0,0.0,0.0,404.14342105263154,0.21690084148196515,0.86,nominal,4602.388737076622,nan,pitch_program,12.775,0.0,0.0
0.48,43.02414799267895,0.0,23.106458328534135,94.01152697536646,0.0,5.416496625593892,94.16743407322474,17.904815784947104,0.0,7.312648417142166,0.0,0.0,0.3462634660894852,0.0,4.015183806181439,0.0,5419.309224343034,0.27679591282399413,94.16743407322474,2.1533502305330248,1.22228492304239,101047.72643583425,287.9998080208645,0.0,0.0,0.0,404.1094736842105,0.2168826221756668,0.86,nominal,4660.3497695350825,nan,pitch_program,12.76,0.0,0.0
0.51,45.862706068962275,0.0,23.265560533791326,94.6186025427776,0.0,5.303406841906418,94.76711492537324,17.898309306281835,0.0,7.297566068241848,0.0,0.0,0.5027449662469963,0.0,4.0894736858346805,0.0,5488.468052026936,0.27855911585386595,94.76711492537322,2.1524420111318956,1.2222662439130834,101045.81936857093,287.9987738565303,0.0,0.0,0.0,404.0755263157895,0.21686440286936848,0.86,nominal,4718.560244848154,nan,pitch_program,12.745,0.0,0.0
0.54,48.71944059313198,0.0,23.421361195833466,95.22448413899019,0.0,5.193355401404612,95.36599666475516,17.891803374195753,0.0,7.278358567902104,0.0,0.0,0.6402500173208966,0.0,4.156652461939865,0.0,5557.972922418162,0.28031996585027275,95.36599666475517,2.1515749220624776,1.2222479526075907,101043.95190326375,287.99776115222704,0.0,0.0,0.0,404.0415789473684,0.2168461835630701,0.86,nominal,4777.0217517021665,nan,pitch_program,12.73,0.0,0.0
0.57,51.594317189747976,0.0,23.573946329665503,95.82921988719987,0.0,5.086171127734555,95.96410016735375,17.885297988688862,0.0,7.255738402542757,0.0,0.0,0.7540055217717881,0.0,4.217594481743699,0.0,5627.8245334121675,0.28207852424097857,95.96410016735375,2.1507480712367926,1.2222300390144363,101042.12300716131,287.99676934885713,0.0,0.0,0.0,404.0076315789474,0.21682796425677175,0.86,nominal,4835.735701238766,nan,pitch_program,12.715,0.0,0.0
0.6,54.48730270251185,0.0,23.723397760700667,96.43285042546235,0.0,4.981714367838806,96.56144219729904,17.878793149761158,0.0,7.230246244549451,0.0,0.0,0.8497386137943918,0.0,4.272979111315525,0.0,5698.0231615227885,0.2838348403616169,96.56144219729904,2.149957224385315,1.2222124935147243,101040.33169782489,287.9957979145554,0.0,0.0,0.0,403.9736842105263,0.21680974495047337,0.86,nominal,4894.703118261138,nan,pitch_program,12.7,0.0,0.0
0.63,57.398365046985575,0.0,23.869793661174747,97.03541148245759,0.0,4.879863349135998,97.15803697006287,17.872288857412645,0.0,7.202257805981638,0.0,0.0,0.9329479708124173,0.0,4.323306452720881,0.0,5768.568832166453,0.28558895605175716,97.15803697006287,2.1491963400871086,1.2221953069191116,101038.5770366922,287.99484634120233,0.0,0.0,0.0,403.9397368421053,0.21679152564417503,0.86,nominal,4953.924785945411,nan,pitch_program,12.685,0.0,0.0
0.6599999999999999,60.32747312451885,0.0,24.013208805926514,97.63693591777586,0.0,4.780504825058874,97.75389752738394,17.86578511164332,0.0,7.1721267478847395,0.0,0.0,1.0043686263769407,0.0,4.369046253528758,0.0,5839.46147446541,0.28734090969677395,97.75389752738393,2.1484615691561344,1.2221784704377379,101036.8581260059,287.99391414276147,0.0,0.0,0.0,403.9057894736842,0.21677330633787664,0.86,nominal,5013.401375033779,nan,pitch_program,12.67,0.0,0.0
0.69,63.274596727475334,0.0,24.15371489554336,98.23745343188277,0.0,4.683536320561512,98.34903542611566,17.859281912453184,0.0,7.14021322804192,0.0,0.0,1.0637840222634378,0.0,4.410665412158964,0.0,5910.700879363869,0.2890907353138925,98.34903542611566,2.147751090283442,1.2221619756422488,101035.17410493515,287.99300085317896,0.0,0.0,0.0,403.8718421052631,0.21675508703157828,0.86,nominal,5073.133412804058,nan,pitch_program,12.655,0.0,0.0
0.72,66.2397064297746,0.0,24.291380957576408,98.8369900766421,0.0,4.588868734434998,98.94346023700669,17.852779259842237,0.0,7.106834345048743,0.0,0.0,1.112629464573763,0.0,4.448577204553796,0.0,5982.2866333684115,0.29083846107983213,98.94346023700669,2.1470630674162465,1.2221458144186577,101033.524144762,287.9921060237757,0.0,0.0,0.0,403.8378947368421,0.21673686772527995,0.86,nominal,5133.121232903678,nan,pitch_program,12.64,0.0,0.0
0.75,69.22277349119716,0.0,24.42627368191868,99.43556871408532,0.0,4.496424144742355,99.5371797650657,17.84627715381048,0.0,7.072251305828,0.0,0.0,1.1527680090226755,0.0,4.4831300607224325,0.0,6054.218137934052,0.29258410997932843,99.5371797650657,2.14639531916721,1.2221299789279445,101031.90744485766,287.9912292210675,0.0,0.0,0.0,403.80394736842106,0.21671864841898159,0.86,nominal,5193.36499459429,nan,pitch_program,12.625,0.0,0.0
0.78,72.22376978103763,0.0,24.55845767048905,100.03320966134925,0.0,4.406132952345717,100.1302004529363,17.83977559435791,0.0,7.036694152443179,0.0,0.0,1.1852384842000687,0.0,4.514634223168201,0.0,6126.494652265964,0.294327700991369,100.13020045293631,2.1457461298072578,1.222114461576709,101030.32322968545,287.9903700251418,0.0,0.0,0.0,403.77,0.21670042911268322,0.86,nominal,5253.864720286902,nan,pitch_program,12.61,0.0,0.0
0.8099999999999999,75.24266770859889,0.0,24.687995665462804,100.62993091870852,0.0,4.317933165791697,100.72252748778841,17.83327458148453,0.0,7.00037444841391,0.0,0.0,1.2106568415151389,0.0,4.54337506593363,0.0,6199.115301401289,0.29606924940390067,100.72252748778843,2.1451144069350616,1.2220992549903567,101028.77074606257,287.98952802817445,0.0,0.0,0.0,403.73605263157896,0.21668220980638486,0.86,nominal,5314.620304456857,nan,pitch_program,12.595,0.0,0.0
0.84,78.27944015596334,0.0,24.814948775372113,101.22574824548201,0.0,4.231770330310342,101.31416479439683,17.82677411519034,0.0,6.96348025732421,0.0,0.0,1.2298064121505203,0.0,4.569608314292765,0.0,6272.079070672493,0.29780876679401475,101.31416479439685,2.1444992520951094,1.2220843519865305,101027.24926044664,287.9887028329601,0.0,0.0,0.0,403.7021052631579,0.2166639905000865,0.86,nominal,5375.631511401102,nan,pitch_program,12.58,0.0,0.0
0.87,81.33406041719205,0.0,24.93937667674494,101.82067537429018,0.0,4.147596712427567,101.9051151423005,17.82027419547534,0.0,6.926174396747724,0.0,0.0,1.2435287298151068,0.0,4.5935589513985695,0.0,6345.384814370291,0.29954626134341417,101.9051151423005,2.1438997976740324,1.2220697455514142,101025.75805651596,287.98789405160113,0.0,0.0,0.0,403.66815789473685,0.21664577119378817,0.86,nominal,5436.897984369762,nan,pitch_program,12.565,0.0,0.0
0.8999999999999999,84.40650214539228,0.0,25.06133778479629,102.41472427334094,0.0,4.065370268378428,102.49538030274078,17.813774822339525,0.0,6.8885999898778785,0.0,0.0,1.252480273882719,0.0,4.615427520284559,0.0,6419.031271131892,0.3012817383001277,102.49538030274078,2.1433153424245446,1.22205542881968,101024.29643312164,287.9871013043988,0.0,0.0,0.0,403.6342105263158,0.2166275518874898,0.86,nominal,5498.419259889005,nan,pitch_program,12.55,0.0,0.0
0.9299999999999999,87.49673930519364,0.0,25.180889405515757,103.0079053267122,0.0,3.9850540239821735,103.0849611503587,17.8072759957829,0.0,6.8508845410272174,0.0,0.0,1.2571816737505919,0.0,4.635394692085981,0.0,6493.017073066952,0.30301520027780665,103.0849611503587,2.1427453861318955,1.222041395056615,101022.86370246205,287.9863242188641,0.0,0.0,0.0,403.6002631578947,0.21660933258119142,0.86,nominal,5560.194776774081,nan,pitch_program,12.535000000000002,0.0,0.0
0.96,90.6047461292295,0.0,25.29808787514511,103.60022746786171,0.0,3.906615654311845,103.6738577331007,17.800777715805463,0.0,6.813140526368512,0.0,0.0,1.2581338674552367,0.0,4.653622220156086,0.0,6567.340751308636,0.3047466474615505,103.67385773310068,2.1421895311674586,1.2220276376417263,101021.4591884088,287.98556242881153,0.0,0.0,0.0,403.56631578947366,0.21659111327489305,0.86,nominal,5622.223882092394,nan,pitch_program,12.520000000000001,0.0,0.0
0.99,93.73049707899045,0.0,25.412988684400798,104.19169832536502,0.0,3.830026975189507,104.26206935676345,17.794279982407215,0.0,6.775466271386946,0.0,0.0,1.255808544632184,0.0,4.670254216251871,0.0,6642.000743746313,0.3064760778567303,104.26206935676345,2.1416474348238808,1.2220141500541466,101020.082225016,287.9848155735514,0.0,0.0,0.0,403.53236842105264,0.21657289396859472,0.86,nominal,5684.505838759155,nan,pitch_program,12.505,0.0,0.0
1.02,96.87396681002701,0.0,25.525646587217135,104.78232436788518,0.0,3.7552634272112484,104.84959467420202,17.787782795588157,0.0,6.73794801317456,0.0,0.0,1.2506086517664075,0.0,4.685419601262472,0.0,6716.995403734691,0.30820348755148275,104.84959467420204,2.1411188269288446,1.2220009258598552,101018.73215521527,287.9840832971831,0.0,0.0,0.0,403.49842105263156,0.21655467466229633,0.86,nominal,5747.03983377676,nan,pitch_program,12.49,0.0,0.0
1.05,100.0351301407696,0.0,25.636115697273976,105.37211102475295,0.0,3.6823036685613686,105.43643175923758,17.781286155348287,0.0,6.700661547507924,0.0,0.0,1.2428822327516948,0.0,4.699234067331216,0.0,6792.323007227744,0.3099288709342032,105.43643175923758,2.140603506879061,1.2219879587003282,101017.40832965658,287.9833652479677,0.0,0.0,0.0,403.46447368421053,0.216536455355998,0.86,nominal,5809.824985062854,nan,pitch_program,12.475,0.0,0.0
1.08,103.21396202447126,0.0,25.744449574215615,105.96106279005548,0.0,3.6111292313880203,106.02257817051924,17.774790061687607,0.0,6.663673163159276,0.0,0.0,1.2329461877751662,0.0,4.711801281390443,0.0,6867.981758939451,0.31165222088148603,106.02257817051925,2.1401013157561115,1.2219752422824102,101016.11010567381,287.9826610777676,0.0,0.0,0.0,403.43052631578945,0.21651823604969964,0.86,nominal,5872.8603473789135,nan,pitch_program,12.46,0.0,0.0
1.1099999999999999,106.41043752411827,0.0,25.85070129982923,106.54918332156699,0.0,3.5417241871205127,106.60803101413384,17.768294514606115,0.0,6.627040588978926,0.0,0.0,1.2210858476078745,0.0,4.723214087066055,0.0,6943.96979862561,0.3133735289423608,106.60803101413386,2.139612122540274,1.2219627703693547,101014.8368463697,287.9819704415511,0.0,0.0,0.0,403.3965789473684,0.21650001674340127,0.86,nominal,5936.144918257231,nan,pitch_program,12.445,0.0,0.0
1.14,109.62453179007386,0.0,25.954923544965204,107.13647553185308,0.0,3.4740748378658997,107.19278700251452,17.761799514103814,0.0,6.590814050798823,0.0,0.0,1.2075513128985074,0.0,4.733555793424905,0.0,7020.285207158727,0.315092785511627,107.19278700251454,2.1391358230825195,1.2219505367729617,101013.58791981271,287.9812929969577,0.0,0.0,0.0,403.3626315789474,0.21648179743710294,0.86,nominal,5999.677643665456,nan,pitch_program,12.43,0.0,0.0
1.17,112.85622004012254,0.0,26.057168628483407,107.72294166828917,0.0,3.4081694506067275,107.77684250651286,17.7553050601807,0.0,6.555037141141498,0.0,0.0,1.1925636939931676,0.0,4.742901245557399,0.0,7096.926011962987,0.3168099799830741,107.77684250651286,2.1386723337680897,1.2219385353466452,101012.36269832903,287.9806284039148,0.0,0.0,0.0,403.3286842105263,0.21646357813080455,0.86,nominal,6063.457423067356,nan,pitch_program,12.415,0.0,0.0
1.2,116.10547754166521,0.0,26.157488569089963,108.30858338475555,0.0,3.3439980202186184,108.36019360250226,17.748811152836776,0.0,6.519747512107603,0.0,0.0,1.1763210049837345,0.0,4.751317696047616,0.0,7173.890192021397,0.31852510088807867,108.36019360250226,2.1382215821282022,1.221926759979336,101011.16055787978,287.9799763243009,0.0,0.0,0.0,403.2947368421053,0.21644535882450622,0.86,nominal,6127.483114061953,nan,pitch_program,12.4,0.0,0.0
1.23,119.37227959588321,0.0,26.255935130630135,108.89340180726698,0.0,3.281552051339054,108.9428361161235,17.74231779207204,0.0,6.4849775332604525,0.0,0.0,1.158999330473485,0.0,4.758865625323427,0.0,7251.175682643906,0.3202381360243148,108.9428361161235,2.137783501987722,1.2219152045901596,101009.98087751732,287.9793364216509,0.0,0.0,0.0,403.26078947368416,0.2164271395182078,0.86,nominal,6191.753536761066,nan,pitch_program,12.385,0.0,0.0
1.26,122.65660152367792,0.0,26.352559861502012,109.47739759315694,0.0,3.2208243623959136,109.52476566212579,17.735824977886494,0.0,6.4507549044480035,0.0,0.0,1.140754327663302,0.0,4.765599499742961,0.0,7328.7803799056555,0.32194907257297156,109.52476566212577,2.137358030736398,1.2219038631237957,101008.82303891126,287.9787083609002,0.0,0.0,0.0,403.22684210526313,0.21640892021190947,0.86,nominal,6256.267477837582,nan,pitch_program,12.37,0.0,0.0
1.29,125.95841865319638,0.0,26.4474141288567,110.06057098394845,0.0,3.1618089118229378,110.105977680177,17.729332710280136,0.0,6.417103178968328,0.0,0.0,1.1217242149018127,0.0,4.771568423495609,0.0,7406.70214471814,0.3236578972041099,110.10597768017702,2.1369451054874475,1.2218927295464599,101007.68642593786,287.9780918081624,0.0,0.0,0.0,403.1928947368421,0.21639070090561113,0.86,nominal,6321.023694220571,nan,pitch_program,12.355,0.0,0.0
1.3199999999999998,129.27770630878655,0.0,26.540549148106287,110.64292185300549,0.0,3.104500641652869,110.68646746736613,17.72284098925297,0.0,6.384042222048933,0.0,0.0,1.1020319278903945,0.0,4.77681671244314,0.0,7484.93880661014,0.32536459617228114,110.68646746736613,2.1365446596246973,1.2218817978424288,101006.57042432512,287.9774864305373,0.0,0.0,0.0,403.158947368421,0.21637248159931274,0.86,nominal,6386.0209165054275,nan,pitch_program,12.34,0.0,0.0
1.3499999999999999,132.6144398012438,0.0,26.632016008196235,111.22444974857548,0.0,3.0488953363315883,111.26623020775574,17.71634981480499,0.0,6.351588629563719,0.0,0.0,1.0817864450966737,0.0,4.781384416468811,0.0,7563.488167250148,0.3270691554034652,111.26623020775573,2.1361566207132237,1.2218710620110644,101005.47442134867,287.9768918959467,0.0,0.0,0.0,403.125,0.2163542622930144,0.86,nominal,6451.257852109426,nan,pitch_program,12.325,0.0,0.0
1.38,135.968594419217,0.0,26.721865693089807,111.80515393243965,0.0,2.994989496452398,111.84526099902662,17.7098591869362,0.0,6.319756100965217,0.0,0.0,1.061084313910602,0.0,4.785307784927221,0.0,7642.348003700601,0.3287715605734488,111.84526099902662,2.1357809087386888,1.2218605160642846,101004.39780557327,287.9763078729949,0.0,0.0,0.0,403.0910526315789,0.21633604298671602,0.86,nominal,6516.733188169332,nan,pitch_program,12.31,0.0,0.0
1.41,139.34014542165525,0.0,26.810149099864777,112.38503341460859,0.0,2.9427802258323243,112.42355487645922,17.703369105646598,0.0,6.288555766482739,0.0,0.0,1.0400111751157959,0.0,4.788619676485127,0.0,7721.51607142268,0.33047179717836567,112.42355487645922,2.1354174343730508,1.2218501540244346,101003.33996663542,287.97573403085084,0.0,0.0,0.0,403.0571052631579,0.2163178236804177,0.86,nominal,6582.445594200308,nan,pitch_program,12.295,0.0,0.0
1.44,142.72906803119164,0.0,26.89691705376836,112.96408698454648,0.0,2.8922651301194504,113.00110683455755,17.696879570936186,0.0,6.257996479292547,0.0,0.0,1.0186429304877376,0.0,4.7913499253627645,0.0,7800.990107060077,0.33216985059829807,113.00110683455755,2.1350660977025964,1.2218399699225102,101002.3002950615,287.9751700391505,0.0,0.0,0.0,403.02315789473687,0.21629960437411935,0.86,nominal,6648.3937245428815,nan,pitch_program,12.28,0.0,0.0
1.47,146.13533742836873,0.0,26.982220320547288,113.54231323923635,0.0,2.843442225964275,113.57791184649092,17.690390582804962,0.0,6.22808507699443,0.0,0.0,0.9970467659150735,0.0,4.79352566912918,0.0,7880.7678310139545,0.3338657061544559,113.5779118464909,2.1347267873367803,1.2218299577967016,101001.27818211916,287.97461556791643,0.0,0.0,0.0,402.9892105263158,0.21628138506782096,0.86,nominal,6714.576220611127,nan,pitch_program,12.265,0.0,0.0
1.5,149.55892874661976,0.0,27.066109616343176,114.11971060836744,0.0,2.7963098598629084,114.15396488151386,17.68390214125293,0.0,6.198826613237112,0.0,0.0,0.9752821464376016,0.0,4.795171639638898,0.0,7960.846949820313,0.33555934916040386,114.15396488151387,2.134399379650916,1.2218201116912295,101000.27301969803,287.97407028749376,0.0,0.0,0.0,402.9552631578947,0.2162631657615226,0.86,nominal,6780.991712954062,nan,pitch_program,12.25,0.0,0.0
1.53,152.99981706792835,0.0,27.148635615410864,114.69627737695319,0.0,2.7508666355896363,114.72926092055934,17.677414246280083,0.0,6.1702245633831705,0.0,0.0,0.9534016815970394,0.0,4.796310421808465,0.0,8041.225158346597,0.3372507649679128,114.72926092055934,2.1340837382110904,1.2218104256554299,100999.2842002163,287.9735338684998,0.0,0.0,0.0,402.9213157894737,0.21624494645522424,0.86,nominal,6847.638823146762,nan,pitch_program,12.235,0.0,0.0
1.56,156.4579774190976,0.0,27.229848955891125,115.2720117056418,0.0,2.70711134934206,115.30379497017155,17.670926897886428,0.0,6.142281007919778,0.0,0.0,0.9314518672426242,0.0,4.7969626846095,0.0,8121.9001418217995,0.33893993900792396,115.30379497017154,2.133779713414729,1.2218008937430707,100998.31111655063,287.9730059817867,0.0,0.0,0.0,402.8873684210526,0.21622672714892588,0.86,nominal,6914.5161655249685,nan,pitch_program,12.220000000000002,0.0,0.0
1.5899999999999999,159.93338476856576,0.0,27.309800243847953,115.84691164893864,0.0,2.66504293189429,115.87756207491525,17.66444009607196,0.0,6.11499679550211,0.0,0.0,0.9094737644420757,0.0,4.797147386721161,0.0,8202.869577710795,0.3406268568270281,115.87756207491525,2.133487142262278,1.2217915100118744,100997.35316198728,287.972486298415,0.0,0.0,0.0,402.8534210526316,0.21620850784262752,0.86,nominal,6981.62234877425,nan,pitch_program,12.205000000000002,0.0,0.0
1.6199999999999999,163.42601402371233,0.0,27.388540055759467,116.42097517155199,0.0,2.624660397050503,116.45055732839998,17.657953840836683,0.0,6.088371687728107,0.0,0.0,0.8875036084375975,0.0,4.796881959474405,0.0,8284.131137444805,0.34231150411986816,116.45055732839997,2.133205848233653,1.2217822685232136,100996.40973019089,287.97197448963755,0.0,0.0,0.0,402.8194736842105,0.21619028853632916,0.86,nominal,7048.955977385299,nan,pitch_program,12.19,0.0,0.0
1.65,166.93584002860396,0.0,27.466118939632043,116.99420016305484,0.0,2.585962795752527,117.02277588304747,17.651468132180593,0.0,6.062404487947013,0.0,0.0,0.8655733408523215,0.0,4.796182469871421,0.0,8365.682488019458,0.3439938667578424,117.02277588304747,2.1329356412789493,1.2217731633419844,100995.48021519126,287.9714702268924,0.0,0.0,0.0,402.78552631578947,0.21617206923003082,0.86,nominal,7116.515652986321,nan,pitch_program,12.175,0.0,0.0
1.68,170.46283756213487,0.0,27.542587414890853,117.56658445103031,0.0,2.5489491752936826,117.59421295871438,17.64498297010369,0.0,6.037093155797107,0.0,0.0,0.8437110853848957,0.0,4.795063765788099,0.0,8447.52129346981,0.3456739308144377,117.5942129587144,2.1326763178976194,1.2217641885366026,100994.56401138293,287.9709731818032,0.0,0.0,0.0,402.75157894736844,0.21615384992373246,0.86,nominal,7184.299975561975,nan,pitch_program,12.16,0.0,0.0
1.71,174.00698133652045,0.0,27.617995971184886,118.13812581285315,0.0,2.5136185431344695,118.1648638502745,17.63849835460598,0.0,6.012434908951728,0.0,0.0,0.8219415741990463,0.0,4.793539605212675,0.0,8529.645216231918,0.3473516825875002,118.16486385027451,2.132427661284652,1.2217553381791497,100993.66051353987,287.97048302618725,0.0,0.0,0.0,402.71763157894736,0.2161356306174341,0.86,nominal,7252.307544567775,nan,pitch_program,12.145,0.0,0.0
1.74,177.56824599610786,0.0,27.69239506623056,118.70882198624705,0.0,2.4799698348557575,118.73472393425726,17.632014285687454,0.0,5.988426313552612,0.0,0.0,0.8002865250138074,0.0,4.791622771338615,0.0,8612.051918399391,0.3490271086187276,118.73472393425727,2.132189441539947,1.2217466063456153,100992.76911684,287.96999943206947,0.0,0.0,0.0,402.68368421052634,0.21611741131113574,0.86,nominal,7320.536959948392,nan,pitch_program,12.13,0.0,0.0
1.77,181.1466061164701,0.0,27.76583512280577,119.27867067874149,0.0,2.4480018858402697,119.30378867462987,17.62553076334812,0.0,5.965063364584249,0.0,0.0,0.7787649764024233,0.0,4.789325175063901,0.0,8694.739062883022,0.35070019571064065,119.30378867462986,2.1319614159303892,1.2217379871162448,100991.8892169007,287.96952207170176,0.0,0.0,0.0,402.64973684210526,0.21609919200483738,0.86,nominal,7388.986823067435,nan,pitch_program,12.115,0.0,0.0
1.7999999999999998,184.7420362037543,0.0,27.838366524995173,119.84766957613996,0.0,2.417713406313478,119.87205362780223,17.619047787587974,0.0,5.942341557267616,0.0,0.0,0.7573935871472844,0.0,4.786657946241921,0.0,8777.704314480776,0.3523709309412668,119.87205362780223,2.131743329192711,1.2217294745759781,100991.02020982333,287.9690506175875,0.0,0.0,0.0,402.6157894736842,0.216080972698539,0.86,nominal,7457.65573755569,nan,pitch_program,12.1,0.0,0.0
1.8299999999999998,188.35451069425733,0.0,27.910039613777407,120.41581635010037,0.0,2.3891029594077566,120.43951444692789,17.612565358407018,0.0,5.920255950479035,0.0,0.0,0.7361869020681892,0.0,4.783631514930002,0.0,8860.945340864833,0.35403930167675,120.43951444692789,2.1315349138716257,1.221721062814962,100990.16149224543,287.9685847425104,0.0,0.0,0.0,402.58184210526315,0.21606275339224065,0.86,nominal,7526.542310084326,nan,pitch_program,12.085,0.0,0.0
1.8599999999999999,191.9840039542049,0.0,27.980904682035877,120.98310866491853,0.0,2.3621689419490135,121.00616688556742,17.60608347580525,0.0,5.898801223080642,0.0,0.0,0.7151575883028649,0.0,4.780255683735821,0.0,8944.459813492134,0.3557052955820855,121.00616688556742,2.1313358906871986,1.221712745929134,100989.31246140026,287.96812411956677,0.0,0.0,0.0,402.54789473684207,0.2160445340859423,0.86,nominal,7595.645151068984,nan,pitch_program,12.07,0.0,0.0
1.89,195.63049027971277,0.0,28.051011969066735,121.54954418359596,0.0,2.3369095676952574,121.57200680077437,17.59960213978267,0.0,5.877971723937523,0.0,0.0,0.6943166457509191,0.0,4.776539692227605,0.0,9028.245408443921,0.35736890063015275,121.57200680077437,2.1311459689249697,1.2217045180208577,100988.47251518143,287.96766842220103,0.0,0.0,0.0,402.51394736842104,0.21602631477964393,0.86,nominal,7664.962875310213,nan,pitch_program,12.055,0.0,0.0
1.92,199.29394389691075,0.0,28.1204116546502,122.11512057326532,0.0,2.3133228527822327,122.1370301556589,17.59312135033928,0.0,5.857761516322751,0.0,0.0,0.673673594144064,0.0,4.7724922742804035,0.0,9112.299807199852,0.35903010510921113,122.13703015565889,2.13096484684457,1.2216963731996222,100987.64105221439,287.96721732424476,0.0,0.0,0.0,402.48,0.2160080954733456,0.86,nominal,7734.494102575241,nan,pitch_program,12.040000000000001,0.0,0.0
1.95,202.97433896221193,0.0,28.18915385274488,122.67983551003957,0.0,2.291406603155951,122.70123302147925,17.58664110747508,0.0,5.8381644173335445,0.0,0.0,0.6532366393418553,0.0,4.768121709134435,0.0,9196.620697351324,0.36068889762900597,122.70123302147925,2.130792212102974,1.2216883055827732,100986.8174719306,287.96677049995714,0.0,0.0,0.0,402.44605263157894,0.2159898761670472,0.86,nominal,7804.237458125696,nan,pitch_program,12.025,0.0,0.0
1.98,206.67164956271225,0.0,28.257288604858697,123.24368668334381,0.0,2.2711584037939345,123.26461157930666,17.58016141119007,0.0,5.819174032868993,0.0,0.0,0.6330128212800484,0.0,4.763435866852308,0.0,9281.205773258678,0.3623452671256171,123.26461157930665,2.130627742188625,1.2216803092962905,100986.00117464723,287.9663276240684,0.0,0.0,0.0,402.4121052631579,0.21597165686074887,0.86,nominal,7874.191573195508,nan,pitch_program,12.01,0.0,0.0
2.01,210.38584971670574,0.0,28.324865873144788,123.8066717997831,0.0,2.252575609536296,123.82716212130474,17.573682261484247,0.0,5.800783788662297,0.0,0.0,0.6130081454860095,0.0,4.7584422487902325,0.0,9366.052736656311,0.3639992028651736,123.82716212130472,2.13047110486364,1.2216723784755934,100985.19156164897,287.9658883718245,0.0,0.0,0.0,402.37815789473683,0.2159534375544505,0.86,nominal,7944.355085422819,nan,pitch_program,11.995000000000001,0.0,0.0
2.04,214.11691337430355,0.0,28.391935533265755,124.368788586594,0.0,2.2356553373655914,124.38888105166154,17.567203658357613,0.0,5.78298695780575,0.0,0.0,0.5932276999878431,0.0,4.753148023630521,0.0,9451.159297209557,0.3656506944465449,124.38888105166156,2.130321958611558,1.2216645072663799,100984.38803527373,287.96545241903374,0.0,0.0,0.0,402.3442105263158,0.21593521824815215,0.86,nominal,8014.726639239502,nan,pitch_program,11.98,0.0,0.0
2.07,217.86481441814524,0.0,28.458547367065467,124.93003479472266,0.0,2.220394459990365,124.94976488720805,17.56072560181017,0.0,5.765776685157662,0.0,0.0,0.5736757592496287,0.0,4.74756005946211,0.0,9536.523173026715,0.36729973180310804,124.94976488720806,2.130179953088452,1.2216566898254764,100983.58999899938,287.96501944211406,0.0,0.0,0.0,402.3102631578947,0.2159169989418538,0.86,nominal,8085.304886221517,nan,pitch_program,11.965,0.0,0.0
2.1,221.6295266641923,0.0,28.524751055083513,125.49040820156813,0.0,2.2067896006015832,125.50981025775444,17.554248091841913,0.0,5.749146008977848,0.0,0.0,0.5543558765525278,0.0,4.741684952342941,0.0,9622.142091129672,0.3689463052036854,125.50981025775444,2.130044729575555,1.2216489203217216,100982.7968575337,287.96458911814193,0.0,0.0,0.0,402.27631578947364,0.2158987796355554,0.86,nominal,8156.088485403095,nan,pitch_program,11.95,0.0,0.0
2.13,225.41102386259504,0.0,28.590596168944035,126.04990661342514,0.0,2.194837128684095,126.06901390617223,17.547771128452847,0.0,5.733087880100226,0.0,0.0,0.535270966091233,0.0,4.735529051730783,0.0,9708.013787885771,0.3705904052527319,126.06901390617223,2.1299159214318255,1.221641192936854,100982.00801690512,287.96416112490186,0.0,0.0,0.0,402.2423684210526,0.21588056032925707,0.86,nominal,8227.076103557498,nan,pitch_program,11.935,0.0,0.0
2.16,229.20927969862478,0.0,28.656132163647342,126.60852786765754,0.0,2.1845331567768875,126.62737268824807,17.54129471164297,0.0,5.717595178917313,0.0,0.0,0.5164233759103155,0.0,4.729098483126991,0.0,9794.136009403848,0.3722320228898511,126.62737268824807,2.1297931545452147,1.2216335018664113,100981.22288455436,287.96373514093625,0.0,0.0,0.0,402.2084210526316,0.2158623410229587,0.86,nominal,8298.26641544687,nan,pitch_program,11.92,0.0,0.0
2.19,233.02426779366368,0.0,28.721408369789938,127.16626983463021,0.0,2.1758735380864773,127.18488357233231,17.53481884141228,0.0,5.7026607304194705,0.0,0.0,0.49781495274654364,0.0,4.722399168238419,0.0,9880.506511896943,0.37387114938870586,127.18488357233231,2.129676047781275,1.2216258413206524,100980.4408694285,287.96331084559637,0.0,0.0,0.0,402.1744736842105,0.21584412171666034,0.86,nominal,8369.658104043465,nan,pitch_program,11.905,0.0,0.0
2.2199999999999998,236.8559617062464,0.0,28.78647398573595,127.72313041942417,0.0,2.168853864867019,127.74154363880368,17.52834351776078,0.0,5.688277317507817,0.0,0.0,0.47944709957298776,0.0,4.71543684293223,0.0,9967.123062013741,0.3755077763553881,127.74154363880368,2.1295642134284654,1.2216182055254592,100979.66138207306,287.9628879190927,0.0,0.0,0.0,402.1405263157895,0.215825902410362,0.86,nominal,8441.249860724409,nan,pitch_program,11.890000000000002,0.0,0.0
2.25,240.70433493314712,0.0,28.851378069760635,128.27910756335737,0.0,2.1634694674894903,128.297350079369,17.521868740688472,0.0,5.6744376927719395,0.0,0.0,0.46132082677228087,0.0,4.708217073224615,0.0,10053.983437141238,0.377141895726302,128.297350079369,2.1294572576389994,1.2216105887232722,100978.88383472736,287.9624660425465,0.0,0.0,0.0,402.1065789473684,0.21580768310406362,0.86,nominal,8513.040385441904,nan,pitch_program,11.875,0.0,0.0
2.28,244.56936091050707,0.0,28.916169532184526,128.83419924533126,0.0,2.159715414129694,128.85230019621594,17.51539451019535,0.0,5.661134588905718,0.0,0.0,0.44343679753276877,0.0,4.70074526952138,0.0,10141.085425680194,0.37877349976561386,128.8523001962159,2.129354780864837,1.2216029851740022,100978.10764141771,287.9620448980408,0.0,0.0,0.0,402.0726315789474,0.21578946379776529,0.86,nominal,8585.02838687067,nan,pitch_program,11.86,0.0,0.0
2.31,248.4510130149977,0.0,28.980897127514883,129.38840348302068,0.0,2.15758651101192,129.40639140103343,17.508920826281418,0.0,5.6483607279130705,0.0,0.0,0.42579536818531455,0.0,4.693026699302152,0.0,10228.42682729542,0.38040258106231406,129.40639140103343,2.129256378288054,1.2215953891559546,100977.33221805147,287.9616241686711,0.0,0.0,0.0,402.03868421052636,0.21577124449146692,0.86,nominal,8657.212582534274,nan,pitch_program,11.845,0.0,0.0
2.34,252.3492645650154,0.0,29.04560944660942,129.9417183339236,0.0,2.1570773031512243,129.95962121391594,17.502447688946674,0.0,5.636108829239269,0.0,0.0,0.40839662401618787,0.0,4.685066498419608,0.0,10316.005453142478,0.3820291325269334,129.95962121391594,2.129161640245127,1.2215877949667513,100976.55698251147,287.96120353859703,0.0,0.0,0.0,402.0047368421053,0.21575302518516856,0.86,nominal,8729.591698911847,nan,pitch_program,11.83,0.0,0.0
2.37,256.26408882190395,0.0,29.110354908875703,130.4941418962847,0.0,2.1581820755428214,130.51198726216256,17.49597509819112,0.0,5.62437161694986,0.0,0.0,0.3912404110151667,0.0,4.676869681167735,0.0,10403.819126072203,0.3836531473879529,130.51198726216256,2.129070152644904,1.221580196924239,100975.78135474847,287.9607826930923,0.0,0.0,0.0,401.9707894736842,0.21573480587887017,0.86,nominal,8802.164471526568,nan,pitch_program,11.815,0.0,0.0
2.4,260.1954589912011,0.0,29.175181754518274,131.04567230990583,0.0,2.1608948547523403,131.0634872789844,17.489503054014754,0.0,5.613141826062087,0.0,0.0,0.37432636412411335,0.0,4.668441149252635,0.0,10491.865680814693,0.3852746191879416,131.0634872789844,2.1289814973795447,1.2215725893674063,100975.00475687477,287.96036131859563,0.0,0.0,0.0,401.9368421052631,0.2157165865725718,0.86,nominal,8874.929645017202,nan,pitch_program,11.8,0.0,0.0
2.4299999999999997,264.14334822390674,0.0,29.24013803684422,131.59630775685483,0.0,2.16520941086486,131.61411910213033,17.483031556417576,0.0,5.602412208127123,0.0,0.0,0.35765393221069935,0.0,4.65978569978986,0.0,10580.142964143783,0.38689354177945356,131.61411910213033,2.128728548625165,1.2215649666572788,100974.22661325576,287.9599391027605,0.0,0.0,0.0,401.9028947368421,0.21569836726627348,0.86,nominal,8947.885973193892,nan,pitch_program,11.785,0.0,0.0
2.46,268.10772998503893,0.0,29.30526787055398,132.14605870440568,0.0,2.1709944569921062,132.1638908629756,17.476560605399587,0.0,5.596770149753901,0.0,0.0,0.18806861259266938,0.0,4.655556830505023,0.0,10668.650484079437,0.38850993926046723,132.1638908629756,2.129001949758747,1.221557323617191,100973.44639545359,287.95951575884135,0.0,0.0,0.0,401.86894736842106,0.21568014795997512,0.86,nominal,9021.033529183029,nan,pitch_program,11.77,0.0,0.0
2.4899999999999998,272.0885743975672,0.0,29.37063080032029,132.69481375094247,0.0,2.1787643255435905,132.7126995068052,17.470090200960787,0.0,5.591561763581979,0.0,0.0,0.1736128725169411,0.0,4.650886084815087,0.0,10757.369730798908,0.39012350895647924,132.7126995068052,2.1290370754155425,1.2215496532598695,100972.66339020323,287.9590908997979,0.0,0.0,0.0,401.835,0.21566192865367675,0.86,nominal,9094.357801729748,nan,pitch_program,11.755,0.0,0.0
2.52,276.08585212074763,0.0,29.43628058243685,133.24259077268064,0.0,2.1883260705521117,133.26055968217716,17.463620343101177,0.0,5.589367175619787,0.0,0.0,0.0731529320819291,0.0,4.648447490473023,0.0,10846.30108586434,0.3917342941727127,133.26055968217713,2.12933100190466,1.2215419492774366,100971.87695359788,287.95866417621414,0.0,0.0,0.0,401.80105263157895,0.2156437093473784,0.86,nominal,9167.859684377303,nan,pitch_program,11.74,0.0,0.0
2.55,280.09953203382355,0.0,29.502278429059967,133.78933043586483,0.0,2.19992822077058,133.8074161721,17.457151031820754,0.0,5.5888172549851705,0.0,0.0,0.01833068782071304,0.0,4.646774690253844,0.0,10935.433544117117,0.39334213287374176,133.8074161721,2.1296418008859166,1.2215342044872037,100971.0863524324,287.9582351902111,0.0,0.0,0.0,401.7671052631579,0.21562549004108003,0.86,nominal,9241.530830083126,nan,pitch_program,11.725000000000001,0.0,0.0
2.58,284.1295824200686,0.0,29.56868640197802,134.3350128748338,0.0,2.2135990972684554,134.35324970035222,17.45068226711952,0.0,5.5900015168069155,0.0,0.0,-0.03947539405954332,0.0,4.645955690286611,0.0,11024.761852116739,0.394946968683888,134.3532497003522,2.130023146987667,1.2215264116069215,100970.29084334288,287.9578035383871,0.0,0.0,0.0,401.73315789473685,0.2156072707347817,0.86,nominal,9315.367611026555,nan,pitch_program,11.71,0.0,0.0
2.61,288.1759708030815,0.0,29.635568634905013,134.87961276709808,0.0,2.229407764233046,134.8980363058764,17.444214048997477,0.0,5.592988162172676,0.0,0.0,-0.09955484554788765,0.0,4.646039825227624,0.0,11114.279932575739,0.3965487314693672,134.8980363058764,2.130499580835483,1.2215185631113497,100969.48965816518,287.95736880387307,0.0,0.0,0.0,401.6992105263158,0.21558905142848334,0.86,nominal,9389.365748744265,nan,pitch_program,11.695,0.0,0.0
2.6399999999999997,292.23866386231583,0.0,29.702991865548505,135.4231019744778,0.0,2.2474410214497134,135.4417496178143,17.437746377454623,0.0,5.597335675331363,0.0,0.0,-0.14491710535912755,0.0,4.646559451875681,0.0,11203.981244790451,0.3981473440285296,135.4417496178143,2.1310099000175002,1.2215106511698333,100968.6819975628,287.9569305528739,0.0,0.0,0.0,401.6652631578947,0.21557083212218495,0.86,nominal,9463.520614945633,nan,pitch_program,11.68,0.0,0.0
2.67,296.31762777509744,0.0,29.771023705965728,135.96546375938644,0.0,2.2677280139074614,135.98437382894437,17.431279252490956,0.0,5.6032226878562765,0.0,0.0,-0.1962337510030811,0.0,4.647691815231704,0.0,11293.860933691587,0.39974276022124977,135.98437382894437,2.131604624203108,1.2215026678492724,100967.86705174678,287.9564883459112,0.0,0.0,0.0,401.63131578947366,0.21555261281588659,0.86,nominal,9537.828972451152,nan,pitch_program,11.665,0.0,0.0
2.6999999999999997,300.4128280210409,0.0,29.839733835785978,136.50667486478372,0.0,2.2903376606750006,136.5258873959063,17.42481267410648,0.0,5.610333218643331,0.0,0.0,-0.23701769320599533,0.0,4.649102787790338,0.0,11383.913145481809,0.4013349170592736,136.5258873959063,2.1322374547029033,1.2214946049741175,100967.0439861838,287.95604173006734,0.0,0.0,0.0,401.59736842105264,0.21553439350958825,0.86,nominal,9612.286790440552,nan,pitch_program,11.65,0.0,0.0
2.73,304.5242296323999,0.0,29.909192724040075,137.04672037863222,0.0,2.3152962751365336,137.0662765357718,17.41834664230119,0.0,5.6187217381341625,0.0,0.0,-0.2796173168605608,0.0,4.65084679759118,0.0,11474.133269917915,0.40292377437538535,137.0662765357718,2.132934102793641,1.2214864542763642,100966.21195690829,287.95559024729374,0.0,0.0,0.0,401.56342105263155,0.21551617420328986,0.86,nominal,9686.89106651754,nan,pitch_program,11.635,0.0,0.0
2.76,308.6517971110867,0.0,29.97947218950627,137.58558262289327,0.0,2.342648848873228,137.60552514092637,17.411881157075094,0.0,5.628210354209858,0.0,0.0,-0.31628720324601534,0.0,4.652738066271583,0.0,11564.516270329059,0.4045092851795837,137.60552514092635,2.133671372944926,1.2214782073297985,100965.37010381035,287.95513343076817,0.0,0.0,0.0,401.52947368421053,0.21549795489699153,0.86,nominal,9761.63846560228,nan,pitch_program,11.620000000000001,0.0,0.0
2.79,312.79549456278704,0.0,30.050644746809372,138.12324839001104,0.0,2.372418576770064,138.1436213355944,17.405416218428183,0.0,5.638784033644076,0.0,0.0,-0.35245598214085466,0.0,4.654762817832333,0.0,11655.05778318442,0.4060914149299189,138.14362133559442,2.134458607720098,1.221469855626751,100964.51755847094,287.95467080914574,0.0,0.0,0.0,401.49552631578945,0.21547973559069317,0.86,nominal,9836.526213162342,nan,pitch_program,11.605,0.0,0.0
2.82,316.9552856824794,0.0,30.122783769752093,138.65970398974713,0.0,2.4046340980906886,138.68055298299757,17.398951826360463,0.0,5.650332538873662,0.0,0.0,-0.3849501756228207,0.0,4.656809749633585,0.0,11745.7533708952,0.4076701283260134,138.6805529829976,2.1352837591789,1.2214613905589238,100963.65344220512,287.9542019054966,0.0,0.0,0.0,401.4615789473684,0.2154615162843948,0.86,nominal,9911.551485290636,nan,pitch_program,11.59,0.0,0.0
2.85,321.1311338317996,0.0,30.195963139526977,139.194938310673,0.0,2.439312325829526,139.21631045224194,17.39248798087193,0.0,5.662820950930966,0.0,0.0,-0.4162804035581811,0.0,4.658847686905024,0.0,11836.598991985207,0.40924539744112176,139.2163104522419,2.136149757598983,1.221452803458692,100962.77687027825,287.95372623959304,0.0,0.0,0.0,401.4276315789474,0.21544329697809647,0.86,nominal,9986.711789889747,nan,pitch_program,11.575,0.0,0.0
2.88,325.3230020477697,0.0,30.270257265436882,139.72894053233628,0.0,2.4764708636634474,139.75088454184376,17.38602468196259,0.0,5.676168745357233,0.0,0.0,-0.44492648288784753,0.0,4.660799460153316,0.0,11927.590654928905,0.4108171956181864,139.75088454184376,2.137048662494679,1.2214440855966717,100961.88695165806,287.95324332777466,0.0,0.0,0.0,401.3936842105263,0.21542507767179808,0.86,nominal,10062.004683525967,nan,pitch_program,11.56,0.0,0.0
2.9099999999999997,329.5308530968338,0.0,30.345740852142686,140.26170163547056,0.0,2.5161195568601826,140.28426783963403,17.379561929632434,0.0,5.690340395939012,0.0,0.0,-0.47238835513427363,0.0,4.662635977445665,0.0,12018.724652943176,0.4123855014664045,140.28426783963403,2.1379813993272703,1.2214352282090417,100960.98279180385,287.9527526844611,0.0,0.0,0.0,401.3597368421053,0.21540685836549975,0.86,nominal,10137.427961178753,nan,pitch_program,11.545,0.0,0.0
2.94,333.7546494880205,0.0,30.422488885268354,140.79321303955564,0.0,2.558267770855545,140.81645348463047,17.37309972388147,0.0,5.705270058741946,0.0,0.0,-0.49765542958027087,0.0,4.664297879606553,0.0,12109.997356969354,0.41395029522152277,140.81645348463047,2.1389413995114968,1.2214262224992427,100960.06349284024,287.9522538222457,0.0,0.0,0.0,401.3257894736842,0.21538863905920136,0.86,nominal,10212.979486621267,nan,pitch_program,11.53,0.0,0.0
2.9699999999999998,337.9943535167942,0.0,30.500576446776083,141.3234676257898,0.0,2.6029187169243224,141.34743608436827,17.366638064709694,0.0,5.720927311010417,0.0,0.0,-0.5219084121969214,0.0,4.66576358580731,0.0,12201.405376135666,0.4155115614415985,141.34743608436827,2.1399291972314263,1.2214170596596508,100959.12815576987,287.9517462530959,0.0,0.0,0.0,401.29184210526313,0.215370419752903,0.86,nominal,10288.657321824061,nan,pitch_program,11.515,0.0,0.0
3.0,342.24992727643047,0.0,30.58007870215349,141.85245865454232,0.0,2.6500751792469015,141.87721073094966,17.360176952117108,0.0,5.737254448134024,0.0,0.0,-0.5442379078030603,0.0,4.666984226766429,0.0,12292.94539209653,0.4170692861144657,141.87721073094968,2.140938517592659,1.2214077308730866,100958.17588062766,287.95122948843596,0.0,0.0,0.0,401.2578947368421,0.21535220044660466,0.86,nominal,10364.459591201623,nan,pitch_program,11.5,0.0,0.0
3.03,346.5213326971773,0.0,30.66107073543377,142.380180691561,0.0,2.6997344426760552,142.40577382895165,17.35371638610371,0.0,5.754227958176599,0.0,0.0,-0.5657836722235511,0.0,4.6679471674871795,0.0,12384.614304861869,0.41862345909069737,142.40577382895165,2.141970237948797,1.221398227332186,100957.20576845855,287.95070304021965,0.0,0.0,0.0,401.223947368421,0.21533398114030627,0.86,nominal,10440.384599238909,nan,pitch_program,11.485,0.0,0.0
3.06,350.8085315533994,0.0,30.743627552888043,142.9066285407374,0.0,2.7518939151424346,142.93312212710003,17.3472563666695,0.0,5.771794127769466,0.0,0.0,-0.5855389910154283,0.0,4.668609315040922,0.0,12476.409068034585,0.42017407123705797,142.93312212710006,2.143017717375717,1.2213885402389724,100956.216921274,287.9501664209062,0.0,0.0,0.0,401.19,0.21531576183400794,0.86,nominal,10516.430695641779,nan,pitch_program,11.47,0.0,0.0
3.09,355.111485501499,0.0,30.82782392048852,143.43179826998605,0.0,2.8065455866826037,143.4592536335391,17.34079689381448,0.0,5.789937785569623,0.0,0.0,-0.6047885983924965,0.0,4.668968088163232,0.0,12568.326850533915,0.421721117126275,143.45925363353908,2.1440828018620413,1.2213786608239423,100955.20844400061,287.9496191445168,0.0,0.0,0.0,401.156052631579,0.21529754252770958,0.86,nominal,10592.59640599591,nan,pitch_program,11.455,0.0,0.0
3.12,359.4301560807976,0.0,30.91373439603802,143.95568597662069,0.0,2.86368251831671,143.98416649953265,17.33433796753865,0.0,5.8086051150793105,0.0,0.0,-0.6222443224938343,0.0,4.668981604235465,0.0,12660.364844329148,0.42326459175561865,143.98416649953265,2.145157730554182,1.2213685803423013,100954.1794440962,287.9490607264257,0.0,0.0,0.0,401.1221052631579,0.21527932322141122,0.86,nominal,10668.880274697476,nan,pitch_program,11.44,0.0,0.0
3.15,363.76450475385815,0.0,31.00143315095696,144.4782891020195,0.0,2.9232918306312765,144.50786019097288,17.32787958784201,0.0,5.8277919618848175,0.0,0.0,-0.6395615661602678,0.0,4.668659789316806,0.0,12752.520471915452,0.42480449398984055,144.50786019097285,2.146246235975651,1.2213582900948865,100953.12903368576,287.94849068451873,0.0,0.0,0.0,401.08815789473687,0.21526110391511288,0.86,nominal,10745.281032896712,nan,pitch_program,11.425,0.0,0.0
3.1799999999999997,368.1144928978253,0.0,31.09099404878667,144.99960479890493,0.0,2.9853632609902947,145.03033401891716,17.321421754724557,0.0,5.847438713071109,0.0,0.0,-0.6548917126266054,0.0,4.667955827468662,0.0,12844.7911301525,0.42634082224177666,145.0303340189172,2.1473381831051612,1.2213477814189673,100952.05632862278,287.94790853868284,0.0,0.0,0.0,401.0542105263158,0.2152428846088145,0.86,nominal,10821.797389607875,nan,pitch_program,11.410000000000002,0.0,0.0
3.21,372.4800818526686,0.0,31.182490423456617,145.51963182810996,0.0,3.0498791556648808,145.55158882764843,17.314964468186293,0.0,5.867558002825379,0.0,0.0,-0.6706429987001308,0.0,4.666897844654839,0.0,12937.174490148012,0.4278735794335555,145.55158882764843,2.148440903051379,1.2213370457142672,100950.96045114583,287.9473138122475,0.0,0.0,0.0,401.0202631578947,0.21522466530251613,0.86,nominal,10898.428274837606,nan,pitch_program,11.395000000000001,0.0,0.0
3.2399999999999998,376.86123289645553,0.0,31.275995238484725,146.03836812623132,0.0,3.1168271676035917,146.07162481661305,17.308507728227216,0.0,5.8880744935885865,0.0,0.0,-0.6838830327475706,0.0,4.665423644192385,0.0,13029.668113376769,0.4294027665945295,146.07162481661305,2.149539426941625,1.2213260744242982,100949.84052797352,287.9467060309498,0.0,0.0,0.0,400.9863157894737,0.21520644599621777,0.86,nominal,10975.17252698817,nan,pitch_program,11.38,0.0,0.0
3.27,381.25790731174317,0.0,31.371580769704664,146.55581384292068,0.0,3.186184373998007,146.59044423844935,17.30205153484733,0.0,5.909030231444287,0.0,0.0,-0.6985246029768942,0.0,4.663592336604108,0.0,13122.269933079,0.4309283907909893,146.59044423844935,2.1506482392421176,1.221314859073598,100948.69569410587,287.9460847249969,0.0,0.0,0.0,400.9523684210526,0.2151882266899194,0.86,nominal,11052.029283568188,nan,pitch_program,11.365,0.0,0.0
3.3,385.6700663308756,0.0,31.469318916987813,147.07196730441507,0.0,3.257938242771588,147.10804780291474,17.29559588804663,0.0,5.930314189386911,0.0,0.0,-0.7094652729126165,0.0,4.661305617682493,0.0,13214.977614277996,0.43245045455633074,147.10804780291474,2.151742258417323,1.2213033912311628,100947.52508909204,287.94544942703953,0.0,0.0,0.0,400.9184210526316,0.21517000738362105,0.86,nominal,11128.997460549603,nan,pitch_program,11.35,0.0,0.0
3.33,390.0976712418362,0.0,31.569280682861525,147.58683036535282,0.0,3.3320588624571057,147.62443941825592,17.289140787825122,0.0,5.952026220440673,0.0,0.0,-0.7237343771193903,0.0,4.658682619983727,0.0,13307.789404407547,0.4339689698265378,147.62443941825592,2.1528510504197547,1.2212916625716388,100946.32786327685,287.9447996755614,0.0,0.0,0.0,400.8844736842105,0.2151517880773227,0.86,nominal,11206.07644318574,nan,pitch_program,11.335,0.0,0.0
3.36,394.5406832723513,0.0,31.671536796408052,148.10040101717013,0.0,3.4085371182175463,148.1396196388153,17.2826862341828,0.0,5.973975444677852,0.0,0.0,-0.7316408168536511,0.0,4.655543362401017,0.0,13400.702957110481,0.4354839386812215,148.1396196388153,2.153927287818462,1.2212796648021198,100945.10317032886,287.94413501082335,0.0,0.0,0.0,400.85052631578947,0.21513356877102435,0.86,nominal,11283.265129690932,nan,pitch_program,11.32,0.0,0.0
3.3899999999999997,398.9990637834137,0.0,31.77615674274746,148.61268370207958,0.0,3.487331544646933,148.65359477132276,17.27623222711967,0.0,5.996386299775002,0.0,0.0,-0.747028512762466,0.0,4.652135516645124,0.0,13493.716976160153,0.436995380108393,148.65359477132273,2.155034443416873,1.221267389776039,100943.85017886647,287.9434549811721,0.0,0.0,0.0,400.81657894736844,0.215115349464726,0.86,nominal,11360.563266739584,nan,pitch_program,11.305,0.0,0.0
3.42,403.4727740182109,0.0,31.883210074980017,149.1236744932401,0.0,3.5684444077518647,149.1663638018204,17.269778766635728,0.0,6.018882911746764,0.0,0.0,-0.749887075359333,0.0,4.64808922052705,0.0,13586.828850226744,0.43850329158010176,149.16636380182044,2.1560732623146213,1.2212548293392458,100942.56805674617,287.9427591345126,0.0,0.0,0.0,400.78263157894736,0.21509713015842763,0.86,nominal,11437.969527010322,nan,pitch_program,11.29,0.0,0.0
3.4499999999999997,407.96177550005245,0.0,31.99276440364318,149.63338272805166,0.0,3.6518109554386817,149.67793741862508,17.263325852730976,0.0,6.0419799224398485,0.0,0.0,-0.7699003668622191,0.0,4.643950778894661,0.0,13680.038109884781,0.4400077049640341,149.67793741862508,2.157188609380315,1.2212419755659132,100941.25599514363,287.9420470313763,0.0,0.0,0.0,400.74868421052633,0.21507891085212927,0.86,nominal,11515.484317985913,nan,pitch_program,11.275,0.0,0.0
3.48,412.46602946047904,0.0,32.104888334658455,150.14179868088516,0.0,3.7374643671759453,150.18830963502904,17.25687348540541,0.0,6.064849486472754,0.0,0.0,-0.7623188112179313,0.0,4.638886021426412,0.0,13773.34125537826,0.4415086031174292,150.18830963502907,2.158152173792573,1.2212288204138413,100939.91317336858,287.9413182258247,0.0,0.0,0.0,400.71473684210525,0.2150606915458309,0.86,nominal,11593.105578700757,nan,pitch_program,11.26,0.0,0.0
3.51,416.98549774249426,0.0,32.21964690281132,150.6489427338408,0.0,3.8252856050954267,150.69750083125,17.250421664659036,0.0,6.088731251435773,0.0,0.0,-0.7960588436258894,0.0,4.634186463300744,0.0,13866.739632006587,0.44300604639458546,150.69750083125,2.159317352098333,1.221215356260249,100938.53881355672,287.9405722951317,0.0,0.0,0.0,400.6807894736842,0.21504247223953252,0.86,nominal,11670.835178691754,nan,pitch_program,11.245000000000001,0.0,0.0
3.54,421.52014141391896,0.0,32.337108618301585,151.15478904749028,0.0,3.915390516342104,151.2054910870857,17.24397039049185,0.0,6.111624971167472,0.0,0.0,-0.7631240012097897,0.0,4.627813582435346,0.0,13960.227192151355,0.4444999766998733,151.20549108708568,2.1601140768038665,1.2212015750750411,100937.13209628066,287.939808793981,0.0,0.0,0.0,400.64684210526315,0.21502425293323418,0.86,nominal,11748.668973675043,nan,pitch_program,11.23,0.0,0.0
3.57,426.0699229998235,0.0,32.45733421409954,151.65938619681896,0.0,4.007519859931851,151.7123252640458,17.237519662903853,0.0,6.1367049873983675,0.0,0.0,-0.8360005543784648,0.0,4.623046258148093,0.0,14053.809854201694,0.44599052634176417,151.7123252640458,2.1614653922585783,1.2211874697410343,100935.69229531288,287.93902732760836,0.0,0.0,0.0,400.61289473684207,0.21500603362693582,0.86,nominal,11826.612535082513,nan,pitch_program,11.215,0.0,0.0
3.5999999999999996,430.63480288733336,0.0,32.58039477048425,152.16266291699495,0.0,4.1020185461570104,152.21794421862373,17.231069481895045,0.0,6.158736151494652,0.0,0.0,-0.7343721455910334,0.0,4.614523953463496,0.0,14147.47430303397,0.44747752193995616,152.21794421862373,2.161837437993381,1.221173031927519,100934.21856056975,287.9382274339918,0.0,0.0,0.0,400.57894736842104,0.21498781432063746,0.86,nominal,11904.655799447994,nan,pitch_program,11.2,0.0,0.0
3.63,435.21474528064516,0.0,32.706341839294204,152.6647464437271,0.0,4.198235626998521,152.7224606569292,17.224619847465426,0.0,6.186393966057653,0.0,0.0,-0.9219271700022534,0.0,4.611173878893084,0.0,14241.239156971831,0.4489612952081142,152.7224606569292,2.163810187335109,1.2211582555953973,100932.71027589797,287.9374087780446,0.0,0.0,0.0,400.545,0.21496959501433913,0.86,nominal,11982.814641751957,nan,pitch_program,11.185,0.0,0.0
3.6599999999999997,439.8097082277739,0.0,32.83525738788278,153.16543157095919,0.0,4.297184952952328,153.22570028176756,17.218170759614996,0.0,6.204950811302897,0.0,0.0,-0.618561513581882,0.0,4.597891113589882,0.0,14335.069570655822,0.45044133430861333,153.22570028176753,2.1629586150461084,1.2211431311376535,100931.16646096655,287.93657082697877,0.0,0.0,0.0,400.51105263157893,0.21495137570804074,0.86,nominal,12061.06149028191,nan,pitch_program,11.17,0.0,0.0
3.69,444.4196606671643,0.0,32.96716873441343,153.66508131301367,0.0,4.397044884355114,153.72797799571208,17.211722218343755,0.0,6.239719109606306,0.0,0.0,-1.1589433123436965,0.0,4.600677980969603,0.0,14429.022183298586,0.45191856524151164,153.72797799571208,2.166987055488091,1.2211276553592474,100929.58678995642,287.9357134032263,0.0,0.0,0.0,400.4771052631579,0.2149331564017424,0.86,nominal,12139.443094594404,nan,pitch_program,11.155,0.0,0.0
3.7199999999999998,449.04455286326817,0.0,33.10219569967027,154.163073203462,0.0,4.5008988418947995,154.22876265444444,17.205274223651703,0.0,6.246378932175406,0.0,0.0,-0.22199408588662112,0.0,4.574063586565893,0.0,14522.994940886789,0.45339142733475685,154.22876265444444,2.162259167031676,1.2211118142132902,100927.96982937562,287.93483572795213,0.0,0.0,0.0,400.4431578947368,0.21491493709544401,0.86,nominal,12217.877262418648,nan,pitch_program,11.14,0.0,0.0
3.75,453.6843685665878,0.0,33.24029175165637,154.6605234439886,0.0,4.603201732870056,154.7290114301841,17.19882677553884,0.0,6.303670115613088,0.0,0.0,-1.9097062737060049,0.0,4.59886408196412,0.0,14617.165930817078,0.45486273432036334,154.72901143018413,2.1733074100420766,1.2210956131696378,100926.31613788985,287.9339381036142,0.0,0.0,0.0,400.4092105263158,0.21489671778914568,0.86,nominal,12296.509396187404,nan,pitch_program,11.125,0.0,0.0
3.78,458.3390315397701,0.0,33.38170652025509,155.15543243940812,0.0,4.713825619957297,155.2270220272073,17.192379874005166,0.0,6.269397960170278,0.0,0.0,1.14240521548949,0.0,4.529212279061013,0.0,14711.211064280773,0.4563274833186474,155.2270220272073,2.155387663709232,1.2210790229538255,100924.62272772018,287.9330189076183,0.0,0.0,0.0,400.3752631578947,0.21487849848284732,0.86,nominal,12375.07689596441,nan,pitch_program,11.11,0.0,0.0
3.81,463.0085756355659,0.0,33.52614624746479,155.65146985986038,0.0,4.814657573656436,155.7259162666465,17.185933519050682,0.0,6.404212206138863,0.0,0.0,-4.493810272241711,0.0,4.63248703040621,0.0,14805.720202368717,0.45779485031041195,155.7259162666465,2.1916693016865634,1.221062078039963,100922.8931180997,287.93208004939146,0.0,0.0,0.0,400.34131578947364,0.21486027917654893,0.86,nominal,12454.059680640996,nan,pitch_program,11.095,0.0,0.0
3.84,467.69283018597395,0.0,33.67432109182022,156.14181834693636,0.0,4.939161478514302,156.219917913173,17.179487710675385,0.0,6.222973950340544,0.0,0.0,6.041280230629221,0.0,4.411167366978051,0.0,14899.5919953537,0.45924785843933247,156.219917913173,2.126455540768036,1.22104469512861,100921.11880684324,287.9311169129031,0.0,0.0,0.0,400.3073684210526,0.2148420598702506,0.86,nominal,12532.563657334355,nan,pitch_program,11.080000000000002,0.0,0.0
3.8699999999999997,472.392009240681,0.0,33.82504982606366,156.6393018235672,0.0,5.024291141448244,156.71985954960724,17.17304244887928,0.0,6.642017024299649,0.0,0.0,-13.968164728377477,0.0,4.804853485865628,0.0,14994.892059615575,0.4607183468390138,156.71985954960724,2.23824646021072,1.2210270128057057,100919.31394009327,287.9301371761306,0.0,0.0,0.0,400.2734210526316,0.21482384056395223,0.86,nominal,12612.267613501075,nan,pitch_program,11.065000000000001,0.0,0.0
3.9,477.1056225301839,0.0,33.98043978199997,157.12044298342963,0.0,5.179665197876922,157.20579675976091,17.16659773366236,0.0,6.293783886272776,0.0,0.0,11.607807000122085,0.0,4.405643097739134,0.0,15087.799518333399,0.46214769487482854,157.20579675976091,2.1283391366825533,1.221008783869598,100917.45328597198,287.929127141417,0.0,0.0,0.0,400.2394736842105,0.21480562125765387,0.86,nominal,12690.06554722378,nan,pitch_program,11.05,0.0,0.0
3.9299999999999997,481.8340766090859,0.0,34.13851972858707,157.61513596340018,0.0,5.269331552903408,157.7031925478224,17.160153565024633,0.0,6.58484976945136,0.0,0.0,-9.702216971379176,0.0,4.670071387362444,0.0,15183.19490948468,0.4636107475588138,157.7031925478224,2.224167556650307,1.2209902395818928,100915.56045015018,287.92809962176415,0.0,0.0,0.0,400.2055263157895,0.21478740195135554,0.86,nominal,12769.932984384122,nan,pitch_program,11.035,0.0,0.0
3.96,486.5769900359219,0.0,34.30105093036621,158.09711422786498,0.0,5.417706725971359,158.18991457532059,17.153709942966092,0.0,6.170284041549521,0.0,0.0,13.818917885258253,0.0,4.207627667550154,0.0,15276.821279452433,0.46504245039872555,158.18991457532059,2.1068184001889536,1.2209711733440907,100913.61434535123,287.9270431689526,0.0,0.0,0.0,400.1715789473684,0.21476918264505715,0.86,nominal,12848.402937779889,nan,pitch_program,11.02,0.0,0.0
