time_s,x_m,y_m,altitude_m,vx_mps,vy_mps,vz_mps,speed_mps,mass_kg,roll_deg,pitch_deg,yaw_deg,p_dps,q_dps,r_dps,alpha_deg,beta_deg,qbar_pa,mach,airspeed_mps,load_factor_g,density_kgpm3,pressure_pa,temperature_k,wind_x_mps,wind_y_mps,wind_z_mps,thrust_n,mass_flow_kgps,propulsion_throttle_actual,propulsion_health,energy_j_per_kg,target_distance_m,guidance_mode,pitch_command_deg,heading_command_deg,roll_command_deg,elevator_command_deg,aileron_command_deg,rudder_command_deg,elevator_deg,aileron_deg,rudder_deg,throttle,elevator_saturated,aileron_saturated,rudder_saturated,elevator_failed,aileron_failed,rudder_failed,elevator_raw_rad,aileron_raw_rad,rudder_raw_rad,elevator_effective_rad,aileron_effective_rad,rudder_effective_rad,imu_ax_mps2,imu_ay_mps2,imu_az_mps2,gyro_p_rps,gyro_q_rps,gyro_r_rps,gps_valid,gps_x_m,gps_y_m,gps_z_m,gps_vx_mps,gps_vy_mps,gps_vz_mps,baro_alt_m,pitot_airspeed_mps,pitot_qbar_pa,mag_heading_deg
0.0,0.0,0.0,900.0,70.0,0.0,4.0,70.11419257183242,18.0,0.0,18.000000000000004,0.0,0.0,0.0,0.0,14.72951207681644,0.0,2759.3556404685783,0.20816395637020318,70.1141925718324,1.4790299068951314,1.1226019692711875,90970.07887058289,282.29999999999995,0.0,0.0,0.0,273.59999999999997,0.14683913466882167,0.72,nominal,11283.984999999999,nan,fixed_pitch,26.0,0.0,0.0,-20.05352282957881,-0.0,0.0,-1.8750000000000002,0.0,0.0,0.72,0.0,0.0,0.0,0.0,0.0,0.0,-0.03272492347489368,0.0,0.0,-0.03272492347489368,0.0,0.0,13.124683187965003,0.0401032777054351,6.052526515782966,-0.0017697994528526222,0.0008620863442852247,-0.0019047864694523068,1.0,-1.1847204903281356,-2.1801049899993714,897.6597487825237,70.39011843772215,0.18917350047430306,3.8016023654792703,899.6899854359319,70.76165448518913,2732.849514235471,-1.4840521806067302
0.025,1.7566489908610163,0.0,900.1000344673942,70.26595963444065,0.0,4.001378695766349,70.37979905353365,17.99632902163328,0.0,17.597888525492426,0.0,0.0,16.084525000226876,0.0,14.338632244457203,0.0,2780.273958365412,0.20895276340660923,70.37979905353365,1.496370955451231,1.1225909648889092,90968.97760007007,282.2993497759619,0.0,0.0,0.0,277.65,0.14901274028069567,0.72,nominal,11303.624060417558,nan,fixed_pitch,26.0,0.0,0.0,-8.732498226537148,-0.0,0.0,-3.7500000000000004,0.0,0.0,0.72,0.0,0.0,0.0,0.0,0.0,0.0,-0.06544984694978737,0.0,0.0,-0.06544984694978737,0.0,0.0,13.429819090023503,-0.0310450816773444,5.925199857469371,0.0016358741088209484,0.27902049732647777,0.001670223555323194,1.0,-1.1847204903281356,-2.1801049899993714,897.6597487825237,70.39011843772215,0.18917350047430306,3.8016023654792703,899.6899854359319,70.55708941237563,2739.201033372043,-1.4840521806067302
0.05,3.520191619805133,0.0,900.1999908120836,70.54170515776465,0.0,3.9982537875747504,70.65492339472782,17.992603703126264,0.0,16.9194824758874,0.0,0.0,27.136559020292346,0.0,13.67546922564409,0.0,2802.0259475092034,0.2097698299716331,70.65492339472782,1.5153726545082316,1.122579969183019,90967.87720038582,282.29870005972145,0.0,0.0,0.0,281.7,0.15118634589256968,0.72,nominal,11324.005339854746,nan,fixed_pitch,26.0,0.0,0.0,-11.879891624052517,-0.0,0.0,-5.625000000000001,0.0,0.0,0.72,0.0,0.0,0.0,0.0,0.0,0.0,-0.09817477042468105,0.0,0.0,-0.09817477042468105,0.0,0.0,13.761020044573538,-0.01960441645990877,5.587055323329771,-0.0008279497467194473,0.4746254716631268,0.002493336433263355,1.0,-1.1847204903281356,-2.1801049899993714,897.6597487825237,70.39011843772215,0.18917350047430306,3.8016023654792703,899.3325164852993,71.3716528863156,2819.3070285136823,2.3372562039659406
0.07500000000000001,5.290942347637728,0.0,900.2996771615408,70.8300291133038,0.0,3.9874539782872422,70.94217936756964,17.98882404447895,0.0,16.091319317393676,0.0,0.0,33.127103093295794,0.0,12.869191764542691,0.0,2824.8286060878195,0.21062291582226453,70.94217936756964,1.5363046317913078,1.1225690032600364,90966.77978376037,282.29805209844994,0.0,0.0,0.0,285.75,0.1533599515044437,0.72,nominal,11345.320235746434,nan,fixed_pitch,26.0,0.0,0.0,-13.846188422037606,-0.0,0.0,-7.500000000000001,0.0,0.0,0.72,0.0,0.0,0.0,0.0,0.0,0.0,-0.13089969389957473,0.0,0.0,-0.13089969389957473,0.0,0.0,14.076180519443842,-0.005873427400408491,5.260475199604511,-0.0017641525741776385,0.5783513489811455,-1.1196359797387836e-07,1.0,-1.1847204903281356,-2.1801049899993714,897.6597487825237,70.39011843772215,0.18917350047430306,3.8016023654792703,899.3325164852993,70.64333519707318,2852.014716631232,2.3372562039659406
0.1,7.069250029685576,0.0,900.3988537615935,71.13230728191392,0.0,3.9670640021083425,71.24284340230567,17.984990045691337,0.0,15.237808270374112,0.0,0.0,34.141073231324675,0.0,12.045717114555803,0.0,2848.7957886086706,0.21151581013704132,71.24284340230567,1.5588606454431497,1.122558093492984,90965.68798944887,282.2974074505496,0.0,0.0,0.0,289.8,0.15553355711631772,0.72,nominal,11367.667787263854,nan,fixed_pitch,26.0,0.0,0.0,-14.58301458949145,-0.0,0.0,-9.375000000000002,0.0,0.0,0.72,0.0,0.0,0.0,0.0,0.0,0.0,-0.16362461737446843,0.0,0.0,-0.16362461737446843,0.0,0.0,14.458349740325895,-0.08515564640810981,4.984907947456966,0.0018108282900003393,0.5937317827700859,0.0010745156014869608,1.0,-1.1847204903281356,-2.1801049899993714,897.6597487825237,70.39011843772215,0.18917350047430306,3.8016023654792703,899.9461922938849,71.28353879111262,2888.925064676426,-0.10032052401255327
0.125,8.85546484340442,0.0,900.4972663122942,71.44859254875378,0.0,3.9365020280256475,71.55695232061301,17.98110170676343,0.0,14.478565154630989,0.0,0.0,30.370169039594128,0.0,11.325008964133323,0.0,2873.9440701132708,0.21244862173613643,71.55695232061301,1.5821144943404655,1.1225472678541675,90964.60461673017,282.2967677689701,0.0,0.0,0.0,293.84999999999997,0.15770716272819169,0.72,nominal,11391.060229388702,nan,fixed_pitch,26.0,0.0,0.0,-14.071272138965957,-0.0,0.0,-11.250000000000004,0.0,0.0,0.72,0.0,0.0,0.0,0.0,0.0,0.0,-0.19634954084936213,0.0,0.0,-0.19634954084936213,0.0,0.0,14.81853890366831,-0.09407170140186619,4.728697409598584,6.495694516698348e-05,0.5312108655974775,-0.00040066735654981154,1.0,-1.1847204903281356,-2.1801049899993714,897.6597487825237,70.39011843772215,0.18917350047430306,3.8016023654792703,899.9461922938849,71.92361578105226,2905.2808151324575,-0.10032052401255327
0.15000000000000002,10.649909029896964,0.0,900.5946807464675,71.77776745970179,0.0,3.8965773669336037,71.88345579252241,17.977159027695222,0.0,13.925952164630063,0.0,0.0,22.104690956618246,0.0,10.81860408169769,0.0,2900.2029569079496,0.2134182317805842,71.88345579252243,1.607397209153062,1.1225365520894464,90963.5322420479,282.29613457514796,0.0,0.0,0.0,297.9,0.1598807683400657,0.72,nominal,11415.432434280108,nan,fixed_pitch,26.0,0.0,0.0,-12.320471179862361,-0.0,0.0,-11.785235589931181,0.0,0.0,0.72,0.0,0.0,0.0,0.0,0.0,0.0,-0.2056911641675154,0.0,0.0,-0.2056911641675154,0.0,0.0,15.125012959920701,-0.027604875232794743,4.547749898963939,-0.00021808059589118996,0.38626747250283433,0.0017912065842813677,1.0,-1.1847204903281356,-2.1801049899993714,897.6597487825237,70.39011843772215,0.18917350047430306,3.8016023654792703,901.6107040689267,71.95925693800271,2916.8033679558603,0.3527531459060874
0.17500000000000002,12.452837528501508,0.0,900.6909755674594,72.11713994418177,0.0,3.8517928396785557,72.21992925646283,17.97316200848672,0.0,13.610451599097589,0.0,0.0,12.620054509882063,0.0,10.553175896339024,0.0,2927.389528417484,0.21441744165598214,72.21992925646285,1.6337049994050192,1.1225259595611206,90962.47220254903,282.2955086588115,0.0,0.0,0.0,301.95,0.16205437395193972,0.72,nominal,11440.620246452874,nan,fixed_pitch,26.0,0.0,0.0,-10.132222026076269,-0.0,0.0,-10.958728808003725,0.0,0.0,0.72,0.0,0.0,0.0,0.0,0.0,0.0,-0.19126589953281853,0.0,0.0,-0.19126589953281853,0.0,0.0,15.403877725405462,-0.05895392725741092,4.604509028287144,0.0011995586731363783,0.2205355077933967,0.001927463611523909,1.0,-1.1847204903281356,-2.1801049899993714,897.6597487825237,70.39011843772215,0.18917350047430306,3.8016023654792703,901.6107040689267,71.99786884700471,2956.146692278112,0.3527531459060874
0.2,14.264433707891634,0.0,900.7861565651351,72.46384717560503,0.0,3.807239907027439,72.56379416209646,17.96911064913792,0.0,13.48144275087062,0.0,0.0,5.160356109258024,0.0,10.473896241021807,0.0,2955.3050256256374,0.21543859583812497,72.56379416209646,1.6594487155532973,1.1225154896296392,90961.42443414911,282.2948899823266,0.0,0.0,0.0,306.0,0.16422797956381371,0.72,nominal,11466.446673879032,nan,fixed_pitch,26.0,0.0,0.0,-8.345809086653027,-0.0,0.0,-9.652268947328377,0.0,0.0,0.72,0.0,0.0,0.0,0.0,0.0,0.0,-0.1684638734188873,0.0,0.0,-0.1684638734188873,0.0,0.0,15.560855270758697,-0.03386290989562984,4.65324877951553,-0.0019507984813396115,0.08856318035010644,0.0002792453301486636,1.0,15.105004238016715,-0.17852852721430656,900.2833556124439,72.67891492025194,-0.21196509831415242,3.8302695942312255,901.420171510394,72.81688222312903,2952.106448514031,0.9725350717489261
0.225,16.084831670039023,0.0,900.8803070322713,72.81591848589564,0.0,3.766018685446872,72.91324215589191,17.965004949648826,0.0,13.459549302525128,0.0,0.0,0.8757379444750336,0.0,10.498865802451824,0.0,2983.809964580105,0.21647632564246488,72.91324215589191,1.684089784195223,1.1225051331302538,90960.388019617,282.2942780042902,0.0,0.0,0.0,310.05,0.16640158517568773,0.72,nominal,11492.788303799889,nan,fixed_pitch,26.0,0.0,0.0,-7.293185644260158,-0.0,0.0,-8.472727295794268,0.0,0.0,0.72,0.0,0.0,0.0,0.0,0.0,0.0,-0.14787698793520548,0.0,0.0,-0.14787698793520548,0.0,0.0,15.756944490938892,-0.01280013433098494,4.779036998494734,0.0022684322756861045,0.014363304149571172,0.0022965907870171717,1.0,15.105004238016715,-0.17852852721430656,900.2833556124439,72.67891492025194,-0.21196509831415242,3.8302695942312255,901.420171510394,72.46148670379321,2954.57030986619,0.9725350717489261
0.25,17.914141200111864,0.0,900.9735385981998,73.17238120291358,0.0,3.729262637137083,73.26735132868697,17.960844910019432,0.0,13.473195001398642,0.0,0.0,-0.5458279575204806,0.0,10.555614729975655,0.0,3012.8350542645844,0.2175278942533592,73.26735132868697,1.7076455833631257,1.122494877781525,90959.36172983228,282.29367199911167,0.0,0.0,0.0,314.09999999999997,0.16857519078756172,0.72,nominal,11519.58453765466,nan,fixed_pitch,26.0,0.0,0.0,-6.936415983200679,-0.0,0.0,-7.704571639497473,0.0,0.0,0.72,0.0,0.0,0.0,0.0,0.0,0.0,-0.1344701425650085,0.0,0.0,-0.1344701425650085,0.0,0.0,16.018760607409202,-0.05572322653786293,4.925972129388282,-0.003307115888907525,-0.00863293118930394,0.0002620092340255997,1.0,15.105004238016715,-0.17852852721430656,900.2833556124439,72.67891492025194,-0.21196509831415242,3.8302695942312255,900.7549171493856,73.21346375010275,3027.0077042890453,-1.2053404218798893
0.275,19.752467769534434,0.0,901.0659567911473,73.53306277690277,0.0,3.6967277179008424,73.62592693591178,17.956630530249743,0.0,13.476058070976949,0.0,0.0,-0.11452278315613972,0.0,10.598050275610989,0.0,3042.369720520777,0.21859272375795813,73.62592693591179,1.7304090923078927,1.1224847119734913,90958.34440288269,282.29307128085753,0.0,0.0,0.0,318.15,0.17074879639943571,0.72,nominal,11546.827023752014,nan,fixed_pitch,26.0,0.0,0.0,-7.04890092815306,-0.0,0.0,-7.376736283825267,0.0,0.0,0.72,0.0,0.0,0.0,0.0,0.0,0.0,-0.12874833620408183,0.0,0.0,-0.12874833620408183,0.0,0.0,16.187571352342218,-0.07780660035319102,5.0518900054074845,-0.001674149323732902,-0.0003289057543277782,-0.002006652157016616,1.0,15.105004238016715,-0.17852852721430656,900.2833556124439,72.67891492025194,-0.21196509831415242,3.8302695942312255,900.7549171493856,73.7140044666863,2996.0820051753667,-1.2053404218798893
0.30000000000000004,21.59992428452263,0.0,901.157644807029,73.89826059952775,0.0,3.667520635265657,73.98921291138198,17.952361810339756,0.0,13.449034446928593,0.0,0.0,1.0809449819727939,0.0,10.607814883114852,0.0,3072.4395835465903,0.21967153861055194,73.98921291138198,1.7527648012736035,1.1224746265530086,90957.3351227277,282.29247530875426,0.0,0.0,0.0,322.2,0.17292240201130973,0.72,nominal,11574.539431069757,nan,fixed_pitch,26.0,0.0,0.0,-7.369176576663615,-0.0,0.0,-7.372956430244441,0.0,0.0,0.72,0.0,0.0,0.0,0.0,0.0,0.0,-0.12868236531385313,0.0,0.0,-0.12868236531385313,0.0,0.0,16.46121318543058,-0.0464281710069533,5.012681955552937,0.002532120982589051,0.017106822203827223,7.437519539216663e-05,1.0,15.105004238016715,-0.17852852721430656,900.2833556124439,72.67891492025194,-0.21196509831415242,3.8302695942312255,900.9453594797251,73.23439146159215,3046.2278120850488,1.4321991958453828
0.325,23.45663480918943,0.0,901.2486620234506,74.26842098667208,0.0,3.640688656866573,74.35760196341589,17.948038750289474,0.0,13.39317255437372,0.0,0.0,2.2344758791978703,0.0,10.586740898511524,0.0,3103.0831564668024,0.22076550491843366,74.3576019634159,1.7750459189628844,1.122464614987122,90956.33323554485,282.29188369684755,0.0,0.0,0.0,326.25,0.17509600762318375,0.72,nominal,11602.756676307166,nan,fixed_pitch,26.0,0.0,0.0,-7.695145335281956,-0.0,0.0,-7.534050882763199,0.0,0.0,0.72,0.0,0.0,0.0,0.0,0.0,0.0,-0.13149399391700312,0.0,0.0,-0.13149399391700312,0.0,0.0,16.636537088039972,-0.02119111260598579,5.001658079338585,-0.0012485930614568068,0.041849321300414896,-0.001956375127582133,1.0,15.105004238016715,-0.17852852721430656,900.2833556124439,72.67891492025194,-0.21196509831415242,3.8302695942312255,900.9453594797251,73.67514822935267,3103.945070472945,1.4321991958453828
0.35000000000000003,25.3227327415853,0.0,901.3390509876539,74.64391729583467,0.0,3.615558568133077,74.73143015510279,17.943661350098893,0.0,13.319784472447926,0.0,0.0,2.9355236783694814,0.0,10.546692265246765,0.0,3134.3349370662877,0.2218756205749083,74.73143015510279,1.7974534514292564,1.1224546725943234,90955.3382727967,282.29129616858023,0.0,0.0,0.0,330.3,0.17726961323505777,0.72,nominal,11631.509930881579,nan,fixed_pitch,26.0,0.0,0.0,-7.917844662633689,-0.0,0.0,-7.725947772698444,0.0,0.0,0.72,0.0,0.0,0.0,0.0,0.0,0.0,-0.13484322647071031,0.0,0.0,-0.13484322647071031,0.0,0.0,16.80758744677393,-0.000302108769295966,5.131971207140982,-0.0007185982052977368,0.05259089863276892,-0.0027605109038873472,1.0,15.105004238016715,-0.17852852721430656,900.2833556124439,72.67891492025194,-0.21196509831415242,3.8302695942312255,901.8868359001686,74.85477323835515,3164.6279668458187,0.11408235705851005
0.375,27.1983565484437,0.0,901.4288468994263,75.02495227433612,0.0,3.5918364708963617,75.11088305299089,17.939229609768017,0.0,13.241991060403787,0.0,0.0,3.1117369598031632,0.0,10.501035570090572,0.0,3166.217395536421,0.22300243663937144,75.11088305299087,1.820049918438741,1.1224447955014232,90954.34984684044,282.2907124951537,0.0,0.0,0.0,334.34999999999997,0.17944321884693173,0.72,nominal,11660.819577946295,nan,fixed_pitch,26.0,0.0,0.0,-8.011841279031536,-0.0,0.0,-7.86889452586499,0.0,0.0,0.72,0.0,0.0,0.0,0.0,0.0,0.0,-0.13733811796850218,0.0,0.0,-0.13733811796850218,0.0,0.0,17.038308930429054,-0.007306667350392478,5.104887397632109,-6.552086336647157e-05,0.05484273728262427,-0.0035971912049569963,1.0,15.105004238016715,-0.17852852721430656,900.2833556124439,72.67891492025194,-0.21196509831415242,3.8302695942312255,901.8868359001686,74.82923604056114,3183.2783649044486,0.11408235705851005
0.4,29.083645540219973,0.0,901.5180855354105,75.41155967105085,0.0,3.5695454393669843,75.49599318284493,17.934743529296842,0.0,13.169619704657515,0.0,0.0,2.89485461473835,0.0,10.459592882316882,0.0,3198.740452656692,0.2241460498011873,75.49599318284493,1.8428034537407898,1.122434979771896,90953.36756369864,282.29013244401983,0.0,0.0,0.0,338.4,0.18161682445880575,0.72,nominal,11690.694826847917,nan,fixed_pitch,26.0,0.0,0.0,-8.00456386541844,-0.0,0.0,-7.936729195641714,0.0,0.0,0.72,0.0,0.0,0.0,0.0,0.0,0.0,-0.1385220563031091,0.0,0.0,-0.1385220563031091,0.0,0.0,17.37340920629004,0.05584755842175238,5.20897511248297,0.001617611889595338,0.05280546370440822,0.00100065481865378,1.0,29.485325066507947,1.098210542924698,900.9989332918244,75.46968869337466,-0.3583092287289091,3.4667998739669,901.5707618293251,75.94220275303786,3213.965319045784,-1.2287468117937372
0.42500000000000004,30.978737025019118,0.0,901.6068078424667,75.80365939196588,0.0,3.5488922822482114,75.88668798705197,17.930203108685372,0.0,13.107498351140794,0.0,0.0,2.4848543840888855,0.0,10.427044831679064,0.0,3231.905239864914,0.22530624477405012,75.88668798705197,1.8434483040111296,1.1224252209006391,90952.39097249856,282.2895557490239,0.0,0.0,0.0,338.37631578947367,0.18160411331487666,0.72,nominal,11721.137108950415,nan,fixed_pitch,26.0,0.0,0.0,-7.943298051916848,-0.0,0.0,-7.940013623779281,0.0,0.0,0.72,0.0,0.0,0.0,0.0,0.0,0.0,-0.1385793803881548,0.0,0.0,-0.1385793803881548,0.0,0.0,17.32701490620292,-0.04014814309226027,5.274517721218098,0.0009486204034540456,0.042565371498416264,-0.0031521373554089715,1.0,29.485325066507947,1.098210542924698,900.9989332918244,75.46968869337466,-0.3583092287289091,3.4667998739669,901.5707618293251,76.17405564135225,3234.793292430529,-1.2287468117937372
0.45,32.8836268331966,0.0,901.6950290402291,76.19559232709939,0.0,3.5288479104971433,76.27726435611693,17.9256630058525,0.0,13.056130813900161,0.0,0.0,2.0547016272510015,0.0,10.404485043607508,0.0,3265.2307988410316,0.2264660891785715,76.27726435611694,1.8441031235923915,1.1224155172124777,90951.41990556756,282.2889823112385,0.0,0.0,0.0,338.35263157894735,0.18159140217094757,0.72,nominal,11751.718085363835,nan,fixed_pitch,26.0,0.0,0.0,-7.87099764460363,-0.0,0.0,-7.9055056341914565,0.0,0.0,0.72,0.0,0.0,0.0,0.0,0.0,0.0,-0.13797710235160332,0.0,0.0,-0.13797710235160332,0.0,0.0,17.282775098508097,-0.008221855019774418,5.268863167719737,0.0020166911432696276,0.033566647531047475,-0.0005828087521257864,1.0,29.485325066507947,1.098210542924698,900.9989332918244,75.46968869337466,-0.3583092287289091,3.4667998739669,901.6344085660716,76.42980991397044,3291.9458340348556,-0.45313732396825623
0.47500000000000003,34.79830769877843,0.0,901.7827698013759,76.58723462327308,0.0,3.5096304458746483,76.66760732608583,17.921123220798226,0.0,13.013434792344967,0.0,0.0,1.707840941238514,0.0,10.389675984797382,0.0,3298.707074971933,0.22762524172113136,76.66760732608583,1.8447302467138407,1.1224058664324936,90950.45413521721,282.288411996291,0.0,0.0,0.0,338.32894736842104,0.18157869102701849,0.72,nominal,11782.429006026108,nan,fixed_pitch,26.0,0.0,0.0,-7.81468554242409,-0.0,0.0,-7.860095588307773,0.0,0.0,0.72,0.0,0.0,0.0,0.0,0.0,0.0,-0.13718454753745135,0.0,0.0,-0.13718454753745135,0.0,0.0,17.31424226259945,0.05961624008547,5.299402562554437,-0.00453965971263486,0.02849719764470144,0.000251058242861576,1.0,29.485325066507947,1.098210542924698,900.9989332918244,75.46968869337466,-0.3583092287289091,3.4667998739669,901.6344085660716,76.82810004587164,3322.880546103727,-0.45313732396825623
0.5,36.72277008722645,0.0,901.8700542926333,76.9784955379208,0.0,3.4913796502965155,77.05763107664416,17.91658375352255,0.0,12.97654042036999,0.0,0.0,1.4757749299923701,0.0,10.379655173496623,0.0,3332.3263318977906,0.22878344764427344,77.05763107664416,1.8453157376480815,1.1223962659015274,90949.49339530946,282.28784464709787,0.0,0.0,0.0,338.30526315789473,0.18156597988308942,0.72,nominal,11813.26322150095,nan,fixed_pitch,26.0,0.0,0.0,-7.783841624717475,-0.0,0.0,-7.821968606512623,0.0,0.0,0.72,0.0,0.0,0.0,0.0,0.0,0.0,-0.13651910617127805,0.0,0.0,-0.13651910617127805,0.0,0.0,17.21219797265827,-0.0031460416738408633,5.425599921644803,-0.00032297898925813485,0.02770449934154256,-0.0008527077941638479,1.0,29.485325066507947,1.098210542924698,900.9989332918244,75.46968869337466,-0.3583092287289091,3.4667998739669,901.9027587116735,77.1795485403186,3420.1536109640006,0.014984802757942964
0.525,38.657003149020554,0.0,901.9569083139232,77.36932247176426,0.0,3.4741608515981346,77.44728435111604,17.91204460402547,0.0,12.943027037537222,0.0,0.0,1.3405353515305478,0.0,10.37196757205155,0.0,3366.0836871930806,0.22994055481440775,77.44728435111604,1.8458638521059927,1.122386712780853,90948.5374017392,282.2872800959595,0.0,0.0,0.0,338.2815789473684,0.18155326873916033,0.72,nominal,11844.216641598046,nan,fixed_pitch,26.0,0.0,0.0,-7.775327714163246,-0.0,0.0,-7.798648160337934,0.0,0.0,0.72,0.0,0.0,0.0,0.0,0.0,0.0,-0.1361120876024956,0.0,0.0,-0.1361120876024956,0.0,0.0,17.24789954192787,0.004004460235936007,5.423512084244025,0.0020439535962500383,0.02100468488480413,-0.00011203191902471998,1.0,29.485325066507947,1.098210542924698,900.9989332918244,75.46968869337466,-0.3583092287289091,3.4667998739669,901.9027587116735,77.36580189104463,3341.4087106832862,0.014984802757942964
0.55,40.60099544637755,0.0,902.043358080843,77.75969189428005,0.0,3.4579906767902826,77.83654272264494,17.907505772306994,0.0,12.911447797066662,0.0,0.0,1.2631696507992816,0.0,10.365169447536658,0.0,3399.97651281618,0.2310964907575118,77.83654272264495,1.8463884226237472,1.1223772041861046,90947.58586583658,282.2867181724745,0.0,0.0,0.0,338.25789473684205,0.18154055759523122,0.72,nominal,11875.287189030563,nan,fixed_pitch,26.0,0.0,0.0,-7.780214941305955,-0.0,0.0,-7.789431550821945,0.0,0.0,0.72,0.0,0.0,0.0,0.0,0.0,0.0,-0.13595122742057095,0.0,0.0,-0.13595122742057095,0.0,0.0,17.262236929211696,0.012460365727389627,5.4271435479053105,0.002743424619026962,0.02338757779214795,-0.0004281515960226781,1.0,29.485325066507947,1.098210542924698,900.9989332918244,75.46968869337466,-0.3583092287289091,3.4667998739669,902.0490860529375,77.9977467980858,3391.2199312020225,-0.3918227027208905
0.5750000000000001,42.554735332281325,0.0,902.1294297393597,78.1495954361509,0.0,3.442866340667962,78.22539610301607,17.902967258367113,0.0,12.881291694785755,0.0,0.0,1.2062441190821902,0.0,10.358767539790026,0.0,3434.003397238214,0.23225122557194838,78.2253961030161,1.8469050356100738,1.1223677372406586,90946.63849970873,282.28615870669415,0.0,0.0,0.0,338.2342105263158,0.18152784645130216,0.72,nominal,11906.473869890371,nan,fixed_pitch,26.0,0.0,0.0,-7.789430330839539,-0.0,0.0,-7.7894309408307425,0.0,0.0,0.72,0.0,0.0,0.0,0.0,0.0,0.0,-0.13595121677421607,0.0,0.0,-0.13595121677421607,0.0,0.0,17.27309984544885,-0.007655392945939709,5.547691790499477,-0.00122482567401706,0.023380007414864123,0.00017810103748035333,1.0,29.485325066507947,1.098210542924698,900.9989332918244,75.46968869337466,-0.3583092287289091,3.4667998739669,902.0490860529375,78.31959189069593,3464.83152843144,-0.3918227027208905
0.6000000000000001,44.51821102996588,0.0,902.2151494185061,78.53902790738226,0.0,3.4287871658560074,78.61383775179348,17.89842906220583,0.0,12.852651495468896,0.0,0.0,1.1456079965281982,0.0,10.352870552288723,0.0,3468.1632069813386,0.23340473929690508,78.61383775179347,1.847426021861716,1.1223583090698246,90945.69501565884,282.2856015287797,0.0,0.0,0.0,338.2105263157895,0.18151513530737307,0.72,nominal,11937.775938077646,nan,fixed_pitch,26.0,0.0,0.0,-7.796883487068594,-0.0,0.0,-7.793157213949668,0.0,0.0,0.72,0.0,0.0,0.0,0.0,0.0,0.0,-0.13601625250896987,0.0,0.0,-0.13601625250896987,0.0,0.0,17.262111737831805,0.0017447370051111597,5.59792632931432,0.0010889574180821594,0.015984191898394527,-0.002074985813394994,1.0,44.58647958343662,0.2704762608207318,903.5635719826206,78.36639532663968,0.11666840732208003,3.3043393506354573,901.300617522614,78.20825851802608,3447.7728644625213,-0.29895583291714306
0.625,46.49141053914579,0.0,902.3005435344043,78.92798036719627,0.0,3.4157646359254703,79.00185778127346,17.893891183823147,0.0,12.825843879745987,0.0,0.0,1.0723046484783545,0.0,10.347801837049234,0.0,3502.454517934731,0.2345570026294274,79.00185778127347,1.8479586237943921,1.122348916767419,90944.75512284084,282.28504646702635,0.0,0.0,0.0,338.1868421052631,0.18150242416344395,0.72,nominal,11969.192391697945,nan,fixed_pitch,26.0,0.0,0.0,-7.8001569939941495,-0.0,0.0,-7.796657103971908,0.0,0.0,0.72,0.0,0.0,0.0,0.0,0.0,0.0,-0.13607733711331566,0.0,0.0,-0.13607733711331566,0.0,0.0,17.23652300581562,0.012675718818910504,5.606767699116191,-0.0029753872022415797,0.015983231398714142,-0.003704534152479735,1.0,44.58647958343662,0.2704762608207318,903.5635719826206,78.36639532663968,0.11666840732208003,3.3043393506354573,901.300617522614,79.4529791446013,3453.413388647635,-0.29895583291714306
0.65,48.474321496125356,0.0,902.3856391043637,79.31643827918273,0.0,3.403822798378691,79.38944130637377,17.889353623219062,0.0,12.801133566332693,0.0,0.0,0.9884125518519529,0.0,10.343823399629182,0.0,3536.875443586694,0.23570797143224503,79.38944130637377,1.8485055652508613,1.1223395573612096,90943.81852380153,282.2844933458216,0.0,0.0,0.0,338.16315789473686,0.1814897130195149,0.72,nominal,12000.721823191892,nan,fixed_pitch,26.0,0.0,0.0,-7.799621179626362,-0.0,0.0,-7.798139141799135,0.0,0.0,0.72,0.0,0.0,0.0,0.0,0.0,0.0,-0.13610320355303987,0.0,0.0,-0.13610320355303987,0.0,0.0,17.15473208803426,-0.033800656161245744,5.720916874724123,-0.001071640240811554,0.019212557948571508,0.0017100081377218117,1.0,44.58647958343662,0.2704762608207318,903.5635719826206,78.36639532663968,0.11666840732208003,3.3043393506354573,901.9044113309367,79.52891160421042,3579.998204063074,-0.26439511504028973
0.675,50.46693107198175,0.0,902.4704639372876,79.70438303425574,0.0,3.392993316955545,79.77656973397804,17.884816380393573,0.0,12.778609223627338,0.0,0.0,0.900973719817797,0.0,10.341015640568445,0.0,3571.4237395961904,0.23685759056233543,79.77656973397802,1.8490668024732684,1.1223302277919793,90942.88491238556,282.2839419844076,0.0,0.0,0.0,338.1394736842105,0.18147700187558577,0.72,nominal,12032.362514430732,nan,fixed_pitch,26.0,0.0,0.0,-7.796985799849791,-0.0,0.0,-7.797562470824464,0.0,0.0,0.72,0.0,0.0,0.0,0.0,0.0,0.0,-0.13609313874583118,0.0,0.0,-0.13609313874583118,0.0,0.0,17.219042911509728,0.021257866333881496,5.778237044191799,-0.0010877915339320178,0.016341514397013833,-0.00034421841100738256,1.0,44.58647958343662,0.2704762608207318,903.5635719826206,78.36639532663968,0.11666840732208003,3.3043393506354573,901.9044113309367,80.17018124656158,3549.981264067481,-0.26439511504028973
0.7000000000000001,52.46922594023638,0.0,902.5550466722453,80.09179473018511,0.0,3.3833093983074534,80.1632232734362,17.880279455346685,0.0,12.758184813188349,0.0,0.0,0.8169764262108765,0.0,10.339283256024935,0.0,3606.097021672045,0.2380058013247384,80.16322327343619,1.849641369626815,1.1223209249092838,90941.95397331097,282.28339219663036,0.0,0.0,0.0,338.1157894736842,0.18146429073165668,0.72,nominal,12064.112631241765,nan,fixed_pitch,26.0,0.0,0.0,-7.7940450546257285,-0.0,0.0,-7.795803762725097,0.0,0.0,0.72,0.0,0.0,0.0,0.0,0.0,0.0,-0.13606244349891572,0.0,0.0,-0.13606244349891572,0.0,0.0,17.174765636353,0.04918172038052484,5.776550458338218,-0.00011572626702821228,0.015493359705464196,0.002694454256022685,1.0,44.58647958343662,0.2704762608207318,903.5635719826206,78.36639532663968,0.11666840732208003,3.3043393506354573,903.2117320110547,80.32475682140567,3599.9247934131604,0.39889825323191586
0.7250000000000001,54.481192305393535,0.0,902.6394167051923,80.47865460628637,0.0,3.3748013178762073,80.54938318307023,17.875742848078392,0.0,12.739667919552485,0.0,0.0,0.7406757518812392,0.0,10.338426842313169,0.0,3640.8929661761053,0.23915254814230436,80.54938318307022,1.8502286685978193,1.1223116454795172,90941.02538297624,282.2828437914162,0.0,0.0,0.0,338.0921052631579,0.18145157958772765,0.72,nominal,12095.970401418512,nan,fixed_pitch,26.0,0.0,0.0,-7.791969513070547,-0.0,0.0,-7.793886637897821,0.0,0.0,0.72,0.0,0.0,0.0,0.0,0.0,0.0,-0.13602898335850805,0.0,0.0,-0.13602898335850805,0.0,0.0,17.122661985986568,-0.012837377409966676,5.826384493070878,-0.0017341306941260676,0.014371684049466921,0.0009442755372492855,1.0,44.58647958343662,0.2704762608207318,903.5635719826206,78.36639532663968,0.11666840732208003,3.3043393506354573,903.2117320110547,80.06090215496467,3656.3809247539557,0.39889825323191586
0.75,56.502815964792454,0.0,902.723604067151,80.86494637595672,0.0,3.3674944783477434,80.93503302926402,17.8712065585887,0.0,12.72283928820907,0.0,0.0,0.6731452585759858,0.0,10.338223788063399,0.0,3675.8094268929813,0.24029778229368337,80.93503302926402,1.8508290168288442,1.122302386199306,90940.09881080089,282.2822965735635,0.0,0.0,0.0,338.06842105263155,0.18143886844379853,0.72,nominal,12127.934217549155,nan,fixed_pitch,26.0,0.0,0.0,-7.791149504054631,-0.0,0.0,-7.792518070976226,0.0,0.0,0.72,0.0,0.0,0.0,0.0,0.0,0.0,-0.13600509735969232,0.0,0.0,-0.13600509735969232,0.0,0.0,17.19512801910713,-0.016082290902525453,5.9347056104804325,-0.003433669455837236,0.01350102290420635,0.0017697257007250292,1.0,44.58647958343662,0.2704762608207318,903.5635719826206,78.36639532663968,0.11666840732208003,3.3043393506354573,903.1054056191487,80.83925295121452,3641.7992207040115,-0.66375259277561
0.775,58.53408237574452,0.0,902.8076393072249,81.25065643808257,0.0,3.3614096029575773,81.32015891609032,17.866670586877603,0.0,12.707509049043301,0.0,0.0,0.6132095702890695,0.0,10.338484276785938,0.0,3710.8444611010664,0.24144146259483837,81.32015891609034,1.8514435939781295,1.1222931437083823,90939.17392051361,282.281750344503,0.0,0.0,0.0,338.04473684210524,0.18142615729986944,0.72,nominal,12160.002659081289,nan,fixed_pitch,26.0,0.0,0.0,-7.791396761686145,-0.0,0.0,-7.7919574163311855,0.0,0.0,0.72,0.0,0.0,0.0,0.0,0.0,0.0,-0.13599531209016977,0.0,0.0,-0.13599531209016977,0.0,0.0,17.183526503627423,-0.01368800188720007,5.979025133314811,-0.001971053812215531,0.012695977618325914,0.0005684654790737704,1.0,44.58647958343662,0.2704762608207318,903.5635719826206,78.36639532663968,0.11666840732208003,3.3043393506354573,903.1054056191487,81.19885277807849,3769.5454092479713,-0.66375259277561
0.8,60.57497670991118,0.0,902.8915534088652,81.63577336666648,0.0,3.356564065609885,81.70474903884276,17.862134932945107,0.0,12.693539259653049,0.0,0.0,0.5587915783782945,0.0,10.339072798760702,0.0,3745.996294214895,0.24258355407330262,81.70474903884276,1.852074070122494,1.1222839145987948,90938.25037107413,282.2812049028424,0.0,0.0,0.0,338.0210526315789,0.18141344615594035,0.72,nominal,12192.174459987185,nan,fixed_pitch,26.0,0.0,0.0,-7.7922685763598345,-0.0,0.0,-7.79211299634551,0.0,0.0,0.72,0.0,0.0,0.0,0.0,0.0,0.0,-0.13599802747367,0.0,0.0,-0.13599802747367,0.0,0.0,17.168118308137167,-0.005001897900720413,6.054690394285841,-0.003912898967988748,0.008596946515051579,0.0009369048559353213,1.0,59.56277471265635,-2.4402836947475484,903.9860066862617,81.65087233636086,0.060659058464474336,3.489267716739734,901.5115156898325,81.91305593520164,3761.394941020713,1.904317263367795
0.8250000000000001,62.62548388907251,0.0,902.9753777435391,82.02028716645326,0.0,3.352973386954807,82.08879300733496,17.857599596791207,0.0,12.680839528494936,0.0,0.0,0.507989248404391,0.0,10.339902650553194,0.0,3781.263262031584,0.2437240259589587,82.08879300733496,1.8527221861831003,1.1222746954199996,90937.32781718255,282.280660044667,0.0,0.0,0.0,337.9973684210526,0.18140073501201126,0.72,nominal,12224.448456849219,nan,fixed_pitch,26.0,0.0,0.0,-7.793339423722642,-0.0,0.0,-7.792726210034075,0.0,0.0,0.72,0.0,0.0,0.0,0.0,0.0,0.0,-0.13600873007155379,0.0,0.0,-0.13600873007155379,0.0,0.0,17.0903580063432,0.04759233469202839,6.0514029434776475,-0.0021233300287092985,0.007127249463492459,-0.002985818969655212,1.0,59.56277471265635,-2.4402836947475484,903.9860066862617,81.65087233636086,0.060659058464474336,3.489267716739734,901.5115156898325,82.18205393332558,3740.0936928997016,1.904317263367795
0.8500000000000001,64.68558860538909,0.0,903.0591440509611,82.40418865266304,0.0,3.350652296880531,82.47228127266925,17.853064578415907,0.0,12.669349456673661,0.0,0.0,0.4596028743912935,0.0,10.34091759024843,0.0,3816.64376078299,0.2448628499820807,82.47228127266925,1.8533894584470387,1.1222654826810416,90936.40590949783,282.28011556366874,0.0,0.0,0.0,337.9736842105263,0.18138802386808217,0.72,nominal,12256.823544166493,nan,fixed_pitch,26.0,0.0,0.0,-7.794342595845766,-0.0,0.0,-7.793534402939922,0.0,0.0,0.72,0.0,0.0,0.0,0.0,0.0,0.0,-0.13602283569875206,0.0,0.0,-0.13602283569875206,0.0,0.0,17.049654479029694,0.03485909602314629,6.0927365582739235,-0.0017499082157690163,0.009836608254273073,-0.0008625375797976863,1.0,59.56277471265635,-2.4402836947475484,903.9860066862617,81.65087233636086,0.060659058464474336,3.489267716739734,901.9359767107843,83.82065091223916,3851.4242979696096,0.8787869574009572
0.875,66.7552753330826,0.0,903.1428844307882,82.78746910774049,0.0,3.3496151930831646,82.85520480456746,17.848529877819203,0.0,12.65902038213409,0.0,0.0,0.41316298270182233,0.0,10.342073242795447,0.0,3852.1362189949336,0.24599999941532527,82.85520480456746,1.8540770620688833,1.1222562728514693,90935.4842947292,282.27957125119985,0.0,0.0,0.0,337.95,0.18137531272415308,0.72,nominal,12289.298649206597,nan,fixed_pitch,26.0,0.0,0.0,-7.795187394580072,-0.0,0.0,-7.794360898759996,0.0,0.0,0.72,0.0,0.0,0.0,0.0,0.0,0.0,-0.13603726077206635,0.0,0.0,-0.13603726077206635,0.0,0.0,17.085286895508567,0.02310232022735005,6.206999412451025,-3.4217777538092086e-05,0.0019489354120899634,0.0018764940367960161,1.0,59.56277471265635,-2.4402836947475484,903.9860066862617,81.65087233636086,0.060659058464474336,3.489267716739734,901.9359767107843,82.51300862367569,3779.372158286602,0.8787869574009572
0.9,68.83452833799053,0.0,903.2266313339916,83.1701201963178,0.0,3.349876128138438,83.23755500700283,17.8439954950011,0.0,12.64980352267745,0.0,0.0,0.3686743790606159,0.0,10.343325245408039,0.0,3887.7390907709105,0.24713544882324004,83.23755500700283,1.8547858609257708,1.1222470623622784,90934.56261573083,282.279026896329,0.0,0.0,0.0,337.9263157894737,0.18136260158022402,0.72,nominal,12321.872725943398,nan,fixed_pitch,26.0,0.0,0.0,-7.795901783285007,-0.0,0.0,-7.795131341022503,0.0,0.0,0.72,0.0,0.0,0.0,0.0,0.0,0.0,-0.1360507075262436,0.0,0.0,-0.1360507075262436,0.0,0.0,17.04271836221897,-0.0005534979989938296,6.311677964735106,-0.0005046919674176365,0.005405269789024117,0.0005743641306193496,1.0,59.56277471265635,-2.4402836947475484,903.9860066862617,81.65087233636086,0.060659058464474336,3.489267716739734,902.691606479579,83.50786834068472,3855.667456278108,0.2752491290925321
0.925,70.92333168876816,0.0,903.3104175483842,83.5521340311048,0.0,3.3514485757038224,83.6193237757116,17.839461429961595,0.0,12.64164594526338,0.0,0.0,0.3263030971141143,0.0,10.344625374719124,0.0,3923.450862171811,0.2482691742329997,83.6193237757116,1.8555165118679149,1.1222378476075123,90933.64051166171,282.27848228593547,0.0,0.0,0.0,337.90263157894736,0.18134989043629493,0.72,nominal,12354.544760604505,nan,fixed_pitch,26.0,0.0,0.0,-7.796556383238547,-0.0,0.0,-7.795843862130525,0.0,0.0,0.72,0.0,0.0,0.0,0.0,0.0,0.0,-0.13606314336556855,0.0,0.0,-0.13606314336556855,0.0,0.0,17.03347259169866,-0.06262474033608452,6.3360204740777135,-0.001451279778094283,0.007935870086192088,0.0007444913828604614,1.0,59.56277471265635,-2.4402836947475484,903.9860066862617,81.65087233636086,0.060659058464474336,3.489267716739734,902.691606479579,83.95268326460351,3956.2949850923274,0.2752491290925321
0.9500000000000001,73.02166927062494,0.0,903.3942761782898,83.93350327427152,0.0,3.3543451962269013,84.00050359127377,17.834927682700688,0.0,12.634492117032261,0.0,0.0,0.2861531296165178,0.0,10.345923252723253,0.0,3959.270061095117,0.24940115341073057,84.00050359127378,1.8562695745674842,1.1222286249464932,90932.71761820931,282.27793720484107,0.0,0.0,0.0,337.87894736842105,0.18133717929236584,0.72,nominal,12387.313780277625,nan,fixed_pitch,26.0,0.0,0.0,-7.797207789159855,-0.0,0.0,-7.796525825645191,0.0,0.0,0.72,0.0,0.0,0.0,0.0,0.0,0.0,-0.13607504587427793,0.0,0.0,-0.13607504587427793,0.0,0.0,17.01904588504168,0.07979868380514983,6.3920774037548,0.001339333709113779,0.006007192977394644,-0.003165260548266207,1.0,59.56277471265635,-2.4402836947475484,903.9860066862617,81.65087233636086,0.060659058464474336,3.489267716739734,902.1631686597555,84.21502374014767,3971.3277726488586,0.026723631353327462
0.9750000000000001,75.12952480059911,0.0,903.4782406213045,84.31422119896695,0.0,3.3585777205849894,84.38108757709595,17.83039425321838,0.0,12.628287644154517,0.0,0.0,0.2481789153522271,0.0,10.347170155337102,0.0,3995.195264066107,0.2505313660336198,84.38108757709595,1.8570509587404738,1.1222193907063818,90931.79356784555,282.2773914359615,0.0,0.0,0.0,337.85526315789474,0.18132446814843675,0.72,nominal,12420.178858735684,nan,fixed_pitch,26.0,0.0,0.0,-7.797874596615704,-0.0,0.0,-7.7972002111304475,0.0,0.0,0.72,0.0,0.0,0.0,0.0,0.0,0.0,-0.13608681612142332,0.0,0.0,-0.13608681612142332,0.0,0.0,17.031934518597975,0.021648044291303608,6.447706699867551,-0.00042749258783569984,0.006146616813313558,-4.481274690359496e-05,1.0,59.56277471265635,-2.4402836947475484,903.9860066862617,81.65087233636086,0.060659058464474336,3.489267716739734,902.1631686597555,83.79715696167312,3977.163296488425,0.026723631353327462
1.0,77.24688146147673,0.0,903.5623451833738,84.69426643510448,0.0,3.3641824827725584,84.7610552716155,17.825861141514668,0.0,12.622856267797944,0.0,0.0,0.2172550544254408,0.0,10.348178341144969,0.0,4031.2237440608965,0.25165975144869207,84.7610552716155,1.8578621565687123,1.1222101411145353,90930.86798305804,282.27684475630804,0.0,0.0,0.0,337.8315789473684,0.18131175700450766,0.72,nominal,12453.137917771463,nan,fixed_pitch,26.0,0.0,0.0,-7.799873774029881,-0.0,0.0,-7.798536992580164,0.0,0.0,0.72,0.0,0.0,0.0,0.0,0.0,0.0,-0.13611014735910046,0.0,0.0,-0.13611014735910046,0.0,0.0,16.962402961138395,-0.010912834208960614,6.519427792002141,0.0005316168993721386,0.0039761016000880636,-0.0003436069694028062,1.0,74.84575092847817,0.3903968802048413,904.2244712468139,84.81318204263496,-0.08935613144148227,3.37407374460165,903.4147411013656,84.88886163545482,4024.965676045622,-0.678737531884263
1.0250000000000001,79.37372191099952,0.0,903.6466250627489,85.07361798091155,0.0,3.3711951749988445,85.1403866168695,17.821328347589557,0.0,12.617946108427358,0.0,0.0,0.19640637494382546,0.0,10.348685057174492,0.0,4067.3527782101755,0.25278625020540957,85.14038661686952,1.8586970414824209,1.1222008723002728,90929.94047652696,282.2762969370921,0.0,0.0,0.0,337.80789473684206,0.18129904586057854,0.72,nominal,12486.18889230661,nan,fixed_pitch,26.0,0.0,0.0,-7.804102320363045,-0.0,0.0,-7.8013196564716045,0.0,0.0,0.72,0.0,0.0,0.0,0.0,0.0,0.0,-0.13615871400598245,0.0,0.0,-0.13615871400598245,0.0,0.0,17.067386296660008,-0.035005603589261414,6.573441730724789,0.0012130475405910798,0.003611167413040354,-0.0032621408623528486,1.0,74.84575092847817,0.3903968802048413,904.2244712468139,84.81318204263496,-0.08935613144148227,3.37407374460165,903.4147411013656,85.71154508087938,4079.1447381931926,-0.678737531884263
1.05,81.51002880279218,0.0,903.731115485761,85.45227567170625,0.0,3.379616920489453,85.51908107552687,17.81679587144304,0.0,12.613446270374986,0.0,0.0,0.17999352218724954,0.0,10.348592381249828,0.0,4103.581483767394,0.25391086081272196,85.51908107552687,1.8595573159577248,1.1221915803899247,90929.01066063643,282.27574774934254,0.0,0.0,0.0,337.7842105263158,0.18128633471664948,0.72,nominal,12519.331357679708,nan,fixed_pitch,26.0,0.0,0.0,-7.809212293355174,-0.0,0.0,-7.8052659749133895,0.0,0.0,0.72,0.0,0.0,0.0,0.0,0.0,0.0,-0.13622759025612377,0.0,0.0,-0.13622759025612377,0.0,0.0,17.00157945322598,0.03423281525754472,6.618116360472013,0.0019682179616734917,0.006434654289820388,-0.0019469325332021885,1.0,74.84575092847817,0.3903968802048413,904.2244712468139,84.81318204263496,-0.08935613144148227,3.37407374460165,903.2947975513853,85.51316956681836,4137.501504565304,0.1173530838602189
1.075,83.65578481849553,0.0,903.8158516776926,85.83024062813419,0.0,3.3894476772626296,85.89713942757534,17.812263713075126,0.0,12.60936214436207,0.0,0.0,0.16336504058605206,0.0,10.3479192142101,0.0,4139.909104933716,0.25503358569256535,85.89713942757534,1.8604454022602914,1.1221822615100343,90928.07814779498,282.27519696409496,0.0,0.0,0.0,337.7605263157895,0.1812736235727204,0.72,nominal,12552.565002775204,nan,fixed_pitch,26.0,0.0,0.0,-7.8140376024558345,-0.0,0.0,-7.809651788684612,0.0,0.0,0.72,0.0,0.0,0.0,0.0,0.0,0.0,-0.13630413714681092,0.0,0.0,-0.13630413714681092,0.0,0.0,16.993840777724134,-0.01748620623707538,6.77201574729855,-0.000467811036580695,0.005167332599292659,0.0008357484451121031,1.0,74.84575092847817,0.3903968802048413,904.2244712468139,84.81318204263496,-0.08935613144148227,3.37407374460165,903.2947975513853,85.86006257507921,4222.814156252205,0.1173530838602189
1.1,85.81097265672565,0.0,903.9008689060718,86.20751352920496,0.0,3.4006891351668282,86.27456215757978,17.807731872485807,0.0,12.605753346848976,0.0,0.0,0.1443519005714911,0.0,10.346737240589386,0.0,4176.334859487705,0.2561544263916722,86.27456215757978,1.8613631807160058,1.1221729117826025,90927.14254995955,282.2746443521105,0.0,0.0,0.0,337.7368421052631,0.18126091242879128,0.72,nominal,12585.889493798777,nan,fixed_pitch,26.0,0.0,0.0,-7.818002367391287,-0.0,0.0,-7.813827078037949,0.0,0.0,0.72,0.0,0.0,0.0,0.0,0.0,0.0,-0.13637700969325012,0.0,0.0,-0.13637700969325012,0.0,0.0,16.986702700841,0.004798711593864343,6.743229246946429,0.0015977278814412173,-0.00039836772758870473,-0.0038440685570632193,1.0,74.84575092847817,0.3903968802048413,904.2244712468139,84.81318204263496,-0.08935613144148227,3.37407374460165,903.8323218359553,86.15055928632795,4167.880753126648,-1.0182580849376237
1.125,87.97557500511932,0.0,903.9862025417948,86.58409393574689,0.0,3.413345428920705,86.65134880480151,17.803200349675087,0.0,12.602677922138513,0.0,0.0,0.12301698844795525,0.0,10.345114674459165,0.0,4212.857874934623,0.25727338165220687,86.6513488048015,1.8623115036430513,1.1221635273183586,90926.20347796241,282.27408968347834,0.0,0.0,0.0,337.71315789473687,0.18124820128486224,0.72,nominal,12619.304418002179,nan,fixed_pitch,26.0,0.0,0.0,-7.8210895382417585,-0.0,0.0,-7.817458308139853,0.0,0.0,0.72,0.0,0.0,0.0,0.0,0.0,0.0,-0.13644038661442587,0.0,0.0,-0.13644038661442587,0.0,0.0,16.921901691542505,-0.005844131131977823,6.874454833695628,0.00048801116918324456,-0.0005772904288344626,-3.558184114995205e-05,1.0,74.84575092847817,0.3903968802048413,904.2244712468139,84.81318204263496,-0.08935613144148227,3.37407374460165,903.8323218359553,86.79791739914629,4237.35593320103,-1.0182580849376237
1.1500000000000001,90.14957451679162,0.0,904.0718881011663,86.95998046689157,0.0,3.427422374863368,87.0274981079996,17.798669144642965,0.0,12.600163730738847,0.0,0.0,0.10056765600277076,0.0,10.343088196470712,0.0,4249.477200630235,0.25839044784180043,87.02749810799962,1.8632903470624138,1.1221541042121448,90925.26054104908,282.2735327273424,0.0,0.0,0.0,337.6894736842105,0.18123549014093313,0.72,nominal,12652.80929491624,nan,fixed_pitch,26.0,0.0,0.0,-7.823585070452312,-0.0,0.0,-7.820521689296082,0.0,0.0,0.72,0.0,0.0,0.0,0.0,0.0,0.0,-0.1364938527018456,0.0,0.0,-0.1364938527018456,0.0,0.0,16.957955401414964,0.032279525721347894,6.944136170415679,0.002126408352708087,-0.0005750102887211921,0.0030985445465750447,1.0,74.84575092847817,0.3903968802048413,904.2244712468139,84.81318204263496,-0.08935613144148227,3.37407374460165,904.8730821602297,87.30615255675231,4226.240442236991,2.047385613018929
1.175,92.3329538007412,0.0,904.157961257303,87.33517135798336,0.0,3.4429262454680125,87.40300851378085,17.79413825738944,0.0,12.59820669685575,0.0,0.0,0.07828135533149487,0.0,10.340662048146552,0.0,4286.191855948648,0.2595056204629006,87.40300851378085,1.8642992584633562,1.1221446385416625,90924.31334675307,282.2729732518275,0.0,0.0,0.0,337.6657894736842,0.18122277899700404,0.72,nominal,12686.403619393954,nan,fixed_pitch,26.0,0.0,0.0,-7.825810330912905,-0.0,0.0,-7.823166010104494,0.0,0.0,0.72,0.0,0.0,0.0,0.0,0.0,0.0,-0.1365400048064314,0.0,0.0,-0.1365400048064314,0.0,0.0,16.906652796918863,0.0692322681114371,6.982498067583873,0.0004727122194652242,-0.001951046680309316,-0.0023768437116604394,1.0,74.84575092847817,0.3903968802048413,904.2244712468139,84.81318204263496,-0.08935613144148227,3.37407374460165,904.8730821602297,86.82416150919873,4254.329494332837,2.047385613018929
1.2000000000000002,94.52569542521451,0.0,904.2444578280882,87.70966497893255,0.0,3.459862831411884,87.77787865703279,17.789607687914515,0.0,12.596784137951289,0.0,0.0,0.05690235618143364,0.0,10.337821997738924,0.0,4323.000876999398,0.2606188955791748,87.7778786570328,1.8653377826439146,1.1221351263687953,90923.3615010283,282.2724110241174,0.0,0.0,0.0,337.64210526315793,0.18121006785307497,0.72,nominal,12720.086903124207,nan,fixed_pitch,26.0,0.0,0.0,-7.827963822043751,-0.0,0.0,-7.825564916074122,0.0,0.0,0.72,0.0,0.0,0.0,0.0,0.0,0.0,-0.13658187361404717,0.0,0.0,-0.13658187361404717,0.0,0.0,16.860856342320023,-0.03208080994009055,7.004601850719588,-0.001091203222770035,0.0008519485515109467,-0.0016898937544162463,1.0,96.64631095589982,3.638830315934462,905.9851676060628,87.74519374378602,0.2581506351062634,3.3895539910519155,905.4803744627121,88.44914681963061,4318.377289072576,0.04897284701715906
1.225,96.72778192775239,0.0,904.3314137549103,88.08346010151497,0.0,3.478237072881008,88.1521076128662,17.785077436218188,0.0,12.595870249262397,0.0,0.0,0.036555547556545116,0.0,10.33455106868161,0.0,4359.903341958289,0.2617302705634857,88.1521076128662,1.8664056940874516,1.1221255637419543,90922.40460848382,282.27184581059305,0.0,0.0,0.0,337.61842105263156,0.18119735670914586,0.72,nominal,12753.858696994763,nan,fixed_pitch,26.0,0.0,0.0,-7.830090962429515,-0.0,0.0,-7.827827939251818,0.0,0.0,0.72,0.0,0.0,0.0,0.0,0.0,0.0,-0.1366213708195469,0.0,0.0,-0.1366213708195469,0.0,0.0,16.872235828825676,-0.030528034429068353,7.100855586199904,0.0006177017425472785,-0.00035122790293476284,0.001874636008981226,1.0,96.64631095589982,3.638830315934462,905.9851676060628,87.74519374378602,0.2581506351062634,3.3895539910519155,905.4803744627121,88.24523915294644,4373.147139777468,0.04897284701715906
1.25,98.93919582553568,0.0,904.4188650839736,88.45655591133172,0.0,3.498053162533993,88.52569491183037,17.78054750230046,0.0,12.59544583290181,0.0,0.0,0.016976654423380314,0.0,10.33083919498716,0.0,4396.898373512453,0.26283974414301703,88.52569491183036,1.8675030208942047,1.1221159466981308,90921.44227258924,282.2712773769542,0.0,0.0,0.0,337.59473684210525,0.18118464556521677,0.72,nominal,12787.718593086984,nan,fixed_pitch,26.0,0.0,0.0,-7.832136189391754,-0.0,0.0,-7.829982064321787,0.0,0.0,0.72,0.0,0.0,0.0,0.0,0.0,0.0,-0.1366589673945176,0.0,0.0,-0.1366589673945176,0.0,0.0,16.84933392035364,-0.03346980284488702,7.099324020984349,0.0015826265006149806,0.003327484209878401,0.0009640698275072313,1.0,96.64631095589982,3.638830315934462,905.9851676060628,87.74519374378602,0.2581506351062634,3.3895539910519155,904.163980063487,88.53089191173945,4407.294859249525,-0.24397998146018787
1.2750000000000001,101.15991962242839,0.0,904.5068479554171,88.82895187570853,0.0,3.519314857740069,88.8986404193273,17.77601788616133,0.0,12.595500577726007,0.0,0.0,-0.0021897929679233078,0.0,10.326685290930401,0.0,4433.985127789105,0.26394731604121696,88.8986404193273,1.868629941622162,1.1221062712640923,90920.47409579458,282.27070548828976,0.0,0.0,0.0,337.57105263157894,0.18117193442128768,0.72,nominal,12821.666214704415,nan,fixed_pitch,26.0,0.0,0.0,-7.834016170153359,-0.0,0.0,-7.831999117237574,0.0,0.0,0.72,0.0,0.0,0.0,0.0,0.0,0.0,-0.13669417160908504,0.0,0.0,-0.13669417160908504,0.0,0.0,16.90694467954975,0.0443836530845421,7.183680087903617,0.0002080291846093865,0.0018334428599020903,-0.0001623914970455043,1.0,96.64631095589982,3.638830315934462,905.9851676060628,87.74519374378602,0.2581506351062634,3.3895539910519155,904.163980063487,89.2879983483676,4388.394157963525,-0.24397998146018787
1.3,103.3899358122451,0.0,904.595398599569,89.20064759266839,0.0,3.5420257660722405,89.27094419506795,17.7714885878008,0.0,12.596030328776278,0.0,0.0,-0.02119004201084506,0.0,10.322094332293881,0.0,4471.162780975659,0.2650529865605029,89.27094419506795,1.8697866565750827,1.122096533456806,90919.4996795725,282.27012990910276,0.0,0.0,0.0,337.5473684210526,0.18115922327735862,0.72,nominal,12855.701204415931,nan,fixed_pitch,26.0,0.0,0.0,-7.835671432140369,-0.0,0.0,-7.833835274688973,0.0,0.0,0.72,0.0,0.0,0.0,0.0,0.0,0.0,-0.13672621860219697,0.0,0.0,-0.13672621860219697,0.0,0.0,16.800131483106338,0.043769096879892624,7.262009508468055,0.0006568824751435876,0.00039992096958526484,0.0007199568248994805,1.0,96.64631095589982,3.638830315934462,905.9851676060628,87.74519374378602,0.2581506351062634,3.3895539910519155,904.2509101356495,89.31606231724528,4477.609436049724,-0.21474291936712572
1.3250000000000002,105.62922687968215,0.0,904.6845533367774,89.57164269748216,0.0,3.566189488338324,89.64260640450023,17.766959607218865,0.0,12.597032931955276,0.0,0.0,-0.04010412716090411,0.0,10.317073109979717,0.0,4508.4305208114,0.2661567563192842,89.64260640450023,1.8709733022944681,1.1220867292834502,90918.51862441967,282.2695504033109,0.0,0.0,0.0,337.5236842105263,0.18114651213342953,0.72,nominal,12889.82321647618,nan,fixed_pitch,26.0,0.0,0.0,-7.837082936606662,-0.0,0.0,-7.835459105647818,0.0,0.0,0.72,0.0,0.0,0.0,0.0,0.0,0.0,-0.13675455979892465,0.0,0.0,-0.13675455979892465,0.0,0.0,16.797441847029674,0.04911080719454377,7.31481736652562,0.00261805666958773,-0.00045880048380932435,0.003761064368498247,1.0,96.64631095589982,3.638830315934462,905.9851676060628,87.74519374378602,0.2581506351062634,3.3895539910519155,904.2509101356495,89.44726470169488,4506.6012712567035,-0.21474291936712572
1.35,107.8777753007315,0.0,904.7743485773169,89.941936841974,0.0,3.5918096215801407,90.01362729744488,17.76243094441553,0.0,12.598505232958201,0.0,0.0,-0.058892040120324736,0.0,10.311627231013846,0.0,4545.787544644443,0.26725862618852947,90.01362729744488,1.8721899288565684,1.1220768547414295,90917.53052985836,282.26896673424744,0.0,0.0,0.0,337.5,0.18113380098950044,0.72,nominal,12924.031915097403,nan,fixed_pitch,26.0,0.0,0.0,-7.838262217189317,-0.0,0.0,-7.836860661418568,0.0,0.0,0.72,0.0,0.0,0.0,0.0,0.0,0.0,-0.13677902156177454,0.0,0.0,-0.13677902156177454,0.0,0.0,16.843454779400005,0.02066022539524281,7.360372759297891,-0.002445568085926756,-0.0053034290787102945,-0.0008591451368384794,1.0,96.64631095589982,3.638830315934462,905.9851676060628,87.74519374378602,0.2581506351062634,3.3895539910519155,904.149205929728,90.48868028665483,4521.543447844123,0.8440745128618734
1.375,110.13556354376313,0.0,904.8648208195132,90.31152972126495,0.0,3.6188896878510683,90.38400723118973,17.757902599390793,0.0,12.60044208078897,0.0,0.0,-0.07747391323803252,0.0,10.305760172282262,0.0,4583.233061944024,0.26835859736032835,90.38400723118973,1.8734365227136702,1.122066905818583,90916.53499445721,282.26837866467315,0.0,0.0,0.0,337.4763157894737,0.18112108984557135,0.72,nominal,12958.326976673558,nan,fixed_pitch,26.0,0.0,0.0,-7.839231893085365,-0.0,0.0,-7.838046277251965,0.0,0.0,0.72,0.0,0.0,0.0,0.0,0.0,0.0,-0.13679971446173111,0.0,0.0,-0.13679971446173111,0.0,0.0,16.670980425182336,-0.02220298599087352,7.455221027255783,0.0006027109036921911,-0.002119844872703463,0.0013611123147082215,1.0,96.64631095589982,3.638830315934462,905.9851676060628,87.74519374378602,0.2581506351062634,3.3895539910519155,904.149205929728,90.31820512359378,4530.082705473399,0.8440745128618734
1.4000000000000001,112.40257407156861,0.0,904.956006645982,90.68042111221916,0.0,3.6474330587554236,90.75374670506724,17.753374572144654,0.0,12.60283685604803,0.0,0.0,-0.09579101037653348,0.0,10.299473860784678,0.0,4620.766298039546,0.2694566714505439,90.75374670506724,1.8747130445777735,1.122056878493602,90915.5316158732,282.2677859568011,0.0,0.0,0.0,337.4526315789474,0.18110837870164226,0.72,nominal,12992.708093078572,nan,fixed_pitch,26.0,0.0,0.0,-7.840010126229309,-0.0,0.0,-7.839028201740638,0.0,0.0,0.72,0.0,0.0,0.0,0.0,0.0,0.0,-0.13681685227706442,0.0,0.0,-0.13681685227706442,0.0,0.0,16.767667094111474,-0.032306863146839414,7.513470510676322,-0.0007330961197574833,-0.0007298580187284681,-0.0013798204093905368,1.0,110.53434337079331,1.144119723148215,905.4912236520785,90.56666087249201,0.2548005812220033,3.7516496567680564,905.0555836899722,90.75629526673866,4635.81124157206,-1.643228543710088
1.425,114.67878934403991,0.0,905.0479427188666,91.04861089885242,0.0,3.6774429153801877,91.12284638336594,17.748846862677112,0.0,12.605682548680063,0.0,0.0,-0.1138277053046298,0.0,10.292769779538284,0.0,4658.386496751934,0.2705528505668234,91.12284638336594,1.8760194582296414,1.122046768736554,90914.51999090415,282.2671883723273,0.0,0.0,0.0,337.42894736842106,0.18109566755771317,0.72,nominal,13027.174973967227,nan,fixed_pitch,26.0,0.0,0.0,-7.840604523351466,-0.0,0.0,-7.839816362546053,0.0,0.0,0.72,0.0,0.0,0.0,0.0,0.0,0.0,-0.13683060827815408,0.0,0.0,-0.13683060827815408,0.0,0.0,16.725781357115856,-0.0709191125528568,7.561759414446586,0.004101732026608688,-0.001874530052265192,-0.002268595064723144,1.0,110.53434337079331,1.144119723148215,905.4912236520785,90.56666087249201,0.2548005812220033,3.7516496567680564,905.0555836899722,90.74917357691112,4633.922783500867,-1.643228543710088
1.4500000000000002,116.96419182098033,0.0,905.1406657750686,91.41609907761685,0.0,3.708922248078553,91.49130709969637,17.74431947098817,0.0,12.608972602317227,0.0,0.0,-0.13160214552271965,0.0,10.285649813973343,0.0,4696.092921176501,0.2716471373215462,91.49130709969639,1.877355740903363,1.1220365725094117,90913.49971554168,282.26658567246204,0.0,0.0,0.0,337.4052631578947,0.18108295641378405,0.72,nominal,13061.72734742855,nan,fixed_pitch,26.0,0.0,0.0,-7.841013996961789,-0.0,0.0,-7.84041517975392,0.0,0.0,0.72,0.0,0.0,0.0,0.0,0.0,0.0,-0.13684105961004897,0.0,0.0,-0.13684105961004897,0.0,0.0,16.75382098631426,0.011215617786740526,7.706540765499658,-0.0011142316487874346,-0.0007695532964157095,-0.0008392729843754904,1.0,110.53434337079331,1.144119723148215,905.4912236520785,90.56666087249201,0.2548005812220033,3.7516496567680564,905.8778009459196,91.46299812780293,4691.299729836556,0.6091217108845534
1.475,119.2587639646919,0.0,905.2342126220517,91.78288574846266,0.0,3.741873879326008,91.85912984806754,17.739792397077824,0.0,12.612701219339453,0.0,0.0,-0.14914468094169062,0.0,10.278116544273065,0.0,4733.884853104904,0.27273953480531543,91.85912984806754,1.8787218786528137,1.1220262857665138,90912.47038501744,282.26597761795665,0.0,0.0,0.0,337.38157894736844,0.181070245269855,0.72,nominal,13096.364959432109,nan,fixed_pitch,26.0,0.0,0.0,-7.841233986969312,-0.0,0.0,-7.840824583361616,0.0,0.0,0.72,0.0,0.0,0.0,0.0,0.0,0.0,-0.1368482050509728,0.0,0.0,-0.1368482050509728,0.0,0.0,16.709212917776732,0.005397409776206675,7.699006934181098,-0.001437872324249342,-0.0030823391573322175,-0.001358166999035235,1.0,110.53434337079331,1.144119723148215,905.4912236520785,90.56666087249201,0.2548005812220033,3.7516496567680564,905.8778009459196,91.97382300811032,4799.169157385477,0.6091217108845534
1.5,121.56248824223707,0.0,905.3286201342863,92.14897110180671,0.0,3.776300489386932,92.22631577,17.73526564094608,0.0,12.61686322532743,0.0,0.0,-0.16648023959243374,0.0,10.270173095568726,0.0,4771.76159201301,0.2738300465486834,92.22631577,1.8801178557424336,1.1220159044549605,90911.43159384282,282.2653639691271,0.0,0.0,0.0,337.35789473684207,0.18105753412592587,0.72,nominal,13131.087572893774,nan,fixed_pitch,26.0,0.0,0.0,-7.841260942346005,-0.0,0.0,-7.841042762853811,0.0,0.0,0.72,0.0,0.0,0.0,0.0,0.0,0.0,-0.13685201300147193,0.0,0.0,-0.13685201300147193,0.0,0.0,16.709393409265125,-0.0435801301108981,7.692451147468522,0.0004687787802410243,0.001415475928244308,0.002088448290239597,1.0,110.53434337079331,1.144119723148215,905.4912236520785,90.56666087249201,0.2548005812220033,3.7516496567680564,904.8429004765168,92.41614334399613,4810.274802417317,0.5861014904271726
1.5250000000000001,123.87534712746009,0.0,905.4239252500978,92.51435540892086,0.0,3.812204632458069,92.59286614468665,17.73073920259293,0.0,12.621453761808338,0.0,0.0,-0.18362145933451474,0.0,10.26182282274171,0.0,4809.722454331793,0.2749186764929268,92.59286614468665,1.881543645993656,1.1220054245149658,90910.3829358441,282.26474448587436,0.0,0.0,0.0,337.33421052631576,0.1810448229819968,0.72,nominal,13165.8949669978,nan,fixed_pitch,26.0,0.0,0.0,-7.841094210106325,-0.0,0.0,-7.841068486480068,0.0,0.0,0.72,0.0,0.0,0.0,0.0,0.0,0.0,-0.13685246196344567,0.0,0.0,-0.13685246196344567,0.0,0.0,16.674992473829416,0.04311079032477059,7.855995077636245,-0.0002861348191982844,-0.0008499060232057196,-0.002638911712607669,1.0,110.53434337079331,1.144119723148215,905.4912236520785,90.56666087249201,0.2548005812220033,3.7516496567680564,904.8429004765168,93.09369042452013,4761.619274077222,0.5861014904271726
1.55,126.19732310291378,0.0,905.5201649686301,92.87903901814806,0.0,3.8495887412906633,92.95878238451567,17.72621308201838,0.0,12.626468036097062,0.0,0.0,-0.20057097167684113,0.0,10.253069059751631,0.0,4847.766773251778,0.27600542897674235,92.95878238451569,1.8829992095734622,1.1219948418801873,90909.3240041958,282.26411892770386,0.0,0.0,0.0,337.3105263157895,0.18103211183806775,0.72,nominal,13200.786936995486,nan,fixed_pitch,26.0,0.0,0.0,-7.8407356044084215,-0.0,0.0,-7.8409020454442455,0.0,0.0,0.72,0.0,0.0,0.0,0.0,0.0,0.0,-0.13684955701936014,0.0,0.0,-0.13684955701936014,0.0,0.0,16.729289960069675,0.0032525793841342928,7.863228242266208,-0.0023200689969966343,-0.0033569862147903307,-0.001469821031782206,1.0,110.53434337079331,1.144119723148215,905.4912236520785,90.56666087249201,0.2548005812220033,3.7516496567680564,904.6320932287332,93.77109686040728,4882.197948772909,0.9151697745052424
1.5750000000000002,128.52839866179846,0.0,905.6173763467523,93.24302235538737,0.0,3.888455124886297,93.32406603457397,17.721687279222426,0.0,12.631901222232871,0.0,0.0,-0.21732744559537032,0.0,10.243915024430974,0.0,4885.89389893197,0.27709030873476176,93.32406603457396,1.8844844945046455,1.1219841524780785,90908.25439145582,282.2634870537461,0.0,0.0,0.0,337.28684210526313,0.18101940069413863,0.72,nominal,13235.76329436364,nan,fixed_pitch,26.0,0.0,0.0,-7.840187951090373,-0.0,0.0,-7.840544998267309,0.0,0.0,0.72,0.0,0.0,0.0,0.0,0.0,0.0,-0.13684332537053764,0.0,0.0,-0.13684332537053764,0.0,0.0,16.699698632712693,0.05431531523251684,7.967718781424529,-0.0030842913945095503,-0.007439042733128923,-0.002302935092532773,1.0,110.53434337079331,1.144119723148215,905.4912236520785,90.56666087249201,0.2548005812220033,3.7516496567680564,904.6320932287332,93.4989733362109,4867.02767619704,0.9151697745052424
1.6,130.86855630994623,0.0,905.7155964958811,93.60630592591014,0.0,3.9288059651499294,93.68871877343012,17.717161794205072,0.0,12.637748487521424,0.0,0.0,-0.2338906117450383,0.0,10.2343638494702,0.0,4924.103198840739,0.27817332089986446,93.68871877343011,1.8859994401563396,1.1219733522302333,90907.17368960005,282.26284862277674,0.0,0.0,0.0,337.2631578947368,0.18100668955020954,0.72,nominal,13270.823867079771,nan,fixed_pitch,26.0,0.0,0.0,-7.839453816757596,-0.0,0.0,-7.839999407512454,0.0,0.0,0.72,0.0,0.0,0.0,0.0,0.0,0.0,-0.13683380301549697,0.0,0.0,-0.13683380301549697,0.0,0.0,16.64506488574996,-0.06292891873079759,7.954396101038268,-0.0015212158937292395,-0.005338201961339569,-0.0028394889113861153,1.0,132.08348884046129,1.0440058737141755,906.4117036818293,93.61198470662085,-0.03506339359629957,3.7926244473374777,906.017070661716,94.2642377783643,4949.844397899386,-0.4351852329376084
