time_s,x_m,y_m,altitude_m,vx_mps,vy_mps,vz_mps,speed_mps,mass_kg,roll_deg,pitch_deg,yaw_deg,p_dps,q_dps,r_dps,alpha_deg,beta_deg,qbar_pa,mach,airspeed_mps,load_factor_g,density_kgpm3,pressure_pa,temperature_k,wind_x_mps,wind_y_mps,wind_z_mps,thrust_n,mass_flow_kgps,propulsion_throttle_actual,propulsion_health,energy_j_per_kg,target_distance_m,guidance_mode,pitch_command_deg,heading_command_deg,roll_command_deg,elevator_command_deg,aileron_command_deg,rudder_command_deg,elevator_deg,aileron_deg,rudder_deg,throttle,elevator_saturated,aileron_saturated,rudder_saturated,elevator_failed,aileron_failed,rudder_failed,elevator_raw_rad,aileron_raw_rad,rudder_raw_rad,elevator_effective_rad,aileron_effective_rad,rudder_effective_rad,sensor_time_s,imu_valid,imu_ax_mps2,imu_ay_mps2,imu_az_mps2,gyro_p_rps,gyro_q_rps,gyro_r_rps,imu_accel_norm_mps2,imu_gyro_norm_rps,gps_valid,gps_latency_s,gps_x_m,gps_y_m,gps_z_m,gps_vx_mps,gps_vy_mps,gps_vz_mps,baro_valid,baro_alt_m,baro_bias_m,pitot_valid,pitot_airspeed_mps,pitot_qbar_pa,pitot_compressibility_factor,mag_valid,mag_heading_deg,mag_x_ut,mag_y_ut,mag_z_ut,radar_valid,radar_agl_m,optical_flow_valid,horizon_valid,horizon_roll_deg,horizon_pitch_deg
0.0,0.0,0.0,900.0,70.0,0.0,4.0,70.11419257183242,18.0,0.0,18.000000000000004,0.0,0.0,0.0,0.0,14.72951207681644,0.0,2759.3556404685783,0.20816395637020318,70.1141925718324,1.4790299068951314,1.1226019692711875,90970.07887058289,282.29999999999995,0.0,0.0,0.0,273.59999999999997,0.14683913466882167,0.72,nominal,11283.984999999999,nan,fixed_pitch,26.0,0.0,0.0,-20.05352282957881,-0.0,0.0,-1.8750000000000002,0.0,0.0,0.72,0.0,0.0,0.0,0.0,0.0,0.0,-0.03272492347489368,0.0,0.0,-0.03272492347489368,0.0,0.0,0.0,1.0,13.124683187965003,0.0401032777054351,6.052526515782966,-0.0017697994528526222,0.0008620863442852247,-0.0019047864694523068,14.453096356199588,0.0027392689649848347,1.0,0.0,-1.1847204903281356,-2.1801049899993714,897.6597487825237,70.39011843772215,0.18917350047430306,3.8016023654792703,1.0,899.6899854359319,0.0,1.0,70.76165448518913,2732.849514235471,1.0,1.0,-1.4840521806067302,9.962958229895124,0.048500247149829485,-46.890039957756706,1.0,899.7067055008114,0.0,1.0,0.7910241563651457,18.546306663164323
0.025,1.7566489908610163,0.0,900.1000344673942,70.26595963444065,0.0,4.001378695766349,70.37979905353365,17.99632902163328,0.0,17.597888525492426,0.0,0.0,16.084525000226876,0.0,14.338632244457203,0.0,2780.273958365412,0.20895276340660923,70.37979905353365,1.496370955451231,1.1225909648889092,90968.97760007007,282.2993497759619,0.0,0.0,0.0,277.65,0.14901274028069567,0.72,nominal,11303.624060417558,nan,fixed_pitch,26.0,0.0,0.0,-8.732498226537148,-0.0,0.0,-3.7500000000000004,0.0,0.0,0.72,0.0,0.0,0.0,0.0,0.0,0.0,-0.06544984694978737,0.0,0.0,-0.06544984694978737,0.0,0.0,0.025,1.0,13.457635324829601,-0.05909191052167622,5.857373096339133,-0.000181717823083268,0.28309857434829916,0.0007325737117672112,14.677202048745807,0.283099580507725,1.0,0.0,-1.1847204903281356,-2.1801049899993714,897.6597487825237,70.39011843772215,0.18917350047430306,3.8016023654792703,1.0,899.6899854359319,0.0,1.0,70.94058369958937,2769.2192663973965,1.0,1.0,-1.4840521806067302,9.962958229895124,0.048500247149829485,-46.890039957756706,1.0,899.7067055008114,0.0,1.0,0.7910241563651457,18.546306663164323
0.05,3.520191619805133,0.0,900.1999908120836,70.54170515776465,0.0,3.9982537875747504,70.65492339472782,17.992603703126264,0.0,16.9194824758874,0.0,0.0,27.136559020292346,0.0,13.67546922564409,0.0,2802.0259475092034,0.2097698299716331,70.65492339472782,1.5153726545082316,1.122579969183019,90967.87720038582,282.29870005972145,0.0,0.0,0.0,281.7,0.15118634589256968,0.72,nominal,11324.005339854746,nan,fixed_pitch,26.0,0.0,0.0,-11.879891624052517,-0.0,0.0,-5.625000000000001,0.0,0.0,0.72,0.0,0.0,0.0,0.0,0.0,0.0,-0.09817477042468105,0.0,0.0,-0.09817477042468105,0.0,0.0,0.05,1.0,13.711655730540285,0.0716729491587782,5.634476987285194,0.004674512407931903,0.47748713371640783,-0.0018490906905282158,14.824370840097929,0.47751359464139287,1.0,0.0,-1.1847204903281356,-2.1801049899993714,897.6597487825237,70.39011843772215,0.18917350047430306,3.8016023654792703,1.0,900.198929979724,0.0,1.0,70.41540909598744,2792.725603293576,1.0,1.0,-1.0934740400812786,10.829329792838188,-0.006150638790838771,-46.78005469515262,1.0,900.2217818565256,0.0,1.0,-1.9593629645428712e-05,16.657993826703002
0.07500000000000001,5.290942347637728,0.0,900.2996771615408,70.8300291133038,0.0,3.9874539782872422,70.94217936756964,17.98882404447895,0.0,16.091319317393676,0.0,0.0,33.127103093295794,0.0,12.869191764542691,0.0,2824.8286060878195,0.21062291582226453,70.94217936756964,1.5363046317913078,1.1225690032600364,90966.77978376037,282.29805209844994,0.0,0.0,0.0,285.75,0.1533599515044437,0.72,nominal,11345.320235746434,nan,fixed_pitch,26.0,0.0,0.0,-13.846188422037606,-0.0,0.0,-7.500000000000001,0.0,0.0,0.72,0.0,0.0,0.0,0.0,0.0,0.0,-0.13089969389957473,0.0,0.0,-0.13089969389957473,0.0,0.0,0.07500000000000001,1.0,14.170801322522959,-0.0036913274543079245,5.199681390522314,0.0015163372945679108,0.5799878489156102,-0.0021423552810293143,15.094645087290422,0.5799937877725051,1.0,0.0,-1.1847204903281356,-2.1801049899993714,897.6597487825237,70.39011843772215,0.18917350047430306,3.8016023654792703,1.0,900.198929979724,0.0,1.0,71.15708248786703,2806.5615909041476,1.0,1.0,-1.0934740400812786,10.829329792838188,-0.006150638790838771,-46.78005469515262,1.0,900.2217818565256,0.0,1.0,-1.9593629645428712e-05,16.657993826703002
0.1,7.069250029685576,0.0,900.3988537615935,71.13230728191392,0.0,3.9670640021083425,71.24284340230567,17.984990045691337,0.0,15.237808270374112,0.0,0.0,34.141073231324675,0.0,12.045717114555803,0.0,2848.7957886086706,0.21151581013704132,71.24284340230567,1.5588606454431497,1.122558093492984,90965.68798944887,282.2974074505496,0.0,0.0,0.0,289.8,0.15553355711631772,0.72,nominal,11367.667787263854,nan,fixed_pitch,26.0,0.0,0.0,-14.58301458949145,-0.0,0.0,-9.375000000000002,0.0,0.0,0.72,0.0,0.0,0.0,0.0,0.0,0.0,-0.16362461737446843,0.0,0.0,-0.16362461737446843,0.0,0.0,0.1,1.0,14.466797587490221,-0.04134297836845507,4.949525322947329,0.0008921225986699562,0.591170552981022,0.003721778987929432,15.290119116663876,0.5911829414263011,1.0,0.0,-1.1847204903281356,-2.1801049899993714,897.6597487825237,70.39011843772215,0.18917350047430306,3.8016023654792703,1.0,900.421588692402,0.0,1.0,71.47312769616885,2843.0886912188103,1.0,1.0,0.9166586510981276,12.27644386131756,0.015486777582566525,-46.43885342797578,1.0,900.554970933938,0.0,1.0,0.09211798404325502,15.110859280107533
0.125,8.85546484340442,0.0,900.4972663122942,71.44859254875378,0.0,3.9365020280256475,71.55695232061301,17.98110170676343,0.0,14.478565154630989,0.0,0.0,30.370169039594128,0.0,11.325008964133323,0.0,2873.9440701132708,0.21244862173613643,71.55695232061301,1.5821144943404655,1.1225472678541675,90964.60461673017,282.2967677689701,0.0,0.0,0.0,293.84999999999997,0.15770716272819169,0.72,nominal,11391.060229388702,nan,fixed_pitch,26.0,0.0,0.0,-14.071272138965957,-0.0,0.0,-11.250000000000004,0.0,0.0,0.72,0.0,0.0,0.0,0.0,0.0,0.0,-0.19634954084936213,0.0,0.0,-0.19634954084936213,0.0,0.0,0.125,1.0,14.858754927264009,0.007580114548028007,4.677157346180837,0.0007055062918121973,0.5300868350546849,0.0011117843933798606,15.577498396326748,0.5300884704480544,1.0,0.0,-1.1847204903281356,-2.1801049899993714,897.6597487825237,70.39011843772215,0.18917350047430306,3.8016023654792703,1.0,900.421588692402,0.0,1.0,72.33946976779333,2878.656078645747,1.0,1.0,0.9166586510981276,12.27644386131756,0.015486777582566525,-46.43885342797578,1.0,900.554970933938,0.0,1.0,0.09211798404325502,15.110859280107533
0.15000000000000002,10.649909029896964,0.0,900.5946807464675,71.77776745970179,0.0,3.8965773669336037,71.88345579252241,17.977159027695222,0.0,13.925952164630063,0.0,0.0,22.104690956618246,0.0,10.81860408169769,0.0,2900.2029569079496,0.2134182317805842,71.88345579252243,1.607397209153062,1.1225365520894464,90963.5322420479,282.29613457514796,0.0,0.0,0.0,297.9,0.1598807683400657,0.72,nominal,11415.432434280108,nan,fixed_pitch,26.0,0.0,0.0,-12.320471179862361,-0.0,0.0,-11.785235589931181,0.0,0.0,0.72,0.0,0.0,0.0,0.0,0.0,0.0,-0.2056911641675154,0.0,0.0,-0.2056911641675154,0.0,0.0,0.15000000000000002,1.0,15.109727968321977,0.038549272230478174,4.487738302088743,0.0019646967772118393,0.38526422053491277,0.0015741690663285107,15.76214326768778,0.38527244602495214,1.0,0.0,-1.1847204903281356,-2.1801049899993714,897.6597487825237,70.39011843772215,0.18917350047430306,3.8016023654792703,1.0,901.269417158587,0.0,1.0,71.47914872421254,2895.176104724367,1.0,1.0,-0.1779840465434555,13.253420162624701,-0.0354611563190946,-46.11706187337747,1.0,900.4069277049862,0.0,1.0,0.04886793277601613,13.623702561122705
0.17500000000000002,12.452837528501508,0.0,900.6909755674594,72.11713994418177,0.0,3.8517928396785557,72.21992925646283,17.97316200848672,0.0,13.610451599097589,0.0,0.0,12.620054509882063,0.0,10.553175896339024,0.0,2927.389528417484,0.21441744165598214,72.21992925646285,1.6337049994050192,1.1225259595611206,90962.47220254903,282.2955086588115,0.0,0.0,0.0,301.95,0.16205437395193972,0.72,nominal,11440.620246452874,nan,fixed_pitch,26.0,0.0,0.0,-10.132222026076269,-0.0,0.0,-10.958728808003725,0.0,0.0,0.72,0.0,0.0,0.0,0.0,0.0,0.0,-0.19126589953281853,0.0,0.0,-0.19126589953281853,0.0,0.0,0.17500000000000002,1.0,15.4027451225185,0.02530880610325757,4.528681196073005,0.0019450701434978732,0.2215611738761236,-3.645329860300707e-06,16.054723641987707,0.2215697115594039,1.0,0.0,-1.1847204903281356,-2.1801049899993714,897.6597487825237,70.39011843772215,0.18917350047430306,3.8016023654792703,1.0,901.269417158587,0.0,1.0,71.67955514976347,2889.9162900796505,1.0,1.0,-0.1779840465434555,13.253420162624701,-0.0354611563190946,-46.11706187337747,1.0,900.4069277049862,0.0,1.0,0.04886793277601613,13.623702561122705
0.2,14.264433707891634,0.0,900.7861565651351,72.46384717560503,0.0,3.807239907027439,72.56379416209646,17.96911064913792,0.0,13.48144275087062,0.0,0.0,5.160356109258024,0.0,10.473896241021807,0.0,2955.3050256256374,0.21543859583812497,72.56379416209646,1.6594487155532973,1.1225154896296392,90961.42443414911,282.2948899823266,0.0,0.0,0.0,306.0,0.16422797956381371,0.72,nominal,11466.446673879032,nan,fixed_pitch,26.0,0.0,0.0,-8.345809086653027,-0.0,0.0,-9.652268947328377,0.0,0.0,0.72,0.0,0.0,0.0,0.0,0.0,0.0,-0.1684638734188873,0.0,0.0,-0.1684638734188873,0.0,0.0,0.2,1.0,15.577565795707654,0.04593181574034343,4.601997905909878,-0.001959887195297939,0.08641917094850596,-0.0006299594719408782,16.24318474244805,0.0864436875322986,1.0,0.0,15.692997444757296,-1.2390701528638024,901.2529285260283,72.49217803436586,-0.20896209951698597,3.878147631900131,1.0,899.6286660040175,0.0,1.0,72.7425069258693,2959.1766116560184,1.0,1.0,-0.31231635544879516,13.641999012762064,0.019704449971231084,-46.069418601111906,1.0,900.7208732157192,0.0,1.0,0.37127588655652777,12.923129039361145
0.225,16.084831670039023,0.0,900.8803070322713,72.81591848589564,0.0,3.766018685446872,72.91324215589191,17.965004949648826,0.0,13.459549302525128,0.0,0.0,0.8757379444750336,0.0,10.498865802451824,0.0,2983.809964580105,0.21647632564246488,72.91324215589191,1.684089784195223,1.1225051331302538,90960.388019617,282.2942780042902,0.0,0.0,0.0,310.05,0.16640158517568773,0.72,nominal,11492.788303799889,nan,fixed_pitch,26.0,0.0,0.0,-7.293185644260158,-0.0,0.0,-8.472727295794268,0.0,0.0,0.72,0.0,0.0,0.0,0.0,0.0,0.0,-0.14787698793520548,0.0,0.0,-0.14787698793520548,0.0,0.0,0.225,1.0,15.840014967825514,-0.04013304314033232,4.794755864518461,-0.0030428724709688926,0.01087973622213109,-0.0013401925743029889,16.549844973365225,0.01137646031390909,1.0,0.0,15.692997444757296,-1.2390701528638024,901.2529285260283,72.49217803436586,-0.20896209951698597,3.878147631900131,1.0,899.6286660040175,0.0,1.0,72.85215902142463,3008.7495205869022,1.0,1.0,-0.31231635544879516,13.641999012762064,0.019704449971231084,-46.069418601111906,1.0,900.7208732157192,0.0,1.0,0.37127588655652777,12.923129039361145
0.25,17.914141200111864,0.0,900.9735385981998,73.17238120291358,0.0,3.729262637137083,73.26735132868697,17.960844910019432,0.0,13.473195001398642,0.0,0.0,-0.5458279575204806,0.0,10.555614729975655,0.0,3012.8350542645844,0.2175278942533592,73.26735132868697,1.7076455833631257,1.122494877781525,90959.36172983228,282.29367199911167,0.0,0.0,0.0,314.09999999999997,0.16857519078756172,0.72,nominal,11519.58453765466,nan,fixed_pitch,26.0,0.0,0.0,-6.936415983200679,-0.0,0.0,-7.704571639497473,0.0,0.0,0.72,0.0,0.0,0.0,0.0,0.0,0.0,-0.1344701425650085,0.0,0.0,-0.1344701425650085,0.0,0.0,0.25,1.0,15.97602117644947,0.0014875039078433325,4.894932812623909,-0.0037741072489491574,-0.01123274639237173,0.002864398391690749,16.709088008719448,0.012191113779644222,1.0,0.0,15.692997444757296,-1.2390701528638024,901.2529285260283,72.49217803436586,-0.20896209951698597,3.878147631900131,1.0,900.7373215501698,0.0,1.0,73.41820403420503,3054.7899747073297,1.0,1.0,-0.8856653770183001,13.65962298356666,-0.006840521503056411,-46.03045247590486,1.0,900.482057504385,0.0,1.0,-0.2185037857549412,13.972008028001614
0.275,19.752467769534434,0.0,901.0659567911473,73.53306277690277,0.0,3.6967277179008424,73.62592693591178,17.956630530249743,0.0,13.476058070976949,0.0,0.0,-0.11452278315613972,0.0,10.598050275610989,0.0,3042.369720520777,0.21859272375795813,73.62592693591179,1.7304090923078927,1.1224847119734913,90958.34440288269,282.29307128085753,0.0,0.0,0.0,318.15,0.17074879639943571,0.72,nominal,11546.827023752014,nan,fixed_pitch,26.0,0.0,0.0,-7.04890092815306,-0.0,0.0,-7.376736283825267,0.0,0.0,0.72,0.0,0.0,0.0,0.0,0.0,0.0,-0.12874833620408183,0.0,0.0,-0.12874833620408183,0.0,0.0,0.275,1.0,16.215854699474708,0.019508949048417247,4.960426405568853,-0.0031935616877507207,-0.0020139050730869396,0.0013295780452930704,16.95759872029745,0.004002802477689835,1.0,0.0,15.692997444757296,-1.2390701528638024,901.2529285260283,72.49217803436586,-0.20896209951698597,3.878147631900131,1.0,900.7373215501698,0.0,1.0,73.48220729485224,3063.002237975238,1.0,1.0,-0.8856653770183001,13.65962298356666,-0.006840521503056411,-46.03045247590486,1.0,900.482057504385,0.0,1.0,-0.2185037857549412,13.972008028001614
0.30000000000000004,21.59992428452263,0.0,901.157644807029,73.89826059952775,0.0,3.667520635265657,73.98921291138198,17.952361810339756,0.0,13.449034446928593,0.0,0.0,1.0809449819727939,0.0,10.607814883114852,0.0,3072.4395835465903,0.21967153861055194,73.98921291138198,1.7527648012736035,1.1224746265530086,90957.3351227277,282.29247530875426,0.0,0.0,0.0,322.2,0.17292240201130973,0.72,nominal,11574.539431069757,nan,fixed_pitch,26.0,0.0,0.0,-7.369176576663615,-0.0,0.0,-7.372956430244441,0.0,0.0,0.72,0.0,0.0,0.0,0.0,0.0,0.0,-0.12868236531385313,0.0,0.0,-0.12868236531385313,0.0,0.0,0.30000000000000004,1.0,16.484279378072376,0.06815996346257375,5.029134880458188,-0.00011239081637780688,0.019684485191561785,-0.002814236898561917,17.234509277632554,0.01988495708503412,1.0,0.0,15.692997444757296,-1.2390701528638024,901.2529285260283,72.49217803436586,-0.20896209951698597,3.878147631900131,1.0,901.0297781283971,0.0,1.0,73.70863850851458,3071.4330390758137,1.0,1.0,0.26634093903031225,13.59833028686157,-0.029494006171825047,-45.98863148001222,1.0,901.5934639265769,0.0,1.0,-0.057116006698419916,14.245836129496338
0.325,23.45663480918943,0.0,901.2486620234506,74.26842098667208,0.0,3.640688656866573,74.35760196341589,17.948038750289474,0.0,13.39317255437372,0.0,0.0,2.2344758791978703,0.0,10.586740898511524,0.0,3103.0831564668024,0.22076550491843366,74.3576019634159,1.7750459189628844,1.122464614987122,90956.33323554485,282.29188369684755,0.0,0.0,0.0,326.25,0.17509600762318375,0.72,nominal,11602.756676307166,nan,fixed_pitch,26.0,0.0,0.0,-7.695145335281956,-0.0,0.0,-7.534050882763199,0.0,0.0,0.72,0.0,0.0,0.0,0.0,0.0,0.0,-0.13149399391700312,0.0,0.0,-0.13149399391700312,0.0,0.0,0.325,1.0,16.695031676672286,0.020013096373075603,5.09750132501209,0.0005355727017172973,0.0404632418722975,-0.0006922029914480386,17.455915987642054,0.04047270593765932,1.0,0.0,15.692997444757296,-1.2390701528638024,901.2529285260283,72.49217803436586,-0.20896209951698597,3.878147631900131,1.0,901.0297781283971,0.0,1.0,74.51261268961275,3028.9589343017833,1.0,1.0,0.26634093903031225,13.59833028686157,-0.029494006171825047,-45.98863148001222,1.0,901.5934639265769,0.0,1.0,-0.057116006698419916,14.245836129496338
0.35000000000000003,25.3227327415853,0.0,901.3390509876539,74.64391729583467,0.0,3.615558568133077,74.73143015510279,17.943661350098893,0.0,13.319784472447926,0.0,0.0,2.9355236783694814,0.0,10.546692265246765,0.0,3134.3349370662877,0.2218756205749083,74.73143015510279,1.7974534514292564,1.1224546725943234,90955.3382727967,282.29129616858023,0.0,0.0,0.0,330.3,0.17726961323505777,0.72,nominal,11631.509930881579,nan,fixed_pitch,26.0,0.0,0.0,-7.917844662633689,-0.0,0.0,-7.725947772698444,0.0,0.0,0.72,0.0,0.0,0.0,0.0,0.0,0.0,-0.13484322647071031,0.0,0.0,-0.13484322647071031,0.0,0.0,0.35000000000000003,1.0,16.833468762611755,-0.009998557001843733,5.0264125006960105,0.00016492952569605336,0.050512541783143274,0.0008332945040189553,17.5678852791143,0.05051968387542295,1.0,0.0,15.692997444757296,-1.2390701528638024,901.2529285260283,72.49217803436586,-0.20896209951698597,3.878147631900131,1.0,900.6364584835393,0.0,1.0,75.35387501151467,3149.2014074290873,1.0,1.0,-0.40175946827528874,13.71141039482174,0.030093070387636138,-45.97649676596606,1.0,901.1075658791574,0.0,1.0,0.03423340263224971,13.21845186645742
0.375,27.1983565484437,0.0,901.4288468994263,75.02495227433612,0.0,3.5918364708963617,75.11088305299089,17.939229609768017,0.0,13.241991060403787,0.0,0.0,3.1117369598031632,0.0,10.501035570090572,0.0,3166.217395536421,0.22300243663937144,75.11088305299087,1.820049918438741,1.1224447955014232,90954.34984684044,282.2907124951537,0.0,0.0,0.0,334.34999999999997,0.17944321884693173,0.72,nominal,11660.819577946295,nan,fixed_pitch,26.0,0.0,0.0,-8.011841279031536,-0.0,0.0,-7.86889452586499,0.0,0.0,0.72,0.0,0.0,0.0,0.0,0.0,0.0,-0.13733811796850218,0.0,0.0,-0.13733811796850218,0.0,0.0,0.375,1.0,17.04870044818894,-0.011656175042515728,5.1294808108241305,0.0007627277892675338,0.05594638905689266,-0.0009062746479365208,17.803648396525563,0.055958927222769496,1.0,0.0,15.692997444757296,-1.2390701528638024,901.2529285260283,72.49217803436586,-0.20896209951698597,3.878147631900131,1.0,900.6364584835393,0.0,1.0,75.24620599012493,3144.7528871171253,1.0,1.0,-0.40175946827528874,13.71141039482174,0.030093070387636138,-45.97649676596606,1.0,901.1075658791574,0.0,1.0,0.03423340263224971,13.21845186645742
0.4,29.083645540219973,0.0,901.5180855354105,75.41155967105085,0.0,3.5695454393669843,75.49599318284493,17.934743529296842,0.0,13.169619704657515,0.0,0.0,2.89485461473835,0.0,10.459592882316882,0.0,3198.740452656692,0.2241460498011873,75.49599318284493,1.8428034537407898,1.122434979771896,90953.36756369864,282.29013244401983,0.0,0.0,0.0,338.4,0.18161682445880575,0.72,nominal,11690.694826847917,nan,fixed_pitch,26.0,0.0,0.0,-8.00456386541844,-0.0,0.0,-7.936729195641714,0.0,0.0,0.72,0.0,0.0,0.0,0.0,0.0,0.0,-0.1385220563031091,0.0,0.0,-0.1385220563031091,0.0,0.0,0.4,1.0,17.299702707453278,-0.0907931942526972,5.1420662288649375,0.000251058242861576,0.05132720799266521,0.0014656330848655127,18.04795839624034,0.051348742836636964,1.0,0.0,30.370872729270165,2.8135483756416955,901.5769864681552,75.31349990516135,-0.310263602739104,3.3128147478592913,1.0,901.4630298061182,0.0,1.0,76.03304347841033,3193.574822865201,1.0,1.0,0.9736838973934514,13.880030292511073,0.0019570278589873765,-45.93120600974099,1.0,901.5218317361,0.0,1.0,0.68336377691599,13.483436700432097
0.42500000000000004,30.978737025019118,0.0,901.6068078424667,75.80365939196588,0.0,3.5488922822482114,75.88668798705197,17.930203108685372,0.0,13.107498351140794,0.0,0.0,2.4848543840888855,0.0,10.427044831679064,0.0,3231.905239864914,0.22530624477405012,75.88668798705197,1.8434483040111296,1.1224252209006391,90952.39097249856,282.2895557490239,0.0,0.0,0.0,338.37631578947367,0.18160411331487666,0.72,nominal,11721.137108950415,nan,fixed_pitch,26.0,0.0,0.0,-7.943298051916848,-0.0,0.0,-7.940013623779281,0.0,0.0,0.72,0.0,0.0,0.0,0.0,0.0,0.0,-0.1385793803881548,0.0,0.0,-0.1385793803881548,0.0,0.0,0.42500000000000004,1.0,17.306881360409303,0.040879071925000766,5.164431820801239,-0.00011203191902471998,0.04296147813460976,-0.0014660940608027817,18.061040101652754,0.04298663264849381,1.0,0.0,30.370872729270165,2.8135483756416955,901.5769864681552,75.31349990516135,-0.310263602739104,3.3128147478592913,1.0,901.4630298061182,0.0,1.0,75.8279253957166,3214.32363833056,1.0,1.0,0.9736838973934514,13.880030292511073,0.0019570278589873765,-45.93120600974099,1.0,901.5218317361,0.0,1.0,0.68336377691599,13.483436700432097
0.45,32.8836268331966,0.0,901.6950290402291,76.19559232709939,0.0,3.5288479104971433,76.27726435611693,17.9256630058525,0.0,13.056130813900161,0.0,0.0,2.0547016272510015,0.0,10.404485043607508,0.0,3265.2307988410316,0.2264660891785715,76.27726435611694,1.8441031235923915,1.1224155172124777,90951.41990556756,282.2889823112385,0.0,0.0,0.0,338.35263157894735,0.18159140217094757,0.72,nominal,11751.718085363835,nan,fixed_pitch,26.0,0.0,0.0,-7.87099764460363,-0.0,0.0,-7.9055056341914565,0.0,0.0,0.72,0.0,0.0,0.0,0.0,0.0,0.0,-0.13797710235160332,0.0,0.0,-0.13797710235160332,0.0,0.0,0.45,1.0,17.247523154365656,0.05486849238053924,5.2894598493479625,-0.0004281515960226781,0.035877674176171125,0.0008060203772042808,18.04046703967776,0.035889280947507735,1.0,0.0,30.370872729270165,2.8135483756416955,901.5769864681552,75.31349990516135,-0.310263602739104,3.3128147478592913,1.0,901.514745232185,0.0,1.0,76.12053527502859,3304.9412935923287,1.0,1.0,-0.09408074110913262,14.005155693616754,0.03235021532457746,-45.95845248013985,1.0,901.8686075906003,0.0,1.0,-0.06698468827697245,13.16304169230747
0.47500000000000003,34.79830769877843,0.0,901.7827698013759,76.58723462327308,0.0,3.5096304458746483,76.66760732608583,17.921123220798226,0.0,13.013434792344967,0.0,0.0,1.707840941238514,0.0,10.389675984797382,0.0,3298.707074971933,0.22762524172113136,76.66760732608583,1.8447302467138407,1.1224058664324936,90950.45413521721,282.288411996291,0.0,0.0,0.0,338.32894736842104,0.18157869102701849,0.72,nominal,11782.429006026108,nan,fixed_pitch,26.0,0.0,0.0,-7.81468554242409,-0.0,0.0,-7.860095588307773,0.0,0.0,0.72,0.0,0.0,0.0,0.0,0.0,0.0,-0.13718454753745135,0.0,0.0,-0.13718454753745135,0.0,0.0,0.47500000000000003,1.0,17.263127119444754,-0.014208111291212439,5.367664896682829,-7.71416553500972e-05,0.030987956073612058,0.0014435634636649729,18.078373440539846,0.031021657723737606,1.0,0.0,30.370872729270165,2.8135483756416955,901.5769864681552,75.31349990516135,-0.310263602739104,3.3128147478592913,1.0,901.514745232185,0.0,1.0,76.68505469613694,3305.597784466904,1.0,1.0,-0.09408074110913262,14.005155693616754,0.03235021532457746,-45.95845248013985,1.0,901.8686075906003,0.0,1.0,-0.06698468827697245,13.16304169230747
0.5,36.72277008722645,0.0,901.8700542926333,76.9784955379208,0.0,3.4913796502965155,77.05763107664416,17.91658375352255,0.0,12.97654042036999,0.0,0.0,1.4757749299923701,0.0,10.379655173496623,0.0,3332.3263318977906,0.22878344764427344,77.05763107664416,1.8453157376480815,1.1223962659015274,90949.49339530946,282.28784464709787,0.0,0.0,0.0,338.30526315789473,0.18156597988308942,0.72,nominal,11813.26322150095,nan,fixed_pitch,26.0,0.0,0.0,-7.783841624717475,-0.0,0.0,-7.821968606512623,0.0,0.0,0.72,0.0,0.0,0.0,0.0,0.0,0.0,-0.13651910617127805,0.0,0.0,-0.13651910617127805,0.0,0.0,0.5,1.0,17.316617425436707,-0.046035354864689744,5.403006467374151,-0.0016593042029406698,0.023144183272777966,-0.002027896168836918,18.140006538017637,0.023292034532719882,1.0,0.0,30.370872729270165,2.8135483756416955,901.5769864681552,75.31349990516135,-0.310263602739104,3.3128147478592913,1.0,901.4585038865151,0.0,1.0,76.9380487434773,3298.031492253614,1.0,1.0,0.7001214451233372,14.101194538520938,-0.016646611689183643,-45.927624693418615,1.0,901.9675045047999,0.0,1.0,0.11091253966546691,12.649240459137653
0.525,38.657003149020554,0.0,901.9569083139232,77.36932247176426,0.0,3.4741608515981346,77.44728435111604,17.91204460402547,0.0,12.943027037537222,0.0,0.0,1.3405353515305478,0.0,10.37196757205155,0.0,3366.0836871930806,0.22994055481440775,77.44728435111604,1.8458638521059927,1.122386712780853,90948.5374017392,282.2872800959595,0.0,0.0,0.0,338.2815789473684,0.18155326873916033,0.72,nominal,11844.216641598046,nan,fixed_pitch,26.0,0.0,0.0,-7.775327714163246,-0.0,0.0,-7.798648160337934,0.0,0.0,0.72,0.0,0.0,0.0,0.0,0.0,0.0,-0.1361120876024956,0.0,0.0,-0.1361120876024956,0.0,0.0,0.525,1.0,17.236124227624273,-0.028180378447320603,5.445595796312722,0.002190800710431522,0.025968920878804518,-0.0026802711018412404,18.07593112679523,0.02619863188301637,1.0,0.0,30.370872729270165,2.8135483756416955,901.5769864681552,75.31349990516135,-0.310263602739104,3.3128147478592913,1.0,901.4585038865151,0.0,1.0,77.10927778950358,3384.076217411622,1.0,1.0,0.7001214451233372,14.101194538520938,-0.016646611689183643,-45.927624693418615,1.0,901.9675045047999,0.0,1.0,0.11091253966546691,12.649240459137653
0.55,40.60099544637755,0.0,902.043358080843,77.75969189428005,0.0,3.4579906767902826,77.83654272264494,17.907505772306994,0.0,12.911447797066662,0.0,0.0,1.2631696507992816,0.0,10.365169447536658,0.0,3399.97651281618,0.2310964907575118,77.83654272264495,1.8463884226237472,1.1223772041861046,90947.58586583658,282.2867181724745,0.0,0.0,0.0,338.25789473684205,0.18154055759523122,0.72,nominal,11875.287189030563,nan,fixed_pitch,26.0,0.0,0.0,-7.780214941305955,-0.0,0.0,-7.789431550821945,0.0,0.0,0.72,0.0,0.0,0.0,0.0,0.0,0.0,-0.13595122742057095,0.0,0.0,-0.13595122742057095,0.0,0.0,0.55,1.0,17.246687568789,-0.0279457372147169,5.490381711430446,-0.004707653058005957,0.023141158784783702,7.153176510058875e-05,18.09953878961725,0.023615256594213478,1.0,0.0,30.370872729270165,2.8135483756416955,901.5769864681552,75.31349990516135,-0.310263602739104,3.3128147478592913,1.0,901.2765373514975,0.0,1.0,78.07260713110834,3418.0455743781254,1.0,1.0,0.56332668989451,14.081986159223652,0.012913129396100356,-45.88809307714702,1.0,901.893260549073,0.0,1.0,-0.2660731236018461,13.14694834469582
0.5750000000000001,42.554735332281325,0.0,902.1294297393597,78.1495954361509,0.0,3.442866340667962,78.22539610301607,17.902967258367113,0.0,12.881291694785755,0.0,0.0,1.2062441190821902,0.0,10.358767539790026,0.0,3434.003397238214,0.23225122557194838,78.2253961030161,1.8469050356100738,1.1223677372406586,90946.63849970873,282.28615870669415,0.0,0.0,0.0,338.2342105263158,0.18152784645130216,0.72,nominal,11906.473869890371,nan,fixed_pitch,26.0,0.0,0.0,-7.789430330839539,-0.0,0.0,-7.7894309408307425,0.0,0.0,0.72,0.0,0.0,0.0,0.0,0.0,0.0,-0.13595121677421607,0.0,0.0,-0.13595121677421607,0.0,0.0,0.5750000000000001,1.0,17.2092978750755,-0.0023145253405642456,5.560162027533942,0.002694454256022685,0.02292917528597221,0.0008076677398474496,18.085224369151078,0.023101071191843636,1.0,0.0,30.370872729270165,2.8135483756416955,901.5769864681552,75.31349990516135,-0.310263602739104,3.3128147478592913,1.0,901.2765373514975,0.0,1.0,78.15693174144411,3447.7015768057217,1.0,1.0,0.56332668989451,14.081986159223652,0.012913129396100356,-45.88809307714702,1.0,901.893260549073,0.0,1.0,-0.2660731236018461,13.14694834469582
0.6000000000000001,44.51821102996588,0.0,902.2151494185061,78.53902790738226,0.0,3.4287871658560074,78.61383775179348,17.89842906220583,0.0,12.852651495468896,0.0,0.0,1.1456079965281982,0.0,10.352870552288723,0.0,3468.1632069813386,0.23340473929690508,78.61383775179347,1.847426021861716,1.1223583090698246,90945.69501565884,282.2856015287797,0.0,0.0,0.0,338.2105263157895,0.18151513530737307,0.72,nominal,11937.775938077646,nan,fixed_pitch,26.0,0.0,0.0,-7.796883487068594,-0.0,0.0,-7.793157213949668,0.0,0.0,0.72,0.0,0.0,0.0,0.0,0.0,0.0,-0.13601625250896987,0.0,0.0,-0.13601625250896987,0.0,0.0,0.6000000000000001,1.0,17.18710831147748,-0.012837377409966676,5.545944956615511,-0.0017341306941260676,0.021439084966047538,0.0009442755372492855,18.05974424986484,0.02152982186958274,1.0,0.0,45.156294546361465,0.08488048923289125,900.3666185688844,78.55174527929971,0.12421506685860094,3.2900957509934003,1.0,901.4675354245654,0.0,1.0,79.013747767999,3454.2192045833112,1.0,1.0,0.17125574255220896,14.079929232627693,0.03670263630779307,-45.829320420673426,1.0,902.1552868697252,0.0,1.0,-0.3238354001448056,12.62033808799743
0.625,46.49141053914579,0.0,902.3005435344043,78.92798036719627,0.0,3.4157646359254703,79.00185778127346,17.893891183823147,0.0,12.825843879745987,0.0,0.0,1.0723046484783545,0.0,10.347801837049234,0.0,3502.454517934731,0.2345570026294274,79.00185778127347,1.8479586237943921,1.122348916767419,90944.75512284084,282.28504646702635,0.0,0.0,0.0,338.1868421052631,0.18150242416344395,0.72,nominal,11969.192391697945,nan,fixed_pitch,26.0,0.0,0.0,-7.8001569939941495,-0.0,0.0,-7.796657103971908,0.0,0.0,0.72,0.0,0.0,0.0,0.0,0.0,0.0,-0.13607733711331566,0.0,0.0,-0.13607733711331566,0.0,0.0,0.625,1.0,17.263146522783636,-0.01368800188720007,5.63717533038794,-0.001971053812215531,0.020708698312429743,0.0005684654790737704,18.160235707006304,0.02081005506784589,1.0,0.0,45.156294546361465,0.08488048923289125,900.3666185688844,78.55174527929971,0.12421506685860094,3.2900957509934003,1.0,901.4675354245654,0.0,1.0,78.88055164326163,3557.8589961335224,1.0,1.0,0.17125574255220896,14.079929232627693,0.03670263630779307,-45.829320420673426,1.0,902.1552868697252,0.0,1.0,-0.3238354001448056,12.62033808799743
0.65,48.474321496125356,0.0,902.3856391043637,79.31643827918273,0.0,3.403822798378691,79.38944130637377,17.889353623219062,0.0,12.801133566332693,0.0,0.0,0.9884125518519529,0.0,10.343823399629182,0.0,3536.875443586694,0.23570797143224503,79.38944130637377,1.8485055652508613,1.1223395573612096,90943.81852380153,282.2844933458216,0.0,0.0,0.0,338.16315789473686,0.1814897130195149,0.72,nominal,12000.721823191892,nan,fixed_pitch,26.0,0.0,0.0,-7.799621179626362,-0.0,0.0,-7.798139141799135,0.0,0.0,0.72,0.0,0.0,0.0,0.0,0.0,0.0,-0.13610320355303987,0.0,0.0,-0.13610320355303987,0.0,0.0,0.65,1.0,17.249110938679866,-0.005001897900720413,5.709755414011181,-0.003912898967988748,0.016095247037790136,0.0009369048559353213,18.169566865550152,0.016590525797884007,1.0,0.0,45.156294546361465,0.08488048923289125,900.3666185688844,78.55174527929971,0.12421506685860094,3.2900957509934003,1.0,902.0175934716805,0.0,1.0,79.11952077377248,3479.335580417777,1.0,1.0,0.7296355182643244,14.197295642879574,0.016939204661837008,-45.81658434305654,1.0,902.515830914588,0.0,1.0,0.1438743116313154,13.467644608511423
0.675,50.46693107198175,0.0,902.4704639372876,79.70438303425574,0.0,3.392993316955545,79.77656973397804,17.884816380393573,0.0,12.778609223627338,0.0,0.0,0.900973719817797,0.0,10.341015640568445,0.0,3571.4237395961904,0.23685759056233543,79.77656973397802,1.8490668024732684,1.1223302277919793,90942.88491238556,282.2839419844076,0.0,0.0,0.0,338.1394736842105,0.18147700187558577,0.72,nominal,12032.362514430732,nan,fixed_pitch,26.0,0.0,0.0,-7.796985799849791,-0.0,0.0,-7.797562470824464,0.0,0.0,0.72,0.0,0.0,0.0,0.0,0.0,0.0,-0.13609313874583118,0.0,0.0,-0.13609313874583118,0.0,0.0,0.675,1.0,17.172536964544022,0.04759233469202839,5.70391868587278,-0.0021233300287092985,0.013986122398865928,-0.002985818969655212,18.095109262007814,0.014458051911873564,1.0,0.0,45.156294546361465,0.08488048923289125,900.3666185688844,78.55174527929971,0.12421506685860094,3.2900957509934003,1.0,902.0175934716805,0.0,1.0,79.86983065996864,3532.5388573868645,1.0,1.0,0.7296355182643244,14.197295642879574,0.016939204661837008,-45.81658434305654,1.0,902.515830914588,0.0,1.0,0.1438743116313154,13.467644608511423
0.7000000000000001,52.46922594023638,0.0,902.5550466722453,80.09179473018511,0.0,3.3833093983074534,80.1632232734362,17.880279455346685,0.0,12.758184813188349,0.0,0.0,0.8169764262108765,0.0,10.339283256024935,0.0,3606.097021672045,0.2380058013247384,80.16322327343619,1.849641369626815,1.1223209249092838,90941.95397331097,282.28339219663036,0.0,0.0,0.0,338.1157894736842,0.18146429073165668,0.72,nominal,12064.112631241765,nan,fixed_pitch,26.0,0.0,0.0,-7.7940450546257285,-0.0,0.0,-7.795803762725097,0.0,0.0,0.72,0.0,0.0,0.0,0.0,0.0,0.0,-0.13606244349891572,0.0,0.0,-0.13606244349891572,0.0,0.0,0.7000000000000001,1.0,17.1328357983741,0.03485909602314629,5.743139433279003,-0.0017499082157690163,0.01607395339307137,-0.0008625375797976863,18.069834758533595,0.016191915498878127,1.0,0.0,45.156294546361465,0.08488048923289125,900.3666185688844,78.55174527929971,0.12421506685860094,3.2900957509934003,1.0,901.4318793320685,0.0,1.0,81.5115929130061,3638.9588760713386,1.0,1.0,0.8787869574009572,14.218576474812059,0.057968095932936704,-45.86946108877213,1.0,902.8355380479352,0.0,1.0,-0.5259465552686466,12.762744919992393
0.7250000000000001,54.481192305393535,0.0,902.6394167051923,80.47865460628637,0.0,3.3748013178762073,80.54938318307023,17.875742848078392,0.0,12.739667919552485,0.0,0.0,0.7406757518812392,0.0,10.338426842313169,0.0,3640.8929661761053,0.23915254814230436,80.54938318307022,1.8502286685978193,1.1223116454795172,90941.02538297624,282.2828437914162,0.0,0.0,0.0,338.0921052631579,0.18145157958772765,0.72,nominal,12095.970401418512,nan,fixed_pitch,26.0,0.0,0.0,-7.791969513070547,-0.0,0.0,-7.793886637897821,0.0,0.0,0.72,0.0,0.0,0.0,0.0,0.0,0.0,-0.13602898335850805,0.0,0.0,-0.13602898335850805,0.0,0.0,0.7250000000000001,1.0,17.09323704272464,0.0015386808741678448,5.851262132451714,-0.001028765208221306,0.01210450970149576,0.00016661661793533153,18.066987117640174,0.012149291093089497,1.0,0.0,45.156294546361465,0.08488048923289125,900.3666185688844,78.55174527929971,0.12421506685860094,3.2900957509934003,1.0,901.4318793320685,0.0,1.0,79.36887812254766,3615.7132145505548,1.0,1.0,0.8787869574009572,14.218576474812059,0.057968095932936704,-45.86946108877213,1.0,902.8355380479352,0.0,1.0,-0.5259465552686466,12.762744919992393
0.75,56.502815964792454,0.0,902.723604067151,80.86494637595672,0.0,3.3674944783477434,80.93503302926402,17.8712065585887,0.0,12.72283928820907,0.0,0.0,0.6731452585759858,0.0,10.338223788063399,0.0,3675.8094268929813,0.24029778229368337,80.93503302926402,1.8508290168288442,1.122302386199306,90940.09881080089,282.2822965735635,0.0,0.0,0.0,338.06842105263155,0.18143886844379853,0.72,nominal,12127.934217549155,nan,fixed_pitch,26.0,0.0,0.0,-7.791149504054631,-0.0,0.0,-7.792518070976226,0.0,0.0,0.72,0.0,0.0,0.0,0.0,0.0,0.0,-0.13600509735969232,0.0,0.0,-0.13600509735969232,0.0,0.0,0.75,1.0,17.182168350854766,-0.03299772309200197,5.9388653459420455,0.002242887697950806,0.015619809187771252,0.0024090950440133446,18.17960724779487,0.01596285448217492,1.0,0.0,45.156294546361465,0.08488048923289125,900.3666185688844,78.55174527929971,0.12421506685860094,3.2900957509934003,1.0,901.8490627327438,0.0,1.0,81.11694525832769,3697.4740044720897,1.0,1.0,-0.5611969848171424,14.190144147782544,-0.004909454008617348,-45.86460017811275,1.0,902.8166654900085,0.0,1.0,0.2916895527804138,13.015832457386098
0.775,58.53408237574452,0.0,902.8076393072249,81.25065643808257,0.0,3.3614096029575773,81.32015891609032,17.866670586877603,0.0,12.707509049043301,0.0,0.0,0.6132095702890695,0.0,10.338484276785938,0.0,3710.8444611010664,0.24144146259483837,81.32015891609034,1.8514435939781295,1.1222931437083823,90939.17392051361,282.281750344503,0.0,0.0,0.0,338.04473684210524,0.18142615729986944,0.72,nominal,12160.002659081289,nan,fixed_pitch,26.0,0.0,0.0,-7.791396761686145,-0.0,0.0,-7.7919574163311855,0.0,0.0,0.72,0.0,0.0,0.0,0.0,0.0,0.0,-0.13599531209016977,0.0,0.0,-0.13599531209016977,0.0,0.0,0.775,1.0,17.118961994603996,0.07979868380514983,5.97742194954644,0.001339333709113779,0.01171540470698417,-0.003165260548266207,18.13269976494269,0.012209152164307143,1.0,0.0,45.156294546361465,0.08488048923289125,900.3666185688844,78.55174527929971,0.12421506685860094,3.2900957509934003,1.0,901.8490627327438,0.0,1.0,80.61666890549924,3730.7457337571473,1.0,1.0,-0.5611969848171424,14.190144147782544,-0.004909454008617348,-45.86460017811275,1.0,902.8166654900085,0.0,1.0,0.2916895527804138,13.015832457386098
0.8,60.57497670991118,0.0,902.8915534088652,81.63577336666648,0.0,3.356564065609885,81.70474903884276,17.862134932945107,0.0,12.693539259653049,0.0,0.0,0.5587915783782945,0.0,10.339072798760702,0.0,3745.996294214895,0.24258355407330262,81.70474903884276,1.852074070122494,1.1222839145987948,90938.25037107413,282.2812049028424,0.0,0.0,0.0,338.0210526315789,0.18141344615594035,0.72,nominal,12192.174459987185,nan,fixed_pitch,26.0,0.0,0.0,-7.7922685763598345,-0.0,0.0,-7.79211299634551,0.0,0.0,0.72,0.0,0.0,0.0,0.0,0.0,0.0,-0.13599802747367,0.0,0.0,-0.13599802747367,0.0,0.0,0.8,1.0,17.115460654558262,-0.02135697958723223,6.049960239307081,0.0010824022145651804,0.009039682723410328,-0.00042749258783569984,18.153277071523632,0.009114285940581042,1.0,0.0,60.54136714973349,-2.189739807835618,902.214541408731,81.46863788166945,-0.255011780218076,3.51312082352814,1.0,902.4723900508503,0.0,1.0,81.84204351138295,3764.5027496241723,1.0,1.0,-1.2164926452031213,14.267733650036696,-0.005418000616834761,-45.81577437391575,1.0,903.2810227463293,0.0,1.0,-0.06013121964549108,12.18444906924257
0.8250000000000001,62.62548388907251,0.0,902.9753777435391,82.02028716645326,0.0,3.352973386954807,82.08879300733496,17.857599596791207,0.0,12.680839528494936,0.0,0.0,0.507989248404391,0.0,10.339902650553194,0.0,3781.263262031584,0.2437240259589587,82.08879300733496,1.8527221861831003,1.1222746954199996,90937.32781718255,282.280660044667,0.0,0.0,0.0,337.9973684210526,0.18140073501201126,0.72,nominal,12224.448456849219,nan,fixed_pitch,26.0,0.0,0.0,-7.793339423722642,-0.0,0.0,-7.792726210034075,0.0,0.0,0.72,0.0,0.0,0.0,0.0,0.0,0.0,-0.13600873007155379,0.0,0.0,-0.13600873007155379,0.0,0.0,0.8250000000000001,1.0,17.104822993490668,0.012780636383930967,6.09697863789704,-0.0013574750637685082,0.00857929826268944,-0.0030827515867952538,18.15897247903323,0.00921685708768602,1.0,0.0,60.54136714973349,-2.189739807835618,902.214541408731,81.46863788166945,-0.255011780218076,3.51312082352814,1.0,902.4723900508503,0.0,1.0,81.76931171986581,3776.1044665513255,1.0,1.0,-1.2164926452031213,14.267733650036696,-0.005418000616834761,-45.81577437391575,1.0,903.2810227463293,0.0,1.0,-0.06013121964549108,12.18444906924257
0.8500000000000001,64.68558860538909,0.0,903.0591440509611,82.40418865266304,0.0,3.350652296880531,82.47228127266925,17.853064578415907,0.0,12.669349456673661,0.0,0.0,0.4596028743912935,0.0,10.34091759024843,0.0,3816.64376078299,0.2448628499820807,82.47228127266925,1.8533894584470387,1.1222654826810416,90936.40590949783,282.28011556366874,0.0,0.0,0.0,337.9736842105263,0.18138802386808217,0.72,nominal,12256.823544166493,nan,fixed_pitch,26.0,0.0,0.0,-7.794342595845766,-0.0,0.0,-7.793534402939922,0.0,0.0,0.72,0.0,0.0,0.0,0.0,0.0,0.0,-0.13602283569875206,0.0,0.0,-0.13602283569875206,0.0,0.0,0.8500000000000001,1.0,17.10272573594664,-0.06524281724705698,6.219292832048088,0.0005798346308286623,0.008243324852478025,0.0007649707432584844,18.19854630334463,0.008299023620922615,1.0,0.0,60.54136714973349,-2.189739807835618,902.214541408731,81.46863788166945,-0.255011780218076,3.51312082352814,1.0,902.7219196902126,0.0,1.0,82.40283039309698,3864.5016965488194,1.0,1.0,-0.3620570521453154,14.320602000949897,0.03584852030826636,-45.85374979635688,1.0,903.4707908878851,0.0,1.0,-0.340713193310383,12.451190489485752
0.875,66.7552753330826,0.0,903.1428844307882,82.78746910774049,0.0,3.3496151930831646,82.85520480456746,17.848529877819203,0.0,12.65902038213409,0.0,0.0,0.41316298270182233,0.0,10.342073242795447,0.0,3852.1362189949336,0.24599999941532527,82.85520480456746,1.8540770620688833,1.1222562728514693,90935.4842947292,282.27957125119985,0.0,0.0,0.0,337.95,0.18137531272415308,0.72,nominal,12289.298649206597,nan,fixed_pitch,26.0,0.0,0.0,-7.795187394580072,-0.0,0.0,-7.794360898759996,0.0,0.0,0.72,0.0,0.0,0.0,0.0,0.0,0.0,-0.13603726077206635,0.0,0.0,-0.13603726077206635,0.0,0.0,0.875,1.0,17.11383192141876,-0.028566168728226787,6.245668430063571,0.0014264886343193124,0.006336744083653408,0.0030093422963232436,18.217915171579328,0.007158584808605588,1.0,0.0,60.54136714973349,-2.189739807835618,902.214541408731,81.46863788166945,-0.255011780218076,3.51312082352814,1.0,902.7219196902126,0.0,1.0,82.76164259725132,3896.7453963088255,1.0,1.0,-0.3620570521453154,14.320602000949897,0.03584852030826636,-45.85374979635688,1.0,903.4707908878851,0.0,1.0,-0.340713193310383,12.451190489485752
0.9,68.83452833799053,0.0,903.2266313339916,83.1701201963178,0.0,3.349876128138438,83.23755500700283,17.8439954950011,0.0,12.64980352267745,0.0,0.0,0.3686743790606159,0.0,10.343325245408039,0.0,3887.7390907709105,0.24713544882324004,83.23755500700283,1.8547858609257708,1.1222470623622784,90934.56261573083,282.279026896329,0.0,0.0,0.0,337.9263157894737,0.18136260158022402,0.72,nominal,12321.872725943398,nan,fixed_pitch,26.0,0.0,0.0,-7.795901783285007,-0.0,0.0,-7.795131341022503,0.0,0.0,0.72,0.0,0.0,0.0,0.0,0.0,0.0,-0.1360507075262436,0.0,0.0,-0.1360507075262436,0.0,0.0,0.9,1.0,17.075969244792557,0.0686941069081946,6.336452530857867,0.001824779335121172,0.006674517362046603,-0.001547121375082221,18.213842955434757,0.007090316367228131,1.0,0.0,60.54136714973349,-2.189739807835618,902.214541408731,81.46863788166945,-0.255011780218076,3.51312082352814,1.0,903.785836092496,0.0,1.0,82.65399827218829,3813.0154127864203,1.0,1.0,-0.09792438588057155,14.30115300326564,-0.008479319572511924,-45.85864812740093,1.0,903.1686342877856,0.0,1.0,0.45300573804182975,12.751160277130952
0.925,70.92333168876816,0.0,903.3104175483842,83.5521340311048,0.0,3.3514485757038224,83.6193237757116,17.839461429961595,0.0,12.64164594526338,0.0,0.0,0.3263030971141143,0.0,10.344625374719124,0.0,3923.450862171811,0.2482691742329997,83.6193237757116,1.8555165118679149,1.1222378476075123,90933.64051166171,282.27848228593547,0.0,0.0,0.0,337.90263157894736,0.18134989043629493,0.72,nominal,12354.544760604505,nan,fixed_pitch,26.0,0.0,0.0,-7.796556383238547,-0.0,0.0,-7.795843862130525,0.0,0.0,0.72,0.0,0.0,0.0,0.0,0.0,0.0,-0.13606314336556855,0.0,0.0,-0.13606314336556855,0.0,0.0,0.925,1.0,17.001433632828565,-0.000711636822999041,6.355365516752315,0.0011630137542575766,0.0064324163299852785,0.0014636401023279423,18.15046602513075,0.0066985687414548595,1.0,0.0,60.54136714973349,-2.189739807835618,902.214541408731,81.46863788166945,-0.255011780218076,3.51312082352814,1.0,903.785836092496,0.0,1.0,83.62221477506783,3871.9221565454873,1.0,1.0,-0.09792438588057155,14.30115300326564,-0.008479319572511924,-45.85864812740093,1.0,903.1686342877856,0.0,1.0,0.45300573804182975,12.751160277130952
0.9500000000000001,73.02166927062494,0.0,903.3942761782898,83.93350327427152,0.0,3.3543451962269013,84.00050359127377,17.834927682700688,0.0,12.634492117032261,0.0,0.0,0.2861531296165178,0.0,10.345923252723253,0.0,3959.270061095117,0.24940115341073057,84.00050359127378,1.8562695745674842,1.1222286249464932,90932.71761820931,282.27793720484107,0.0,0.0,0.0,337.87894736842105,0.18133717929236584,0.72,nominal,12387.313780277625,nan,fixed_pitch,26.0,0.0,0.0,-7.797207789159855,-0.0,0.0,-7.796525825645191,0.0,0.0,0.72,0.0,0.0,0.0,0.0,0.0,0.0,-0.13607504587427793,0.0,0.0,-0.13607504587427793,0.0,0.0,0.9500000000000001,1.0,16.994789903010798,0.0619708909315009,6.446461183767314,0.0013932722437634255,0.0039006852349949056,0.004094771226037869,18.176456916369023,0.005824405913167153,1.0,0.0,60.54136714973349,-2.189739807835618,902.214541408731,81.46863788166945,-0.255011780218076,3.51312082352814,1.0,903.458096918719,0.0,1.0,83.60346380766839,3965.9181052671042,1.0,1.0,0.5515757550920114,14.339342844995622,0.08560475662243833,-45.81064327654451,1.0,903.5242695912201,0.0,1.0,0.08272463840641422,12.053962154122944
0.9750000000000001,75.12952480059911,0.0,903.4782406213045,84.31422119896695,0.0,3.3585777205849894,84.38108757709595,17.83039425321838,0.0,12.628287644154517,0.0,0.0,0.2481789153522271,0.0,10.347170155337102,0.0,3995.195264066107,0.2505313660336198,84.38108757709595,1.8570509587404738,1.1222193907063818,90931.79356784555,282.2773914359615,0.0,0.0,0.0,337.85526315789474,0.18132446814843675,0.72,nominal,12420.178858735684,nan,fixed_pitch,26.0,0.0,0.0,-7.797874596615704,-0.0,0.0,-7.7972002111304475,0.0,0.0,0.72,0.0,0.0,0.0,0.0,0.0,0.0,-0.13608681612142332,0.0,0.0,-0.13608681612142332,0.0,0.0,0.9750000000000001,1.0,16.98046118148196,0.04368198903242653,6.5438456975573445,-0.0014720525387692523,0.002727498709920138,-0.000986605134644812,18.197798948373435,0.0032526262590744305,1.0,0.0,60.54136714973349,-2.189739807835618,902.214541408731,81.46863788166945,-0.255011780218076,3.51312082352814,1.0,903.458096918719,0.0,1.0,84.16284693254195,3992.374957527351,1.0,1.0,0.5515757550920114,14.339342844995622,0.08560475662243833,-45.81064327654451,1.0,903.5242695912201,0.0,1.0,0.08272463840641422,12.053962154122944
1.0,77.24688146147673,0.0,903.5623451833738,84.69426643510448,0.0,3.3641824827725584,84.7610552716155,17.825861141514668,0.0,12.622856267797944,0.0,0.0,0.2172550544254408,0.0,10.348178341144969,0.0,4031.2237440608965,0.25165975144869207,84.7610552716155,1.8578621565687123,1.1222101411145353,90930.86798305804,282.27684475630804,0.0,0.0,0.0,337.8315789473684,0.18131175700450766,0.72,nominal,12453.137917771463,nan,fixed_pitch,26.0,0.0,0.0,-7.799873774029881,-0.0,0.0,-7.798536992580164,0.0,0.0,0.72,0.0,0.0,0.0,0.0,0.0,0.0,-0.13611014735910046,0.0,0.0,-0.13611014735910046,0.0,0.0,1.0,1.0,17.07990283630819,-0.01874902409599158,6.595225409173997,0.003356340812989093,0.0035779096092522565,9.794569403432961e-05,18.309025933168794,0.004906735593436413,1.0,0.0,77.91236976586872,-0.2857293032153698,903.699279723613,84.86346830818057,-0.16945035377344445,3.3520801013010724,1.0,903.0281045808651,0.0,1.0,84.8997211054161,4043.6742137174183,1.0,1.0,-0.4946212838329261,14.374947356497355,0.009752712071119272,-45.79653414541496,1.0,903.7858013675573,0.0,1.0,-0.7100255770478338,12.480917140304236
1.0250000000000001,79.37372191099952,0.0,903.6466250627489,85.07361798091155,0.0,3.3711951749988445,85.1403866168695,17.821328347589557,0.0,12.617946108427358,0.0,0.0,0.19640637494382546,0.0,10.348685057174492,0.0,4067.3527782101755,0.25278625020540957,85.14038661686952,1.8586970414824209,1.1222008723002728,90929.94047652696,282.2762969370921,0.0,0.0,0.0,337.80789473684206,0.18129904586057854,0.72,nominal,12486.18889230661,nan,fixed_pitch,26.0,0.0,0.0,-7.804102320363045,-0.0,0.0,-7.8013196564716045,0.0,0.0,0.72,0.0,0.0,0.0,0.0,0.0,0.0,-0.13615871400598245,0.0,0.0,-0.13615871400598245,0.0,0.0,1.0250000000000001,1.0,17.056355467320355,0.019281396550144627,6.572558056196465,2.5984999545419785e-05,0.0039008388031617214,-0.0004879599629203926,18.278899118981837,0.003931325923129093,1.0,0.0,77.91236976586872,-0.2857293032153698,903.699279723613,84.86346830818057,-0.16945035377344445,3.3520801013010724,1.0,903.0281045808651,0.0,1.0,85.97626883488749,4022.5987608488767,1.0,1.0,-0.4946212838329261,14.374947356497355,0.009752712071119272,-45.79653414541496,1.0,903.7858013675573,0.0,1.0,-0.7100255770478338,12.480917140304236
1.05,81.51002880279218,0.0,903.731115485761,85.45227567170625,0.0,3.379616920489453,85.51908107552687,17.81679587144304,0.0,12.613446270374986,0.0,0.0,0.17999352218724954,0.0,10.348592381249828,0.0,4103.581483767394,0.25391086081272196,85.51908107552687,1.8595573159577248,1.1221915803899247,90929.01066063643,282.27574774934254,0.0,0.0,0.0,337.7842105263158,0.18128633471664948,0.72,nominal,12519.331357679708,nan,fixed_pitch,26.0,0.0,0.0,-7.809212293355174,-0.0,0.0,-7.8052659749133895,0.0,0.0,0.72,0.0,0.0,0.0,0.0,0.0,0.0,-0.13622759025612377,0.0,0.0,-0.13622759025612377,0.0,0.0,1.05,1.0,16.951845374034402,0.00416058369218773,6.6869418538654894,-0.0001623914970455043,0.0050882692396304755,-0.0020564331413674545,18.223069726382718,0.005490516562054685,1.0,0.0,77.91236976586872,-0.2857293032153698,903.699279723613,84.86346830818057,-0.16945035377344445,3.3520801013010724,1.0,902.1986093278142,0.0,1.0,85.2413730513006,4081.1580393112667,1.0,1.0,0.9736716567738575,14.321127049331,-0.004962835756417939,-45.83964896461298,1.0,903.6500168413345,0.0,1.0,0.11495443315012784,12.748153740354313
1.075,83.65578481849553,0.0,903.8158516776926,85.83024062813419,0.0,3.3894476772626296,85.89713942757534,17.812263713075126,0.0,12.60936214436207,0.0,0.0,0.16336504058605206,0.0,10.3479192142101,0.0,4139.909104933716,0.25503358569256535,85.89713942757534,1.8604454022602914,1.1221822615100343,90928.07814779498,282.27519696409496,0.0,0.0,0.0,337.7605263157895,0.1812736235727204,0.72,nominal,12552.565002775204,nan,fixed_pitch,26.0,0.0,0.0,-7.8140376024558345,-0.0,0.0,-7.809651788684612,0.0,0.0,0.72,0.0,0.0,0.0,0.0,0.0,0.0,-0.13630413714681092,0.0,0.0,-0.13630413714681092,0.0,0.0,1.075,1.0,16.978029857677402,-0.03553336794665623,6.704058327145863,0.0021523717840598792,0.0027007753867253122,-0.0009714343281910296,18.253743685123794,0.003587558590510589,1.0,0.0,77.91236976586872,-0.2857293032153698,903.699279723613,84.86346830818057,-0.16945035377344445,3.3520801013010724,1.0,902.1986093278142,0.0,1.0,86.38824749952077,4116.2679530810865,1.0,1.0,0.9736716567738575,14.321127049331,-0.004962835756417939,-45.83964896461298,1.0,903.6500168413345,0.0,1.0,0.11495443315012784,12.748153740354313
1.1,85.81097265672565,0.0,903.9008689060718,86.20751352920496,0.0,3.4006891351668282,86.27456215757978,17.807731872485807,0.0,12.605753346848976,0.0,0.0,0.1443519005714911,0.0,10.346737240589386,0.0,4176.334859487705,0.2561544263916722,86.27456215757978,1.8613631807160058,1.1221729117826025,90927.14254995955,282.2746443521105,0.0,0.0,0.0,337.7368421052631,0.18126091242879128,0.72,nominal,12585.889493798777,nan,fixed_pitch,26.0,0.0,0.0,-7.818002367391287,-0.0,0.0,-7.813827078037949,0.0,0.0,0.72,0.0,0.0,0.0,0.0,0.0,0.0,-0.13637700969325012,0.0,0.0,-0.13637700969325012,0.0,0.0,1.1,1.0,16.936166860983366,0.01166192622400793,6.7608988174154,0.0012816164945934781,0.0035338632481402912,0.0020516741838696125,18.23577902813377,0.004282533975641964,1.0,0.0,77.91236976586872,-0.2857293032153698,903.699279723613,84.86346830818057,-0.16945035377344445,3.3520801013010724,1.0,904.2624228504885,0.0,1.0,85.87492228538171,4125.267303245172,1.0,1.0,-2.1377845376970277,14.331364707296338,-0.03740844855449062,-45.75522945563625,1.0,904.1118875342872,0.0,1.0,-0.3377341052652119,12.730632902700044
1.125,87.97557500511932,0.0,903.9862025417948,86.58409393574689,0.0,3.413345428920705,86.65134880480151,17.803200349675087,0.0,12.602677922138513,0.0,0.0,0.12301698844795525,0.0,10.345114674459165,0.0,4212.857874934623,0.25727338165220687,86.6513488048015,1.8623115036430513,1.1221635273183586,90926.20347796241,282.27408968347834,0.0,0.0,0.0,337.71315789473687,0.18124820128486224,0.72,nominal,12619.304418002179,nan,fixed_pitch,26.0,0.0,0.0,-7.8210895382417585,-0.0,0.0,-7.817458308139853,0.0,0.0,0.72,0.0,0.0,0.0,0.0,0.0,0.0,-0.13644038661442587,0.0,0.0,-0.13644038661442587,0.0,0.0,1.125,1.0,16.92736483805112,0.012054218073843822,6.821240619016538,0.0013611123147082215,0.0018180409463249532,-0.0023193390234482413,18.250072581970294,0.0032461104604517613,1.0,0.0,77.91236976586872,-0.2857293032153698,903.699279723613,84.86346830818057,-0.16945035377344445,3.3520801013010724,1.0,904.2624228504885,0.0,1.0,86.52172724582053,4282.639244705831,1.0,1.0,-2.1377845376970277,14.331364707296338,-0.03740844855449062,-45.75522945563625,1.0,904.1118875342872,0.0,1.0,-0.3377341052652119,12.730632902700044
1.1500000000000001,90.14957451679162,0.0,904.0718881011663,86.95998046689157,0.0,3.427422374863368,87.0274981079996,17.798669144642965,0.0,12.600163730738847,0.0,0.0,0.10056765600277076,0.0,10.343088196470712,0.0,4249.477200630235,0.25839044784180043,87.02749810799962,1.8632903470624138,1.1221541042121448,90925.26054104908,282.2735327273424,0.0,0.0,0.0,337.6894736842105,0.18123549014093313,0.72,nominal,12652.80929491624,nan,fixed_pitch,26.0,0.0,0.0,-7.823585070452312,-0.0,0.0,-7.820521689296082,0.0,0.0,0.72,0.0,0.0,0.0,0.0,0.0,0.0,-0.1364938527018456,0.0,0.0,-0.1364938527018456,0.0,0.0,1.1500000000000001,1.0,16.907942430023418,-0.014661922395149666,6.917949491777817,-0.0013798204093905368,0.0025569636143911033,-0.0024909742677004087,18.268463464663455,0.003827129484331079,1.0,0.0,77.91236976586872,-0.2857293032153698,903.699279723613,84.86346830818057,-0.16945035377344445,3.3520801013010724,1.0,904.6058106386355,0.0,1.0,87.17022264295869,4217.249097626314,1.0,1.0,1.6986705414800243,14.382929902524404,0.005958676378396754,-45.80330990229164,1.0,903.6610809652389,0.0,1.0,-0.09670573662507005,12.96268678106906
1.175,92.3329538007412,0.0,904.157961257303,87.33517135798336,0.0,3.4429262454680125,87.40300851378085,17.79413825738944,0.0,12.59820669685575,0.0,0.0,0.07828135533149487,0.0,10.340662048146552,0.0,4286.191855948648,0.2595056204629006,87.40300851378085,1.8642992584633562,1.1221446385416625,90924.31334675307,282.2729732518275,0.0,0.0,0.0,337.6657894736842,0.18122277899700404,0.72,nominal,12686.403619393954,nan,fixed_pitch,26.0,0.0,0.0,-7.825810330912905,-0.0,0.0,-7.823166010104494,0.0,0.0,0.72,0.0,0.0,0.0,0.0,0.0,0.0,-0.1365400048064314,0.0,0.0,-0.1365400048064314,0.0,0.0,1.175,1.0,16.878622502483957,0.08203464053217376,6.963941885220838,-0.002268595064723144,-0.0005020966388159206,-0.001050308439118307,18.259000899401318,0.002549857333201131,1.0,0.0,77.91236976586872,-0.2857293032153698,903.699279723613,84.86346830818057,-0.16945035377344445,3.3520801013010724,1.0,904.6058106386355,0.0,1.0,87.00268984466926,4323.830289074171,1.0,1.0,1.6986705414800243,14.382929902524404,0.005958676378396754,-45.80330990229164,1.0,903.6610809652389,0.0,1.0,-0.09670573662507005,12.96268678106906
1.2000000000000002,94.52569542521451,0.0,904.2444578280882,87.70966497893255,0.0,3.459862831411884,87.77787865703279,17.789607687914515,0.0,12.596784137951289,0.0,0.0,0.05690235618143364,0.0,10.337821997738924,0.0,4323.000876999398,0.2606188955791748,87.7778786570328,1.8653377826439146,1.1221351263687953,90923.3615010283,282.2724110241174,0.0,0.0,0.0,337.64210526315793,0.18121006785307497,0.72,nominal,12720.086903124207,nan,fixed_pitch,26.0,0.0,0.0,-7.827963822043751,-0.0,0.0,-7.825564916074122,0.0,0.0,0.72,0.0,0.0,0.0,0.0,0.0,0.0,-0.13658187361404717,0.0,0.0,-0.13658187361404717,0.0,0.0,1.2000000000000002,1.0,16.9458705814556,-0.022284632975748692,7.054880702325374,-0.0008392729843754904,0.003099233955654446,-0.00014154485946724681,18.355772064730814,0.0032139796516819532,1.0,0.0,95.43937799154132,-1.0230831237574762,905.3109910123854,87.69505760273543,-0.07595104250038326,3.4549165468886414,1.0,904.5578187662069,0.0,1.0,87.55494575459853,4328.834128798415,1.0,1.0,-0.3642896828153875,14.32641411064863,-0.010037878890270031,-45.8311754296731,1.0,904.589229122207,0.0,1.0,0.27259318327846466,12.578368814176914
1.225,96.72778192775239,0.0,904.3314137549103,88.08346010151497,0.0,3.478237072881008,88.1521076128662,17.785077436218188,0.0,12.595870249262397,0.0,0.0,0.036555547556545116,0.0,10.33455106868161,0.0,4359.903341958289,0.2617302705634857,88.1521076128662,1.8664056940874516,1.1221255637419543,90922.40460848382,282.27184581059305,0.0,0.0,0.0,337.61842105263156,0.18119735670914586,0.72,nominal,12753.858696994763,nan,fixed_pitch,26.0,0.0,0.0,-7.830090962429515,-0.0,0.0,-7.827827939251818,0.0,0.0,0.72,0.0,0.0,0.0,0.0,0.0,0.0,-0.1366213708195469,0.0,0.0,-0.1366213708195469,0.0,0.0,1.225,1.0,16.791752083152055,0.009375575604820486,7.17341108779267,0.002088448290239597,-0.0007497557860389317,0.000949137869980612,18.25981523887704,0.0024134234390042054,1.0,0.0,95.43937799154132,-1.0230831237574762,905.3109910123854,87.69505760273543,-0.07595104250038326,3.4549165468886414,1.0,904.5578187662069,0.0,1.0,88.4749503170681,4385.45680042669,1.0,1.0,-0.3642896828153875,14.32641411064863,-0.010037878890270031,-45.8311754296731,1.0,904.589229122207,0.0,1.0,0.27259318327846466,12.578368814176914
1.25,98.93919582553568,0.0,904.4188650839736,88.45655591133172,0.0,3.498053162533993,88.52569491183037,17.78054750230046,0.0,12.59544583290181,0.0,0.0,0.016976654423380314,0.0,10.33083919498716,0.0,4396.898373512453,0.26283974414301703,88.52569491183036,1.8675030208942047,1.1221159466981308,90921.44227258924,282.2712773769542,0.0,0.0,0.0,337.59473684210525,0.18118464556521677,0.72,nominal,12787.718593086984,nan,fixed_pitch,26.0,0.0,0.0,-7.832136189391754,-0.0,0.0,-7.829982064321787,0.0,0.0,0.72,0.0,0.0,0.0,0.0,0.0,0.0,-0.1366589673945176,0.0,0.0,-0.1366589673945176,0.0,0.0,1.25,1.0,16.831873465888698,0.04311079032477059,7.166931035412287,-0.0002861348191982844,0.002651191535159684,-0.002638911712607669,18.294226503962562,0.0037516056186382304,1.0,0.0,95.43937799154132,-1.0230831237574762,905.3109910123854,87.69505760273543,-0.07595104250038326,3.4549165468886414,1.0,905.2953075736822,0.0,1.0,88.12564538122804,4407.876365068119,1.0,1.0,0.735157290465571,14.297640767324022,0.02258465320520546,-45.77044485910255,1.0,904.663602231049,0.0,1.0,0.02846006961117506,12.262905565430987
1.2750000000000001,101.15991962242839,0.0,904.5068479554171,88.82895187570853,0.0,3.519314857740069,88.8986404193273,17.77601788616133,0.0,12.595500577726007,0.0,0.0,-0.0021897929679233078,0.0,10.326685290930401,0.0,4433.985127789105,0.26394731604121696,88.8986404193273,1.868629941622162,1.1221062712640923,90920.47409579458,282.27070548828976,0.0,0.0,0.0,337.57105263157894,0.18117193442128768,0.72,nominal,12821.666214704415,nan,fixed_pitch,26.0,0.0,0.0,-7.834016170153359,-0.0,0.0,-7.831999117237574,0.0,0.0,0.72,0.0,0.0,0.0,0.0,0.0,0.0,-0.13669417160908504,0.0,0.0,-0.13669417160908504,0.0,0.0,1.2750000000000001,1.0,16.882618686274323,-0.009566038647204105,7.250707054080355,0.0015090322637258868,0.00559696497881623,-0.001665893554938218,18.373776367402673,0.006031450628451312,1.0,0.0,95.43937799154132,-1.0230831237574762,905.3109910123854,87.69505760273543,-0.07595104250038326,3.4549165468886414,1.0,905.2953075736822,0.0,1.0,89.10163977979857,4459.641756884978,1.0,1.0,0.735157290465571,14.297640767324022,0.02258465320520546,-45.77044485910255,1.0,904.663602231049,0.0,1.0,0.02846006961117506,12.262905565430987
1.3,103.3899358122451,0.0,904.595398599569,89.20064759266839,0.0,3.5420257660722405,89.27094419506795,17.7714885878008,0.0,12.596030328776278,0.0,0.0,-0.02119004201084506,0.0,10.322094332293881,0.0,4471.162780975659,0.2650529865605029,89.27094419506795,1.8697866565750827,1.122096533456806,90919.4996795725,282.27012990910276,0.0,0.0,0.0,337.5473684210526,0.18115922327735862,0.72,nominal,12855.701204415931,nan,fixed_pitch,26.0,0.0,0.0,-7.835671432140369,-0.0,0.0,-7.833835274688973,0.0,0.0,0.72,0.0,0.0,0.0,0.0,0.0,0.0,-0.13672621860219697,0.0,0.0,-0.13672621860219697,0.0,0.0,1.3,1.0,16.815956000213067,0.003747088923836718,7.262189464019832,0.00044032854157194243,-0.0023619218878522833,0.004212423498267918,18.31708999959049,0.004849440788131998,1.0,0.0,95.43937799154132,-1.0230831237574762,905.3109910123854,87.69505760273543,-0.07595104250038326,3.4549165468886414,1.0,904.5074153266662,0.0,1.0,89.09074091418051,4400.821421156613,1.0,1.0,-1.7938104791271714,14.325271167189724,-0.02630645483962334,-45.86201127830895,1.0,904.7978873546548,0.0,1.0,0.2436013705333076,12.758455338830858
