time_s,sensor_time_s,imu_valid,imu_ax_mps2,imu_ay_mps2,imu_az_mps2,gyro_p_rps,gyro_q_rps,gyro_r_rps,imu_accel_norm_mps2,imu_gyro_norm_rps,gps_valid,gps_latency_s,gps_x_m,gps_y_m,gps_z_m,gps_vx_mps,gps_vy_mps,gps_vz_mps,baro_valid,baro_alt_m,baro_bias_m,pitot_valid,pitot_airspeed_mps,pitot_qbar_pa,pitot_compressibility_factor,mag_valid,mag_heading_deg,mag_x_ut,mag_y_ut,mag_z_ut,radar_valid,radar_agl_m,optical_flow_valid,horizon_valid,horizon_roll_deg,horizon_pitch_deg
0.0,0.0,1.0,13.124683187965003,0.0401032777054351,6.052526515782966,-0.0017697994528526222,0.0008620863442852247,-0.0019047864694523068,14.453096356199588,0.0027392689649848347,1.0,0.0,-1.1847204903281356,-2.1801049899993714,897.6597487825237,70.39011843772215,0.18917350047430306,3.8016023654792703,1.0,899.6899854359319,0.0,1.0,70.76165448518913,2732.849514235471,1.0,1.0,-1.4840521806067302,9.962958229895124,0.048500247149829485,-46.890039957756706,1.0,899.7067055008114,0.0,1.0,0.7910241563651457,18.546306663164323
0.025,0.025,1.0,13.457635324829601,-0.05909191052167622,5.857373096339133,-0.000181717823083268,0.28309857434829916,0.0007325737117672112,14.677202048745807,0.283099580507725,1.0,0.0,-1.1847204903281356,-2.1801049899993714,897.6597487825237,70.39011843772215,0.18917350047430306,3.8016023654792703,1.0,899.6899854359319,0.0,1.0,70.94058369958937,2769.2192663973965,1.0,1.0,-1.4840521806067302,9.962958229895124,0.048500247149829485,-46.890039957756706,1.0,899.7067055008114,0.0,1.0,0.7910241563651457,18.546306663164323
0.05,0.05,1.0,13.711655730540285,0.0716729491587782,5.634476987285194,0.004674512407931903,0.47748713371640783,-0.0018490906905282158,14.824370840097929,0.47751359464139287,1.0,0.0,-1.1847204903281356,-2.1801049899993714,897.6597487825237,70.39011843772215,0.18917350047430306,3.8016023654792703,1.0,900.198929979724,0.0,1.0,70.41540909598744,2792.725603293576,1.0,1.0,-1.0934740400812786,10.829329792838188,-0.006150638790838771,-46.78005469515262,1.0,900.2217818565256,0.0,1.0,-1.9593629645428712e-05,16.657993826703002
0.07500000000000001,0.07500000000000001,1.0,14.170801322522959,-0.0036913274543079245,5.199681390522314,0.0015163372945679108,0.5799878489156102,-0.0021423552810293143,15.094645087290422,0.5799937877725051,1.0,0.0,-1.1847204903281356,-2.1801049899993714,897.6597487825237,70.39011843772215,0.18917350047430306,3.8016023654792703,1.0,900.198929979724,0.0,1.0,71.15708248786703,2806.5615909041476,1.0,1.0,-1.0934740400812786,10.829329792838188,-0.006150638790838771,-46.78005469515262,1.0,900.2217818565256,0.0,1.0,-1.9593629645428712e-05,16.657993826703002
0.1,0.1,1.0,14.466797587490221,-0.04134297836845507,4.949525322947329,0.0008921225986699562,0.591170552981022,0.003721778987929432,15.290119116663876,0.5911829414263011,1.0,0.0,-1.1847204903281356,-2.1801049899993714,897.6597487825237,70.39011843772215,0.18917350047430306,3.8016023654792703,1.0,900.421588692402,0.0,1.0,71.47312769616885,2843.0886912188103,1.0,1.0,0.9166586510981276,12.27644386131756,0.015486777582566525,-46.43885342797578,1.0,900.554970933938,0.0,1.0,0.09211798404325502,15.110859280107533
0.125,0.125,1.0,14.858754927264009,0.007580114548028007,4.677157346180837,0.0007055062918121973,0.5300868350546849,0.0011117843933798606,15.577498396326748,0.5300884704480544,1.0,0.0,-1.1847204903281356,-2.1801049899993714,897.6597487825237,70.39011843772215,0.18917350047430306,3.8016023654792703,1.0,900.421588692402,0.0,1.0,72.33946976779333,2878.656078645747,1.0,1.0,0.9166586510981276,12.27644386131756,0.015486777582566525,-46.43885342797578,1.0,900.554970933938,0.0,1.0,0.09211798404325502,15.110859280107533
0.15000000000000002,0.15000000000000002,1.0,15.109727968321977,0.038549272230478174,4.487738302088743,0.0019646967772118393,0.38526422053491277,0.0015741690663285107,15.76214326768778,0.38527244602495214,1.0,0.0,-1.1847204903281356,-2.1801049899993714,897.6597487825237,70.39011843772215,0.18917350047430306,3.8016023654792703,1.0,901.269417158587,0.0,1.0,71.47914872421254,2895.176104724367,1.0,1.0,-0.1779840465434555,13.253420162624701,-0.0354611563190946,-46.11706187337747,1.0,900.4069277049862,0.0,1.0,0.04886793277601613,13.623702561122705
0.17500000000000002,0.17500000000000002,1.0,15.4027451225185,0.02530880610325757,4.528681196073005,0.0019450701434978732,0.2215611738761236,-3.645329860300707e-06,16.054723641987707,0.2215697115594039,1.0,0.0,-1.1847204903281356,-2.1801049899993714,897.6597487825237,70.39011843772215,0.18917350047430306,3.8016023654792703,1.0,901.269417158587,0.0,1.0,71.67955514976347,2889.9162900796505,1.0,1.0,-0.1779840465434555,13.253420162624701,-0.0354611563190946,-46.11706187337747,1.0,900.4069277049862,0.0,1.0,0.04886793277601613,13.623702561122705
0.2,0.2,1.0,15.577565795707654,0.04593181574034343,4.601997905909878,-0.001959887195297939,0.08641917094850596,-0.0006299594719408782,16.24318474244805,0.0864436875322986,1.0,0.0,15.692997444757296,-1.2390701528638024,901.2529285260283,72.49217803436586,-0.20896209951698597,3.878147631900131,1.0,899.6286660040175,0.0,1.0,72.7425069258693,2959.1766116560184,1.0,1.0,-0.31231635544879516,13.641999012762064,0.019704449971231084,-46.069418601111906,1.0,900.7208732157192,0.0,1.0,0.37127588655652777,12.923129039361145
0.225,0.225,1.0,15.840014967825514,-0.04013304314033232,4.794755864518461,-0.0030428724709688926,0.01087973622213109,-0.0013401925743029889,16.549844973365225,0.01137646031390909,1.0,0.0,15.692997444757296,-1.2390701528638024,901.2529285260283,72.49217803436586,-0.20896209951698597,3.878147631900131,1.0,899.6286660040175,0.0,1.0,72.85215902142463,3008.7495205869022,1.0,1.0,-0.31231635544879516,13.641999012762064,0.019704449971231084,-46.069418601111906,1.0,900.7208732157192,0.0,1.0,0.37127588655652777,12.923129039361145
0.25,0.25,1.0,15.97602117644947,0.0014875039078433325,4.894932812623909,-0.0037741072489491574,-0.01123274639237173,0.002864398391690749,16.709088008719448,0.012191113779644222,1.0,0.0,15.692997444757296,-1.2390701528638024,901.2529285260283,72.49217803436586,-0.20896209951698597,3.878147631900131,1.0,900.7373215501698,0.0,1.0,73.41820403420503,3054.7899747073297,1.0,1.0,-0.8856653770183001,13.65962298356666,-0.006840521503056411,-46.03045247590486,1.0,900.482057504385,0.0,1.0,-0.2185037857549412,13.972008028001614
0.275,0.275,1.0,16.215854699474708,0.019508949048417247,4.960426405568853,-0.0031935616877507207,-0.0020139050730869396,0.0013295780452930704,16.95759872029745,0.004002802477689835,1.0,0.0,15.692997444757296,-1.2390701528638024,901.2529285260283,72.49217803436586,-0.20896209951698597,3.878147631900131,1.0,900.7373215501698,0.0,1.0,73.48220729485224,3063.002237975238,1.0,1.0,-0.8856653770183001,13.65962298356666,-0.006840521503056411,-46.03045247590486,1.0,900.482057504385,0.0,1.0,-0.2185037857549412,13.972008028001614
0.30000000000000004,0.30000000000000004,1.0,16.484279378072376,0.06815996346257375,5.029134880458188,-0.00011239081637780688,0.019684485191561785,-0.002814236898561917,17.234509277632554,0.01988495708503412,1.0,0.0,15.692997444757296,-1.2390701528638024,901.2529285260283,72.49217803436586,-0.20896209951698597,3.878147631900131,1.0,901.0297781283971,0.0,1.0,73.70863850851458,3071.4330390758137,1.0,1.0,0.26634093903031225,13.59833028686157,-0.029494006171825047,-45.98863148001222,1.0,901.5934639265769,0.0,1.0,-0.057116006698419916,14.245836129496338
0.325,0.325,1.0,16.695031676672286,0.020013096373075603,5.09750132501209,0.0005355727017172973,0.0404632418722975,-0.0006922029914480386,17.455915987642054,0.04047270593765932,1.0,0.0,15.692997444757296,-1.2390701528638024,901.2529285260283,72.49217803436586,-0.20896209951698597,3.878147631900131,1.0,901.0297781283971,0.0,1.0,74.51261268961275,3028.9589343017833,1.0,1.0,0.26634093903031225,13.59833028686157,-0.029494006171825047,-45.98863148001222,1.0,901.5934639265769,0.0,1.0,-0.057116006698419916,14.245836129496338
0.35000000000000003,0.35000000000000003,1.0,16.833468762611755,-0.009998557001843733,5.0264125006960105,0.00016492952569605336,0.050512541783143274,0.0008332945040189553,17.5678852791143,0.05051968387542295,1.0,0.0,15.692997444757296,-1.2390701528638024,901.2529285260283,72.49217803436586,-0.20896209951698597,3.878147631900131,1.0,900.6364584835393,0.0,1.0,75.35387501151467,3149.2014074290873,1.0,1.0,-0.40175946827528874,13.71141039482174,0.030093070387636138,-45.97649676596606,1.0,901.1075658791574,0.0,1.0,0.03423340263224971,13.21845186645742
0.375,0.375,1.0,17.04870044818894,-0.011656175042515728,5.1294808108241305,0.0007627277892675338,0.05594638905689266,-0.0009062746479365208,17.803648396525563,0.055958927222769496,1.0,0.0,15.692997444757296,-1.2390701528638024,901.2529285260283,72.49217803436586,-0.20896209951698597,3.878147631900131,1.0,900.6364584835393,0.0,1.0,75.24620599012493,3144.7528871171253,1.0,1.0,-0.40175946827528874,13.71141039482174,0.030093070387636138,-45.97649676596606,1.0,901.1075658791574,0.0,1.0,0.03423340263224971,13.21845186645742
0.4,0.4,1.0,17.299702707453278,-0.0907931942526972,5.1420662288649375,0.000251058242861576,0.05132720799266521,0.0014656330848655127,18.04795839624034,0.051348742836636964,1.0,0.0,30.370872729270165,2.8135483756416955,901.5769864681552,75.31349990516135,-0.310263602739104,3.3128147478592913,1.0,901.4630298061182,0.0,1.0,76.03304347841033,3193.574822865201,1.0,1.0,0.9736838973934514,13.880030292511073,0.0019570278589873765,-45.93120600974099,1.0,901.5218317361,0.0,1.0,0.68336377691599,13.483436700432097
0.42500000000000004,0.42500000000000004,1.0,17.306881360409303,0.040879071925000766,5.164431820801239,-0.00011203191902471998,0.04296147813460976,-0.0014660940608027817,18.061040101652754,0.04298663264849381,1.0,0.0,30.370872729270165,2.8135483756416955,901.5769864681552,75.31349990516135,-0.310263602739104,3.3128147478592913,1.0,901.4630298061182,0.0,1.0,75.8279253957166,3214.32363833056,1.0,1.0,0.9736838973934514,13.880030292511073,0.0019570278589873765,-45.93120600974099,1.0,901.5218317361,0.0,1.0,0.68336377691599,13.483436700432097
0.45,0.45,1.0,17.247523154365656,0.05486849238053924,5.2894598493479625,-0.0004281515960226781,0.035877674176171125,0.0008060203772042808,18.04046703967776,0.035889280947507735,1.0,0.0,30.370872729270165,2.8135483756416955,901.5769864681552,75.31349990516135,-0.310263602739104,3.3128147478592913,1.0,901.514745232185,0.0,1.0,76.12053527502859,3304.9412935923287,1.0,1.0,-0.09408074110913262,14.005155693616754,0.03235021532457746,-45.95845248013985,1.0,901.8686075906003,0.0,1.0,-0.06698468827697245,13.16304169230747
0.47500000000000003,0.47500000000000003,1.0,17.263127119444754,-0.014208111291212439,5.367664896682829,-7.71416553500972e-05,0.030987956073612058,0.0014435634636649729,18.078373440539846,0.031021657723737606,1.0,0.0,30.370872729270165,2.8135483756416955,901.5769864681552,75.31349990516135,-0.310263602739104,3.3128147478592913,1.0,901.514745232185,0.0,1.0,76.68505469613694,3305.597784466904,1.0,1.0,-0.09408074110913262,14.005155693616754,0.03235021532457746,-45.95845248013985,1.0,901.8686075906003,0.0,1.0,-0.06698468827697245,13.16304169230747
0.5,0.5,1.0,17.316617425436707,-0.046035354864689744,5.403006467374151,-0.0016593042029406698,0.023144183272777966,-0.002027896168836918,18.140006538017637,0.023292034532719882,1.0,0.0,30.370872729270165,2.8135483756416955,901.5769864681552,75.31349990516135,-0.310263602739104,3.3128147478592913,1.0,901.4585038865151,0.0,1.0,76.9380487434773,3298.031492253614,1.0,1.0,0.7001214451233372,14.101194538520938,-0.016646611689183643,-45.927624693418615,1.0,901.9675045047999,0.0,1.0,0.11091253966546691,12.649240459137653
0.525,0.525,1.0,17.236124227624273,-0.028180378447320603,5.445595796312722,0.002190800710431522,0.025968920878804518,-0.0026802711018412404,18.07593112679523,0.02619863188301637,1.0,0.0,30.370872729270165,2.8135483756416955,901.5769864681552,75.31349990516135,-0.310263602739104,3.3128147478592913,1.0,901.4585038865151,0.0,1.0,77.10927778950358,3384.076217411622,1.0,1.0,0.7001214451233372,14.101194538520938,-0.016646611689183643,-45.927624693418615,1.0,901.9675045047999,0.0,1.0,0.11091253966546691,12.649240459137653
0.55,0.55,1.0,17.246687568789,-0.0279457372147169,5.490381711430446,-0.004707653058005957,0.023141158784783702,7.153176510058875e-05,18.09953878961725,0.023615256594213478,1.0,0.0,30.370872729270165,2.8135483756416955,901.5769864681552,75.31349990516135,-0.310263602739104,3.3128147478592913,1.0,901.2765373514975,0.0,1.0,78.07260713110834,3418.0455743781254,1.0,1.0,0.56332668989451,14.081986159223652,0.012913129396100356,-45.88809307714702,1.0,901.893260549073,0.0,1.0,-0.2660731236018461,13.14694834469582
0.5750000000000001,0.5750000000000001,1.0,17.2092978750755,-0.0023145253405642456,5.560162027533942,0.002694454256022685,0.02292917528597221,0.0008076677398474496,18.085224369151078,0.023101071191843636,1.0,0.0,30.370872729270165,2.8135483756416955,901.5769864681552,75.31349990516135,-0.310263602739104,3.3128147478592913,1.0,901.2765373514975,0.0,1.0,78.15693174144411,3447.7015768057217,1.0,1.0,0.56332668989451,14.081986159223652,0.012913129396100356,-45.88809307714702,1.0,901.893260549073,0.0,1.0,-0.2660731236018461,13.14694834469582
0.6000000000000001,0.6000000000000001,1.0,17.18710831147748,-0.012837377409966676,5.545944956615511,-0.0017341306941260676,0.021439084966047538,0.0009442755372492855,18.05974424986484,0.02152982186958274,1.0,0.0,45.156294546361465,0.08488048923289125,900.3666185688844,78.55174527929971,0.12421506685860094,3.2900957509934003,1.0,901.4675354245654,0.0,1.0,79.013747767999,3454.2192045833112,1.0,1.0,0.17125574255220896,14.079929232627693,0.03670263630779307,-45.829320420673426,1.0,902.1552868697252,0.0,1.0,-0.3238354001448056,12.62033808799743
0.625,0.625,1.0,17.263146522783636,-0.01368800188720007,5.63717533038794,-0.001971053812215531,0.020708698312429743,0.0005684654790737704,18.160235707006304,0.02081005506784589,1.0,0.0,45.156294546361465,0.08488048923289125,900.3666185688844,78.55174527929971,0.12421506685860094,3.2900957509934003,1.0,901.4675354245654,0.0,1.0,78.88055164326163,3557.8589961335224,1.0,1.0,0.17125574255220896,14.079929232627693,0.03670263630779307,-45.829320420673426,1.0,902.1552868697252,0.0,1.0,-0.3238354001448056,12.62033808799743
0.65,0.65,1.0,17.249110938679866,-0.005001897900720413,5.709755414011181,-0.003912898967988748,0.016095247037790136,0.0009369048559353213,18.169566865550152,0.016590525797884007,1.0,0.0,45.156294546361465,0.08488048923289125,900.3666185688844,78.55174527929971,0.12421506685860094,3.2900957509934003,1.0,902.0175934716805,0.0,1.0,79.11952077377248,3479.335580417777,1.0,1.0,0.7296355182643244,14.197295642879574,0.016939204661837008,-45.81658434305654,1.0,902.515830914588,0.0,1.0,0.1438743116313154,13.467644608511423
0.675,0.675,1.0,17.172536964544022,0.04759233469202839,5.70391868587278,-0.0021233300287092985,0.013986122398865928,-0.002985818969655212,18.095109262007814,0.014458051911873564,1.0,0.0,45.156294546361465,0.08488048923289125,900.3666185688844,78.55174527929971,0.12421506685860094,3.2900957509934003,1.0,902.0175934716805,0.0,1.0,79.86983065996864,3532.5388573868645,1.0,1.0,0.7296355182643244,14.197295642879574,0.016939204661837008,-45.81658434305654,1.0,902.515830914588,0.0,1.0,0.1438743116313154,13.467644608511423
0.7000000000000001,0.7000000000000001,1.0,17.1328357983741,0.03485909602314629,5.743139433279003,-0.0017499082157690163,0.01607395339307137,-0.0008625375797976863,18.069834758533595,0.016191915498878127,1.0,0.0,45.156294546361465,0.08488048923289125,900.3666185688844,78.55174527929971,0.12421506685860094,3.2900957509934003,1.0,901.4318793320685,0.0,1.0,81.5115929130061,3638.9588760713386,1.0,1.0,0.8787869574009572,14.218576474812059,0.057968095932936704,-45.86946108877213,1.0,902.8355380479352,0.0,1.0,-0.5259465552686466,12.762744919992393
0.7250000000000001,0.7250000000000001,1.0,17.09323704272464,0.0015386808741678448,5.851262132451714,-0.001028765208221306,0.01210450970149576,0.00016661661793533153,18.066987117640174,0.012149291093089497,1.0,0.0,45.156294546361465,0.08488048923289125,900.3666185688844,78.55174527929971,0.12421506685860094,3.2900957509934003,1.0,901.4318793320685,0.0,1.0,79.36887812254766,3615.7132145505548,1.0,1.0,0.8787869574009572,14.218576474812059,0.057968095932936704,-45.86946108877213,1.0,902.8355380479352,0.0,1.0,-0.5259465552686466,12.762744919992393
0.75,0.75,1.0,17.182168350854766,-0.03299772309200197,5.9388653459420455,0.002242887697950806,0.015619809187771252,0.0024090950440133446,18.17960724779487,0.01596285448217492,1.0,0.0,45.156294546361465,0.08488048923289125,900.3666185688844,78.55174527929971,0.12421506685860094,3.2900957509934003,1.0,901.8490627327438,0.0,1.0,81.11694525832769,3697.4740044720897,1.0,1.0,-0.5611969848171424,14.190144147782544,-0.004909454008617348,-45.86460017811275,1.0,902.8166654900085,0.0,1.0,0.2916895527804138,13.015832457386098
0.775,0.775,1.0,17.118961994603996,0.07979868380514983,5.97742194954644,0.001339333709113779,0.01171540470698417,-0.003165260548266207,18.13269976494269,0.012209152164307143,1.0,0.0,45.156294546361465,0.08488048923289125,900.3666185688844,78.55174527929971,0.12421506685860094,3.2900957509934003,1.0,901.8490627327438,0.0,1.0,80.61666890549924,3730.7457337571473,1.0,1.0,-0.5611969848171424,14.190144147782544,-0.004909454008617348,-45.86460017811275,1.0,902.8166654900085,0.0,1.0,0.2916895527804138,13.015832457386098
0.8,0.8,1.0,17.115460654558262,-0.02135697958723223,6.049960239307081,0.0010824022145651804,0.009039682723410328,-0.00042749258783569984,18.153277071523632,0.009114285940581042,1.0,0.0,60.54136714973349,-2.189739807835618,902.214541408731,81.46863788166945,-0.255011780218076,3.51312082352814,1.0,902.4723900508503,0.0,1.0,81.84204351138295,3764.5027496241723,1.0,1.0,-1.2164926452031213,14.267733650036696,-0.005418000616834761,-45.81577437391575,1.0,903.2810227463293,0.0,1.0,-0.06013121964549108,12.18444906924257
0.8250000000000001,0.8250000000000001,1.0,17.104822993490668,0.012780636383930967,6.09697863789704,-0.0013574750637685082,0.00857929826268944,-0.0030827515867952538,18.15897247903323,0.00921685708768602,1.0,0.0,60.54136714973349,-2.189739807835618,902.214541408731,81.46863788166945,-0.255011780218076,3.51312082352814,1.0,902.4723900508503,0.0,1.0,81.76931171986581,3776.1044665513255,1.0,1.0,-1.2164926452031213,14.267733650036696,-0.005418000616834761,-45.81577437391575,1.0,903.2810227463293,0.0,1.0,-0.06013121964549108,12.18444906924257
0.8500000000000001,0.8500000000000001,1.0,17.10272573594664,-0.06524281724705698,6.219292832048088,0.0005798346308286623,0.008243324852478025,0.0007649707432584844,18.19854630334463,0.008299023620922615,1.0,0.0,60.54136714973349,-2.189739807835618,902.214541408731,81.46863788166945,-0.255011780218076,3.51312082352814,1.0,902.7219196902126,0.0,1.0,82.40283039309698,3864.5016965488194,1.0,1.0,-0.3620570521453154,14.320602000949897,0.03584852030826636,-45.85374979635688,1.0,903.4707908878851,0.0,1.0,-0.340713193310383,12.451190489485752
0.875,0.875,1.0,17.11383192141876,-0.028566168728226787,6.245668430063571,0.0014264886343193124,0.006336744083653408,0.0030093422963232436,18.217915171579328,0.007158584808605588,1.0,0.0,60.54136714973349,-2.189739807835618,902.214541408731,81.46863788166945,-0.255011780218076,3.51312082352814,1.0,902.7219196902126,0.0,1.0,82.76164259725132,3896.7453963088255,1.0,1.0,-0.3620570521453154,14.320602000949897,0.03584852030826636,-45.85374979635688,1.0,903.4707908878851,0.0,1.0,-0.340713193310383,12.451190489485752
0.9,0.9,1.0,17.075969244792557,0.0686941069081946,6.336452530857867,0.001824779335121172,0.006674517362046603,-0.001547121375082221,18.213842955434757,0.007090316367228131,1.0,0.0,60.54136714973349,-2.189739807835618,902.214541408731,81.46863788166945,-0.255011780218076,3.51312082352814,1.0,903.785836092496,0.0,1.0,82.65399827218829,3813.0154127864203,1.0,1.0,-0.09792438588057155,14.30115300326564,-0.008479319572511924,-45.85864812740093,1.0,903.1686342877856,0.0,1.0,0.45300573804182975,12.751160277130952
0.925,0.925,1.0,17.001433632828565,-0.000711636822999041,6.355365516752315,0.0011630137542575766,0.0064324163299852785,0.0014636401023279423,18.15046602513075,0.0066985687414548595,1.0,0.0,60.54136714973349,-2.189739807835618,902.214541408731,81.46863788166945,-0.255011780218076,3.51312082352814,1.0,903.785836092496,0.0,1.0,83.62221477506783,3871.9221565454873,1.0,1.0,-0.09792438588057155,14.30115300326564,-0.008479319572511924,-45.85864812740093,1.0,903.1686342877856,0.0,1.0,0.45300573804182975,12.751160277130952
0.9500000000000001,0.9500000000000001,1.0,16.994789903010798,0.0619708909315009,6.446461183767314,0.0013932722437634255,0.0039006852349949056,0.004094771226037869,18.176456916369023,0.005824405913167153,1.0,0.0,60.54136714973349,-2.189739807835618,902.214541408731,81.46863788166945,-0.255011780218076,3.51312082352814,1.0,903.458096918719,0.0,1.0,83.60346380766839,3965.9181052671042,1.0,1.0,0.5515757550920114,14.339342844995622,0.08560475662243833,-45.81064327654451,1.0,903.5242695912201,0.0,1.0,0.08272463840641422,12.053962154122944
0.9750000000000001,0.9750000000000001,1.0,16.98046118148196,0.04368198903242653,6.5438456975573445,-0.0014720525387692523,0.002727498709920138,-0.000986605134644812,18.197798948373435,0.0032526262590744305,1.0,0.0,60.54136714973349,-2.189739807835618,902.214541408731,81.46863788166945,-0.255011780218076,3.51312082352814,1.0,903.458096918719,0.0,1.0,84.16284693254195,3992.374957527351,1.0,1.0,0.5515757550920114,14.339342844995622,0.08560475662243833,-45.81064327654451,1.0,903.5242695912201,0.0,1.0,0.08272463840641422,12.053962154122944
1.0,1.0,1.0,17.07990283630819,-0.01874902409599158,6.595225409173997,0.003356340812989093,0.0035779096092522565,9.794569403432961e-05,18.309025933168794,0.004906735593436413,1.0,0.0,77.91236976586872,-0.2857293032153698,903.699279723613,84.86346830818057,-0.16945035377344445,3.3520801013010724,1.0,903.0281045808651,0.0,1.0,84.8997211054161,4043.6742137174183,1.0,1.0,-0.4946212838329261,14.374947356497355,0.009752712071119272,-45.79653414541496,1.0,903.7858013675573,0.0,1.0,-0.7100255770478338,12.480917140304236
1.0250000000000001,1.0250000000000001,1.0,17.056355467320355,0.019281396550144627,6.572558056196465,2.5984999545419785e-05,0.0039008388031617214,-0.0004879599629203926,18.278899118981837,0.003931325923129093,1.0,0.0,77.91236976586872,-0.2857293032153698,903.699279723613,84.86346830818057,-0.16945035377344445,3.3520801013010724,1.0,903.0281045808651,0.0,1.0,85.97626883488749,4022.5987608488767,1.0,1.0,-0.4946212838329261,14.374947356497355,0.009752712071119272,-45.79653414541496,1.0,903.7858013675573,0.0,1.0,-0.7100255770478338,12.480917140304236
1.05,1.05,1.0,16.951845374034402,0.00416058369218773,6.6869418538654894,-0.0001623914970455043,0.0050882692396304755,-0.0020564331413674545,18.223069726382718,0.005490516562054685,1.0,0.0,77.91236976586872,-0.2857293032153698,903.699279723613,84.86346830818057,-0.16945035377344445,3.3520801013010724,1.0,902.1986093278142,0.0,1.0,85.2413730513006,4081.1580393112667,1.0,1.0,0.9736716567738575,14.321127049331,-0.004962835756417939,-45.83964896461298,1.0,903.6500168413345,0.0,1.0,0.11495443315012784,12.748153740354313
1.075,1.075,1.0,16.978029857677402,-0.03553336794665623,6.704058327145863,0.0021523717840598792,0.0027007753867253122,-0.0009714343281910296,18.253743685123794,0.003587558590510589,1.0,0.0,77.91236976586872,-0.2857293032153698,903.699279723613,84.86346830818057,-0.16945035377344445,3.3520801013010724,1.0,902.1986093278142,0.0,1.0,86.38824749952077,4116.2679530810865,1.0,1.0,0.9736716567738575,14.321127049331,-0.004962835756417939,-45.83964896461298,1.0,903.6500168413345,0.0,1.0,0.11495443315012784,12.748153740354313
1.1,1.1,1.0,16.936166860983366,0.01166192622400793,6.7608988174154,0.0012816164945934781,0.0035338632481402912,0.0020516741838696125,18.23577902813377,0.004282533975641964,1.0,0.0,77.91236976586872,-0.2857293032153698,903.699279723613,84.86346830818057,-0.16945035377344445,3.3520801013010724,1.0,904.2624228504885,0.0,1.0,85.87492228538171,4125.267303245172,1.0,1.0,-2.1377845376970277,14.331364707296338,-0.03740844855449062,-45.75522945563625,1.0,904.1118875342872,0.0,1.0,-0.3377341052652119,12.730632902700044
1.125,1.125,1.0,16.92736483805112,0.012054218073843822,6.821240619016538,0.0013611123147082215,0.0018180409463249532,-0.0023193390234482413,18.250072581970294,0.0032461104604517613,1.0,0.0,77.91236976586872,-0.2857293032153698,903.699279723613,84.86346830818057,-0.16945035377344445,3.3520801013010724,1.0,904.2624228504885,0.0,1.0,86.52172724582053,4282.639244705831,1.0,1.0,-2.1377845376970277,14.331364707296338,-0.03740844855449062,-45.75522945563625,1.0,904.1118875342872,0.0,1.0,-0.3377341052652119,12.730632902700044
1.1500000000000001,1.1500000000000001,1.0,16.907942430023418,-0.014661922395149666,6.917949491777817,-0.0013798204093905368,0.0025569636143911033,-0.0024909742677004087,18.268463464663455,0.003827129484331079,1.0,0.0,77.91236976586872,-0.2857293032153698,903.699279723613,84.86346830818057,-0.16945035377344445,3.3520801013010724,1.0,904.6058106386355,0.0,1.0,87.17022264295869,4217.249097626314,1.0,1.0,1.6986705414800243,14.382929902524404,0.005958676378396754,-45.80330990229164,1.0,903.6610809652389,0.0,1.0,-0.09670573662507005,12.96268678106906
1.175,1.175,1.0,16.878622502483957,0.08203464053217376,6.963941885220838,-0.002268595064723144,-0.0005020966388159206,-0.001050308439118307,18.259000899401318,0.002549857333201131,1.0,0.0,77.91236976586872,-0.2857293032153698,903.699279723613,84.86346830818057,-0.16945035377344445,3.3520801013010724,1.0,904.6058106386355,0.0,1.0,87.00268984466926,4323.830289074171,1.0,1.0,1.6986705414800243,14.382929902524404,0.005958676378396754,-45.80330990229164,1.0,903.6610809652389,0.0,1.0,-0.09670573662507005,12.96268678106906
1.2000000000000002,1.2000000000000002,1.0,16.9458705814556,-0.022284632975748692,7.054880702325374,-0.0008392729843754904,0.003099233955654446,-0.00014154485946724681,18.355772064730814,0.0032139796516819532,1.0,0.0,95.43937799154132,-1.0230831237574762,905.3109910123854,87.69505760273543,-0.07595104250038326,3.4549165468886414,1.0,904.5578187662069,0.0,1.0,87.55494575459853,4328.834128798415,1.0,1.0,-0.3642896828153875,14.32641411064863,-0.010037878890270031,-45.8311754296731,1.0,904.589229122207,0.0,1.0,0.27259318327846466,12.578368814176914
1.225,1.225,1.0,16.791752083152055,0.009375575604820486,7.17341108779267,0.002088448290239597,-0.0007497557860389317,0.000949137869980612,18.25981523887704,0.0024134234390042054,1.0,0.0,95.43937799154132,-1.0230831237574762,905.3109910123854,87.69505760273543,-0.07595104250038326,3.4549165468886414,1.0,904.5578187662069,0.0,1.0,88.4749503170681,4385.45680042669,1.0,1.0,-0.3642896828153875,14.32641411064863,-0.010037878890270031,-45.8311754296731,1.0,904.589229122207,0.0,1.0,0.27259318327846466,12.578368814176914
1.25,1.25,1.0,16.831873465888698,0.04311079032477059,7.166931035412287,-0.0002861348191982844,0.002651191535159684,-0.002638911712607669,18.294226503962562,0.0037516056186382304,1.0,0.0,95.43937799154132,-1.0230831237574762,905.3109910123854,87.69505760273543,-0.07595104250038326,3.4549165468886414,1.0,905.2953075736822,0.0,1.0,88.12564538122804,4407.876365068119,1.0,1.0,0.735157290465571,14.297640767324022,0.02258465320520546,-45.77044485910255,1.0,904.663602231049,0.0,1.0,0.02846006961117506,12.262905565430987
1.2750000000000001,1.2750000000000001,1.0,16.882618686274323,-0.009566038647204105,7.250707054080355,0.0015090322637258868,0.00559696497881623,-0.001665893554938218,18.373776367402673,0.006031450628451312,1.0,0.0,95.43937799154132,-1.0230831237574762,905.3109910123854,87.69505760273543,-0.07595104250038326,3.4549165468886414,1.0,905.2953075736822,0.0,1.0,89.10163977979857,4459.641756884978,1.0,1.0,0.735157290465571,14.297640767324022,0.02258465320520546,-45.77044485910255,1.0,904.663602231049,0.0,1.0,0.02846006961117506,12.262905565430987
1.3,1.3,1.0,16.815956000213067,0.003747088923836718,7.262189464019832,0.00044032854157194243,-0.0023619218878522833,0.004212423498267918,18.31708999959049,0.004849440788131998,1.0,0.0,95.43937799154132,-1.0230831237574762,905.3109910123854,87.69505760273543,-0.07595104250038326,3.4549165468886414,1.0,904.5074153266662,0.0,1.0,89.09074091418051,4400.821421156613,1.0,1.0,-1.7938104791271714,14.325271167189724,-0.02630645483962334,-45.86201127830895,1.0,904.7978873546548,0.0,1.0,0.2436013705333076,12.758455338830858
1.3250000000000002,1.3250000000000002,1.0,16.79946312427599,0.018156019069513533,7.336471649007467,0.001344192212933266,0.0020926866657938344,0.0017012269051209737,18.33156041262248,0.003013364095028882,1.0,0.0,95.43937799154132,-1.0230831237574762,905.3109910123854,87.69505760273543,-0.07595104250038326,3.4549165468886414,1.0,904.5074153266662,0.0,1.0,89.23323213246799,4483.423186882535,1.0,1.0,-1.7938104791271714,14.325271167189724,-0.02630645483962334,-45.86201127830895,1.0,904.7978873546548,0.0,1.0,0.2436013705333076,12.758455338830858
1.35,1.35,1.0,16.821175944775323,-0.022295262645026685,7.338818049464019,0.003811708652120523,-0.001181448595858045,0.0032993383248968544,18.352403319646267,0.005177893105833548,1.0,0.0,95.43937799154132,-1.0230831237574762,905.3109910123854,87.69505760273543,-0.07595104250038326,3.4549165468886414,1.0,905.1531548122263,0.0,1.0,90.00112474162114,4597.037564198404,1.0,1.0,-0.7403709437107429,14.415505936704252,-0.01001143250965229,-45.79706526307803,1.0,904.8586234924999,0.0,1.0,0.28757818528973933,12.592551703957392
1.375,1.375,1.0,16.807394810515653,-0.0048234923783998605,7.4449518380888415,-5.190867399413139e-05,-0.0020777551327940433,0.0006444967914209957,18.382487629646036,0.002176036997948284,1.0,0.0,95.43937799154132,-1.0230831237574762,905.3109910123854,87.69505760273543,-0.07595104250038326,3.4549165468886414,1.0,905.1531548122263,0.0,1.0,90.55882950564337,4586.1625353806685,1.0,1.0,-0.7403709437107429,14.415505936704252,-0.01001143250965229,-45.79706526307803,1.0,904.8586234924999,0.0,1.0,0.28757818528973933,12.592551703957392
1.4000000000000001,1.4000000000000001,1.0,16.690269793530877,0.04967441680519258,7.483334623103349,0.00039382330161914,-0.00283627815835805,-0.00012219526631941234,18.291196527561326,0.002866095299809133,1.0,0.0,111.1538405019006,0.19700913479482118,904.7283455420747,90.70366888332538,0.11858546813153745,3.561642475561919,1.0,905.2104112104511,0.0,1.0,90.65684178450282,4639.325540320318,1.0,1.0,-0.34806676228943356,14.427883888597277,0.03858626470035354,-45.8317768182674,1.0,905.1154496645622,0.0,1.0,-0.5542728224159885,12.352634237134426
1.425,1.425,1.0,16.740018028885284,-0.05977179758853019,7.571499154286375,0.0020503964081430375,-0.003949349840791651,-0.0010328140601333588,18.37278900217794,0.004568171896754332,1.0,0.0,111.1538405019006,0.19700913479482118,904.7283455420747,90.70366888332538,0.11858546813153745,3.561642475561919,1.0,905.2104112104511,0.0,1.0,90.41972330546709,4644.214293321605,1.0,1.0,-0.34806676228943356,14.427883888597277,0.03858626470035354,-45.8317768182674,1.0,905.1154496645622,0.0,1.0,-0.5542728224159885,12.352634237134426
1.4500000000000002,1.4500000000000002,1.0,16.71514130366829,0.0349758230666811,7.6695718071987,-0.0020168550969292287,-0.0041388903251858575,0.002552908609085891,18.390745058740116,0.005264547461299153,1.0,0.0,111.1538405019006,0.19700913479482118,904.7283455420747,90.70366888332538,0.11858546813153745,3.561642475561919,1.0,905.0722477061022,0.0,1.0,91.41077015745778,4702.971628241624,1.0,1.0,1.8929826422346687,14.281936582430749,0.004449956134261949,-45.822207409833865,1.0,905.4289525172716,0.0,1.0,0.5147863080468554,12.660202978676528
1.475,1.475,1.0,16.729493452589615,-0.008251109505193454,7.769658528200484,-0.0002729059209816074,-0.0012561427993742387,0.0010896527356273169,18.445693614117236,0.0016851455303286608,1.0,0.0,111.1538405019006,0.19700913479482118,904.7283455420747,90.70366888332538,0.11858546813153745,3.561642475561919,1.0,905.0722477061022,0.0,1.0,91.02415921933459,4750.174482365557,1.0,1.0,1.8929826422346687,14.281936582430749,0.004449956134261949,-45.822207409833865,1.0,905.4289525172716,0.0,1.0,0.5147863080468554,12.660202978676528
1.5,1.5,1.0,16.76928201616296,-0.04049065644443487,7.7729516332564765,0.0038306182274915695,-0.0009178357904892839,-0.002437233470911016,18.483214978022907,0.004632080044086317,1.0,0.0,111.1538405019006,0.19700913479482118,904.7283455420747,90.70366888332538,0.11858546813153745,3.561642475561919,1.0,905.4297600514793,0.0,1.0,92.70978049599415,4828.968133622981,1.0,1.0,1.4917604615666717,14.34176720505324,-0.034985465742805505,-45.75736356123816,1.0,905.4343540188555,0.0,1.0,0.13604256625750963,13.052355168498936
1.5250000000000001,1.5250000000000001,1.0,16.716087125499886,0.0461295962616236,7.849562086173037,-0.0003597252657823848,-0.0056532422727656705,9.257389993932397e-05,18.467412424907813,0.005665432056637601,1.0,0.0,111.1538405019006,0.19700913479482118,904.7283455420747,90.70366888332538,0.11858546813153745,3.561642475561919,1.0,905.4297600514793,0.0,1.0,92.35397832859134,4930.592351498762,1.0,1.0,1.4917604615666717,14.34176720505324,-0.034985465742805505,-45.75736356123816,1.0,905.4343540188555,0.0,1.0,0.13604256625750963,13.052355168498936
1.55,1.55,1.0,16.727508281005154,0.024676372662300525,7.89022708962336,5.9503225487104746e-05,-0.0027194644129327353,0.0007579651661209169,18.495021647467464,0.0028237454772170358,1.0,0.0,111.1538405019006,0.19700913479482118,904.7283455420747,90.70366888332538,0.11858546813153745,3.561642475561919,1.0,905.8998590902485,0.0,1.0,92.52117944645775,4892.501414928892,1.0,1.0,1.130674115632398,14.319607583548631,-0.06654410235379032,-45.81248885766521,1.0,905.6382944920482,0.0,1.0,-0.29129571960736184,12.651328295415889
1.5750000000000002,1.5750000000000002,1.0,16.66511392177095,-0.04876632725773981,7.995569289154969,-0.0010932876634037192,-0.0027474030906778986,0.0033497550890211323,18.483980319129216,0.0044681495962020125,1.0,0.0,111.1538405019006,0.19700913479482118,904.7283455420747,90.70366888332538,0.11858546813153745,3.561642475561919,1.0,905.8998590902485,0.0,1.0,93.40503314044864,4930.360488783828,1.0,1.0,1.130674115632398,14.319607583548631,-0.06654410235379032,-45.81248885766521,1.0,905.6382944920482,0.0,1.0,-0.29129571960736184,12.651328295415889
1.6,1.6,1.0,16.652142612169698,-0.028696046080416975,8.056251411824613,0.00039775532377445523,-0.0011049851377255711,-0.002582066544594588,18.498590861187903,0.0028365946296395536,1.0,0.0,130.0621779291382,-2.4708171847134515,908.070380615166,93.60723285390813,-0.12890312187707062,4.009114754937774,1.0,905.9339311511645,0.0,1.0,93.60832064108241,4912.066959743155,1.0,1.0,-0.5514971461177935,14.31885970251056,0.06429483918498549,-45.89322148583263,1.0,905.8422831040039,0.0,1.0,0.35469694593815315,13.011450765063355
1.625,1.625,1.0,16.648778546914702,-0.05734984144382985,8.128563969719423,-0.0015605808957864006,-0.0021578981036517926,0.00397138001981148,18.527241249531503,0.004781610212030599,1.0,0.0,130.0621779291382,-2.4708171847134515,908.070380615166,93.60723285390813,-0.12890312187707062,4.009114754937774,1.0,905.9339311511645,0.0,1.0,93.00092366867511,4912.977547032563,1.0,1.0,-0.5514971461177935,14.31885970251056,0.06429483918498549,-45.89322148583263,1.0,905.8422831040039,0.0,1.0,0.35469694593815315,13.011450765063355
1.6500000000000001,1.6500000000000001,1.0,16.632670613015794,-0.00718992667240433,8.10023003338543,-0.0014215114091069706,-0.0035833875164182696,-0.004016455144860638,18.5002570255087,0.005567160201549895,1.0,0.0,130.0621779291382,-2.4708171847134515,908.070380615166,93.60723285390813,-0.12890312187707062,4.009114754937774,1.0,905.361495497665,0.0,1.0,94.87796473338406,5002.3275679396675,1.0,1.0,-1.3369893678725424,14.307904234216776,-0.03853104404443647,-45.83502380426082,1.0,906.0671094276779,0.0,1.0,0.18918137699172557,12.761746443913259
1.675,1.675,1.0,16.6236814838248,-0.025197222101776755,8.16389150156884,-0.00307705410662801,-0.004413317724746436,-0.0002928849669979628,18.5201659124601,0.0053880810051975606,1.0,0.0,130.0621779291382,-2.4708171847134515,908.070380615166,93.60723285390813,-0.12890312187707062,4.009114754937774,1.0,905.361495497665,0.0,1.0,94.9097007890378,5007.100976894108,1.0,1.0,-1.3369893678725424,14.307904234216776,-0.03853104404443647,-45.83502380426082,1.0,906.0671094276779,0.0,1.0,0.18918137699172557,12.761746443913259
1.7000000000000002,1.7000000000000002,1.0,16.575886166536915,0.030482044000902733,8.333849311487459,-0.0011378719285153117,-0.0047472352116089845,0.0009561543279783381,18.553004492738538,0.004974457335122602,1.0,0.0,130.0621779291382,-2.4708171847134515,908.070380615166,93.60723285390813,-0.12890312187707062,4.009114754937774,1.0,905.4080529611688,0.0,1.0,95.24911317545326,5136.004244253221,1.0,1.0,0.15283006444675024,14.355473893177308,-0.06769133156011552,-45.836047457538854,1.0,905.8265907490328,0.0,1.0,0.3820940271456788,13.333055850079653
1.725,1.725,1.0,16.614837187214864,-0.0219316907953706,8.373269598623935,-0.002512312702131389,-0.007104331012074052,0.0008586508632345581,18.605508311464078,0.007584228078541764,1.0,0.0,130.0621779291382,-2.4708171847134515,908.070380615166,93.60723285390813,-0.12890312187707062,4.009114754937774,1.0,905.4080529611688,0.0,1.0,95.81204603384792,5034.703536403507,1.0,1.0,0.15283006444675024,14.355473893177308,-0.06769133156011552,-45.836047457538854,1.0,905.8265907490328,0.0,1.0,0.3820940271456788,13.333055850079653
1.75,1.75,1.0,16.534584363503832,0.01769463227217967,8.428776653453522,-0.0013853594973050958,-0.00431090641145287,-0.00044486177556643855,18.55901584264747,0.004549839230614529,1.0,0.0,130.0621779291382,-2.4708171847134515,908.070380615166,93.60723285390813,-0.12890312187707062,4.009114754937774,1.0,906.8466679237964,0.0,1.0,96.92233288855493,5062.221073269334,1.0,1.0,-0.2976509961586848,14.226242602802738,-0.04665431748890818,-45.83518420094755,1.0,906.6215423547595,0.0,1.0,-0.49892644747214066,11.842503336356998
1.7750000000000001,1.7750000000000001,1.0,16.55617964461286,0.017892515118477743,8.46111790426711,-8.48808060690697e-07,-0.0065217387762935425,0.0009057499942890872,18.592953524297855,0.006584334471975175,1.0,0.0,130.0621779291382,-2.4708171847134515,908.070380615166,93.60723285390813,-0.12890312187707062,4.009114754937774,1.0,906.8466679237964,0.0,1.0,96.0442738275683,5227.225158382224,1.0,1.0,-0.2976509961586848,14.226242602802738,-0.04665431748890818,-45.83518420094755,1.0,906.6215423547595,0.0,1.0,-0.49892644747214066,11.842503336356998
1.8,1.8,1.0,16.581628909126163,-0.04425570998127575,8.499870896987318,-0.0028492295727655563,-0.003705873994994152,0.003580249287240684,18.633308378097713,0.005888106332589718,1.0,0.0,149.52053661293536,1.9246446568264215,905.6211504330693,96.65382029404071,-0.11484129528752073,4.320472245438695,1.0,906.0699234124922,0.0,1.0,96.59766787106611,5242.929042876946,1.0,1.0,0.14370057560970326,14.312107711106698,0.049366492341106294,-45.78622478671485,1.0,906.3496792803589,0.0,1.0,-0.12565110237059401,12.890378462076102
1.8250000000000002,1.8250000000000002,1.0,16.565713138963126,-0.036522262415027235,8.635860287894966,0.0001060482944636698,-0.01357938363773939,0.000872564604376772,18.68160240959294,0.013607801997768563,1.0,0.0,149.52053661293536,1.9246446568264215,905.6211504330693,96.65382029404071,-0.11484129528752073,4.320472245438695,1.0,906.0699234124922,0.0,1.0,96.90188751920003,5226.795451990109,1.0,1.0,0.14370057560970326,14.312107711106698,0.049366492341106294,-45.78622478671485,1.0,906.3496792803589,0.0,1.0,-0.12565110237059401,12.890378462076102
1.85,1.85,1.0,16.552797513316712,-0.049880028664421414,8.67044233061696,0.002422080609570427,-0.005594153718687173,0.0003949293978545769,18.686202496566228,0.006108764157900382,1.0,0.0,149.52053661293536,1.9246446568264215,905.6211504330693,96.65382029404071,-0.11484129528752073,4.320472245438695,1.0,905.9019340471649,0.0,1.0,97.25279839707142,5268.673178394901,1.0,1.0,0.24182505435949653,14.292248110441337,-0.0255459889095549,-45.836426451556854,1.0,906.4690857838904,0.0,1.0,-0.13528230597350294,12.230495859610654
1.875,1.875,1.0,16.531173483199627,0.04710491974448733,8.719876494635757,0.0048979456112317275,-0.005808853591643505,0.001737571264933353,18.690055154728885,0.007794344434296953,1.0,0.0,149.52053661293536,1.9246446568264215,905.6211504330693,96.65382029404071,-0.11484129528752073,4.320472245438695,1.0,905.9019340471649,0.0,1.0,97.71452467675708,5302.017827066642,1.0,1.0,0.24182505435949653,14.292248110441337,-0.0255459889095549,-45.836426451556854,1.0,906.4690857838904,0.0,1.0,-0.13528230597350294,12.230495859610654
1.9000000000000001,1.9000000000000001,1.0,16.45800818352709,0.07406069691336914,8.73974050522632,0.0020256840096397628,-0.00761477173109768,0.0013787279780990236,18.634768108419426,0.007999314661971213,1.0,0.0,149.52053661293536,1.9246446568264215,905.6211504330693,96.65382029404071,-0.11484129528752073,4.320472245438695,1.0,907.2206285039836,0.0,1.0,97.8852268210942,5360.470323468859,1.0,1.0,0.5785070491145471,14.2699248731773,0.08873786789797558,-45.89651481306689,1.0,906.6298772005659,0.0,1.0,-0.23518183020908812,12.692919467748883
1.925,1.925,1.0,16.522712944956588,0.002348795813503003,8.83861283349535,0.00116010179678548,-0.004503634372009551,0.0002555051497115307,18.738226314107386,0.004657664824478021,1.0,0.0,149.52053661293536,1.9246446568264215,905.6211504330693,96.65382029404071,-0.11484129528752073,4.320472245438695,1.0,907.2206285039836,0.0,1.0,98.31706295445872,5452.347769342811,1.0,1.0,0.5785070491145471,14.2699248731773,0.08873786789797558,-45.89651481306689,1.0,906.6298772005659,0.0,1.0,-0.23518183020908812,12.692919467748883
1.9500000000000002,1.9500000000000002,1.0,16.499918628247855,0.11068676432869218,8.843243016290469,0.00029454399622693984,-0.006515775494067112,-0.0007443294197023542,18.72064404190647,0.00656476296143534,1.0,0.0,149.52053661293536,1.9246446568264215,905.6211504330693,96.65382029404071,-0.11484129528752073,4.320472245438695,1.0,906.1800552672163,0.0,1.0,99.13379538293057,5476.218864980351,1.0,1.0,-0.19454050753195087,14.275258850321396,-0.018137208425175053,-45.81779538214302,1.0,907.1391437166687,0.0,1.0,0.4312757641318894,12.653574939152572
1.975,1.975,1.0,16.43762681576059,-0.015287435890573797,8.962577672760021,-0.0006646745614123067,-0.00649088201881246,0.0018092771801700056,18.722275705163735,0.006771028398213634,1.0,0.0,149.52053661293536,1.9246446568264215,905.6211504330693,96.65382029404071,-0.11484129528752073,4.320472245438695,1.0,906.1800552672163,0.0,1.0,99.3326632068214,5510.444282617251,1.0,1.0,-0.19454050753195087,14.275258850321396,-0.018137208425175053,-45.81779538214302,1.0,907.1391437166687,0.0,1.0,0.4312757641318894,12.653574939152572
2.0,2.0,1.0,16.526929050192162,0.05622660155979085,9.006295920033383,-0.00038832956445904686,-0.008664267030763466,0.0013678058198069742,18.82168726389902,0.008780160351138558,1.0,0.0,168.4637646075872,-0.03241523959397065,907.57754666236,99.29129619060326,0.03993393107929061,4.925493041247087,1.0,907.2800712928889,0.0,1.0,99.86604659272706,5628.914551336933,1.0,1.0,0.7832093553117417,14.192434744584519,0.05087048598851233,-45.73480906694323,1.0,907.1595892363578,0.0,1.0,0.1638167027132807,12.613423075432344
2.025,2.025,1.0,16.435660205234655,0.007629518082771529,9.074015051486105,0.001553644195358347,-0.006222709615152179,0.0019955860386857327,18.774150679753177,0.006717014878506335,1.0,0.0,168.4637646075872,-0.03241523959397065,907.57754666236,99.29129619060326,0.03993393107929061,4.925493041247087,1.0,907.2800712928889,0.0,1.0,99.70659060116836,5524.229742438589,1.0,1.0,0.7832093553117417,14.192434744584519,0.05087048598851233,-45.73480906694323,1.0,907.1595892363578,0.0,1.0,0.1638167027132807,12.613423075432344
2.0500000000000003,2.0500000000000003,1.0,16.416093678345597,-0.0008249636020387972,9.179409545039073,-0.00044502601816877844,-0.010671238274077807,-0.00021140000276493812,18.808234684104132,0.010682605694312567,1.0,0.0,168.4637646075872,-0.03241523959397065,907.57754666236,99.29129619060326,0.03993393107929061,4.925493041247087,1.0,908.4550681482947,0.0,1.0,99.14964429624881,5609.515485676021,1.0,1.0,3.2624696940386513,14.233337313930296,-0.04054829344328858,-45.822507869234634,1.0,907.8455538258459,0.0,1.0,-0.08377889435896818,13.240771247536266
2.075,2.075,1.0,16.43096507699252,-0.03275220445652551,9.194345987345859,-0.0034040290894533968,-0.005713464943714384,0.0008938480209301087,18.828533777309044,0.006710444097779133,1.0,0.0,168.4637646075872,-0.03241523959397065,907.57754666236,99.29129619060326,0.03993393107929061,4.925493041247087,1.0,908.4550681482947,0.0,1.0,100.36712434043463,5632.468803780129,1.0,1.0,3.2624696940386513,14.233337313930296,-0.04054829344328858,-45.822507869234634,1.0,907.8455538258459,0.0,1.0,-0.08377889435896818,13.240771247536266
2.1,2.1,1.0,16.411858276021885,-0.09171856320830216,9.247006401108774,-0.0005118947152356505,-0.010260725055438128,0.00038108291195165675,18.83785103851317,0.010280551495350992,1.0,0.0,168.4637646075872,-0.03241523959397065,907.57754666236,99.29129619060326,0.03993393107929061,4.925493041247087,1.0,907.2183534415436,0.0,1.0,100.14467488324254,5715.323715900163,1.0,1.0,-0.22325389695130374,14.186765282883718,-0.05285412494434853,-45.80272180287493,1.0,907.8000320187687,0.0,1.0,-0.1784822761561118,12.168077315970137
2.125,2.125,1.0,16.46568381848176,0.057570203109125764,9.269741616164454,-0.001463806889749301,-0.010390335103188353,0.0004132984377261238,18.895771155709664,0.010501076600313537,1.0,0.0,168.4637646075872,-0.03241523959397065,907.57754666236,99.29129619060326,0.03993393107929061,4.925493041247087,1.0,907.2183534415436,0.0,1.0,100.77788049462274,5752.174000920239,1.0,1.0,-0.22325389695130374,14.186765282883718,-0.05285412494434853,-45.80272180287493,1.0,907.8000320187687,0.0,1.0,-0.1784822761561118,12.168077315970137
2.15,2.15,1.0,16.337630185275103,0.062334059897908,9.309400384495813,0.0014088207245657803,-0.01170889414056445,0.0035567166240103973,18.803908666144025,0.01231800353029753,1.0,0.0,168.4637646075872,-0.03241523959397065,907.57754666236,99.29129619060326,0.03993393107929061,4.925493041247087,1.0,908.1537671867661,0.0,1.0,101.56406918592407,5645.942421817873,1.0,1.0,-1.7872123099639177,14.159579686339338,-0.021349195972424427,-45.88470076273602,1.0,908.1828503621125,0.0,1.0,0.03779120529700979,12.890681114903716
2.1750000000000003,2.1750000000000003,1.0,16.420705542393623,-0.01109758942176667,9.430072720487397,0.0006492350728247985,-0.00859277550824144,0.002322405795500892,18.935838116655102,0.008924733373821086,1.0,0.0,168.4637646075872,-0.03241523959397065,907.57754666236,99.29129619060326,0.03993393107929061,4.925493041247087,1.0,908.1537671867661,0.0,1.0,102.02735332832651,5883.0547488820475,1.0,1.0,-1.7872123099639177,14.159579686339338,-0.021349195972424427,-45.88470076273602,1.0,908.1828503621125,0.0,1.0,0.03779120529700979,12.890681114903716
2.2,2.2,1.0,16.35594394918036,0.03934266153242161,9.461463021436684,0.0011307744336373727,-0.008958006885533191,-0.0015278945024897884,18.895442117604972,0.009157455967230554,1.0,0.0,190.5798815038064,1.2922169931844878,911.0526824807985,102.01300516977784,0.04283770639830274,5.250487016191752,1.0,908.4412094702154,0.0,1.0,102.27667760713487,5858.43909307577,1.0,1.0,-0.17439096541991375,14.07907718383321,0.012916095594845085,-45.83806574496533,1.0,908.1813386007957,0.0,1.0,0.43333009650725873,12.459753444564912
2.225,2.225,1.0,16.305621889392135,0.022929389437489397,9.578214617440086,0.00197531012138196,-0.014172618214520514,-0.0023048843525609614,18.91073838363978,0.014494048744532117,1.0,0.0,190.5798815038064,1.2922169931844878,911.0526824807985,102.01300516977784,0.04283770639830274,5.250487016191752,1.0,908.4412094702154,0.0,1.0,103.2512749355177,6053.280624218862,1.0,1.0,-0.17439096541991375,14.07907718383321,0.012916095594845085,-45.83806574496533,1.0,908.1813386007957,0.0,1.0,0.43333009650725873,12.459753444564912
2.25,2.25,1.0,16.318973668799536,-0.017462315418346672,9.53665312197957,0.0008666390442219166,-0.012449227111181654,-0.000264903312821012,18.901242268813842,0.012482166985900075,1.0,0.0,190.5798815038064,1.2922169931844878,911.0526824807985,102.01300516977784,0.04283770639830274,5.250487016191752,1.0,909.3030231729335,0.0,1.0,102.72931428606825,5956.180052276243,1.0,1.0,-0.3610164305969021,14.148384625591069,0.0321641024469001,-45.92693621319808,1.0,908.6148085765791,0.0,1.0,0.3849678171044238,13.06685394899419
2.275,2.275,1.0,16.269569241363712,-0.05594943798196808,9.672713577241774,-0.0011835987795005857,-0.014034627494037243,-0.0024366417800528364,18.927847251774196,0.01429366636421602,1.0,0.0,190.5798815038064,1.2922169931844878,911.0526824807985,102.01300516977784,0.04283770639830274,5.250487016191752,1.0,909.3030231729335,0.0,1.0,103.28081326191476,6021.914105936752,1.0,1.0,-0.3610164305969021,14.148384625591069,0.0321641024469001,-45.92693621319808,1.0,908.6148085765791,0.0,1.0,0.3849678171044238,13.06685394899419
2.3000000000000003,2.3000000000000003,1.0,16.335712562171413,-0.04520897436114612,9.687500107784278,0.003451160615021733,-0.013691612601178259,-0.0017994938602136884,18.99224070781455,0.014234076835691426,1.0,0.0,190.5798815038064,1.2922169931844878,911.0526824807985,102.01300516977784,0.04283770639830274,5.250487016191752,1.0,908.2469410394265,0.0,1.0,103.36370484749109,6060.121650582745,1.0,1.0,-0.7632333850056491,14.133126430612286,0.0030175913066461243,-45.87697807187093,1.0,909.1455086569187,0.0,1.0,-0.15057536392989848,13.580353589304897
2.325,2.325,1.0,16.27117988283521,0.00010391689411304849,9.824374268452344,0.0031978629434828414,-0.012781988115032502,-0.0004134841647121651,19.007094058719456,0.013182432125089839,1.0,0.0,190.5798815038064,1.2922169931844878,911.0526824807985,102.01300516977784,0.04283770639830274,5.250487016191752,1.0,908.2469410394265,0.0,1.0,103.69103672741302,5987.97065573804,1.0,1.0,-0.7632333850056491,14.133126430612286,0.0030175913066461243,-45.87697807187093,1.0,909.1455086569187,0.0,1.0,-0.15057536392989848,13.580353589304897
2.35,2.35,1.0,16.24426765280463,-0.07384579997805028,9.870805555295446,0.001546331848930556,-0.009891541817965924,-0.004722843548015193,19.00827417438471,0.011069733190218017,1.0,0.0,190.5798815038064,1.2922169931844878,911.0526824807985,102.01300516977784,0.04283770639830274,5.250487016191752,1.0,908.5409513017236,0.0,1.0,103.9909484148865,6185.9766058140485,1.0,1.0,-1.1430981180547253,14.01073723158895,-0.01614784306470688,-45.95702075473659,1.0,909.7603483826903,0.0,1.0,0.5436536319882551,12.504907655259947
2.375,2.375,1.0,16.224271498190234,-0.007512458886834205,9.893089355900068,0.002310040605383624,-0.016351922500899764,-0.0002596361405419495,19.002638213886243,0.016516327315702746,1.0,0.0,190.5798815038064,1.2922169931844878,911.0526824807985,102.01300516977784,0.04283770639830274,5.250487016191752,1.0,908.5409513017236,0.0,1.0,104.8378901784253,6149.596280329353,1.0,1.0,-1.1430981180547253,14.01073723158895,-0.01614784306470688,-45.95702075473659,1.0,909.7603483826903,0.0,1.0,0.5436536319882551,12.504907655259947
2.4000000000000004,2.4000000000000004,1.0,16.170923835415266,-0.03641801704974167,9.841894988401911,-0.0004858262009139639,-0.014077905222478383,0.001972797386637335,18.930478095534145,0.014223760827548448,1.0,0.0,211.34241020170688,0.9094522488777318,909.6382763836408,105.08383405244751,0.2315198801374731,5.8511557224226625,1.0,908.9803029506272,0.0,1.0,104.6976930522736,6167.658458474304,1.0,1.0,0.5730385195276715,13.986094788192016,-0.055692786427280934,-45.907992014055175,1.0,909.7266054900931,0.0,1.0,-0.18408438782367612,13.308515451234797
2.4250000000000003,2.4250000000000003,1.0,16.25945912099142,-0.00276091304484451,10.044510923906502,0.0013055688641043623,-0.01786874759674488,0.0021477986565138626,19.111834507192366,0.018044658206904818,1.0,0.0,211.34241020170688,0.9094522488777318,909.6382763836408,105.08383405244751,0.2315198801374731,5.8511557224226625,1.0,908.9803029506272,0.0,1.0,105.94498317981977,6170.940250923047,1.0,1.0,0.5730385195276715,13.986094788192016,-0.055692786427280934,-45.907992014055175,1.0,909.7266054900931,0.0,1.0,-0.18408438782367612,13.308515451234797
2.45,2.45,1.0,16.195798435280324,-0.036069134003124934,9.991532691659536,0.0010945283300667615,-0.018665146971830696,0.006078232844581744,19.029868981870518,0.019660381945890867,1.0,0.0,211.34241020170688,0.9094522488777318,909.6382763836408,105.08383405244751,0.2315198801374731,5.8511557224226625,1.0,909.5000091651548,0.0,1.0,105.49208803342638,6195.622914758732,1.0,1.0,-1.033806657202185,13.978197907188564,-0.07977236667270175,-45.914039445568825,1.0,909.8239601054421,0.0,1.0,0.32660421774361775,12.42509787836306
2.475,2.475,1.0,16.14474820916236,0.03849048969925363,10.011016403647602,0.0009792456981280245,-0.016819575911361982,0.00027183107330828695,18.996705653590304,0.016850250683826232,1.0,0.0,211.34241020170688,0.9094522488777318,909.6382763836408,105.08383405244751,0.2315198801374731,5.8511557224226625,1.0,909.5000091651548,0.0,1.0,106.4654025071438,6319.105699920349,1.0,1.0,-1.033806657202185,13.978197907188564,-0.07977236667270175,-45.914039445568825,1.0,909.8239601054421,0.0,1.0,0.32660421774361775,12.42509787836306
2.5,2.5,1.0,16.14865323786697,0.020373507734397115,10.113753987787556,0.0040195122366275425,-0.01716622887145546,0.0010656922310533386,19.054328542412023,0.017662717577397794,1.0,0.0,211.34241020170688,0.9094522488777318,909.6382763836408,105.08383405244751,0.2315198801374731,5.8511557224226625,1.0,910.3669709156563,0.0,1.0,106.15324499599002,6306.415106262973,1.0,1.0,-1.0905924273423888,13.837867229839203,0.03937927409754451,-45.931759617995354,1.0,910.223133584678,0.0,1.0,-0.02409732491432169,13.321204289406591
2.5250000000000004,2.5250000000000004,1.0,16.112600123141195,-0.029811111796795766,10.187987641865696,-0.0007839520598062783,-0.018329336138441944,0.0017289766678407262,19.063364436044452,0.0184273846333658,1.0,0.0,211.34241020170688,0.9094522488777318,909.6382763836408,105.08383405244751,0.2315198801374731,5.8511557224226625,1.0,910.3669709156563,0.0,1.0,106.42587581473565,6479.008768179326,1.0,1.0,-1.0905924273423888,13.837867229839203,0.03937927409754451,-45.931759617995354,1.0,910.223133584678,0.0,1.0,-0.02409732491432169,13.321204289406591
2.5500000000000003,2.5500000000000003,1.0,16.12264141353234,0.023000386785866113,10.238433374875195,-0.0028529174911032648,-0.012839133627426672,-0.001230686137890335,19.0988380049389,0.013209734247287368,1.0,0.0,211.34241020170688,0.9094522488777318,909.6382763836408,105.08383405244751,0.2315198801374731,5.8511557224226625,1.0,909.7692806899045,0.0,1.0,106.88497018319936,6406.664813741099,1.0,1.0,2.2360460980944152,13.892499896461208,0.028643417184441536,-45.9895328592461,1.0,910.3899215939753,0.0,1.0,0.10562736485976498,13.361252559051824
2.575,2.575,1.0,16.14719362538958,-0.003230411192177602,10.21189839866852,-0.001491060703802359,-0.02149041744638426,0.00017427816333300108,19.1053589685226,0.021542787120530513,1.0,0.0,211.34241020170688,0.9094522488777318,909.6382763836408,105.08383405244751,0.2315198801374731,5.8511557224226625,1.0,909.7692806899045,0.0,1.0,107.59630673863896,6442.796938352936,1.0,1.0,2.2360460980944152,13.892499896461208,0.028643417184441536,-45.9895328592461,1.0,910.3899215939753,0.0,1.0,0.10562736485976498,13.361252559051824
2.6,2.6,1.0,16.072211274718015,-0.045155081611398966,10.312761496903715,-0.0017074973477875744,-0.0173707779966486,-0.0018777802672235715,19.096362583816532,0.017555213873192404,1.0,0.0,229.1020256918361,-1.2892588245801666,911.8908920906879,107.66296250481172,-0.006995555042271527,6.388916139588112,1.0,911.8802208200849,0.0,1.0,108.4478250195559,6520.572763052583,1.0,1.0,-2.3524162098922257,13.794234697058583,-0.01869441659544215,-45.94047843738123,1.0,910.9683336627221,0.0,1.0,-0.3215111095773704,12.700506236237063
2.625,2.625,1.0,16.108845788800476,0.027632015513170065,10.398836506176279,-0.0004952510932287822,-0.018505916942406993,0.0018830397917630173,19.17371838892552,0.018608064767244695,1.0,0.0,229.1020256918361,-1.2892588245801666,911.8908920906879,107.66296250481172,-0.006995555042271527,6.388916139588112,1.0,911.8802208200849,0.0,1.0,108.48390882218504,6539.80523104166,1.0,1.0,-2.3524162098922257,13.794234697058583,-0.01869441659544215,-45.94047843738123,1.0,910.9683336627221,0.0,1.0,-0.3215111095773704,12.700506236237063
2.6500000000000004,2.6500000000000004,1.0,16.036724991625306,-0.024981049355467393,10.439847215367994,-0.0013123678735658853,-0.014236557891618332,-0.0002961768117136205,19.13550580439601,0.014299986389530756,1.0,0.0,229.1020256918361,-1.2892588245801666,911.8908920906879,107.66296250481172,-0.006995555042271527,6.388916139588112,1.0,910.659023615257,0.0,1.0,107.56456537115427,6594.35143175409,1.0,1.0,-1.0581171609019915,13.748032854606194,-0.07820662359489025,-45.89370694081761,1.0,910.9623713872627,0.0,1.0,0.4846772844908267,13.341310786959326
2.6750000000000003,2.6750000000000003,1.0,16.063131586408215,-0.005534070712834205,10.488694040059196,0.0010213870680117118,-0.0184369225980107,-0.0014603746253984732,19.184288614753928,0.018522851845065517,1.0,0.0,229.1020256918361,-1.2892588245801666,911.8908920906879,107.66296250481172,-0.006995555042271527,6.388916139588112,1.0,910.659023615257,0.0,1.0,109.40529546528329,6701.970784954471,1.0,1.0,-1.0581171609019915,13.748032854606194,-0.07820662359489025,-45.89370694081761,1.0,910.9623713872627,0.0,1.0,0.4846772844908267,13.341310786959326
2.7,2.7,1.0,16.071764844251646,-0.047363321755342906,10.54525642226318,-0.0016046748749256815,-0.01696784833189928,-0.0025027949415269996,19.222546696638656,0.017226341485872387,1.0,0.0,229.1020256918361,-1.2892588245801666,911.8908920906879,107.66296250481172,-0.006995555042271527,6.388916139588112,1.0,910.510685670007,0.0,1.0,109.53349517867834,6600.36657881168,1.0,1.0,0.8034034055504884,13.794217802993586,-0.03373762938658322,-45.954431974327775,1.0,911.2511158304443,0.0,1.0,0.05900824095621525,13.699370030938269
2.725,2.725,1.0,16.103244588771638,-0.027115290034011436,10.610248562334382,0.001719686868959467,-0.0152554431889863,0.0008283045487547271,19.284517004044343,0.015374392939077233,1.0,0.0,229.1020256918361,-1.2892588245801666,911.8908920906879,107.66296250481172,-0.006995555042271527,6.388916139588112,1.0,910.510685670007,0.0,1.0,108.9366544202256,6724.073103062641,1.0,1.0,0.8034034055504884,13.794217802993586,-0.03373762938658322,-45.954431974327775,1.0,911.2511158304443,0.0,1.0,0.05900824095621525,13.699370030938269
2.75,2.75,1.0,15.982671214614724,-0.03195152890805964,10.682825321502719,0.0008978468364103028,-0.020739217484206204,0.0005543959269164206,19.224191970130068,0.020766045016869194,1.0,0.0,229.1020256918361,-1.2892588245801666,911.8908920906879,107.66296250481172,-0.006995555042271527,6.388916139588112,1.0,911.9512816464302,0.0,1.0,109.43517396239548,6805.904181038726,1.0,1.0,-0.773210730050424,13.683098105379399,-0.026211769996371564,-45.98719514652159,1.0,911.7371913676623,0.0,1.0,0.023994442396736537,13.798616139843869
2.7750000000000004,2.7750000000000004,1.0,16.02129228209252,-0.03183239977218365,10.671231950777319,-0.00034054959746163225,-0.020730165529203506,-0.004767543696362061,19.24988340321061,0.02127405015020013,1.0,0.0,229.1020256918361,-1.2892588245801666,911.8908920906879,107.66296250481172,-0.006995555042271527,6.388916139588112,1.0,911.9512816464302,0.0,1.0,109.93622841621962,6768.658930934403,1.0,1.0,-0.773210730050424,13.683098105379399,-0.026211769996371564,-45.98719514652159,1.0,911.7371913676623,0.0,1.0,0.023994442396736537,13.798616139843869
