time_s,x_m,y_m,altitude_m,vx_mps,vy_mps,vz_mps,speed_mps,mass_kg,roll_deg,pitch_deg,yaw_deg,p_dps,q_dps,r_dps,alpha_deg,beta_deg,qbar_pa,mach,airspeed_mps,load_factor_g,density_kgpm3,pressure_pa,temperature_k,wind_x_mps,wind_y_mps,wind_z_mps,thrust_n,mass_flow_kgps,propulsion_throttle_actual,propulsion_health,energy_j_per_kg,target_distance_m,guidance_mode,pitch_command_deg,heading_command_deg,roll_command_deg,elevator_command_deg,aileron_command_deg,rudder_command_deg,elevator_deg,aileron_deg,rudder_deg,throttle,elevator_saturated,aileron_saturated,rudder_saturated,elevator_failed,aileron_failed,rudder_failed,elevator_raw_rad,aileron_raw_rad,rudder_raw_rad,elevator_effective_rad,aileron_effective_rad,rudder_effective_rad,sensor_time_s,imu_valid,imu_ax_mps2,imu_ay_mps2,imu_az_mps2,gyro_p_rps,gyro_q_rps,gyro_r_rps,imu_accel_norm_mps2,imu_gyro_norm_rps,gps_valid,gps_latency_s,gps_x_m,gps_y_m,gps_z_m,gps_vx_mps,gps_vy_mps,gps_vz_mps,baro_valid,baro_alt_m,baro_bias_m,pitot_valid,pitot_airspeed_mps,pitot_qbar_pa,pitot_compressibility_factor,mag_valid,mag_heading_deg,mag_x_ut,mag_y_ut,mag_z_ut,radar_valid,radar_agl_m,optical_flow_valid,optical_flow_x_radps,optical_flow_y_radps,optical_flow_quality,horizon_valid,horizon_roll_deg,horizon_pitch_deg
0.0,0.0,0.0,120.0,86.0,0.0,16.0,87.47571091451616,18.0,0.0,10.0,0.0,0.0,0.0,0.0,-0.5391837286282299,0.0,4633.093410827757,0.2574078588887444,87.47571091451614,1.7887233382662049,1.2109496630495968,99891.70180372041,287.37,0.0,0.0,0.0,334.4,0.17947005348411538,0.88,nominal,5002.798,nan,pitch_program,14.999999999999998,0.0,0.0,-20.05352282957881,-0.0,0.0,-2.6999999999999997,0.0,0.0,0.88,0.0,0.0,0.0,0.0,0.0,0.0,-0.047123889803846894,0.0,0.0,-0.047123889803846894,0.0,0.0,0.0,1.0,17.56339402572519,0.04248571114457688,-0.7813308927096466,-0.00027568490497605015,0.0007811719919156668,0.000485939220168199,17.58081604199399,0.0009604003193891711,1.0,0.0,-1.1162081080547748,-0.4584631380317187,119.8408002840318,86.00638427343237,0.12549532301118693,16.279364599631737,1.0,120.4318804253634,0.0,1.0,87.99906270437734,4695.892219494843,1.0,1.0,-0.0842050595302957,16.428433789951782,-0.02428695936758103,-45.07045146137096,1.0,119.96205820182428,1.0,0.00982307525529414,0.7345592020211932,0.7,1.0,0.016828686967098827,9.895241635134976
0.03,2.5956430605347935,0.0,120.47330314433844,86.52143535115978,0.0,15.776771477948124,87.94808294381589,17.994615898395477,0.0,10.379294008134904,0.0,0.0,-12.64317977685787,0.0,0.04521865340142464,0.0,4683.052886220638,0.2587992560201085,87.94808294381589,1.8242609113471797,1.2108944909902168,99886.08128676451,287.3669235295618,0.0,0.0,0.0,340.34,0.1826580083815306,0.88,nominal,5048.872165026586,nan,pitch_program,14.977500000000001,0.0,0.0,2.033347099770267,-0.0,0.0,0.0,0.0,0.0,0.88,0.0,0.0,0.0,0.0,0.0,0.0,0.0,0.0,0.0,0.0,0.0,0.0,0.03,1.0,17.848734372452476,-0.020150611323537855,-0.0592477949244608,0.0014013198376487883,-0.22198741038037403,-0.0006567103192016969,17.848844081528267,0.22199280468770904,1.0,0.0,-1.1162081080547748,-0.4584631380317187,119.8408002840318,86.00638427343237,0.12549532301118693,16.279364599631737,1.0,120.4318804253634,0.0,1.0,87.80177974651848,4551.20589215681,1.0,1.0,-0.0842050595302957,16.428433789951782,-0.02428695936758103,-45.07045146137096,1.0,119.96205820182428,1.0,0.00982307525529414,0.7345592020211932,0.7,1.0,0.016828686967098827,9.895241635134976
0.06,5.207117622037693,0.0,120.94071364687782,87.04915205009665,0.0,15.580350084645863,88.43247243745348,17.98913615814403,0.0,10.71856298807445,0.0,0.0,-11.308999041498259,0.0,0.5710201539552378,0.0,4734.567376820198,0.26022601393319017,88.43247243745348,1.8519928097061003,1.210840007712342,99880.5309967695,287.3638853612953,0.0,0.0,0.0,346.28000000000003,0.1858459632789458,0.88,nominal,5096.17434018564,nan,pitch_program,14.955000000000002,0.0,0.0,1.766435891165535,-0.0,0.0,1.059861534699321,0.0,0.0,0.88,0.0,0.0,0.0,0.0,0.0,0.0,0.01849807339574328,0.0,0.0,0.01849807339574328,0.0,0.0,0.06,1.0,18.194776995668324,-0.09282470438348522,0.5538774344333411,0.0012690051685581081,-0.19882843458063862,6.691650302092794e-05,18.203442162410372,0.1988324954571649,1.0,0.0,-1.1162081080547748,-0.4584631380317187,119.8408002840318,86.00638427343237,0.12549532301118693,16.279364599631737,1.0,120.50972272192821,0.0,1.0,88.11838159527207,4727.058665483131,1.0,1.0,-0.6798984261198893,15.802798115200412,-0.012755639329090402,-45.30792025658187,1.0,120.51360547747456,1.0,-0.007570696944051202,0.7318204461951261,0.6976482158828055,1.0,-0.9584155058592988,10.509783321049564
0.09,7.834545991204717,0.0,121.4028561183601,87.5809456389008,0.0,15.4047490494095,88.92540881142678,17.983560779245664,0.0,10.83555423188443,0.0,0.0,-3.8997094819155955,0.0,0.8597516006520374,0.0,4787.283933155026,0.2616779219767881,88.92540881142679,1.881882387234894,1.2107861403415472,99875.04350780597,287.3608814352306,0.0,0.0,0.0,352.22,0.18903391817636103,0.88,nominal,5144.419485092806,nan,pitch_program,14.9325,0.0,0.0,-0.7511506034664003,-0.0,0.0,-0.02674574820011172,0.0,0.0,0.88,0.0,0.0,0.0,0.0,0.0,0.0,-0.00046680136700129674,0.0,0.0,-0.00046680136700129674,0.0,0.0,0.09,1.0,18.415410300313482,-0.04869298025269183,0.6698218432220474,-0.0008124208664803149,-0.06900750606820658,0.001795024212695956,18.42765228771357,0.0690356287241742,1.0,0.0,-1.1162081080547748,-0.4584631380317187,119.8408002840318,86.00638427343237,0.12549532301118693,16.279364599631737,1.0,120.50972272192821,0.0,1.0,89.14171133823325,4738.195441422652,1.0,1.0,-0.6798984261198893,15.802798115200412,-0.012755639329090402,-45.30792025658187,1.0,120.51360547747456,1.0,-0.007570696944051202,0.7318204461951261,0.6976482158828055,1.0,-0.9584155058592988,10.509783321049564
0.12,10.478156155349456,0.0,121.85991778679073,88.12033880482463,0.0,15.235388947687467,89.42768691777954,17.977889761700375,0.0,10.860103243501271,0.0,0.0,-0.8183003997466171,0.0,1.0510349435666173,0.0,4841.303751116514,0.2631573198403331,89.42768691777954,1.9126104445201482,1.210732866992883,99869.61658851508,287.35791053438584,0.0,0.0,0.0,358.16,0.19222187307377622,0.88,nominal,5193.6931564960305,nan,pitch_program,14.910000000000002,0.0,0.0,-1.805725938174634,-0.0,0.0,-1.0941338621848251,0.0,0.0,0.88,0.0,0.0,0.0,0.0,0.0,0.0,-0.019096238352687075,0.0,0.0,-0.019096238352687075,0.0,0.0,0.12,1.0,18.84150729476673,-0.07421896129332882,0.7521081074704365,0.0008288514001296105,-0.009609612660574605,-0.0002654340544112042,18.856658563973788,0.009648943225401097,1.0,0.0,-1.1162081080547748,-0.4584631380317187,119.8408002840318,86.00638427343237,0.12549532301118693,16.279364599631737,1.0,121.99631900032004,0.0,1.0,89.14451588434397,4768.868091162048,1.0,1.0,0.939779523144335,15.77929078717938,-0.02340851127904854,-45.309498209375064,1.0,121.62307854746952,1.0,0.0058785478850888855,0.7513810935776226,0.6953502055330232,1.0,0.31641176703809826,10.99955986505921
0.15,13.138204169135712,0.0,122.31199492247063,88.66826712620849,0.0,15.069237855996453,89.93966602520415,17.97212310550816,0.0,10.919562534518164,0.0,0.0,-1.9819765451032667,0.0,1.2742602019930311,0.0,4896.6828546637225,0.26466526520238287,89.93966602520416,1.9435216226275913,1.210680176386172,99864.24908793568,287.35497203300395,0.0,0.0,0.0,364.1,0.19540982797119144,0.88,nominal,5244.042687369078,nan,pitch_program,14.8875,0.0,0.0,-1.3549228881483992,-0.0,0.0,-1.2506072777629695,0.0,0.0,0.88,0.0,0.0,0.0,0.0,0.0,0.0,-0.021827214646367082,0.0,0.0,-0.021827214646367082,0.0,0.0,0.15,1.0,19.05744260631839,-0.004076526513633609,0.9320676454044701,0.0005341027584036471,-0.034524554904198326,-0.0037697934285378476,19.08022236261406,0.03473386675254263,1.0,0.0,-1.1162081080547748,-0.4584631380317187,119.8408002840318,86.00638427343237,0.12549532301118693,16.279364599631737,1.0,121.99631900032004,0.0,1.0,89.9461182132533,4814.025539403284,1.0,1.0,0.939779523144335,15.77929078717938,-0.02340851127904854,-45.309498209375064,1.0,121.62307854746952,1.0,0.0058785478850888855,0.7513810935776226,0.6953502055330232,1.0,0.31641176703809826,10.99955986505921
0.18,15.814916393943884,0.0,122.75931413726458,89.22374082693908,0.0,14.910640493131783,90.46105862230563,17.966260810669024,0.0,11.008940168874412,0.0,0.0,-2.9792550826834905,0.0,1.5216170325528262,0.0,4953.407589720369,0.26620091286451175,90.46105862230563,1.9746084428562074,1.2106280420525304,99858.93830795024,287.35206445810775,0.0,0.0,0.0,370.04,0.19859778286860666,0.88,nominal,5295.459191518314,nan,pitch_program,14.865,0.0,0.0,-0.9455376672215879,-0.0,0.0,-1.0675655114381406,0.0,0.0,0.88,0.0,0.0,0.0,0.0,0.0,0.0,-0.018632533155332736,0.0,0.0,-0.018632533155332736,0.0,0.0,0.18,1.0,19.318867022447876,0.018910536891683094,1.2329525583005212,-0.0005192007835643458,-0.05438324467617435,0.0003088937713254065,19.35818050981159,0.054386600246055676,1.0,0.0,-1.1162081080547748,-0.4584631380317187,119.8408002840318,86.00638427343237,0.12549532301118693,16.279364599631737,1.0,122.92463383582412,0.0,1.0,90.42542335900524,4889.119599895154,1.0,1.0,-0.8111352217777981,15.620256094125452,-0.030786737463831246,-45.427323839448,1.0,122.85138105930514,1.0,-0.012853064863630205,0.7395294922661539,0.6931017146568386,1.0,0.11310694744292515,11.464239317514005
0.21,18.508501897426395,0.0,123.20216923607711,89.7861834494171,0.0,14.76183662708438,90.99159609006269,17.960302877182965,0.0,11.07601025809763,0.0,0.0,-2.2356698960669497,0.0,1.7394808022716663,0.0,5011.465954555315,0.2677634734163675,90.99159609006269,2.005911240114054,1.210576429696308,99853.68075329036,287.34918589996545,0.0,0.0,0.0,375.98,0.20178573776602185,0.88,nominal,5347.935832447531,nan,pitch_program,14.8425,0.0,0.0,-1.157893039205375,-0.0,0.0,-1.1217620280984812,0.0,0.0,0.88,0.0,0.0,0.0,0.0,0.0,0.0,-0.019578440814167642,0.0,0.0,-0.019578440814167642,0.0,0.0,0.21,1.0,19.597766771344887,-0.029904349387834518,1.3809063837703186,0.0016542400990902355,-0.04212777927753263,-0.00027014707696579337,19.64638030617548,0.04216111095079373,1.0,0.0,18.133694923382706,1.7349939295591268,121.62898997795084,89.79351546886488,-0.17244246965250445,14.999631091854342,1.0,122.92463383582412,0.0,1.0,90.52953965799064,5059.246182501478,1.0,1.0,-0.8111352217777981,15.620256094125452,-0.030786737463831246,-45.427323839448,1.0,122.85138105930514,1.0,-0.012853064863630205,0.7395294922661539,0.6931017146568386,1.0,0.11310694744292515,11.464239317514005
0.24,21.21918153651727,0.0,123.64080598947515,90.35598796969578,0.0,14.62122511326827,91.53133226274309,17.954249305049984,0.0,11.107368322262401,0.0,0.0,-1.045268831583963,0.0,1.915556699925731,0.0,5070.881317615455,0.2693531061946918,91.5313322627431,2.0373889146334654,1.2105253106247262,99848.47349957906,287.34633476106836,0.0,0.0,0.0,381.92,0.20497369266343707,0.88,nominal,5401.494502953024,nan,pitch_program,14.82,0.0,0.0,-1.5466004175483257,-0.0,0.0,-1.376665061768388,0.0,0.0,0.88,0.0,0.0,0.0,0.0,0.0,0.0,-0.02402733802502948,0.0,0.0,-0.02402733802502948,0.0,0.0,0.24,1.0,19.944402773084878,-0.06286415658082214,1.51953456446597,0.0005369893937515798,-0.01894499805535672,-0.0013825964985370832,20.00230334661049,0.019002970346875737,1.0,0.0,18.133694923382706,1.7349939295591268,121.62898997795084,89.79351546886488,-0.17244246965250445,14.999631091854342,1.0,124.5164017676355,0.0,1.0,91.66062068538758,5027.535189384246,1.0,1.0,-1.2711005404741973,15.521306393625688,0.0458382843691642,-45.38564334889758,1.0,123.56472294527372,1.0,0.0037891423914814455,0.7567624761879014,0.6908979850263122,1.0,-0.14162378813977217,10.881131335636189
0.27,23.947192392610447,0.0,124.0754108415449,90.9336952031059,0.0,14.486828402324717,92.08042745583758,17.94810009427008,0.0,11.122261187980637,0.0,0.0,-0.496428860069457,0.0,2.0704242087403077,0.0,5131.689385675827,0.27097028371569054,92.08042745583758,2.0690716544853007,1.2104746630628092,99843.31432724312,287.3435098295299,0.0,0.0,0.0,387.86,0.20816164756085226,0.88,nominal,5456.16668795412,nan,pitch_program,14.7975,0.0,0.0,-1.7199595402391594,-0.0,0.0,-1.5826417488508508,0.0,0.0,0.88,0.0,0.0,0.0,0.0,0.0,0.0,-0.027622309396968532,0.0,0.0,-0.027622309396968532,0.0,0.0,0.27,1.0,20.20563677371601,0.012986545480746896,1.6447415261901461,0.0001008581770616397,-0.006713026640020051,-0.0008899924228326387,20.272471501266995,0.006772516929044815,1.0,0.0,18.133694923382706,1.7349939295591268,121.62898997795084,89.79351546886488,-0.17244246965250445,14.999631091854342,1.0,124.5164017676355,0.0,1.0,91.70154866941053,5135.774462113301,1.0,1.0,-1.2711005404741973,15.521306393625688,0.0458382843691642,-45.38564334889758,1.0,123.56472294527372,1.0,0.0037891423914814455,0.7567624761879014,0.6908979850263122,1.0,-0.14162378813977217,10.881131335636189
0.3,26.692776180947636,0.0,124.50615774057718,91.5194596112396,0.0,14.358229967742815,92.63892408345373,17.941855244843257,0.0,11.133945462570411,0.0,0.0,-0.3894758210088833,0.0,2.2176520942910147,0.0,5193.91338475586,0.2726151315156149,92.63892408345373,2.1009474343438903,1.2104244666949493,99838.20116546525,287.3407099746862,0.0,0.0,0.0,393.8,0.21134960245826748,0.88,nominal,5511.973439476583,nan,pitch_program,14.775,0.0,0.0,-1.7404345425015095,-0.0,0.0,-1.6773174250412461,0.0,0.0,0.88,0.0,0.0,0.0,0.0,0.0,0.0,-0.02927471166804293,0.0,0.0,-0.02927471166804293,0.0,0.0,0.3,1.0,20.575734395959657,-0.021831753381843528,1.782299416864643,-0.0026664445242234897,-0.008718511159393086,-0.0025447543935231817,20.652794333210437,0.009465629306104202,1.0,0.0,18.133694923382706,1.7349939295591268,121.62898997795084,89.79351546886488,-0.17244246965250445,14.999631091854342,1.0,124.41659479539649,0.0,1.0,92.92028751378733,5203.995492096651,1.0,1.0,0.04486477584847279,15.465935250564453,-0.0854600085607019,-45.40473898068821,1.0,124.27934464087353,1.0,-0.009262370585037401,0.7638272687328359,0.688734605648557,1.0,-0.23288319188166628,10.91285859432046
0.32999999999999996,29.456173318811558,0.0,124.93322922865299,92.11323792879743,0.0,14.235716269193562,93.20678204628797,17.93551475676951,0.0,11.139932579203569,0.0,0.0,-0.19957055462015483,0.0,2.354613179528179,0.0,5257.567657566731,0.2742875323461989,93.20678204628797,2.132944649371651,1.2103747002070937,99833.13184181778,287.3379340100137,0.0,0.0,0.0,399.74,0.21453755735568267,0.88,nominal,5568.928562127284,nan,pitch_program,14.752499999999998,0.0,0.0,-1.7931161405831306,-0.0,0.0,-1.7467966543663767,0.0,0.0,0.88,0.0,0.0,0.0,0.0,0.0,0.0,-0.030487352981514657,0.0,0.0,-0.030487352981514657,0.0,0.0,0.32999999999999996,1.0,20.85729591211242,0.0011583273850309691,1.9167030980084319,0.00030061734723406527,0.00030832552751394477,-0.0028933809484607883,20.94517951398505,0.0029252502001180427,1.0,0.0,18.133694923382706,1.7349939295591268,121.62898997795084,89.79351546886488,-0.17244246965250445,14.999631091854342,1.0,124.41659479539649,0.0,1.0,93.23715211019625,5192.864446867124,1.0,1.0,0.04486477584847279,15.465935250564453,-0.0854600085607019,-45.40473898068821,1.0,124.27934464087353,1.0,-0.009262370585037401,0.7638272687328359,0.688734605648557,1.0,-0.23288319188166628,10.91285859432046
0.36,32.237625769518495,0.0,125.35680415074063,92.71508169023117,0.0,14.119164069588091,93.78399206074663,17.92907863004884,0.0,11.135452575725427,0.0,0.0,0.14933344934738613,0.0,2.476661224533045,0.0,5322.670251665823,0.27598745963664495,93.78399206074661,2.165010136776021,1.2103253427190304,99828.10422815963,287.33518077302017,0.0,0.0,0.0,405.68,0.21772551225309789,0.88,nominal,5627.048886849954,nan,pitch_program,14.73,0.0,0.0,-1.9072980723098827,-0.0,0.0,-1.8430975051324803,0.0,0.0,0.88,0.0,0.0,0.0,0.0,0.0,0.0,-0.032168119899854866,0.0,0.0,-0.032168119899854866,0.0,0.0,0.36,1.0,21.14239056676891,-0.0694051568041879,2.059580772312899,0.004333840613622339,0.003915469174254314,0.0015822324212361653,21.24258385675507,0.006051159620571008,1.0,0.0,18.133694923382706,1.7349939295591268,121.62898997795084,89.79351546886488,-0.17244246965250445,14.999631091854342,1.0,125.64036297962915,0.0,1.0,93.5016988750105,5301.763058031142,1.0,1.0,0.6407898259559309,15.529179716428544,-0.06114128968705463,-45.380412118123374,1.0,125.60843186594798,1.0,-0.015751990826704178,0.7289429235584884,0.6866079896231485,1.0,0.11945850824704976,11.062960497617278
0.39,35.03738006985871,0.0,125.7770462698656,93.32514334467389,0.0,14.008070637498891,94.37059088131794,17.922546864681244,0.0,11.121551984804773,0.0,0.0,0.4633530329612534,0.0,2.5852029986649843,0.0,5389.244767984908,0.27771502225686817,94.37059088131794,2.197144022092969,1.2102763751108303,99823.11637574335,287.33244919924584,0.0,0.0,0.0,411.62,0.2209134671505131,0.88,nominal,5686.3556824469215,nan,pitch_program,14.707500000000001,0.0,0.0,-2.0145408257502675,-0.0,0.0,-1.9459634975031526,0.0,0.0,0.88,0.0,0.0,0.0,0.0,0.0,0.0,-0.033963470155054465,0.0,0.0,-0.033963470155054465,0.0,0.0,0.39,1.0,21.401087851164547,0.04393977561045533,2.1742566573670095,0.0012364040593313287,0.007372534863028865,-0.0001230330099291876,21.51129665848268,0.007476503355582693,1.0,0.0,18.133694923382706,1.7349939295591268,121.62898997795084,89.79351546886488,-0.17244246965250445,14.999631091854342,1.0,125.64036297962915,0.0,1.0,94.50844299876975,5454.401856820864,1.0,1.0,0.6407898259559309,15.529179716428544,-0.06114128968705463,-45.380412118123374,1.0,125.60843186594798,1.0,-0.015751990826704178,0.7289429235584884,0.6866079896231485,1.0,0.11945850824704976,11.062960497617278
0.42,37.85568660977467,0.0,126.19410744335607,93.94355133053193,0.0,13.902039116349316,94.96661270249031,17.91591946066673,0.0,11.101627283520852,0.0,0.0,0.6641567161571864,0.0,2.683923192666733,0.0,5457.314937890437,0.27947032151404816,94.96661270249031,2.2068115306686855,1.2102277796524432,99818.16647747619,287.32973830161814,0.0,0.0,0.0,413.57684210526315,0.22196369010892084,0.88,nominal,5746.870207851784,nan,pitch_program,14.684999999999999,0.0,0.0,-2.0855299701126295,-0.0,0.0,-2.0297033810688387,0.0,0.0,0.88,0.0,0.0,0.0,0.0,0.0,0.0,-0.03542500683851238,0.0,0.0,-0.03542500683851238,0.0,0.0,0.42,1.0,21.44910120472787,0.02905222855639895,2.3447428893251385,-0.0005434785269965214,0.01081309208935897,-0.0017964914686380428,21.576899817621705,0.010974776127063053,1.0,0.0,36.45994526090179,0.04586772371361476,126.06798730389426,94.12514477109198,0.009997325168780009,13.80777676890871,1.0,126.16652700816479,0.0,1.0,95.02032125206735,5433.799810729918,1.0,1.0,-0.5088732547899512,15.59303833984884,0.05971291821218362,-45.33290840958708,1.0,126.35462415477343,1.0,0.003268742441809963,0.7590959941278199,0.6845147313916098,1.0,0.2085838925536041,11.084848599087358
0.44999999999999996,40.69260149396823,0.0,126.60809573572689,94.5638294731186,0.0,13.799609745693909,95.56540730700887,17.90926054996346,0.0,11.077090418529261,0.0,0.0,0.8178955122197261,0.0,2.774575597719365,0.0,5526.131843307318,0.28123378742380994,95.56540730700887,2.205288024691168,1.210179543718713,99813.2532463155,287.32704737771775,0.0,0.0,0.0,413.5421052631579,0.22194504709782484,0.88,nominal,5807.974818924018,nan,pitch_program,14.662500000000001,0.0,0.0,-2.142630437426759,-0.0,0.0,-2.097459614883591,0.0,0.0,0.88,0.0,0.0,0.0,0.0,0.0,0.0,-0.03660757620733092,0.0,0.0,-0.03660757620733092,0.0,0.0,0.44999999999999996,1.0,21.541315725931703,-0.011703519339981226,2.4233721664424115,0.0034704749218375844,0.015454591910975755,-0.0009155566990363014,21.67720352890855,0.015865902161145803,1.0,0.0,36.45994526090179,0.04586772371361476,126.06798730389426,94.12514477109198,0.009997325168780009,13.80777676890871,1.0,126.16652700816479,0.0,1.0,95.56762886520427,5522.440563978642,1.0,1.0,-0.5088732547899512,15.59303833984884,0.05971291821218362,-45.33290840958708,1.0,126.35462415477343,1.0,0.003268742441809963,0.7590959941278199,0.6845147313916098,1.0,0.2085838925536041,11.084848599087358
0.48,43.548084221611404,0.0,127.01909587864834,95.18275758810579,0.0,13.700004764048174,96.1636494347581,17.902602198550525,0.0,11.047772556341878,0.0,0.0,0.9772620942357466,0.0,2.857231806356678,0.0,5595.314468397207,0.2829956344313135,96.1636494347581,2.203829196017927,1.2101316574047754,99808.37567235506,287.32437587678874,0.0,0.0,0.0,413.5073684210526,0.2219264040867288,0.88,nominal,5869.355552903872,nan,pitch_program,14.640000000000002,0.0,0.0,-2.2043820782179813,-0.0,0.0,-2.161613092884225,0.0,0.0,0.88,0.0,0.0,0.0,0.0,0.0,0.0,-0.03772726562504774,0.0,0.0,-0.03772726562504774,0.0,0.0,0.48,1.0,21.52301726162038,0.05737204919687159,2.5358903140423927,0.0021404129559412298,0.016504800102046007,0.0009296575816702622,21.67197045219682,0.01666895489374232,1.0,0.0,36.45994526090179,0.04586772371361476,126.06798730389426,94.12514477109198,0.009997325168780009,13.80777676890871,1.0,125.25233134927306,0.0,1.0,96.32501491237015,5577.9096284474035,1.0,1.0,1.6663672279521697,15.567625511114375,-0.04876466344028175,-45.464085716316916,1.0,127.10248550787483,1.0,0.005677999722008882,0.7550461475424978,0.6824522603033791,1.0,0.3502319545730923,11.20764315052158
0.51,46.4220962891292,0.0,127.42718676840795,95.80040225059311,0.0,13.60302965865343,96.76135327324464,17.895944406427923,0.0,11.013888843408779,0.0,0.0,1.129457130687311,0.0,2.932288560208962,0.0,5664.863247609873,0.28475590434139564,96.76135327324462,2.2024235034612465,1.2100841114870613,99803.5328151275,287.32172328600535,0.0,0.0,0.0,413.47263157894736,0.22190776107563284,0.88,nominal,5931.013564757232,nan,pitch_program,14.6175,0.0,0.0,-2.266187384013718,-0.0,0.0,-2.2243576675619208,0.0,0.0,0.88,0.0,0.0,0.0,0.0,0.0,0.0,-0.03882236504093699,0.0,0.0,-0.03882236504093699,0.0,0.0,0.51,1.0,21.498104935385033,0.0033644878524813036,2.5782998472985437,0.00032252780410555506,0.021595998363258085,0.00037665454911906747,21.65216287660853,0.021601690631513987,1.0,0.0,36.45994526090179,0.04586772371361476,126.06798730389426,94.12514477109198,0.009997325168780009,13.80777676890871,1.0,125.25233134927306,0.0,1.0,96.05523495935631,5660.539546383072,1.0,1.0,1.6663672279521697,15.567625511114375,-0.04876466344028175,-45.464085716316916,1.0,127.10248550787483,1.0,0.005677999722008882,0.7550461475424978,0.6824522603033791,1.0,0.3502319545730923,11.20764315052158
0.54,49.314601199018675,0.0,127.83244137352249,96.41683032964913,0.0,13.50848683715112,97.35853525729438,17.889287173595655,0.0,10.97630247799671,0.0,0.0,1.2528788919997451,0.0,3.000787782936036,0.0,5734.778923970179,0.28651464556065165,97.35853525729439,2.2010692580177142,1.2100368974339266,99798.72380468306,287.3190891310721,0.0,0.0,0.0,413.4378947368421,0.22188911806453684,0.88,nominal,5992.950204918571,nan,pitch_program,14.595000000000002,0.0,0.0,-2.3200045806138756,-0.0,0.0,-2.281745815393094,0.0,0.0,0.88,0.0,0.0,0.0,0.0,0.0,0.0,-0.0398239771722122,0.0,0.0,-0.0398239771722122,0.0,0.0,0.54,1.0,21.49538958226165,-0.023686661642629475,2.6115142313976065,0.0011728686017324587,0.020410234927845237,0.0020455331838079003,21.653460253085065,0.020545985412552564,1.0,0.0,36.45994526090179,0.04586772371361476,126.06798730389426,94.12514477109198,0.009997325168780009,13.80777676890871,1.0,128.00390539033853,0.0,1.0,97.47977660614504,5704.578336889094,1.0,1.0,-0.6061870045256743,15.593003739287557,0.0022070956969690043,-45.394394999390734,1.0,127.86782302869754,1.0,-0.008071365600740468,0.7616383758642885,0.6804188965661938,1.0,-0.05369640198116537,10.349459614068135
0.57,52.22556405370164,0.0,128.2349281722115,97.03209515609886,0.0,13.416226622967379,97.95520724893109,17.88263050005372,0.0,10.935748912610057,0.0,0.0,1.351785569322165,0.0,3.06361022607798,0.0,5805.061748056869,0.2882718930307535,97.95520724893107,2.199762391149202,1.2099900072380763,99793.94782451763,287.3164729668806,0.0,0.0,0.0,413.40315789473686,0.22187047505344087,0.88,nominal,6055.166371950539,nan,pitch_program,14.5725,0.0,0.0,-2.366913962069899,-0.0,0.0,-2.332846703399177,0.0,0.0,0.88,0.0,0.0,0.0,0.0,0.0,0.0,-0.04071585591861123,0.0,0.0,-0.04071585591861123,0.0,0.0,0.57,1.0,21.4162657999865,-0.027936732850592172,2.7969434638185335,0.004733517316657072,0.02200468579778855,-0.0003935443219614688,21.59815070825535,0.02251149174043865,1.0,0.0,36.45994526090179,0.04586772371361476,126.06798730389426,94.12514477109198,0.009997325168780009,13.80777676890871,1.0,128.00390539033853,0.0,1.0,97.35898100021947,5786.479903241891,1.0,1.0,-0.6061870045256743,15.593003739287557,0.0022070956969690043,-45.394394999390734,1.0,127.86782302869754,1.0,-0.008071365600740468,0.7616383758642885,0.6804188965661938,1.0,-0.05369640198116537,10.349459614068135
0.6,55.15495126173704,0.0,128.63471209802202,97.64624026784675,0.0,13.32613086035064,98.55137747466163,17.875974385802117,0.0,10.892594891395108,0.0,0.0,1.4384674418327492,0.0,3.1212453017775545,0.0,5875.711572860083,0.29002767098911963,98.55137747466163,2.1984948686103727,1.209943433306302,99789.204100339,287.31387437136283,0.0,0.0,0.0,413.3684210526316,0.22185183204234488,0.88,nominal,6117.6626004726895,nan,pitch_program,14.55,0.0,0.0,-2.4110133095022763,-0.0,0.0,-2.3797466670610365,0.0,0.0,0.88,0.0,0.0,0.0,0.0,0.0,0.0,-0.041534414703576376,0.0,0.0,-0.041534414703576376,0.0,0.0,0.6,1.0,21.359919100091254,-0.0609901936395525,2.956026558119593,0.002227503122004446,0.023913146861547628,0.0004742997833916806,21.563579405527083,0.024021351403803452,1.0,0.0,36.45994526090179,0.04586772371361476,126.06798730389426,94.12514477109198,0.009997325168780009,13.80777676890871,1.0,128.997739167608,0.0,1.0,97.46654053405103,5936.714320851447,1.0,1.0,0.2880387798023512,15.623185148815304,-0.04093110076241839,-45.29846667787105,1.0,129.10118872726872,1.0,0.01755385440893992,0.7711803623628131,0.678413219754945,1.0,-0.02368615592339072,10.939078461062005
0.63,58.10273046041859,0.0,129.03185467813225,98.2593066227185,0.0,13.23808600367381,99.14705370820697,17.869318830840847,0.0,10.847136493761635,0.0,0.0,1.5152800006024467,0.0,3.1741058100461004,0.0,5946.728222496038,0.2917820023352832,99.14705370820697,2.1972603994473556,1.2098971684432953,99784.49189841605,287.31129294459214,0.0,0.0,0.0,413.3336842105263,0.22183318903124885,0.88,nominal,6180.439367188344,nan,pitch_program,14.5275,0.0,0.0,-2.4529626229787347,-0.0,0.0,-2.4236762406116554,0.0,0.0,0.88,0.0,0.0,0.0,0.0,0.0,0.0,-0.04230113040103169,0.0,0.0,-0.04230113040103169,0.0,0.0,0.63,1.0,21.354502201349366,-0.022986801801989826,2.960184437590606,0.0005795482963934554,0.025300573160258487,-0.0006447297477413242,21.558710178604045,0.02531542128650178,1.0,0.0,54.81420341701958,0.1365807092451373,128.27279959468405,98.1004116166704,0.050096327820973695,13.264330941371991,1.0,128.997739167608,0.0,1.0,98.64264208536973,5986.956924858915,1.0,1.0,0.2880387798023512,15.623185148815304,-0.04093110076241839,-45.29846667787105,1.0,129.10118872726872,1.0,0.01755385440893992,0.7711803623628131,0.678413219754945,1.0,-0.02368615592339072,10.939078461062005
0.6599999999999999,61.068870441868114,0.0,129.42641419620247,98.87133271498412,0.0,13.15198393567458,99.74224337902838,17.862663835169908,0.0,10.79975172567868,0.0,0.0,1.5794923594579366,0.0,3.222680266124024,0.0,6018.111503628574,0.2935349089504337,99.74224337902838,2.196055943586961,1.2098512058326034,99779.81052363658,287.30872830772466,0.0,0.0,0.0,413.298947368421,0.22181454602015285,0.88,nominal,6243.497101917855,nan,pitch_program,14.505,0.0,0.0,-2.4915955650344257,-0.0,0.0,-2.464427835265318,0.0,0.0,0.88,0.0,0.0,0.0,0.0,0.0,0.0,-0.04301237990317622,0.0,0.0,-0.04301237990317622,0.0,0.0,0.6599999999999999,1.0,21.35592052913073,-0.04868332470548547,3.0251960846813413,1.374783010012161e-06,0.026603737065601544,0.00037403048189470385,21.569179934884477,0.026606366278525827,1.0,0.0,54.81420341701958,0.1365807092451373,128.27279959468405,98.1004116166704,0.050096327820973695,13.264330941371991,1.0,129.36489277765543,0.0,1.0,100.25728740615756,6044.430385141081,1.0,1.0,0.8465531592272253,15.82247531175067,0.017656670950178432,-45.37060727048888,1.0,129.6437547117525,1.0,-0.0015266324558953878,0.7692288264489248,0.6764339645094939,1.0,-0.07654517462812913,10.717440885119716
0.69,64.05334100480097,0.0,129.81844614695723,99.48235209776172,0.0,13.067731691825133,100.33695226820758,17.856009398789304,0.0,10.7508010129435,0.0,0.0,1.6316905237558141,0.0,3.2674279018856667,0.0,6089.861045706671,0.2952864078606175,100.33695226820758,2.1948789559803625,1.2098055389836133,99775.15931410558,287.30618010004474,0.0,0.0,0.0,413.26421052631576,0.22179590300905686,0.88,nominal,6306.8360601433415,nan,pitch_program,14.4825,0.0,0.0,-2.526916338756471,-0.0,0.0,-2.5019209373600098,0.0,0.0,0.88,0.0,0.0,0.0,0.0,0.0,0.0,-0.043666757981514974,0.0,0.0,-0.043666757981514974,0.0,0.0,0.69,1.0,21.226128816708414,0.010508479949862887,3.1465376055926937,-0.004229701698101445,0.025667676779244343,-0.0007937361351463424,21.458083648710552,0.026025949065325526,1.0,0.0,54.81420341701958,0.1365807092451373,128.27279959468405,98.1004116166704,0.050096327820973695,13.264330941371991,1.0,129.36489277765543,0.0,1.0,100.80034734039545,6099.0090705265975,1.0,1.0,0.8465531592272253,15.82247531175067,0.017656670950178432,-45.37060727048888,1.0,129.6437547117525,1.0,-0.0015266324558953878,0.7692288264489248,0.6764339645094939,1.0,-0.07654517462812913,10.717440885119716
0.72,67.05611281238228,0.0,130.20800366341572,100.0923935860437,0.0,12.985250548616284,100.93118440597941,17.84935552169903,0.0,10.700558184941926,0.0,0.0,1.6747610407041944,0.0,3.308710540976994,0.0,6161.976282340247,0.297036510936217,100.93118440597941,2.1937261845966765,1.209760161681722,99770.53763606823,287.3036479761878,0.0,0.0,0.0,413.2294736842105,0.22177725999796086,0.88,nominal,6370.456311922746,nan,pitch_program,14.46,0.0,0.0,-2.5597826664414454,-0.0,0.0,-2.536637974808871,0.0,0.0,0.88,0.0,0.0,0.0,0.0,0.0,0.0,-0.04427268459153578,0.0,0.0,-0.04427268459153578,0.0,0.0,0.72,1.0,21.271740754666,-0.00560795882211825,3.2360597371326376,0.0013919734589398548,0.027573994743382686,-0.002037243883465783,21.516483653357756,0.02768416765696971,1.0,0.0,54.81420341701958,0.1365807092451373,128.27279959468405,98.1004116166704,0.050096327820973695,13.264330941371991,1.0,131.60515132779108,0.0,1.0,101.10691321126677,6157.494191571611,1.0,1.0,-2.1647769440206104,15.917847239470039,-0.10777287044554917,-45.30106014866177,1.0,130.16505944818587,1.0,0.004737698772513994,0.7628977299454783,0.6744799908414607,1.0,-0.047398849767143356,10.74932523879893
0.75,70.07715729746542,0.0,130.59513777005816,100.70148283610483,0.0,12.904470221414666,101.5249427337228,17.842702203899094,0.0,10.649251652288195,0.0,0.0,1.7102178694044698,0.0,3.3468374711506095,0.0,6234.456526228596,0.2987852268406689,101.52494273372281,2.1925947538138972,1.209715067958798,99765.94488089977,287.30113160449457,0.0,0.0,0.0,413.19473684210527,0.2217586169868649,0.88,nominal,6434.357806355588,nan,pitch_program,14.437499999999998,0.0,0.0,-2.590597162040766,-0.0,0.0,-2.5690134871480077,0.0,0.0,0.88,0.0,0.0,0.0,0.0,0.0,0.0,-0.044837743878873765,0.0,0.0,-0.044837743878873765,0.0,0.0,0.75,1.0,21.302593325963592,-0.03227755776447361,3.307385341879792,0.00038951685949504823,0.029365833404684617,0.003272411043908446,21.557836673743616,0.029550170371350073,1.0,0.0,54.81420341701958,0.1365807092451373,128.27279959468405,98.1004116166704,0.050096327820973695,13.264330941371991,1.0,131.60515132779108,0.0,1.0,101.189140935267,6182.143616514242,1.0,1.0,-2.1647769440206104,15.917847239470039,-0.10777287044554917,-45.30106014866177,1.0,130.16505944818587,1.0,0.004737698772513994,0.7628977299454783,0.6744799908414607,1.0,-0.047398849767143356,10.74932523879893
0.78,73.11644658328618,0.0,130.97989759022232,101.3096428606921,0.0,12.825327338804977,102.11822931244195,17.836049445389488,0.0,10.597101620648939,0.0,0.0,1.73833450798487,0.0,3.3821037631556847,0.0,6307.300990933984,0.3005325616444354,102.11822931244195,2.191482727083151,1.209670252068983,99761.38046263962,287.29863066566355,0.0,0.0,0.0,413.16,0.2217399739757689,0.88,nominal,6498.540391657393,nan,pitch_program,14.415000000000001,0.0,0.0,-2.619332740857063,-0.0,0.0,-2.599205039373441,0.0,0.0,0.88,0.0,0.0,0.0,0.0,0.0,0.0,-0.04536468587149539,0.0,0.0,-0.04536468587149539,0.0,0.0,0.78,1.0,21.28275468925086,-0.0004853309269504334,3.4186753854271306,-0.00042434445277701814,0.03269989613367345,0.001026254099651017,21.555579064114724,0.03271874803296552,1.0,0.0,54.81420341701958,0.1365807092451373,128.27279959468405,98.1004116166704,0.050096327820973695,13.264330941371991,1.0,130.4649536004048,0.0,1.0,102.09364809188973,6297.463226654051,1.0,1.0,-0.2736557757693803,15.987081235031502,-0.0003075748663680105,-45.31357512741778,1.0,131.35575161110665,1.0,0.001511959928474807,0.7803220587550406,0.6725502560244442,1.0,0.21374242102904722,10.431055070167838
0.8099999999999999,76.1739533981784,0.0,131.3623305854354,101.91689382974074,0.0,12.747766507101831,102.71104516468631,17.829397246170213,0.0,10.544309522534645,0.0,0.0,1.7597367283067888,0.0,3.41477928379268,0.0,6380.508767986918,0.3022785183603406,102.71104516468633,2.1903885460639536,1.2096257084607644,99756.84381514566,287.29614485119464,0.0,0.0,0.0,413.1252631578947,0.2217213309646729,0.88,nominal,6563.003798646776,nan,pitch_program,14.392500000000002,0.0,0.0,-2.6460960060783814,-0.0,0.0,-2.627339619396405,0.0,0.0,0.88,0.0,0.0,0.0,0.0,0.0,0.0,-0.04585572692656194,0.0,0.0,-0.04585572692656194,0.0,0.0,0.8099999999999999,1.0,21.154481629123396,0.03197862413447777,3.430453091726204,-0.00224404555713542,0.02924195162447657,2.1995300498388612e-05,21.430845154679613,0.029327938200016227,1.0,0.0,54.81420341701958,0.1365807092451373,128.27279959468405,98.1004116166704,0.050096327820973695,13.264330941371991,1.0,130.4649536004048,0.0,1.0,102.85664329546205,6372.571172356708,1.0,1.0,-0.2736557757693803,15.987081235031502,-0.0003075748663680105,-45.31357512741778,1.0,131.35575161110665,1.0,0.001511959928474807,0.7803220587550406,0.6725502560244442,1.0,0.21374242102904722,10.431055070167838
0.84,79.2496509955452,0.0,131.74248278017097,102.52325324555981,0.0,12.671739824519939,103.30339029399526,17.822745606241273,0.0,10.49104612380709,0.0,0.0,1.7754467521131294,0.0,3.4450972766584202,0.0,6454.078825506518,0.3040230970013286,103.30339029399526,2.189310665987084,1.2095814317507758,99752.33438942471,287.2936738619289,0.0,0.0,0.0,413.0905263157895,0.2217026879535769,0.88,nominal,6627.747641872921,nan,pitch_program,14.37,0.0,0.0,-2.671149389182663,-0.0,0.0,-2.65362548126816,0.0,0.0,0.88,0.0,0.0,0.0,0.0,0.0,0.0,-0.046314501762948504,0.0,0.0,-0.046314501762948504,0.0,0.0,0.84,1.0,21.13796489227642,0.03858730597264373,3.525753573183809,0.001461842191649886,0.029593182094876443,0.00012014656342607287,21.430025362236766,0.029629509686974344,1.0,0.0,78.4830004356438,-0.8516452103928671,129.35230441399875,102.54932186373968,0.0850059009284999,12.69827827087622,1.0,132.09757906071798,0.0,1.0,103.45038078306276,6399.3362166338175,1.0,1.0,-0.6488824231975241,15.971060678359805,0.013751834395711041,-45.28602432937995,1.0,131.72978495804796,1.0,0.008623663377965426,0.7974591746545177,0.6706437930495726,1.0,-0.0271841979159737,10.204861861612118
0.87,82.34351308764164,0.0,132.12039894021476,103.12873640321489,0.0,12.597205334792543,103.89526386881505,17.816094525602665,0.0,10.437459424511594,0.0,0.0,1.786223440053495,0.0,3.473263319449765,0.0,6528.010027601993,0.30576629512214004,103.89526386881505,2.188247741960534,1.209537416702973,99747.85165151094,287.29121740688856,0.0,0.0,0.0,413.05578947368423,0.2216840449424809,0.88,nominal,6692.771437452409,nan,pitch_program,14.347500000000002,0.0,0.0,-2.6946758053270026,-0.0,0.0,-2.6782556757034652,0.0,0.0,0.88,0.0,0.0,0.0,0.0,0.0,0.0,-0.04674437975125097,0.0,0.0,-0.04674437975125097,0.0,0.0,0.87,1.0,21.12456892040217,0.05579291485438739,3.627040181787522,0.0008738510174891957,0.029337045372530634,0.0026055674863541007,21.433757146204453,0.02946548538063871,1.0,0.0,78.4830004356438,-0.8516452103928671,129.35230441399875,102.54932186373968,0.0850059009284999,12.69827827087622,1.0,132.09757906071798,0.0,1.0,104.24514624143436,6553.737494940992,1.0,1.0,-0.6488824231975241,15.971060678359805,0.013751834395711041,-45.28602432937995,1.0,131.72978495804796,1.0,0.008623663377965426,0.7974591746545177,0.6706437930495726,1.0,-0.0271841979159737,10.204861861612118
0.8999999999999999,85.45551378755805,0.0,132.49612272707154,103.7333566638803,0.0,12.524126228559476,104.48666432872996,17.80944400425439,0.0,10.383683037804458,0.0,0.0,1.7925463551624616,0.0,3.4994643022748977,0.0,6602.301144758487,0.30750810813230683,104.48666432872996,2.187198743926036,1.2094936582106406,99743.39508063198,287.288775202274,0.0,0.0,0.0,413.021052631579,0.22166540193138493,0.88,nominal,6758.074613213781,nan,pitch_program,14.325,0.0,0.0,-2.716768392001536,-0.0,0.0,-2.7013633054823076,0.0,0.0,0.88,0.0,0.0,0.0,0.0,0.0,0.0,-0.04714768397322366,0.0,0.0,-0.04714768397322366,0.0,0.0,0.8999999999999999,1.0,21.107455800552465,0.01693232125975984,3.627190685813039,0.0005547747863844054,0.03232623927650019,0.0010522092090270226,21.41685059356366,0.03234811687014737,1.0,0.0,78.4830004356438,-0.8516452103928671,129.35230441399875,102.54932186373968,0.0850059009284999,12.69827827087622,1.0,131.40606195834312,0.0,1.0,104.9394856696161,6602.0076242881405,1.0,1.0,-0.3412957347910143,16.15628787556527,0.06525650573065132,-45.23531964840641,1.0,132.5709417353712,1.0,-0.005168576375154331,0.7788666202662956,0.6687596931823212,1.0,-0.44505581143298395,10.736387737078234
0.9299999999999999,88.58562755476173,0.0,132.86969684520625,104.33712557345596,0.0,12.452470604489942,105.07758941414104,17.80279404219645,0.0,10.329835808047115,0.0,0.0,1.794907790690177,0.0,3.523868310589235,0.0,6676.950854952838,0.30924852938385367,105.07758941414104,2.1861628217598557,1.2094501512792035,99738.964167458,287.28634697050614,0.0,0.0,0.0,412.9863157894737,0.2216467589202889,0.88,nominal,6823.656511110445,nan,pitch_program,14.3025,0.0,0.0,-2.737532941485363,-0.0,0.0,-2.723065087084141,0.0,0.0,0.88,0.0,0.0,0.0,0.0,0.0,0.0,-0.04752645151572437,0.0,0.0,-0.04752645151572437,0.0,0.0,0.9299999999999999,1.0,21.10179053301579,-0.01742093158076649,3.7775070534344923,-0.001105564654190932,0.030198681107963154,0.0008936453757451633,21.437243916298552,0.03023212225303804,1.0,0.0,78.4830004356438,-0.8516452103928671,129.35230441399875,102.54932186373968,0.0850059009284999,12.69827827087622,1.0,131.40606195834312,0.0,1.0,104.917070038808,6664.536768206193,1.0,1.0,-0.3412957347910143,16.15628787556527,0.06525650573065132,-45.23531964840641,1.0,132.5709417353712,1.0,-0.005168576375154331,0.7788666202662956,0.6687596931823212,1.0,-0.44505581143298395,10.736387737078234
0.96,91.7338291457485,0.0,133.24116317505937,104.9400530328922,0.0,12.382210995103861,105.66803622512106,17.796144639428842,0.0,10.276021059928107,0.0,0.0,1.7938250691733595,0.0,3.546624259475502,0.0,6751.957748634483,0.3109875503448359,105.66803622512106,2.185139214616282,1.209406891010718,99734.5584125213,287.2839324393621,0.0,0.0,0.0,412.95157894736843,0.22162811590919293,0.88,nominal,6889.516392687445,nan,pitch_program,14.28,0.0,0.0,-2.757092635324859,-0.0,0.0,-2.7434816160285713,0.0,0.0,0.88,0.0,0.0,0.0,0.0,0.0,0.0,-0.04788278716763341,0.0,0.0,-0.04788278716763341,0.0,0.0,0.96,1.0,21.069739593937218,-0.001947806112986059,3.7733215805835902,5.252431991233465e-05,0.03286824271196688,-0.0042276311075126844,21.404950037334174,0.03313905554716602,1.0,0.0,78.4830004356438,-0.8516452103928671,129.35230441399875,102.54932186373968,0.0850059009284999,12.69827827087622,1.0,133.03657302119902,0.0,1.0,105.4527916175777,6840.504183889536,1.0,1.0,0.13683114751367328,16.182716579279656,-0.050423803963536386,-45.080493228428395,1.0,133.32819299899884,1.0,0.01404856070075804,0.8017118298164995,0.6668970920623516,1.0,0.053725249414190476,10.381126835054749
0.99,94.90009357090553,0.0,133.61056288734423,105.54214750523433,0.0,12.313323742828198,106.25800130631262,17.789495795951566,0.0,10.222329260443168,0.0,0.0,1.7897267804693278,0.0,3.5678650095991045,0.0,6827.320337316858,0.31272516084948043,106.25800130631262,2.1841272804456247,1.2093638725905447,99730.17732485835,287.28153134123227,0.0,0.0,0.0,412.91684210526313,0.2216094728980969,0.88,nominal,6955.653447345342,nan,pitch_program,14.2575,0.0,0.0,-2.775546744659169,-0.0,0.0,-2.76272069320693,0.0,0.0,0.88,0.0,0.0,0.0,0.0,0.0,0.0,-0.048218572409441066,0.0,0.0,-0.048218572409441066,0.0,0.0,0.99,1.0,21.047356380415646,-0.0343680665899105,3.943565350476489,0.0026159633338736924,0.03121325883625122,-0.001652017912609501,21.413642834457267,0.03136622314730559,1.0,0.0,78.4830004356438,-0.8516452103928671,129.35230441399875,102.54932186373968,0.0850059009284999,12.69827827087622,1.0,133.03657302119902,0.0,1.0,106.64104518135883,6880.030380084153,1.0,1.0,0.13683114751367328,16.182716579279656,-0.050423803963536386,-45.080493228428395,1.0,133.32819299899884,1.0,0.01404856070075804,0.8017118298164995,0.6668970920623516,1.0,0.053725249414190476,10.381126835054749
1.02,98.08439605611002,0.0,133.97793654411223,106.14341617348332,0.0,12.24578855893316,106.8474807115609,17.782847511764622,0.0,10.168840372960268,0.0,0.0,1.782963045588633,0.0,3.587710058891344,0.0,6903.0370599212265,0.31446134928865627,106.8474807115609,2.183126503809969,1.209321091275554,99725.82042080819,287.27914341246327,0.0,0.0,0.0,412.8821052631579,0.2215908298870009,0.88,nominal,7022.066798614007,nan,pitch_program,14.235000000000001,0.0,0.0,-2.7929729105875016,-0.0,0.0,-2.780872023635273,0.0,0.0,0.88,0.0,0.0,0.0,0.0,0.0,0.0,-0.048535372889033083,0.0,0.0,-0.048535372889033083,0.0,0.0,1.02,1.0,21.077532426012482,0.06297539969299493,3.9482057944399203,0.0008763651793592248,0.02987945838365367,0.0003658794711427136,21.444222253693955,0.029894546609966984,1.0,0.0,78.4830004356438,-0.8516452103928671,129.35230441399875,102.54932186373968,0.0850059009284999,12.69827827087622,1.0,132.61269963789695,0.0,1.0,107.16245802914675,6947.672090269549,1.0,1.0,0.4326273848719039,16.205899324118246,-0.06530322093568151,-45.22952233953001,1.0,133.910084806357,1.0,-0.02278949769717865,0.800298632674342,0.6650551586397194,1.0,-0.045292615424335214,10.094334747883995
1.05,101.28671200798777,0.0,134.34332419020296,106.7438650625916,0.0,12.179588203024178,107.43647005228722,17.776199786868013,0.0,10.115624549228727,0.0,0.0,1.773860918570293,0.0,3.6062664943105003,0.0,6979.106287290311,0.31619610275247645,107.43647005228722,2.182136454564623,1.2092785423834629,99721.48722292588,287.27676839276364,0.0,0.0,0.0,412.84736842105264,0.22157218687590494,0.88,nominal,7088.755508817858,nan,pitch_program,14.2125,0.0,0.0,-2.8094461531842887,-0.0,0.0,-2.7980165013646827,0.0,0.0,0.88,0.0,0.0,0.0,0.0,0.0,0.0,-0.048834600473946124,0.0,0.0,-0.048834600473946124,0.0,0.0,1.05,1.0,20.992097808572947,0.004231374848058294,4.02331387427831,0.002173803897874467,0.03756896422526642,-0.0007312121278034421,21.374172331114636,0.03763890497240334,1.0,0.0,102.93995842339272,0.21172645020589578,133.5374157213819,106.73598417242613,-0.018953816366794985,11.96491857114073,1.0,132.61269963789695,0.0,1.0,107.64124667334113,6964.802362417898,1.0,1.0,0.4326273848719039,16.205899324118246,-0.06530322093568151,-45.22952233953001,1.0,133.910084806357,1.0,-0.02278949769717865,0.800298632674342,0.6650551586397194,1.0,-0.045292615424335214,10.094334747883995
1.08,104.50701698289558,0.0,134.70676543431756,107.34349916359372,0.0,12.114708137152938,108.02496454955607,17.769552621261735,0.0,10.062742882681462,0.0,0.0,1.7627223433740038,0.0,3.6236300093256637,0.0,7055.526327397766,0.31792940718374674,108.02496454955607,2.1811567648352943,1.2092362212833838,99717.17725901947,287.2744060246769,0.0,0.0,0.0,412.8126315789474,0.22155354386480894,0.88,nominal,7155.718584212873,nan,pitch_program,14.19,0.0,0.0,-2.8250377399993836,-0.0,0.0,-2.8142292445455035,0.0,0.0,0.88,0.0,0.0,0.0,0.0,0.0,0.0,-0.049117566223231705,0.0,0.0,-0.049117566223231705,0.0,0.0,1.08,1.0,20.910600670719436,0.03466502411502258,4.045801624212846,0.0015996699125496825,0.036328749468632626,-0.002381279101933478,21.298425595725902,0.03644183683549853,1.0,0.0,102.93995842339272,0.21172645020589578,133.5374157213819,106.73598417242613,-0.018953816366794985,11.96491857114073,1.0,133.9687794354617,0.0,1.0,107.57094244577821,7029.502049345555,1.0,1.0,1.1076103404378936,16.417365321043786,-0.007639861079135771,-45.023110053133905,1.0,135.01270963400373,1.0,-0.010241078104674211,0.7921484551834168,0.6632330864142061,1.0,0.6296209025269066,10.142947726252535
1.1099999999999999,107.74528665947672,0.0,135.0682995199671,107.94232255270491,0.0,12.051136188318246,108.61295908638886,17.76290601494579,0.0,10.010248653620407,0.0,0.0,1.7498077577699893,0.0,3.6398863994625836,0.0,7132.295430818737,0.3196612475321188,108.61295908638887,2.1801871296998576,1.2091941233875414,99712.8900613062,287.2720560531202,0.0,0.0,0.0,412.77789473684214,0.22153490085371297,0.88,nominal,7222.954980238275,nan,pitch_program,14.167500000000002,0.0,0.0,-2.839808754802534,-0.0,0.0,-2.8295769506997215,0.0,0.0,0.88,0.0,0.0,0.0,0.0,0.0,0.0,-0.04938543422825141,0.0,0.0,-0.04938543422825141,0.0,0.0,1.1099999999999999,1.0,20.901865090810766,-0.01233180480342562,4.144264200573876,-0.0005388987838662135,0.030772493863248825,-0.002685451344552687,21.308755057769602,0.030894148950681564,1.0,0.0,102.93995842339272,0.21172645020589578,133.5374157213819,106.73598417242613,-0.018953816366794985,11.96491857114073,1.0,133.9687794354617,0.0,1.0,109.0661819494223,7085.606244387323,1.0,1.0,1.1076103404378936,16.417365321043786,-0.007639861079135771,-45.023110053133905,1.0,135.01270963400373,1.0,-0.010241078104674211,0.7921484551834168,0.6632330864142061,1.0,0.6296209025269066,10.142947726252535
1.14,111.00149681423015,0.0,135.4279653881485,108.54033849178104,0.0,11.988862272712998,109.20044825230565,17.75625996792018,0.0,9.95818830469722,0.0,0.0,1.7353450834977588,0.0,3.655112746290092,0.0,7209.411795402662,0.3213916078853505,109.20044825230568,2.1792272993807598,1.2091522441439675,99708.62516566801,287.269718224977,0.0,0.0,0.0,412.74315789473684,0.22151625784261694,0.88,nominal,7290.463606025929,nan,pitch_program,14.145,0.0,0.0,-2.853812701973786,-0.0,0.0,-2.84411840146416,0.0,0.0,0.88,0.0,0.0,0.0,0.0,0.0,0.0,-0.04963923042210751,0.0,0.0,-0.04963923042210751,0.0,0.0,1.14,1.0,20.903041260112158,0.04610663924103084,4.232159765230667,-0.0034308775795495383,0.028818107507975074,0.005285290234046241,21.327222885846403,0.02949895818779317,1.0,0.0,102.93995842339272,0.21172645020589578,133.5374157213819,106.73598417242613,-0.018953816366794985,11.96491857114073,1.0,135.94339174933785,0.0,1.0,109.20126031744579,7219.047805660845,1.0,1.0,1.041464533056689,16.448318661761416,-0.06881669168608415,-45.09478921494458,1.0,135.7151440513088,1.0,0.021391862456293032,0.7941652940838511,0.6614300865296288,1.0,0.7185627237950644,9.727875096988496
1.17,114.27562329973027,0.0,135.7858017328032,109.13754951667069,0.0,11.927878155156694,109.78742638293336,17.749614480184903,0.0,9.90660208768363,0.0,0.0,1.719540683278951,0.0,3.669378246643195,0.0,7286.8735704856745,0.3231204715860311,109.78742638293335,2.1782770644941456,1.2091105790300345,99704.38211099271,287.26739228873674,0.0,0.0,0.0,412.7084210526316,0.22149761483152094,0.88,nominal,7358.243328457,nan,pitch_program,14.1225,0.0,0.0,-2.8670989829804223,-0.0,0.0,-2.857906750373917,0.0,0.0,0.88,0.0,0.0,0.0,0.0,0.0,0.0,-0.04987988250899654,0.0,0.0,-0.04987988250899654,0.0,0.0,1.17,1.0,20.89089891595067,-0.03376930128078738,4.244014854216818,0.0007612003263100515,0.034150337207933194,-7.417450676472736e-05,21.317656061701317,0.034158900146371435,1.0,0.0,102.93995842339272,0.21172645020589578,133.5374157213819,106.73598417242613,-0.018953816366794985,11.96491857114073,1.0,135.94339174933785,0.0,1.0,109.7841859991874,7367.0882424843885,1.0,1.0,1.041464533056689,16.448318661761416,-0.06881669168608415,-45.09478921494458,1.0,135.7151440513088,1.0,0.021391862456293032,0.7941652940838511,0.6614300865296288,1.0,0.7185627237950644,9.727875096988496
1.2,117.56764202532734,0.0,136.14184704940232,109.73395751990233,0.0,11.868177219970244,110.37388759803811,17.742969551739957,0.0,9.85552473174405,0.0,0.0,1.7025786440747288,0.0,3.6827450509415556,0.0,7364.678861065933,0.3248478213436533,110.37388759803811,2.1773362484894028,1.2090691235467834,99700.16043859613,287.26507799417885,0.0,0.0,0.0,412.67368421052635,0.22147897182042497,0.88,nominal,7426.292976119195,nan,pitch_program,14.1,0.0,0.0,-2.8797122745970363,-0.0,0.0,-2.870990064907789,0.0,0.0,0.88,0.0,0.0,0.0,0.0,0.0,0.0,-0.05010822942468662,0.0,0.0,-0.05010822942468662,0.0,0.0,1.2,1.0,20.862135950043648,0.011326083542563882,4.353143922712547,0.0010723662590994556,0.031695951133915025,0.0007025155751547534,21.31146890033911,0.031721866524694275,1.0,0.0,102.93995842339272,0.21172645020589578,133.5374157213819,106.73598417242613,-0.018953816366794985,11.96491857114073,1.0,136.94043228372735,0.0,1.0,110.29945210206755,7321.387355527535,1.0,1.0,1.6652534676802166,16.513984913890756,-0.046821548976483336,-45.04821389926574,1.0,136.25266269396909,1.0,-0.010609822849117727,0.8158527566977737,0.6596453823764943,1.0,0.694225953114338,9.568668268488972
1.23,120.87752894008757,0.0,136.49613967733058,110.32956382534068,0.0,11.809754264275352,110.9598258365274,17.736325182585343,0.0,9.804986113406597,0.0,0.0,1.6846207204733699,0.0,3.69526908553313,0.0,7442.825731738345,0.3265736393377511,110.9598258365274,2.176404703768799,1.209027873213984,99695.95969171872,287.26277509209734,0.0,0.0,0.0,412.63894736842104,0.22146032880932895,0.88,nominal,7494.611343002941,nan,pitch_program,14.0775,0.0,0.0,-2.891692136820163,-0.0,0.0,-2.8834113080552135,0.0,0.0,0.88,0.0,0.0,0.0,0.0,0.0,0.0,-0.05032502101479997,0.0,0.0,-0.05032502101479997,0.0,0.0,1.23,1.0,20.93052512002966,0.04261947676992204,4.386164333746094,0.0001960681944948157,0.03041757137533728,0.0016704730056965728,21.38520834087475,0.030464037341977366,1.0,0.0,102.93995842339272,0.21172645020589578,133.5374157213819,106.73598417242613,-0.018953816366794985,11.96491857114073,1.0,136.94043228372735,0.0,1.0,110.34522781630311,7523.047822067832,1.0,1.0,1.6652534676802166,16.513984913890756,-0.046821548976483336,-45.04821389926574,1.0,136.25266269396909,1.0,-0.010609822849117727,0.8158527566977737,0.6596453823764943,1.0,0.694225953114338,9.568668268488972
1.26,124.20526001770392,0.0,136.84871783686754,110.92436925387852,0.0,11.752605317898745,111.54523488759658,17.729681372721064,0.0,9.755011798492518,0.0,0.0,1.6658106027429338,0.0,3.7070007278323818,0.0,7521.312210261789,0.32829790730967834,111.54523488759658,2.1754823054830164,1.2089868235658199,99691.7794150858,287.2604833340603,0.0,0.0,0.0,412.6042105263158,0.22144168579823295,0.88,nominal,7563.197191839463,nan,pitch_program,14.055,0.0,0.0,-2.903074205791736,-0.0,0.0,-2.895209046697127,0.0,0.0,0.88,0.0,0.0,0.0,0.0,0.0,0.0,-0.05053093039839113,0.0,0.0,-0.05053093039839113,0.0,0.0,1.26,1.0,20.85367799710655,-0.03553731984340112,4.533053079127686,-0.0009550444884151634,0.02951342627600206,0.00040132597729996655,21.340705684824403,0.029531601769357464,1.0,0.0,123.75649998230425,-3.302901118377579,136.40649645293396,111.03907225456,0.08777325787193392,11.825065984519838,1.0,136.32340829378498,0.0,1.0,111.04580229448034,7780.695400487293,1.0,1.0,-1.3387006135390411,16.63147847742737,-0.012764202181640361,-45.05611196757952,1.0,136.5724574689165,1.0,-0.020668237315235052,0.8070783086322312,0.6578782054078312,1.0,-0.4192394259763592,9.327528430435658
1.29,127.55081124318251,0.0,137.19961966128983,111.5183741826196,0.0,11.69672748074291,112.13010841916422,17.723038122147116,0.0,9.705623505050399,0.0,0.0,1.6462765500059355,0.0,3.7179853888188252,0.0,7600.136290894366,0.3300206066463962,112.13010841916422,2.1745689456606128,1.2089459701471437,99687.6191545262,287.2582024722016,0.0,0.0,0.0,412.5694736842105,0.22142304278713695,0.88,nominal,7632.0492571981495,nan,pitch_program,14.0325,0.0,0.0,-2.9138908584761083,-0.0,0.0,-2.906418133764516,0.0,0.0,0.88,0.0,0.0,0.0,0.0,0.0,0.0,-0.05072656587385978,0.0,0.0,-0.05072656587385978,0.0,0.0,1.29,1.0,20.83655108692319,-0.0585570904213315,4.55184724576592,-0.0019097788210848013,0.029411878028143306,-0.0018100415270001153,21.328023900014397,0.029529342603879755,1.0,0.0,123.75649998230425,-3.302901118377579,136.40649645293396,111.03907225456,0.08777325787193392,11.825065984519838,1.0,136.32340829378498,0.0,1.0,111.7150306048673,7712.689437734505,1.0,1.0,-1.3387006135390411,16.63147847742737,-0.012764202181640361,-45.05611196757952,1.0,136.5724574689165,1.0,-0.020668237315235052,0.8070783086322312,0.6578782054078312,1.0,-0.4192394259763592,9.327528430435658
1.3199999999999998,130.91415860113932,0.0,137.54888322452797,112.11157859856053,0.0,11.642118774604784,112.71444000403505,17.716395430863503,0.0,9.656839542530006,0.0,0.0,1.626132182251978,0.0,3.72826406024098,0.0,7679.29593754269,0.331741718457561,112.71444000403507,2.1736645295620227,1.2089053085102477,99683.47845664297,287.25593225904055,0.0,0.0,0.0,412.53473684210525,0.22140439977604096,0.88,nominal,7701.166248385427,nan,pitch_program,14.01,0.0,0.0,-2.924171245972466,-0.0,0.0,-2.917070001089286,0.0,0.0,0.88,0.0,0.0,0.0,0.0,0.0,0.0,-0.050912476030162614,0.0,0.0,-0.050912476030162614,0.0,0.0,1.3199999999999998,1.0,20.86128258277181,-0.05737543368282201,4.6233183414556756,0.0019263782952406172,0.027794118629796527,-0.0030787862957038863,21.36753320870449,0.028030392234112435,1.0,0.0,123.75649998230425,-3.302901118377579,136.40649645293396,111.03907225456,0.08777325787193392,11.825065984519838,1.0,136.17711056548856,0.0,1.0,112.4943889875603,7710.630360129981,1.0,1.0,0.8893804029269281,16.75006456475719,0.05337589318580282,-44.97777725563098,1.0,137.8975539360484,1.0,0.004130863466521811,0.8208149486636253,0.6561277919386801,1.0,-0.2228843115010255,10.371214375179472
1.3499999999999999,134.2952780655359,0.0,137.8965465648605,112.70398214655343,0.0,11.588778011084456,113.29822314352873,17.709753298870222,0.0,9.608675203353755,0.0,0.0,1.6054780670847406,0.0,3.7378738022935414,0.0,7758.789086677744,0.3334612236451431,113.29822314352873,2.1727689724047674,1.2088648342121047,99679.35686853234,287.25367244732837,0.0,0.0,0.0,412.5,0.22138575676494499,0.88,nominal,7770.546852110703,nan,pitch_program,13.9875,0.0,0.0,-2.933941631404345,-0.0,0.0,-2.927192979278322,0.0,0.0,0.88,0.0,0.0,0.0,0.0,0.0,0.0,-0.05108915532966886,0.0,0.0,-0.05108915532966886,0.0,0.0,1.3499999999999999,1.0,20.79379098112956,-0.05441845110850259,4.684615463107359,-0.00033325328066270243,0.02725172705022364,-0.0006100925825785121,21.315025844974027,0.027260592398704042,1.0,0.0,123.75649998230425,-3.302901118377579,136.40649645293396,111.03907225456,0.08777325787193392,11.825065984519838,1.0,136.17711056548856,0.0,1.0,113.2331323042441,7764.744265693987,1.0,1.0,0.8893804029269281,16.75006456475719,0.05337589318580282,-44.97777725563098,1.0,137.8975539360484,1.0,0.004130863466521811,0.8208149486636253,0.6561277919386801,1.0,-0.2228843115010255,10.371214375179472
1.38,137.69414559070063,0.0,138.24264770507216,113.29558417215702,0.0,11.536704673721754,113.88145128878095,17.703111726167272,0.0,9.561143099681486,0.0,0.0,1.5844035466107849,0.0,3.7468481659832817,0.0,7838.613650032785,0.3351791029661875,113.88145128878097,2.1718821959692707,1.208824542812012,99675.25393754353,287.251422789917,0.0,0.0,0.0,412.46526315789475,0.221367113753849,0.88,nominal,7840.189734936441,nan,pitch_program,13.965,0.0,0.0,-2.943225842353832,-0.0,0.0,-2.936812697123628,0.0,0.0,0.88,0.0,0.0,0.0,0.0,0.0,0.0,-0.05125705107918231,0.0,0.0,-0.05125705107918231,0.0,0.0,1.38,1.0,20.832737387270964,0.012443124703915094,4.67555533187436,-0.0023850282406007476,0.025850821299684648,-0.0009939924018020295,21.35096999060625,0.02597963322434581,1.0,0.0,123.75649998230425,-3.302901118377579,136.40649645293396,111.03907225456,0.08777325787193392,11.825065984519838,1.0,138.09566605966518,0.0,1.0,114.31844760237183,7813.356443927865,1.0,1.0,1.2856462969956732,16.906916055210946,-0.06781971860672065,-45.01912932208927,1.0,138.55845031780115,1.0,-0.019081453322573612,0.8237331080914596,0.6543933807373197,1.0,-0.09964290725977093,9.46891446813097
1.41,141.1107371035064,0.0,138.58722466942353,113.88638376019291,0.0,11.485898811712493,114.46411786008238,17.696470712754657,0.0,9.514253466122035,0.0,0.0,1.5629878725483606,0.0,3.7552175726971893,0.0,7918.767517121993,0.33689533708978914,114.46411786008237,2.171004125931029,1.2087844298696087,99671.16921107679,287.2491830396487,0.0,0.0,0.0,412.4305263157895,0.221348470742753,0.88,nominal,7910.0935455478175,nan,pitch_program,13.9425,0.0,0.0,-2.9520455000545995,-0.0,0.0,-2.945952378882211,0.0,0.0,0.88,0.0,0.0,0.0,0.0,0.0,0.0,-0.05141656861845405,0.0,0.0,-0.05141656861845405,0.0,0.0,1.41,1.0,20.780671293932535,-0.013707415231707943,4.7735256726578985,0.002671179382502333,0.024969420569819756,0.0037172366023911735,21.321890973064,0.02538552758648518,1.0,0.0,123.75649998230425,-3.302901118377579,136.40649645293396,111.03907225456,0.08777325787193392,11.825065984519838,1.0,138.09566605966518,0.0,1.0,114.53848145421183,7901.47867826026,1.0,1.0,1.2856462969956732,16.906916055210946,-0.06781971860672065,-45.01912932208927,1.0,138.55845031780115,1.0,-0.019081453322573612,0.8237331080914596,0.6543933807373197,1.0,-0.09964290725977093,9.46891446813097
1.44,144.54502849658616,0.0,138.93031549775964,114.47637976932471,0.0,11.436360944537194,115.04621626435348,17.689830258632373,0.0,9.468014432795405,0.0,0.0,1.5413011945400599,0.0,3.7630096560549773,0.0,7999.248557583716,0.33860990664857477,115.04621626435349,2.1701346897588745,1.2087444909432332,99667.10223641587,287.24695294926454,0.0,0.0,0.0,412.3957894736842,0.221329827731657,0.88,nominal,7980.2569168483,nan,pitch_program,13.920000000000002,0.0,0.0,-2.960420213649874,-0.0,0.0,-2.954633079742808,0.0,0.0,0.88,0.0,0.0,0.0,0.0,0.0,0.0,-0.05156807542985218,0.0,0.0,-0.05156807542985218,0.0,0.0,1.44,1.0,20.77383268454669,-0.05439659056810225,4.84512647631106,-0.0037086976924977327,0.027342260087543306,-0.0036417517136702712,21.33144003498255,0.027831923771331764,1.0,0.0,123.75649998230425,-3.302901118377579,136.40649645293396,111.03907225456,0.08777325787193392,11.825065984519838,1.0,139.22713443543992,0.0,1.0,115.45298466028024,8017.269078980426,1.0,1.0,2.5876113938718874,16.836210310877686,0.001837469352921776,-44.975100473717575,1.0,138.78936666916664,1.0,-0.008957819045351261,0.8161420184534076,0.652674211255601,1.0,-0.2617324924783082,8.984728977890603
1.47,147.99699562247505,0.0,139.2719582570632,115.06557086296358,0.0,11.38809197678555,115.62773991085106,17.683190363800424,0.0,9.422432265614125,0.0,0.0,1.5194056528471973,0.0,3.7702495635866833,0.0,8080.054623351926,0.34032279228497275,115.62773991085106,2.169273814756332,1.208704721588568,99663.05256058995,287.24473227132904,0.0,0.0,0.0,412.36105263157896,0.221311184720561,0.88,nominal,8050.678467887339,nan,pitch_program,13.8975,0.0,0.0,-2.9683678291982245,-0.0,0.0,-2.962873929416058,0.0,0.0,0.88,0.0,0.0,0.0,0.0,0.0,0.0,-0.05171190538981228,0.0,0.0,-0.05171190538981228,0.0,0.0,1.47,1.0,20.7775548250058,-0.027252187938770517,4.9261290333187935,-0.0014060935555869148,0.024832556120303828,-0.0014220615467631613,21.3535541407227,0.02491295248656579,1.0,0.0,149.51168907284963,2.2768077467851655,139.38213376996447,115.18564484311511,0.13284785332749,11.656953486804305,1.0,139.22713443543992,0.0,1.0,115.73065154639694,7942.41966411683,1.0,1.0,2.5876113938718874,16.836210310877686,0.001837469352921776,-44.975100473717575,1.0,138.78936666916664,1.0,-0.008957819045351261,0.8161420184534076,0.652674211255601,1.0,-0.2617324924783082,8.984728977890603
