time_s,sensor_time_s,imu_valid,imu_ax_mps2,imu_ay_mps2,imu_az_mps2,gyro_p_rps,gyro_q_rps,gyro_r_rps,imu_accel_norm_mps2,imu_gyro_norm_rps,gps_valid,gps_latency_s,gps_x_m,gps_y_m,gps_z_m,gps_vx_mps,gps_vy_mps,gps_vz_mps,baro_valid,baro_alt_m,baro_bias_m,pitot_valid,pitot_airspeed_mps,pitot_qbar_pa,pitot_compressibility_factor,mag_valid,mag_heading_deg,mag_x_ut,mag_y_ut,mag_z_ut,radar_valid,radar_agl_m,optical_flow_valid,optical_flow_x_radps,optical_flow_y_radps,optical_flow_quality,horizon_valid,horizon_roll_deg,horizon_pitch_deg
0.0,0.0,1.0,17.56339402572519,0.04248571114457688,-0.7813308927096466,-0.00027568490497605015,0.0007811719919156668,0.000485939220168199,17.58081604199399,0.0009604003193891711,1.0,0.0,-1.1162081080547748,-0.4584631380317187,119.8408002840318,86.00638427343237,0.12549532301118693,16.279364599631737,1.0,120.4318804253634,0.0,1.0,87.99906270437734,4695.892219494843,1.0,1.0,-0.0842050595302957,16.428433789951782,-0.02428695936758103,-45.07045146137096,1.0,119.96205820182428,1.0,0.00982307525529414,0.7345592020211932,0.7,1.0,0.016828686967098827,9.895241635134976
0.03,0.03,1.0,17.848734372452476,-0.020150611323537855,-0.0592477949244608,0.0014013198376487883,-0.22198741038037403,-0.0006567103192016969,17.848844081528267,0.22199280468770904,1.0,0.0,-1.1162081080547748,-0.4584631380317187,119.8408002840318,86.00638427343237,0.12549532301118693,16.279364599631737,1.0,120.4318804253634,0.0,1.0,87.80177974651848,4551.20589215681,1.0,1.0,-0.0842050595302957,16.428433789951782,-0.02428695936758103,-45.07045146137096,1.0,119.96205820182428,1.0,0.00982307525529414,0.7345592020211932,0.7,1.0,0.016828686967098827,9.895241635134976
0.06,0.06,1.0,18.194776995668324,-0.09282470438348522,0.5538774344333411,0.0012690051685581081,-0.19882843458063862,6.691650302092794e-05,18.203442162410372,0.1988324954571649,1.0,0.0,-1.1162081080547748,-0.4584631380317187,119.8408002840318,86.00638427343237,0.12549532301118693,16.279364599631737,1.0,120.50972272192821,0.0,1.0,88.11838159527207,4727.058665483131,1.0,1.0,-0.6798984261198893,15.802798115200412,-0.012755639329090402,-45.30792025658187,1.0,120.51360547747456,1.0,-0.007570696944051202,0.7318204461951261,0.6976482158828055,1.0,-0.9584155058592988,10.509783321049564
0.09,0.09,1.0,18.415410300313482,-0.04869298025269183,0.6698218432220474,-0.0008124208664803149,-0.06900750606820658,0.001795024212695956,18.42765228771357,0.0690356287241742,1.0,0.0,-1.1162081080547748,-0.4584631380317187,119.8408002840318,86.00638427343237,0.12549532301118693,16.279364599631737,1.0,120.50972272192821,0.0,1.0,89.14171133823325,4738.195441422652,1.0,1.0,-0.6798984261198893,15.802798115200412,-0.012755639329090402,-45.30792025658187,1.0,120.51360547747456,1.0,-0.007570696944051202,0.7318204461951261,0.6976482158828055,1.0,-0.9584155058592988,10.509783321049564
0.12,0.12,1.0,18.84150729476673,-0.07421896129332882,0.7521081074704365,0.0008288514001296105,-0.009609612660574605,-0.0002654340544112042,18.856658563973788,0.009648943225401097,1.0,0.0,-1.1162081080547748,-0.4584631380317187,119.8408002840318,86.00638427343237,0.12549532301118693,16.279364599631737,1.0,121.99631900032004,0.0,1.0,89.14451588434397,4768.868091162048,1.0,1.0,0.939779523144335,15.77929078717938,-0.02340851127904854,-45.309498209375064,1.0,121.62307854746952,1.0,0.0058785478850888855,0.7513810935776226,0.6953502055330232,1.0,0.31641176703809826,10.99955986505921
0.15,0.15,1.0,19.05744260631839,-0.004076526513633609,0.9320676454044701,0.0005341027584036471,-0.034524554904198326,-0.0037697934285378476,19.08022236261406,0.03473386675254263,1.0,0.0,-1.1162081080547748,-0.4584631380317187,119.8408002840318,86.00638427343237,0.12549532301118693,16.279364599631737,1.0,121.99631900032004,0.0,1.0,89.9461182132533,4814.025539403284,1.0,1.0,0.939779523144335,15.77929078717938,-0.02340851127904854,-45.309498209375064,1.0,121.62307854746952,1.0,0.0058785478850888855,0.7513810935776226,0.6953502055330232,1.0,0.31641176703809826,10.99955986505921
0.18,0.18,1.0,19.318867022447876,0.018910536891683094,1.2329525583005212,-0.0005192007835643458,-0.05438324467617435,0.0003088937713254065,19.35818050981159,0.054386600246055676,1.0,0.0,-1.1162081080547748,-0.4584631380317187,119.8408002840318,86.00638427343237,0.12549532301118693,16.279364599631737,1.0,122.92463383582412,0.0,1.0,90.42542335900524,4889.119599895154,1.0,1.0,-0.8111352217777981,15.620256094125452,-0.030786737463831246,-45.427323839448,1.0,122.85138105930514,1.0,-0.012853064863630205,0.7395294922661539,0.6931017146568386,1.0,0.11310694744292515,11.464239317514005
0.21,0.21,1.0,19.597766771344887,-0.029904349387834518,1.3809063837703186,0.0016542400990902355,-0.04212777927753263,-0.00027014707696579337,19.64638030617548,0.04216111095079373,1.0,0.0,18.133694923382706,1.7349939295591268,121.62898997795084,89.79351546886488,-0.17244246965250445,14.999631091854342,1.0,122.92463383582412,0.0,1.0,90.52953965799064,5059.246182501478,1.0,1.0,-0.8111352217777981,15.620256094125452,-0.030786737463831246,-45.427323839448,1.0,122.85138105930514,1.0,-0.012853064863630205,0.7395294922661539,0.6931017146568386,1.0,0.11310694744292515,11.464239317514005
0.24,0.24,1.0,19.944402773084878,-0.06286415658082214,1.51953456446597,0.0005369893937515798,-0.01894499805535672,-0.0013825964985370832,20.00230334661049,0.019002970346875737,1.0,0.0,18.133694923382706,1.7349939295591268,121.62898997795084,89.79351546886488,-0.17244246965250445,14.999631091854342,1.0,124.5164017676355,0.0,1.0,91.66062068538758,5027.535189384246,1.0,1.0,-1.2711005404741973,15.521306393625688,0.0458382843691642,-45.38564334889758,1.0,123.56472294527372,1.0,0.0037891423914814455,0.7567624761879014,0.6908979850263122,1.0,-0.14162378813977217,10.881131335636189
0.27,0.27,1.0,20.20563677371601,0.012986545480746896,1.6447415261901461,0.0001008581770616397,-0.006713026640020051,-0.0008899924228326387,20.272471501266995,0.006772516929044815,1.0,0.0,18.133694923382706,1.7349939295591268,121.62898997795084,89.79351546886488,-0.17244246965250445,14.999631091854342,1.0,124.5164017676355,0.0,1.0,91.70154866941053,5135.774462113301,1.0,1.0,-1.2711005404741973,15.521306393625688,0.0458382843691642,-45.38564334889758,1.0,123.56472294527372,1.0,0.0037891423914814455,0.7567624761879014,0.6908979850263122,1.0,-0.14162378813977217,10.881131335636189
0.3,0.3,1.0,20.575734395959657,-0.021831753381843528,1.782299416864643,-0.0026664445242234897,-0.008718511159393086,-0.0025447543935231817,20.652794333210437,0.009465629306104202,1.0,0.0,18.133694923382706,1.7349939295591268,121.62898997795084,89.79351546886488,-0.17244246965250445,14.999631091854342,1.0,124.41659479539649,0.0,1.0,92.92028751378733,5203.995492096651,1.0,1.0,0.04486477584847279,15.465935250564453,-0.0854600085607019,-45.40473898068821,1.0,124.27934464087353,1.0,-0.009262370585037401,0.7638272687328359,0.688734605648557,1.0,-0.23288319188166628,10.91285859432046
0.32999999999999996,0.32999999999999996,1.0,20.85729591211242,0.0011583273850309691,1.9167030980084319,0.00030061734723406527,0.00030832552751394477,-0.0028933809484607883,20.94517951398505,0.0029252502001180427,1.0,0.0,18.133694923382706,1.7349939295591268,121.62898997795084,89.79351546886488,-0.17244246965250445,14.999631091854342,1.0,124.41659479539649,0.0,1.0,93.23715211019625,5192.864446867124,1.0,1.0,0.04486477584847279,15.465935250564453,-0.0854600085607019,-45.40473898068821,1.0,124.27934464087353,1.0,-0.009262370585037401,0.7638272687328359,0.688734605648557,1.0,-0.23288319188166628,10.91285859432046
0.36,0.36,1.0,21.14239056676891,-0.0694051568041879,2.059580772312899,0.004333840613622339,0.003915469174254314,0.0015822324212361653,21.24258385675507,0.006051159620571008,1.0,0.0,18.133694923382706,1.7349939295591268,121.62898997795084,89.79351546886488,-0.17244246965250445,14.999631091854342,1.0,125.64036297962915,0.0,1.0,93.5016988750105,5301.763058031142,1.0,1.0,0.6407898259559309,15.529179716428544,-0.06114128968705463,-45.380412118123374,1.0,125.60843186594798,1.0,-0.015751990826704178,0.7289429235584884,0.6866079896231485,1.0,0.11945850824704976,11.062960497617278
0.39,0.39,1.0,21.401087851164547,0.04393977561045533,2.1742566573670095,0.0012364040593313287,0.007372534863028865,-0.0001230330099291876,21.51129665848268,0.007476503355582693,1.0,0.0,18.133694923382706,1.7349939295591268,121.62898997795084,89.79351546886488,-0.17244246965250445,14.999631091854342,1.0,125.64036297962915,0.0,1.0,94.50844299876975,5454.401856820864,1.0,1.0,0.6407898259559309,15.529179716428544,-0.06114128968705463,-45.380412118123374,1.0,125.60843186594798,1.0,-0.015751990826704178,0.7289429235584884,0.6866079896231485,1.0,0.11945850824704976,11.062960497617278
0.42,0.42,1.0,21.44910120472787,0.02905222855639895,2.3447428893251385,-0.0005434785269965214,0.01081309208935897,-0.0017964914686380428,21.576899817621705,0.010974776127063053,1.0,0.0,36.45994526090179,0.04586772371361476,126.06798730389426,94.12514477109198,0.009997325168780009,13.80777676890871,1.0,126.16652700816479,0.0,1.0,95.02032125206735,5433.799810729918,1.0,1.0,-0.5088732547899512,15.59303833984884,0.05971291821218362,-45.33290840958708,1.0,126.35462415477343,1.0,0.003268742441809963,0.7590959941278199,0.6845147313916098,1.0,0.2085838925536041,11.084848599087358
0.44999999999999996,0.44999999999999996,1.0,21.541315725931703,-0.011703519339981226,2.4233721664424115,0.0034704749218375844,0.015454591910975755,-0.0009155566990363014,21.67720352890855,0.015865902161145803,1.0,0.0,36.45994526090179,0.04586772371361476,126.06798730389426,94.12514477109198,0.009997325168780009,13.80777676890871,1.0,126.16652700816479,0.0,1.0,95.56762886520427,5522.440563978642,1.0,1.0,-0.5088732547899512,15.59303833984884,0.05971291821218362,-45.33290840958708,1.0,126.35462415477343,1.0,0.003268742441809963,0.7590959941278199,0.6845147313916098,1.0,0.2085838925536041,11.084848599087358
0.48,0.48,1.0,21.52301726162038,0.05737204919687159,2.5358903140423927,0.0021404129559412298,0.016504800102046007,0.0009296575816702622,21.67197045219682,0.01666895489374232,1.0,0.0,36.45994526090179,0.04586772371361476,126.06798730389426,94.12514477109198,0.009997325168780009,13.80777676890871,1.0,125.25233134927306,0.0,1.0,96.32501491237015,5577.9096284474035,1.0,1.0,1.6663672279521697,15.567625511114375,-0.04876466344028175,-45.464085716316916,1.0,127.10248550787483,1.0,0.005677999722008882,0.7550461475424978,0.6824522603033791,1.0,0.3502319545730923,11.20764315052158
0.51,0.51,1.0,21.498104935385033,0.0033644878524813036,2.5782998472985437,0.00032252780410555506,0.021595998363258085,0.00037665454911906747,21.65216287660853,0.021601690631513987,1.0,0.0,36.45994526090179,0.04586772371361476,126.06798730389426,94.12514477109198,0.009997325168780009,13.80777676890871,1.0,125.25233134927306,0.0,1.0,96.05523495935631,5660.539546383072,1.0,1.0,1.6663672279521697,15.567625511114375,-0.04876466344028175,-45.464085716316916,1.0,127.10248550787483,1.0,0.005677999722008882,0.7550461475424978,0.6824522603033791,1.0,0.3502319545730923,11.20764315052158
0.54,0.54,1.0,21.49538958226165,-0.023686661642629475,2.6115142313976065,0.0011728686017324587,0.020410234927845237,0.0020455331838079003,21.653460253085065,0.020545985412552564,1.0,0.0,36.45994526090179,0.04586772371361476,126.06798730389426,94.12514477109198,0.009997325168780009,13.80777676890871,1.0,128.00390539033853,0.0,1.0,97.47977660614504,5704.578336889094,1.0,1.0,-0.6061870045256743,15.593003739287557,0.0022070956969690043,-45.394394999390734,1.0,127.86782302869754,1.0,-0.008071365600740468,0.7616383758642885,0.6804188965661938,1.0,-0.05369640198116537,10.349459614068135
0.57,0.57,1.0,21.4162657999865,-0.027936732850592172,2.7969434638185335,0.004733517316657072,0.02200468579778855,-0.0003935443219614688,21.59815070825535,0.02251149174043865,1.0,0.0,36.45994526090179,0.04586772371361476,126.06798730389426,94.12514477109198,0.009997325168780009,13.80777676890871,1.0,128.00390539033853,0.0,1.0,97.35898100021947,5786.479903241891,1.0,1.0,-0.6061870045256743,15.593003739287557,0.0022070956969690043,-45.394394999390734,1.0,127.86782302869754,1.0,-0.008071365600740468,0.7616383758642885,0.6804188965661938,1.0,-0.05369640198116537,10.349459614068135
0.6,0.6,1.0,21.359919100091254,-0.0609901936395525,2.956026558119593,0.002227503122004446,0.023913146861547628,0.0004742997833916806,21.563579405527083,0.024021351403803452,1.0,0.0,36.45994526090179,0.04586772371361476,126.06798730389426,94.12514477109198,0.009997325168780009,13.80777676890871,1.0,128.997739167608,0.0,1.0,97.46654053405103,5936.714320851447,1.0,1.0,0.2880387798023512,15.623185148815304,-0.04093110076241839,-45.29846667787105,1.0,129.10118872726872,1.0,0.01755385440893992,0.7711803623628131,0.678413219754945,1.0,-0.02368615592339072,10.939078461062005
0.63,0.63,1.0,21.354502201349366,-0.022986801801989826,2.960184437590606,0.0005795482963934554,0.025300573160258487,-0.0006447297477413242,21.558710178604045,0.02531542128650178,1.0,0.0,54.81420341701958,0.1365807092451373,128.27279959468405,98.1004116166704,0.050096327820973695,13.264330941371991,1.0,128.997739167608,0.0,1.0,98.64264208536973,5986.956924858915,1.0,1.0,0.2880387798023512,15.623185148815304,-0.04093110076241839,-45.29846667787105,1.0,129.10118872726872,1.0,0.01755385440893992,0.7711803623628131,0.678413219754945,1.0,-0.02368615592339072,10.939078461062005
0.6599999999999999,0.6599999999999999,1.0,21.35592052913073,-0.04868332470548547,3.0251960846813413,1.374783010012161e-06,0.026603737065601544,0.00037403048189470385,21.569179934884477,0.026606366278525827,1.0,0.0,54.81420341701958,0.1365807092451373,128.27279959468405,98.1004116166704,0.050096327820973695,13.264330941371991,1.0,129.36489277765543,0.0,1.0,100.25728740615756,6044.430385141081,1.0,1.0,0.8465531592272253,15.82247531175067,0.017656670950178432,-45.37060727048888,1.0,129.6437547117525,1.0,-0.0015266324558953878,0.7692288264489248,0.6764339645094939,1.0,-0.07654517462812913,10.717440885119716
0.69,0.69,1.0,21.226128816708414,0.010508479949862887,3.1465376055926937,-0.004229701698101445,0.025667676779244343,-0.0007937361351463424,21.458083648710552,0.026025949065325526,1.0,0.0,54.81420341701958,0.1365807092451373,128.27279959468405,98.1004116166704,0.050096327820973695,13.264330941371991,1.0,129.36489277765543,0.0,1.0,100.80034734039545,6099.0090705265975,1.0,1.0,0.8465531592272253,15.82247531175067,0.017656670950178432,-45.37060727048888,1.0,129.6437547117525,1.0,-0.0015266324558953878,0.7692288264489248,0.6764339645094939,1.0,-0.07654517462812913,10.717440885119716
0.72,0.72,1.0,21.271740754666,-0.00560795882211825,3.2360597371326376,0.0013919734589398548,0.027573994743382686,-0.002037243883465783,21.516483653357756,0.02768416765696971,1.0,0.0,54.81420341701958,0.1365807092451373,128.27279959468405,98.1004116166704,0.050096327820973695,13.264330941371991,1.0,131.60515132779108,0.0,1.0,101.10691321126677,6157.494191571611,1.0,1.0,-2.1647769440206104,15.917847239470039,-0.10777287044554917,-45.30106014866177,1.0,130.16505944818587,1.0,0.004737698772513994,0.7628977299454783,0.6744799908414607,1.0,-0.047398849767143356,10.74932523879893
0.75,0.75,1.0,21.302593325963592,-0.03227755776447361,3.307385341879792,0.00038951685949504823,0.029365833404684617,0.003272411043908446,21.557836673743616,0.029550170371350073,1.0,0.0,54.81420341701958,0.1365807092451373,128.27279959468405,98.1004116166704,0.050096327820973695,13.264330941371991,1.0,131.60515132779108,0.0,1.0,101.189140935267,6182.143616514242,1.0,1.0,-2.1647769440206104,15.917847239470039,-0.10777287044554917,-45.30106014866177,1.0,130.16505944818587,1.0,0.004737698772513994,0.7628977299454783,0.6744799908414607,1.0,-0.047398849767143356,10.74932523879893
0.78,0.78,1.0,21.28275468925086,-0.0004853309269504334,3.4186753854271306,-0.00042434445277701814,0.03269989613367345,0.001026254099651017,21.555579064114724,0.03271874803296552,1.0,0.0,54.81420341701958,0.1365807092451373,128.27279959468405,98.1004116166704,0.050096327820973695,13.264330941371991,1.0,130.4649536004048,0.0,1.0,102.09364809188973,6297.463226654051,1.0,1.0,-0.2736557757693803,15.987081235031502,-0.0003075748663680105,-45.31357512741778,1.0,131.35575161110665,1.0,0.001511959928474807,0.7803220587550406,0.6725502560244442,1.0,0.21374242102904722,10.431055070167838
0.8099999999999999,0.8099999999999999,1.0,21.154481629123396,0.03197862413447777,3.430453091726204,-0.00224404555713542,0.02924195162447657,2.1995300498388612e-05,21.430845154679613,0.029327938200016227,1.0,0.0,54.81420341701958,0.1365807092451373,128.27279959468405,98.1004116166704,0.050096327820973695,13.264330941371991,1.0,130.4649536004048,0.0,1.0,102.85664329546205,6372.571172356708,1.0,1.0,-0.2736557757693803,15.987081235031502,-0.0003075748663680105,-45.31357512741778,1.0,131.35575161110665,1.0,0.001511959928474807,0.7803220587550406,0.6725502560244442,1.0,0.21374242102904722,10.431055070167838
0.84,0.84,1.0,21.13796489227642,0.03858730597264373,3.525753573183809,0.001461842191649886,0.029593182094876443,0.00012014656342607287,21.430025362236766,0.029629509686974344,1.0,0.0,78.4830004356438,-0.8516452103928671,129.35230441399875,102.54932186373968,0.0850059009284999,12.69827827087622,1.0,132.09757906071798,0.0,1.0,103.45038078306276,6399.3362166338175,1.0,1.0,-0.6488824231975241,15.971060678359805,0.013751834395711041,-45.28602432937995,1.0,131.72978495804796,1.0,0.008623663377965426,0.7974591746545177,0.6706437930495726,1.0,-0.0271841979159737,10.204861861612118
0.87,0.87,1.0,21.12456892040217,0.05579291485438739,3.627040181787522,0.0008738510174891957,0.029337045372530634,0.0026055674863541007,21.433757146204453,0.02946548538063871,1.0,0.0,78.4830004356438,-0.8516452103928671,129.35230441399875,102.54932186373968,0.0850059009284999,12.69827827087622,1.0,132.09757906071798,0.0,1.0,104.24514624143436,6553.737494940992,1.0,1.0,-0.6488824231975241,15.971060678359805,0.013751834395711041,-45.28602432937995,1.0,131.72978495804796,1.0,0.008623663377965426,0.7974591746545177,0.6706437930495726,1.0,-0.0271841979159737,10.204861861612118
0.8999999999999999,0.8999999999999999,1.0,21.107455800552465,0.01693232125975984,3.627190685813039,0.0005547747863844054,0.03232623927650019,0.0010522092090270226,21.41685059356366,0.03234811687014737,1.0,0.0,78.4830004356438,-0.8516452103928671,129.35230441399875,102.54932186373968,0.0850059009284999,12.69827827087622,1.0,131.40606195834312,0.0,1.0,104.9394856696161,6602.0076242881405,1.0,1.0,-0.3412957347910143,16.15628787556527,0.06525650573065132,-45.23531964840641,1.0,132.5709417353712,1.0,-0.005168576375154331,0.7788666202662956,0.6687596931823212,1.0,-0.44505581143298395,10.736387737078234
0.9299999999999999,0.9299999999999999,1.0,21.10179053301579,-0.01742093158076649,3.7775070534344923,-0.001105564654190932,0.030198681107963154,0.0008936453757451633,21.437243916298552,0.03023212225303804,1.0,0.0,78.4830004356438,-0.8516452103928671,129.35230441399875,102.54932186373968,0.0850059009284999,12.69827827087622,1.0,131.40606195834312,0.0,1.0,104.917070038808,6664.536768206193,1.0,1.0,-0.3412957347910143,16.15628787556527,0.06525650573065132,-45.23531964840641,1.0,132.5709417353712,1.0,-0.005168576375154331,0.7788666202662956,0.6687596931823212,1.0,-0.44505581143298395,10.736387737078234
0.96,0.96,1.0,21.069739593937218,-0.001947806112986059,3.7733215805835902,5.252431991233465e-05,0.03286824271196688,-0.0042276311075126844,21.404950037334174,0.03313905554716602,1.0,0.0,78.4830004356438,-0.8516452103928671,129.35230441399875,102.54932186373968,0.0850059009284999,12.69827827087622,1.0,133.03657302119902,0.0,1.0,105.4527916175777,6840.504183889536,1.0,1.0,0.13683114751367328,16.182716579279656,-0.050423803963536386,-45.080493228428395,1.0,133.32819299899884,1.0,0.01404856070075804,0.8017118298164995,0.6668970920623516,1.0,0.053725249414190476,10.381126835054749
0.99,0.99,1.0,21.047356380415646,-0.0343680665899105,3.943565350476489,0.0026159633338736924,0.03121325883625122,-0.001652017912609501,21.413642834457267,0.03136622314730559,1.0,0.0,78.4830004356438,-0.8516452103928671,129.35230441399875,102.54932186373968,0.0850059009284999,12.69827827087622,1.0,133.03657302119902,0.0,1.0,106.64104518135883,6880.030380084153,1.0,1.0,0.13683114751367328,16.182716579279656,-0.050423803963536386,-45.080493228428395,1.0,133.32819299899884,1.0,0.01404856070075804,0.8017118298164995,0.6668970920623516,1.0,0.053725249414190476,10.381126835054749
1.02,1.02,1.0,21.077532426012482,0.06297539969299493,3.9482057944399203,0.0008763651793592248,0.02987945838365367,0.0003658794711427136,21.444222253693955,0.029894546609966984,1.0,0.0,78.4830004356438,-0.8516452103928671,129.35230441399875,102.54932186373968,0.0850059009284999,12.69827827087622,1.0,132.61269963789695,0.0,1.0,107.16245802914675,6947.672090269549,1.0,1.0,0.4326273848719039,16.205899324118246,-0.06530322093568151,-45.22952233953001,1.0,133.910084806357,1.0,-0.02278949769717865,0.800298632674342,0.6650551586397194,1.0,-0.045292615424335214,10.094334747883995
1.05,1.05,1.0,20.992097808572947,0.004231374848058294,4.02331387427831,0.002173803897874467,0.03756896422526642,-0.0007312121278034421,21.374172331114636,0.03763890497240334,1.0,0.0,102.93995842339272,0.21172645020589578,133.5374157213819,106.73598417242613,-0.018953816366794985,11.96491857114073,1.0,132.61269963789695,0.0,1.0,107.64124667334113,6964.802362417898,1.0,1.0,0.4326273848719039,16.205899324118246,-0.06530322093568151,-45.22952233953001,1.0,133.910084806357,1.0,-0.02278949769717865,0.800298632674342,0.6650551586397194,1.0,-0.045292615424335214,10.094334747883995
1.08,1.08,1.0,20.910600670719436,0.03466502411502258,4.045801624212846,0.0015996699125496825,0.036328749468632626,-0.002381279101933478,21.298425595725902,0.03644183683549853,1.0,0.0,102.93995842339272,0.21172645020589578,133.5374157213819,106.73598417242613,-0.018953816366794985,11.96491857114073,1.0,133.9687794354617,0.0,1.0,107.57094244577821,7029.502049345555,1.0,1.0,1.1076103404378936,16.417365321043786,-0.007639861079135771,-45.023110053133905,1.0,135.01270963400373,1.0,-0.010241078104674211,0.7921484551834168,0.6632330864142061,1.0,0.6296209025269066,10.142947726252535
1.1099999999999999,1.1099999999999999,1.0,20.901865090810766,-0.01233180480342562,4.144264200573876,-0.0005388987838662135,0.030772493863248825,-0.002685451344552687,21.308755057769602,0.030894148950681564,1.0,0.0,102.93995842339272,0.21172645020589578,133.5374157213819,106.73598417242613,-0.018953816366794985,11.96491857114073,1.0,133.9687794354617,0.0,1.0,109.0661819494223,7085.606244387323,1.0,1.0,1.1076103404378936,16.417365321043786,-0.007639861079135771,-45.023110053133905,1.0,135.01270963400373,1.0,-0.010241078104674211,0.7921484551834168,0.6632330864142061,1.0,0.6296209025269066,10.142947726252535
1.14,1.14,1.0,20.903041260112158,0.04610663924103084,4.232159765230667,-0.0034308775795495383,0.028818107507975074,0.005285290234046241,21.327222885846403,0.02949895818779317,1.0,0.0,102.93995842339272,0.21172645020589578,133.5374157213819,106.73598417242613,-0.018953816366794985,11.96491857114073,1.0,135.94339174933785,0.0,1.0,109.20126031744579,7219.047805660845,1.0,1.0,1.041464533056689,16.448318661761416,-0.06881669168608415,-45.09478921494458,1.0,135.7151440513088,1.0,0.021391862456293032,0.7941652940838511,0.6614300865296288,1.0,0.7185627237950644,9.727875096988496
1.17,1.17,1.0,20.89089891595067,-0.03376930128078738,4.244014854216818,0.0007612003263100515,0.034150337207933194,-7.417450676472736e-05,21.317656061701317,0.034158900146371435,1.0,0.0,102.93995842339272,0.21172645020589578,133.5374157213819,106.73598417242613,-0.018953816366794985,11.96491857114073,1.0,135.94339174933785,0.0,1.0,109.7841859991874,7367.0882424843885,1.0,1.0,1.041464533056689,16.448318661761416,-0.06881669168608415,-45.09478921494458,1.0,135.7151440513088,1.0,0.021391862456293032,0.7941652940838511,0.6614300865296288,1.0,0.7185627237950644,9.727875096988496
1.2,1.2,1.0,20.862135950043648,0.011326083542563882,4.353143922712547,0.0010723662590994556,0.031695951133915025,0.0007025155751547534,21.31146890033911,0.031721866524694275,1.0,0.0,102.93995842339272,0.21172645020589578,133.5374157213819,106.73598417242613,-0.018953816366794985,11.96491857114073,1.0,136.94043228372735,0.0,1.0,110.29945210206755,7321.387355527535,1.0,1.0,1.6652534676802166,16.513984913890756,-0.046821548976483336,-45.04821389926574,1.0,136.25266269396909,1.0,-0.010609822849117727,0.8158527566977737,0.6596453823764943,1.0,0.694225953114338,9.568668268488972
1.23,1.23,1.0,20.93052512002966,0.04261947676992204,4.386164333746094,0.0001960681944948157,0.03041757137533728,0.0016704730056965728,21.38520834087475,0.030464037341977366,1.0,0.0,102.93995842339272,0.21172645020589578,133.5374157213819,106.73598417242613,-0.018953816366794985,11.96491857114073,1.0,136.94043228372735,0.0,1.0,110.34522781630311,7523.047822067832,1.0,1.0,1.6652534676802166,16.513984913890756,-0.046821548976483336,-45.04821389926574,1.0,136.25266269396909,1.0,-0.010609822849117727,0.8158527566977737,0.6596453823764943,1.0,0.694225953114338,9.568668268488972
1.26,1.26,1.0,20.85367799710655,-0.03553731984340112,4.533053079127686,-0.0009550444884151634,0.02951342627600206,0.00040132597729996655,21.340705684824403,0.029531601769357464,1.0,0.0,123.75649998230425,-3.302901118377579,136.40649645293396,111.03907225456,0.08777325787193392,11.825065984519838,1.0,136.32340829378498,0.0,1.0,111.04580229448034,7780.695400487293,1.0,1.0,-1.3387006135390411,16.63147847742737,-0.012764202181640361,-45.05611196757952,1.0,136.5724574689165,1.0,-0.020668237315235052,0.8070783086322312,0.6578782054078312,1.0,-0.4192394259763592,9.327528430435658
1.29,1.29,1.0,20.83655108692319,-0.0585570904213315,4.55184724576592,-0.0019097788210848013,0.029411878028143306,-0.0018100415270001153,21.328023900014397,0.029529342603879755,1.0,0.0,123.75649998230425,-3.302901118377579,136.40649645293396,111.03907225456,0.08777325787193392,11.825065984519838,1.0,136.32340829378498,0.0,1.0,111.7150306048673,7712.689437734505,1.0,1.0,-1.3387006135390411,16.63147847742737,-0.012764202181640361,-45.05611196757952,1.0,136.5724574689165,1.0,-0.020668237315235052,0.8070783086322312,0.6578782054078312,1.0,-0.4192394259763592,9.327528430435658
1.3199999999999998,1.3199999999999998,1.0,20.86128258277181,-0.05737543368282201,4.6233183414556756,0.0019263782952406172,0.027794118629796527,-0.0030787862957038863,21.36753320870449,0.028030392234112435,1.0,0.0,123.75649998230425,-3.302901118377579,136.40649645293396,111.03907225456,0.08777325787193392,11.825065984519838,1.0,136.17711056548856,0.0,1.0,112.4943889875603,7710.630360129981,1.0,1.0,0.8893804029269281,16.75006456475719,0.05337589318580282,-44.97777725563098,1.0,137.8975539360484,1.0,0.004130863466521811,0.8208149486636253,0.6561277919386801,1.0,-0.2228843115010255,10.371214375179472
1.3499999999999999,1.3499999999999999,1.0,20.79379098112956,-0.05441845110850259,4.684615463107359,-0.00033325328066270243,0.02725172705022364,-0.0006100925825785121,21.315025844974027,0.027260592398704042,1.0,0.0,123.75649998230425,-3.302901118377579,136.40649645293396,111.03907225456,0.08777325787193392,11.825065984519838,1.0,136.17711056548856,0.0,1.0,113.2331323042441,7764.744265693987,1.0,1.0,0.8893804029269281,16.75006456475719,0.05337589318580282,-44.97777725563098,1.0,137.8975539360484,1.0,0.004130863466521811,0.8208149486636253,0.6561277919386801,1.0,-0.2228843115010255,10.371214375179472
1.38,1.38,1.0,20.832737387270964,0.012443124703915094,4.67555533187436,-0.0023850282406007476,0.025850821299684648,-0.0009939924018020295,21.35096999060625,0.02597963322434581,1.0,0.0,123.75649998230425,-3.302901118377579,136.40649645293396,111.03907225456,0.08777325787193392,11.825065984519838,1.0,138.09566605966518,0.0,1.0,114.31844760237183,7813.356443927865,1.0,1.0,1.2856462969956732,16.906916055210946,-0.06781971860672065,-45.01912932208927,1.0,138.55845031780115,1.0,-0.019081453322573612,0.8237331080914596,0.6543933807373197,1.0,-0.09964290725977093,9.46891446813097
1.41,1.41,1.0,20.780671293932535,-0.013707415231707943,4.7735256726578985,0.002671179382502333,0.024969420569819756,0.0037172366023911735,21.321890973064,0.02538552758648518,1.0,0.0,123.75649998230425,-3.302901118377579,136.40649645293396,111.03907225456,0.08777325787193392,11.825065984519838,1.0,138.09566605966518,0.0,1.0,114.53848145421183,7901.47867826026,1.0,1.0,1.2856462969956732,16.906916055210946,-0.06781971860672065,-45.01912932208927,1.0,138.55845031780115,1.0,-0.019081453322573612,0.8237331080914596,0.6543933807373197,1.0,-0.09964290725977093,9.46891446813097
1.44,1.44,1.0,20.77383268454669,-0.05439659056810225,4.84512647631106,-0.0037086976924977327,0.027342260087543306,-0.0036417517136702712,21.33144003498255,0.027831923771331764,1.0,0.0,123.75649998230425,-3.302901118377579,136.40649645293396,111.03907225456,0.08777325787193392,11.825065984519838,1.0,139.22713443543992,0.0,1.0,115.45298466028024,8017.269078980426,1.0,1.0,2.5876113938718874,16.836210310877686,0.001837469352921776,-44.975100473717575,1.0,138.78936666916664,1.0,-0.008957819045351261,0.8161420184534076,0.652674211255601,1.0,-0.2617324924783082,8.984728977890603
1.47,1.47,1.0,20.7775548250058,-0.027252187938770517,4.9261290333187935,-0.0014060935555869148,0.024832556120303828,-0.0014220615467631613,21.3535541407227,0.02491295248656579,1.0,0.0,149.51168907284963,2.2768077467851655,139.38213376996447,115.18564484311511,0.13284785332749,11.656953486804305,1.0,139.22713443543992,0.0,1.0,115.73065154639694,7942.41966411683,1.0,1.0,2.5876113938718874,16.836210310877686,0.001837469352921776,-44.975100473717575,1.0,138.78936666916664,1.0,-0.008957819045351261,0.8161420184534076,0.652674211255601,1.0,-0.2617324924783082,8.984728977890603
1.5,1.5,1.0,20.65431134682041,0.007877330300639815,4.950731290198095,-0.0021787570006394663,0.021582997718712842,-0.001756114469244667,21.239359208118156,0.02176365572744822,1.0,0.0,149.51168907284963,2.2768077467851655,139.38213376996447,115.18564484311511,0.13284785332749,11.656953486804305,1.0,139.5224795013471,0.0,1.0,116.18117964486147,8081.962300161803,1.0,1.0,-0.4581410938431308,16.913161711391272,0.06318972725991803,-44.912965800257844,1.0,139.66586432946872,1.0,0.011276459686567833,0.8343546148131953,0.6509695223732044,1.0,-0.029338510783721537,9.178539269820645
1.53,1.53,1.0,20.652830507590725,0.017579144889505616,5.033536578199215,-0.0024751369985886776,0.023041896140182684,0.0018268084270855155,21.257380071064137,0.023246344012038084,1.0,0.0,149.51168907284963,2.2768077467851655,139.38213376996447,115.18564484311511,0.13284785332749,11.656953486804305,1.0,139.5224795013471,0.0,1.0,116.67441311761607,8378.009929589532,1.0,1.0,-0.4581410938431308,16.913161711391272,0.06318972725991803,-44.912965800257844,1.0,139.66586432946872,1.0,0.011276459686567833,0.8343546148131953,0.6509695223732044,1.0,-0.029338510783721537,9.178539269820645
1.56,1.56,1.0,20.619298546405524,-0.020593170190197626,5.1313719568935525,-0.00036532715641652647,0.02628554402799598,0.0021392129627875556,21.24822050865561,0.02637497906878959,1.0,0.0,149.51168907284963,2.2768077467851655,139.38213376996447,115.18564484311511,0.13284785332749,11.656953486804305,1.0,140.78079130124527,0.0,1.0,117.12893566253352,8280.947163248415,1.0,1.0,-0.5244538749234371,16.939097494312243,0.0746391228227516,-44.87456806498979,1.0,140.62041475669062,1.0,0.008321825184981544,0.8258000044462901,0.6492785515548388,1.0,-0.27215434160396673,9.204474786828023
1.5899999999999999,1.5899999999999999,1.0,20.61738528970985,0.05575533999385204,5.150325546302717,0.0017223609954131333,0.02495121299238391,-0.0023080846074073945,21.251012636464655,0.025116863095235024,1.0,0.0,149.51168907284963,2.2768077467851655,139.38213376996447,115.18564484311511,0.13284785332749,11.656953486804305,1.0,140.78079130124527,0.0,1.0,117.14657009589624,8432.23212775504,1.0,1.0,-0.5244538749234371,16.939097494312243,0.0746391228227516,-44.87456806498979,1.0,140.62041475669062,1.0,0.008321825184981544,0.8258000044462901,0.6492785515548388,1.0,-0.27215434160396673,9.204474786828023
1.6199999999999999,1.6199999999999999,1.0,20.561754205756024,-0.004078648433736829,5.208317208018207,-0.004662156802512534,0.025091460571002217,0.0014845717394976273,21.211136716183724,0.025564057832963213,1.0,0.0,149.51168907284963,2.2768077467851655,139.38213376996447,115.18564484311511,0.13284785332749,11.656953486804305,1.0,140.39080216486778,0.0,1.0,118.78723006919438,8564.567736068135,1.0,1.0,-1.2075770604644949,17.041986113073797,-0.025818343070462293,-44.86278012832576,1.0,140.9399036029755,1.0,-0.008527525794835195,0.8303765985219922,0.6476005343382876,1.0,0.39530592735506787,9.240364306186887
1.65,1.65,1.0,20.555190128030098,-0.06993698310938962,5.261923824122579,-0.0005052362514345914,0.023689617575972672,0.0011967916755347204,21.21811901917654,0.02372520926947171,1.0,0.0,149.51168907284963,2.2768077467851655,139.38213376996447,115.18564484311511,0.13284785332749,11.656953486804305,1.0,140.39080216486778,0.0,1.0,118.62684370937096,8658.536499411588,1.0,1.0,-1.2075770604644949,17.041986113073797,-0.025818343070462293,-44.86278012832576,1.0,140.9399036029755,1.0,-0.008527525794835195,0.8303765985219922,0.6476005343382876,1.0,0.39530592735506787,9.240364306186887
1.68,1.68,1.0,20.541064726807065,-0.03903579098248758,5.331271301241789,0.001904966970525197,0.023626122933396283,0.0008450283898527696,21.22167094248941,0.023717855236138084,1.0,0.0,173.01690796298007,-0.996445577336225,140.48681049967246,119.15504386330674,-0.18165206967627376,11.001583996656505,1.0,143.03032742933496,0.0,1.0,119.63590328529223,8658.652069649137,1.0,1.0,1.0034707404778558,17.04649435365352,-0.0501805704878113,-44.818336308266275,1.0,141.50953883623927,1.0,-0.009252476405016596,0.8372254598426673,0.6459347040867551,1.0,0.20470279668470748,8.914033750269331
1.71,1.71,1.0,20.49381315574262,0.002776452417045074,5.40319010649172,-0.0008503598070652961,0.026211711034537698,-0.0010497426858578855,21.19412297543985,0.026246501992953072,1.0,0.0,173.01690796298007,-0.996445577336225,140.48681049967246,119.15504386330674,-0.18165206967627376,11.001583996656505,1.0,143.03032742933496,0.0,1.0,120.34792979365905,8725.645085300352,1.0,1.0,1.0034707404778558,17.04649435365352,-0.0501805704878113,-44.818336308266275,1.0,141.50953883623927,1.0,-0.009252476405016596,0.8372254598426673,0.6459347040867551,1.0,0.20470279668470748,8.914033750269331
1.74,1.74,1.0,20.511834100088294,0.001369720683786844,5.503537994670589,-0.001525263140191873,0.022359522243831437,0.0007777455292065234,21.237332000146875,0.022424976047421358,1.0,0.0,173.01690796298007,-0.996445577336225,140.48681049967246,119.15504386330674,-0.18165206967627376,11.001583996656505,1.0,142.2741977817848,0.0,1.0,120.57552705611702,8643.563545132136,1.0,1.0,-1.4097116209679756,17.20071115299288,-0.007544745519006266,-44.814135892817184,1.0,142.2239958598493,1.0,0.003910372173798583,0.8568806527558747,0.6442802919515275,1.0,0.08327912698204137,9.519575622306728
1.77,1.77,1.0,20.495595843957794,0.020179359450260486,5.5731119673875265,0.00022243566858980653,0.02376642105085431,0.003905986087514026,21.23980774881086,0.02408628187390086,1.0,0.0,173.01690796298007,-0.996445577336225,140.48681049967246,119.15504386330674,-0.18165206967627376,11.001583996656505,1.0,142.2741977817848,0.0,1.0,121.52025650718795,9127.732917524547,1.0,1.0,-1.4097116209679756,17.20071115299288,-0.007544745519006266,-44.814135892817184,1.0,142.2239958598493,1.0,0.003910372173798583,0.8568806527558747,0.6442802919515275,1.0,0.08327912698204137,9.519575622306728
1.7999999999999998,1.7999999999999998,1.0,20.370903101710027,0.013722318398265857,5.543761393709111,0.0008729804926723406,0.021570119673858888,0.001246824445710729,21.111778036718295,0.021623753811112503,1.0,0.0,173.01690796298007,-0.996445577336225,140.48681049967246,119.15504386330674,-0.18165206967627376,11.001583996656505,1.0,143.58525180151133,0.0,1.0,121.70561256999021,8851.528448375646,1.0,1.0,-0.8702184057906556,17.208021092488185,0.11837768115750293,-44.78853017771891,1.0,143.15162505439832,1.0,-0.00025849649397511064,0.8640755654960663,0.6426365270011518,1.0,0.02493039949090079,8.773021876690589
1.8299999999999998,1.8299999999999998,1.0,20.37101670361662,0.009867997522056873,5.705060662139206,-0.003039753906119731,0.01893954189385674,-0.0016994680458727672,21.154813543850736,0.01925706474512321,1.0,0.0,173.01690796298007,-0.996445577336225,140.48681049967246,119.15504386330674,-0.18165206967627376,11.001583996656505,1.0,143.58525180151133,0.0,1.0,122.4754806887706,8991.892552669671,1.0,1.0,-0.8702184057906556,17.208021092488185,0.11837768115750293,-44.78853017771891,1.0,143.15162505439832,1.0,-0.00025849649397511064,0.8640755654960663,0.6426365270011518,1.0,0.02493039949090079,8.773021876690589
1.8599999999999999,1.8599999999999999,1.0,20.39802472641002,-0.030871974703521037,5.641996018888572,-0.0026665935405472303,0.023169826224850826,-0.004709330816736469,21.163943037515747,0.023793473162649816,1.0,0.0,173.01690796298007,-0.996445577336225,140.48681049967246,119.15504386330674,-0.18165206967627376,11.001583996656505,1.0,144.00088182540284,0.0,1.0,123.78887120900002,9269.936272949246,1.0,1.0,1.4880832588255113,17.303868939900614,-0.002364976353606073,-44.8360152880942,1.0,143.24143965143517,1.0,-0.00932008639251315,0.8671626969341437,0.6410026364816052,1.0,0.20096017449104112,8.923000425964876
1.89,1.89,1.0,20.322384981947028,0.03376565963914393,5.834701526114899,-2.1707977598086193e-05,0.02045269703626332,0.0016645354347405508,21.143420096405514,0.020520330540880007,1.0,0.0,196.35546254283955,1.021212817287425,142.2703713664853,123.30442258828705,0.06555714263465995,10.869411814695676,1.0,144.00088182540284,0.0,1.0,123.89564107353495,9190.260975441257,1.0,1.0,1.4880832588255113,17.303868939900614,-0.002364976353606073,-44.8360152880942,1.0,143.24143965143517,1.0,-0.00932008639251315,0.8671626969341437,0.6410026364816052,1.0,0.20096017449104112,8.923000425964876
1.92,1.92,1.0,20.33756351715664,0.04918037054252938,5.726826834301342,0.0013510552172588924,0.02127153998405432,-0.0015452176140503921,21.128545953597975,0.02137034068441764,1.0,0.0,196.35546254283955,1.021212817287425,142.2703713664853,123.30442258828705,0.06555714263465995,10.869411814695676,1.0,145.47462320149793,0.0,1.0,124.70810296197449,9434.001557728894,1.0,1.0,0.2989923257144124,17.3737362863132,-0.0473283187102076,-44.80319340237765,1.0,144.37228276354713,1.0,-0.0072388728969230275,0.8654274903249235,0.6393778461786341,1.0,-0.6179578819522307,8.947198948306884
1.95,1.95,1.0,20.32705933804455,-0.07419267867635881,5.9031348702183,0.0025967240410219605,0.021414602511381817,0.0005238178907639775,21.166999012187357,0.021577825693252464,1.0,0.0,196.35546254283955,1.021212817287425,142.2703713664853,123.30442258828705,0.06555714263465995,10.869411814695676,1.0,145.47462320149793,0.0,1.0,124.48059879518085,9411.299570667401,1.0,1.0,0.2989923257144124,17.3737362863132,-0.0473283187102076,-44.80319340237765,1.0,144.37228276354713,1.0,-0.0072388728969230275,0.8654274903249235,0.6393778461786341,1.0,-0.6179578819522307,8.947198948306884
1.98,1.98,1.0,20.325051739313686,0.013722728386877707,5.946008526341295,-0.003125247818973815,0.019268209450014052,-0.0010429993195231445,21.17694345070544,0.0195478622084395,1.0,0.0,196.35546254283955,1.021212817287425,142.2703713664853,123.30442258828705,0.06555714263465995,10.869411814695676,1.0,144.47114574993566,0.0,1.0,125.50428579141554,9504.331797414457,1.0,1.0,1.4705425253639874,17.386418904867593,-0.030701920880120373,-44.77377366987563,1.0,144.34978780677545,1.0,0.003460539637634519,0.8646338827815548,0.6377613808588786,1.0,0.282131519740926,9.125271830301921
2.01,2.01,1.0,20.333968377555486,0.051069998736312475,6.0913356596248,-0.0002601368995680216,0.016213338038559465,0.00037033448132730147,21.22680494663326,0.016219653177154437,1.0,0.0,196.35546254283955,1.021212817287425,142.2703713664853,123.30442258828705,0.06555714263465995,10.869411814695676,1.0,144.47114574993566,0.0,1.0,125.8204538644982,9577.394924512217,1.0,1.0,1.4705425253639874,17.386418904867593,-0.030701920880120373,-44.77377366987563,1.0,144.34978780677545,1.0,0.003460539637634519,0.8646338827815548,0.6377613808588786,1.0,0.282131519740926,9.125271830301921
2.04,2.04,1.0,20.289508908621343,0.042021198814192466,6.0543653521349885,-0.001590102591342531,0.021967118805399092,-0.0007028214046892005,21.173598592381676,0.022035804791030483,1.0,0.0,196.35546254283955,1.021212817287425,142.2703713664853,123.30442258828705,0.06555714263465995,10.869411814695676,1.0,145.71623899636958,0.0,1.0,126.0639116359406,9652.007202827008,1.0,1.0,0.8758357647305478,17.35677151890915,0.039179520482825074,-44.798979811953714,1.0,145.4850646094104,1.0,0.0014355681651947133,0.8673994212781642,0.6361524647708108,1.0,-0.03864861708764146,8.279851927001769
2.07,2.07,1.0,20.266241903046684,0.014373213141808628,6.182178209771446,0.0013153530571874288,0.013508877016567913,0.0022173603078440495,21.18820650454951,0.013752694232353577,1.0,0.0,196.35546254283955,1.021212817287425,142.2703713664853,123.30442258828705,0.06555714263465995,10.869411814695676,1.0,145.71623899636958,0.0,1.0,127.42304627554111,9778.264809756194,1.0,1.0,0.8758357647305478,17.35677151890915,0.039179520482825074,-44.798979811953714,1.0,145.4850646094104,1.0,0.0014355681651947133,0.8673994212781642,0.6361524647708108,1.0,-0.03864861708764146,8.279851927001769
2.1,2.1,1.0,20.19148146863787,-0.02944450987218607,6.245185739243625,0.0017417126762541873,0.021047431880364433,-0.000280059132296255,21.135258119908546,0.021121230667808827,1.0,0.0,223.49288676825873,0.20835709846789896,145.4410047850808,127.27864067478569,-0.08434856031340002,10.709924590470534,1.0,146.1245537540315,0.0,1.0,127.54050671000314,9805.30377071047,1.0,1.0,-0.10363998456426948,17.558592625651308,0.07693660543737768,-44.75195641466963,1.0,146.12432129827974,1.0,-0.001320992341157497,0.8777793907086826,0.6345503221900981,1.0,0.004045159866328391,8.800133845466322
2.13,2.13,1.0,20.224364015404575,-0.0445190630083831,6.3229781518890045,0.0026611945798395258,0.01737735821368591,0.004203562598297806,21.189783729048024,0.01807552139210188,1.0,0.0,223.49288676825873,0.20835709846789896,145.4410047850808,127.27864067478569,-0.08434856031340002,10.709924590470534,1.0,146.1245537540315,0.0,1.0,127.68819626410254,10114.595044039192,1.0,1.0,-0.10363998456426948,17.558592625651308,0.07693660543737768,-44.75195641466963,1.0,146.12432129827974,1.0,-0.001320992341157497,0.8777793907086826,0.6345503221900981,1.0,0.004045159866328391,8.800133845466322
2.16,2.16,1.0,20.12840741490318,0.024088806825168514,6.366362105624272,-0.0012870233246366583,0.01672726313202927,0.002551417270902384,21.11122762396522,0.01696960491633684,1.0,0.0,223.49288676825873,0.20835709846789896,145.4410047850808,127.27864067478569,-0.08434856031340002,10.709924590470534,1.0,147.09048821478484,0.0,1.0,128.63052903901504,10138.970975146603,1.0,1.0,1.8066965815050144,17.61430752066666,-0.013732336267989788,-44.72288545441171,1.0,146.53814939869838,1.0,0.013745273382497994,0.8728392261627819,0.6329541779968999,1.0,0.6662010857351114,8.273899361412056
2.19,2.19,1.0,20.103789177261532,-0.040962705490905846,6.373251575445534,0.0020055941024990963,0.015174551811892291,-0.004643879821018442,21.08986374709277,0.01599546967700058,1.0,0.0,223.49288676825873,0.20835709846789896,145.4410047850808,127.27864067478569,-0.08434856031340002,10.709924590470534,1.0,147.09048821478484,0.0,1.0,129.54854040209239,10171.375644988799,1.0,1.0,1.8066965815050144,17.61430752066666,-0.013732336267989788,-44.72288545441171,1.0,146.53814939869838,1.0,0.013745273382497994,0.8728392261627819,0.6329541779968999,1.0,0.6662010857351114,8.273899361412056
2.2199999999999998,2.2199999999999998,1.0,20.085418033903775,-0.025069492190815258,6.360936678351868,-0.001747172305538644,0.017117888504737996,0.0002594705257070091,21.068606064524246,0.01720877807630725,1.0,0.0,223.49288676825873,0.20835709846789896,145.4410047850808,127.27864067478569,-0.08434856031340002,10.709924590470534,1.0,146.90763319377453,0.0,1.0,130.32701467869512,10340.37586429395,1.0,1.0,-1.3801359837503873,17.574907957168648,-0.03949146985780584,-44.611517935560606,1.0,147.62825726704327,1.0,-0.006815776245054037,0.8706510350051275,0.631363258274968,1.0,-0.6322966337395459,8.384787870982954
2.25,2.25,1.0,20.072210889144404,0.008249293362620806,6.491977593651638,-0.0017666207765312785,0.018555255680621597,0.001391746548078025,21.095959117935433,0.018691051891089466,1.0,0.0,223.49288676825873,0.20835709846789896,145.4410047850808,127.27864067478569,-0.08434856031340002,10.709924590470534,1.0,146.90763319377453,0.0,1.0,130.33549946536365,10278.29079851803,1.0,1.0,-1.3801359837503873,17.574907957168648,-0.03949146985780584,-44.611517935560606,1.0,147.62825726704327,1.0,-0.006815776245054037,0.8706510350051275,0.631363258274968,1.0,-0.6322966337395459,8.384787870982954
2.28,2.28,1.0,20.081140703586538,-0.027802317427373723,6.477912695663802,-0.001634504877190591,0.014723214506875804,0.0012083156863215542,21.10015018474363,0.01486286238942044,1.0,0.0,223.49288676825873,0.20835709846789896,145.4410047850808,127.27864067478569,-0.08434856031340002,10.709924590470534,1.0,147.43424082727992,0.0,1.0,130.7389563951908,10242.888646764106,1.0,1.0,-0.7251376031228725,17.680907146867533,-0.02695438912354063,-44.622066051435155,1.0,148.02248847171103,1.0,-0.0018379925212068347,0.8713819281153635,0.6297767909243317,1.0,0.28463170187128106,8.417759630684643
2.31,2.31,1.0,19.928649016188327,-0.047660472515725416,6.612794955141558,0.0018748656324829413,0.015196342088966888,-0.0010468063503038484,20.997199343003103,0.01534730391827205,1.0,0.0,250.52397266642873,1.4824169423803673,147.5022208908967,131.11653959956467,-0.04550137815155315,10.735612689479705,1.0,147.43424082727992,0.0,1.0,131.52091119503524,10338.5126085704,1.0,1.0,-0.7251376031228725,17.680907146867533,-0.02695438912354063,-44.622066051435155,1.0,148.02248847171103,1.0,-0.0018379925212068347,0.8713819281153635,0.6297767909243317,1.0,0.28463170187128106,8.417759630684643
2.34,2.34,1.0,19.949729558364766,0.013553887934899596,6.6894551424636814,0.0015823937757129564,0.015726331246952798,-6.884186517476017e-07,21.041404498341,0.015805741520859416,1.0,0.0,250.52397266642873,1.4824169423803673,147.5022208908967,131.11653959956467,-0.04550137815155315,10.735612689479705,1.0,148.28313588080692,0.0,1.0,132.16529955613245,10728.484164730293,1.0,1.0,-0.15407392111254253,17.70411419363527,-0.019030473195659012,-44.690466029824954,1.0,148.89801640551767,1.0,-0.008660167215196041,0.8888027361081683,0.6281940062809043,1.0,-0.06782872851117837,9.002123173944899
2.37,2.37,1.0,19.9833892558262,0.09629899247179938,6.6707162525406005,-0.0008249074944821934,0.013986309573081829,-0.0021584212463961043,21.067595376970065,0.014175898917720435,1.0,0.0,250.52397266642873,1.4824169423803673,147.5022208908967,131.11653959956467,-0.04550137815155315,10.735612689479705,1.0,148.28313588080692,0.0,1.0,132.63461107757718,10454.090325007714,1.0,1.0,-0.15407392111254253,17.70411419363527,-0.019030473195659012,-44.690466029824954,1.0,148.89801640551767,1.0,-0.008660167215196041,0.8888027361081683,0.6281940062809043,1.0,-0.06782872851117837,9.002123173944899
2.4,2.4,1.0,19.946934011351612,0.010117680662415671,6.755435526388076,-0.0009079509907065836,0.011707080668480547,-0.000762275501499786,21.05982402518748,0.011766952737222273,1.0,0.0,250.52397266642873,1.4824169423803673,147.5022208908967,131.11653959956467,-0.04550137815155315,10.735612689479705,1.0,148.3056896077608,0.0,1.0,133.0409269668702,10832.931711364905,1.0,1.0,-0.8821620700756045,17.691229761143763,-0.029620933090735744,-44.65972001083177,1.0,149.19677956210967,1.0,0.009641410320540219,0.8932379236598865,0.6266141396579576,1.0,-0.057831601270202,8.851349531386115
2.4299999999999997,2.4299999999999997,1.0,19.912515392010704,0.03232245135003418,6.7886180821991715,-0.00011167393898603305,0.012863174878806212,-0.0003834344726299434,21.037933583027733,0.012869372984967094,1.0,0.0,250.52397266642873,1.4824169423803673,147.5022208908967,131.11653959956467,-0.04550137815155315,10.735612689479705,1.0,148.3056896077608,0.0,1.0,133.28336222966942,10787.678559392503,1.0,1.0,-0.8821620700756045,17.691229761143763,-0.029620933090735744,-44.65972001083177,1.0,149.19677956210967,1.0,0.009641410320540219,0.8932379236598865,0.6266141396579576,1.0,-0.057831601270202,8.851349531386115
2.46,2.46,1.0,19.834968890737613,0.025019160780283385,6.83251744791791,0.0014378539034320104,0.01016039991269956,-0.0011182151151123648,20.97879671313485,0.01032238127939797,1.0,0.0,250.52397266642873,1.4824169423803673,147.5022208908967,131.11653959956467,-0.04550137815155315,10.735612689479705,1.0,149.7737511419027,0.0,1.0,135.15176897681968,10899.067916797194,1.0,1.0,-1.915358043422178,17.777313754085547,0.04598216355677747,-44.61560645915155,1.0,149.91662786807044,1.0,-0.0014369140985606604,0.8850514060077473,0.6250363200002116,1.0,0.06717450600800416,8.286632238770082
2.4899999999999998,2.4899999999999998,1.0,19.907204691098354,0.029172223333139808,6.989440013092645,0.0027048858993630673,0.009172276498788734,-0.0004309096882907576,21.09857628676691,0.009572499519888632,1.0,0.0,250.52397266642873,1.4824169423803673,147.5022208908967,131.11653959956467,-0.04550137815155315,10.735612689479705,1.0,149.7737511419027,0.0,1.0,135.28514548686857,10963.535509770192,1.0,1.0,-1.915358043422178,17.777313754085547,0.04598216355677747,-44.61560645915155,1.0,149.91662786807044,1.0,-0.0014369140985606604,0.8850514060077473,0.6250363200002116,1.0,0.06717450600800416,8.286632238770082
2.52,2.52,1.0,19.80480664521031,0.02814009643611844,7.003379473525011,-0.002344679978711612,0.007660099013173252,-0.0006988860785654278,21.00662948141337,0.008041335886841283,1.0,0.0,280.39637506951703,0.170284708858507,149.4290643142206,135.06852644852063,0.017949046019392952,10.575676155690939,1.0,150.00759136101277,0.0,1.0,135.7226664707374,11147.537385950272,1.0,1.0,0.45634495414329435,17.866790357621817,-0.052959108449634744,-44.52474510011611,1.0,150.76260935123992,1.0,0.011170159435608265,0.9100878812156347,0.6234595824241773,1.0,0.7821629901486838,8.455846739322435
2.55,2.55,1.0,19.74136986115942,0.021234921577599385,7.105554385126012,-0.0011084508158520918,0.007418766187517415,-0.0009076419447727872,20.981206782188945,0.007555830123561923,1.0,0.0,280.39637506951703,0.170284708858507,149.4290643142206,135.06852644852063,0.017949046019392952,10.575676155690939,1.0,150.00759136101277,0.0,1.0,135.85313124746034,11267.450180308608,1.0,1.0,0.45634495414329435,17.866790357621817,-0.052959108449634744,-44.52474510011611,1.0,150.76260935123992,1.0,0.011170159435608265,0.9100878812156347,0.6234595824241773,1.0,0.7821629901486838,8.455846739322435
2.58,2.58,1.0,19.68429247038845,-0.01261150282081396,7.149284200059778,-0.0010728256458007346,0.00841736681568404,-0.0012604075277942652,20.94239226265756,0.00857855734445991,1.0,0.0,280.39637506951703,0.170284708858507,149.4290643142206,135.06852644852063,0.017949046019392952,10.575676155690939,1.0,151.1845591266276,0.0,1.0,136.40940075341808,11127.202838671152,1.0,1.0,-1.106212071982508,17.787525446773845,0.04071329667127856,-44.5756574852672,1.0,151.40713617393862,1.0,-0.005445857962135701,0.9072474248291252,0.6218828862085526,1.0,-0.17032315105096055,7.950092368751948
2.61,2.61,1.0,19.72714417437006,-0.06530040305669312,7.201576659379548,0.0018304867622306292,0.004777353856619938,0.001151903107047567,21.000647318593355,0.005244108353770811,1.0,0.0,280.39637506951703,0.170284708858507,149.4290643142206,135.06852644852063,0.017949046019392952,10.575676155690939,1.0,151.1845591266276,0.0,1.0,136.77947507872256,11442.716748488485,1.0,1.0,-1.106212071982508,17.787525446773845,0.04071329667127856,-44.5756574852672,1.0,151.40713617393862,1.0,-0.005445857962135701,0.9072474248291252,0.6218828862085526,1.0,-0.17032315105096055,7.950092368751948
2.6399999999999997,2.6399999999999997,1.0,19.731252627085514,-0.002548663669442039,7.28619819355895,0.0013730432563943571,0.0038157440154324993,0.00047587906138938063,21.03356890414409,0.004083088421318817,1.0,0.0,280.39637506951703,0.170284708858507,149.4290643142206,135.06852644852063,0.017949046019392952,10.575676155690939,1.0,152.06361844338738,0.0,1.0,137.69800266784662,11516.805064216833,1.0,1.0,-0.7377396158514858,17.8004878134276,0.011809544214496155,-44.554231977221384,1.0,151.95336278498732,1.0,-0.008764630760847884,0.9154179336538112,0.6203051309952604,1.0,0.631498929069438,8.349765206051993
2.67,2.67,1.0,19.732735924686136,0.07201878256143211,7.4240170515928945,0.0024259809050747815,0.003690858584506775,-0.004224898530971258,21.083218040915444,0.0061120854084034115,1.0,0.0,280.39637506951703,0.170284708858507,149.4290643142206,135.06852644852063,0.017949046019392952,10.575676155690939,1.0,152.06361844338738,0.0,1.0,138.33744134157877,11444.89027946323,1.0,1.0,-0.7377396158514858,17.8004878134276,0.011809544214496155,-44.554231977221384,1.0,151.95336278498732,1.0,-0.008764630760847884,0.9154179336538112,0.6203051309952604,1.0,0.631498929069438,8.349765206051993
2.6999999999999997,2.6999999999999997,1.0,19.67152996035512,0.007041248737592102,7.419783862404055,0.0002084648167727077,0.002135828470292025,-0.0011345522945941757,21.024327174136264,0.002427432747474368,1.0,0.0,280.39637506951703,0.170284708858507,149.4290643142206,135.06852644852063,0.017949046019392952,10.575676155690939,1.0,152.03973593639773,0.0,1.0,138.6853955793191,11635.65560357012,1.0,1.0,-0.9012612954128387,17.843238554938775,-0.03234914689184237,-44.57042532166342,1.0,152.53507599844477,1.0,-0.0019503213176101035,0.8976676382979373,0.618725170234001,1.0,0.04106775861862125,8.225133258736797
2.73,2.73,1.0,19.64821648168955,-0.03487915354559273,7.475026003091115,-0.0010715496512315459,0.001948576088533461,-0.0014101274825877503,21.022122661938237,0.0026331781073463444,1.0,0.0,310.91886593805265,0.787750753353979,152.01527798988303,139.35679077960202,0.18459912887756566,10.503288646880202,1.0,152.03973593639773,0.0,1.0,139.21342804681146,11783.985217024638,1.0,1.0,-0.9012612954128387,17.843238554938775,-0.03234914689184237,-44.57042532166342,1.0,152.53507599844477,1.0,-0.0019503213176101035,0.8976676382979373,0.618725170234001,1.0,0.04106775861862125,8.225133258736797
2.76,2.76,1.0,19.560379680543427,-0.10978988137909441,7.580997824831597,0.0019528565148581487,0.0023583893349062106,0.0012987169799053464,20.97837064896058,0.0033260058052441426,1.0,0.0,310.91886593805265,0.787750753353979,152.01527798988303,139.35679077960202,0.18459912887756566,10.503288646880202,1.0,152.60022500644254,0.0,1.0,139.65363262291416,11808.85688390706,1.0,1.0,0.2118468677188099,17.87537043879741,0.04147323973144257,-44.50568313853369,1.0,153.12363171859573,1.0,-0.0016649705795938757,0.8981800367055761,0.6171418223769545,1.0,0.5772683034070608,8.267566782130551
2.79,2.79,1.0,19.511329913039607,-0.06205772622909786,7.739124288115793,-0.00200917408081998,0.003523656439133141,0.003188162523533383,20.990233226044978,0.005159197172481975,1.0,0.0,310.91886593805265,0.787750753353979,152.01527798988303,139.35679077960202,0.18459912887756566,10.503288646880202,1.0,152.60022500644254,0.0,1.0,140.05445124249877,12183.284877727225,1.0,1.0,0.2118468677188099,17.87537043879741,0.04147323973144257,-44.50568313853369,1.0,153.12363171859573,1.0,-0.0016649705795938757,0.8981800367055761,0.6171418223769545,1.0,0.5772683034070608,8.267566782130551
2.82,2.82,1.0,19.54419675135355,0.025135688924842556,7.813981632806763,-0.00022359703912735613,0.006927775050810251,-0.0026478533899639226,21.04838633758697,0.007419918487778618,1.0,0.0,310.91886593805265,0.787750753353979,152.01527798988303,139.35679077960202,0.18459912887756566,10.503288646880202,1.0,153.91901692704022,0.0,1.0,141.0868755645864,12080.903320126761,1.0,1.0,1.2272848015896478,17.892956894948963,-0.0541604485438734,-44.61236771573612,1.0,153.49717622973196,1.0,-0.0004692891835060579,0.9234256497783254,0.6155538803323373,1.0,-0.04895331938008737,8.357315715242986
2.85,2.85,1.0,19.581341922534783,0.001895721365972951,7.8360901473773525,0.001648291651911329,0.0035932351126187756,0.00609438682409869,21.09107071437584,0.007264279365915435,1.0,0.0,310.91886593805265,0.787750753353979,152.01527798988303,139.35679077960202,0.18459912887756566,10.503288646880202,1.0,153.91901692704022,0.0,1.0,142.22040072216234,11840.717790310066,1.0,1.0,1.2272848015896478,17.892956894948963,-0.0541604485438734,-44.61236771573612,1.0,153.49717622973196,1.0,-0.0004692891835060579,0.9234256497783254,0.6155538803323373,1.0,-0.04895331938008737,8.357315715242986
2.88,2.88,1.0,19.400359251113194,0.012910443959689271,7.93663920341031,-0.0012923059948033503,0.001466092811564105,0.0036425429588258337,20.961019717488124,0.004133715292955755,1.0,0.0,310.91886593805265,0.787750753353979,152.01527798988303,139.35679077960202,0.18459912887756566,10.503288646880202,1.0,154.7030223458977,0.0,1.0,142.89747161900226,12073.961424145551,1.0,1.0,0.4681790415367432,17.879018144866627,-0.0626232500732612,-44.55669230298092,1.0,154.77183699356107,1.0,-0.00046843098560841605,0.9094583498385554,0.613960119510195,1.0,0.08964437941542282,8.545587011982935
2.9099999999999997,2.9099999999999997,1.0,19.506306622907296,-0.018404140516064916,7.989283148500764,0.0006235003165772848,0.0033019151792653464,-0.0017900622504115446,21.079017576874485,0.0038073244353723423,1.0,0.0,310.91886593805265,0.787750753353979,152.01527798988303,139.35679077960202,0.18459912887756566,10.503288646880202,1.0,154.7030223458977,0.0,1.0,142.1288694835522,12325.210100944656,1.0,1.0,0.4681790415367432,17.879018144866627,-0.0626232500732612,-44.55669230298092,1.0,154.77183699356107,1.0,-0.00046843098560841605,0.9094583498385554,0.613960119510195,1.0,0.08964437941542282,8.545587011982935
2.94,2.94,1.0,19.416282009806572,-0.0008446387991832434,8.141307841770583,0.0011078858442437629,0.0012882593678902564,-0.003910579137636299,21.054047144723224,0.0042637603631711036,1.0,0.0,337.1457670930065,3.6985165774113256,154.42110884200244,142.91151902380406,-0.03982233384067338,10.66279294615883,1.0,155.68268731075452,0.0,1.0,143.2543662893839,12295.542555897115,1.0,1.0,1.2494348438613836,17.84283233174698,0.01121001786871875,-44.549503569378054,1.0,154.8911488983424,1.0,0.020003760839553332,0.933548433681441,0.6123593047082838,1.0,-0.18017620916259383,7.550006464241968
2.9699999999999998,2.9699999999999998,1.0,19.398612121047243,-0.01768881563102183,8.142257925226495,0.0028312418219917264,0.0033300041138307514,-0.0005963737802229724,21.038127987963975,0.004411407863535426,1.0,0.0,337.1457670930065,3.6985165774113256,154.42110884200244,142.91151902380406,-0.03982233384067338,10.66279294615883,1.0,155.68268731075452,0.0,1.0,143.66753247373057,12560.114308195169,1.0,1.0,1.2494348438613836,17.84283233174698,0.01121001786871875,-44.549503569378054,1.0,154.8911488983424,1.0,0.020003760839553332,0.933548433681441,0.6123593047082838,1.0,-0.18017620916259383,7.550006464241968
3.0,3.0,1.0,19.278780645608293,0.07734921210822365,8.228743250582841,0.0012721666509270325,0.0018066912130577858,0.0065275320192073145,20.961621634933387,0.0068913870439010925,1.0,0.0,337.1457670930065,3.6985165774113256,154.42110884200244,142.91151902380406,-0.03982233384067338,10.66279294615883,1.0,155.36464581479382,0.0,1.0,144.2232262568965,12690.598375574973,1.0,1.0,0.9319858234942108,17.849882251121137,-0.0024737901014726237,-44.6173871116416,1.0,155.42799131848193,1.0,-0.016591891797285537,0.9069401539239998,0.6107501960399968,1.0,-0.3560909338562999,8.321174376849871
