time_s,x_m,y_m,altitude_m,vx_mps,vy_mps,vz_mps,speed_mps,mass_kg,roll_deg,pitch_deg,yaw_deg,p_dps,q_dps,r_dps,alpha_deg,beta_deg,qbar_pa,mach,airspeed_mps,load_factor_g,density_kgpm3,pressure_pa,temperature_k,wind_x_mps,wind_y_mps,wind_z_mps,thrust_n,mass_flow_kgps,propulsion_throttle_actual,propulsion_health,energy_j_per_kg,target_distance_m,guidance_mode,pitch_command_deg,heading_command_deg,roll_command_deg
0.0,0.0,0.0,120.0,86.0,0.0,16.0,87.47571091451616,18.0,0.0,10.0,0.0,0.0,0.0,0.0,-0.5391837286282299,0.0,4633.093410827757,0.2574078588887444,87.47571091451614,1.7887233382662049,1.2109496630495968,99891.70180372041,287.37,0.0,0.0,0.0,334.4,0.17947005348411538,0.88,nominal,5002.798,nan,pitch_program,14.999999999999998,0.0,0.0
0.03,2.5956430605347935,0.0,120.47330314433844,86.52143535115978,0.0,15.776771477948124,87.94808294381589,17.994615898395477,0.0,10.379294008134904,0.0,0.0,-12.64317977685787,0.0,0.04521865340142464,0.0,4683.052886220638,0.2587992560201085,87.94808294381589,1.8242609113471797,1.2108944909902168,99886.08128676451,287.3669235295618,0.0,0.0,0.0,340.34,0.1826580083815306,0.88,nominal,5048.872165026586,nan,pitch_program,14.977500000000001,0.0,0.0
0.06,5.207117622037693,0.0,120.94071364687782,87.04915205009665,0.0,15.580350084645863,88.43247243745348,17.98913615814403,0.0,10.71856298807445,0.0,0.0,-11.308999041498259,0.0,0.5710201539552378,0.0,4734.567376820198,0.26022601393319017,88.43247243745348,1.8519928097061003,1.210840007712342,99880.5309967695,287.3638853612953,0.0,0.0,0.0,346.28000000000003,0.1858459632789458,0.88,nominal,5096.17434018564,nan,pitch_program,14.955000000000002,0.0,0.0
0.09,7.834545991204717,0.0,121.4028561183601,87.5809456389008,0.0,15.4047490494095,88.92540881142678,17.983560779245664,0.0,10.83555423188443,0.0,0.0,-3.8997094819155955,0.0,0.8597516006520374,0.0,4787.283933155026,0.2616779219767881,88.92540881142679,1.881882387234894,1.2107861403415472,99875.04350780597,287.3608814352306,0.0,0.0,0.0,352.22,0.18903391817636103,0.88,nominal,5144.419485092806,nan,pitch_program,14.9325,0.0,0.0
0.12,10.478156155349456,0.0,121.85991778679073,88.12033880482463,0.0,15.235388947687467,89.42768691777954,17.977889761700375,0.0,10.860103243501271,0.0,0.0,-0.8183003997466171,0.0,1.0510349435666173,0.0,4841.303751116514,0.2631573198403331,89.42768691777954,1.9126104445201482,1.210732866992883,99869.61658851508,287.35791053438584,0.0,0.0,0.0,358.16,0.19222187307377622,0.88,nominal,5193.6931564960305,nan,pitch_program,14.910000000000002,0.0,0.0
0.15,13.138204169135712,0.0,122.31199492247063,88.66826712620849,0.0,15.069237855996453,89.93966602520415,17.97212310550816,0.0,10.919562534518164,0.0,0.0,-1.9819765451032667,0.0,1.2742602019930311,0.0,4896.6828546637225,0.26466526520238287,89.93966602520416,1.9435216226275913,1.210680176386172,99864.24908793568,287.35497203300395,0.0,0.0,0.0,364.1,0.19540982797119144,0.88,nominal,5244.042687369078,nan,pitch_program,14.8875,0.0,0.0
0.18,15.814916393943884,0.0,122.75931413726458,89.22374082693908,0.0,14.910640493131783,90.46105862230563,17.966260810669024,0.0,11.008940168874412,0.0,0.0,-2.9792550826834905,0.0,1.5216170325528262,0.0,4953.407589720369,0.26620091286451175,90.46105862230563,1.9746084428562074,1.2106280420525304,99858.93830795024,287.35206445810775,0.0,0.0,0.0,370.04,0.19859778286860666,0.88,nominal,5295.459191518314,nan,pitch_program,14.865,0.0,0.0
0.21,18.508501897426395,0.0,123.20216923607711,89.7861834494171,0.0,14.76183662708438,90.99159609006269,17.960302877182965,0.0,11.07601025809763,0.0,0.0,-2.2356698960669497,0.0,1.7394808022716663,0.0,5011.465954555315,0.2677634734163675,90.99159609006269,2.005911240114054,1.210576429696308,99853.68075329036,287.34918589996545,0.0,0.0,0.0,375.98,0.20178573776602185,0.88,nominal,5347.935832447531,nan,pitch_program,14.8425,0.0,0.0
0.24,21.21918153651727,0.0,123.64080598947515,90.35598796969578,0.0,14.62122511326827,91.53133226274309,17.954249305049984,0.0,11.107368322262401,0.0,0.0,-1.045268831583963,0.0,1.915556699925731,0.0,5070.881317615455,0.2693531061946918,91.5313322627431,2.0373889146334654,1.2105253106247262,99848.47349957906,287.34633476106836,0.0,0.0,0.0,381.92,0.20497369266343707,0.88,nominal,5401.494502953024,nan,pitch_program,14.82,0.0,0.0
0.27,23.947192392610447,0.0,124.0754108415449,90.9336952031059,0.0,14.486828402324717,92.08042745583758,17.94810009427008,0.0,11.122261187980637,0.0,0.0,-0.496428860069457,0.0,2.0704242087403077,0.0,5131.689385675827,0.27097028371569054,92.08042745583758,2.0690716544853007,1.2104746630628092,99843.31432724312,287.3435098295299,0.0,0.0,0.0,387.86,0.20816164756085226,0.88,nominal,5456.16668795412,nan,pitch_program,14.7975,0.0,0.0
0.3,26.692776180947636,0.0,124.50615774057718,91.5194596112396,0.0,14.358229967742815,92.63892408345373,17.941855244843257,0.0,11.133945462570411,0.0,0.0,-0.3894758210088833,0.0,2.2176520942910147,0.0,5193.91338475586,0.2726151315156149,92.63892408345373,2.1009474343438903,1.2104244666949493,99838.20116546525,287.3407099746862,0.0,0.0,0.0,393.8,0.21134960245826748,0.88,nominal,5511.973439476583,nan,pitch_program,14.775,0.0,0.0
0.32999999999999996,29.456173318811558,0.0,124.93322922865299,92.11323792879743,0.0,14.235716269193562,93.20678204628797,17.93551475676951,0.0,11.139932579203569,0.0,0.0,-0.19957055462015483,0.0,2.354613179528179,0.0,5257.567657566731,0.2742875323461989,93.20678204628797,2.132944649371651,1.2103747002070937,99833.13184181778,287.3379340100137,0.0,0.0,0.0,399.74,0.21453755735568267,0.88,nominal,5568.928562127284,nan,pitch_program,14.752499999999998,0.0,0.0
0.36,32.237625769518495,0.0,125.35680415074063,92.71508169023117,0.0,14.119164069588091,93.78399206074663,17.92907863004884,0.0,11.135452575725427,0.0,0.0,0.14933344934738613,0.0,2.476661224533045,0.0,5322.670251665823,0.27598745963664495,93.78399206074661,2.165010136776021,1.2103253427190304,99828.10422815963,287.33518077302017,0.0,0.0,0.0,405.68,0.21772551225309789,0.88,nominal,5627.048886849954,nan,pitch_program,14.73,0.0,0.0
0.39,35.03738006985871,0.0,125.7770462698656,93.32514334467389,0.0,14.008070637498891,94.37059088131794,17.922546864681244,0.0,11.121551984804773,0.0,0.0,0.4633530329612534,0.0,2.5852029986649843,0.0,5389.244767984908,0.27771502225686817,94.37059088131794,2.197144022092969,1.2102763751108303,99823.11637574335,287.33244919924584,0.0,0.0,0.0,411.62,0.2209134671505131,0.88,nominal,5686.3556824469215,nan,pitch_program,14.707500000000001,0.0,0.0
0.42,37.85568660977467,0.0,126.19410744335607,93.94355133053193,0.0,13.902039116349316,94.96661270249031,17.91591946066673,0.0,11.101627283520852,0.0,0.0,0.6641567161571864,0.0,2.683923192666733,0.0,5457.314937890437,0.27947032151404816,94.96661270249031,2.2068115306686855,1.2102277796524432,99818.16647747619,287.32973830161814,0.0,0.0,0.0,413.57684210526315,0.22196369010892084,0.88,nominal,5746.870207851784,nan,pitch_program,14.684999999999999,0.0,0.0
0.44999999999999996,40.69260149396823,0.0,126.60809573572689,94.5638294731186,0.0,13.799609745693909,95.56540730700887,17.90926054996346,0.0,11.077090418529261,0.0,0.0,0.8178955122197261,0.0,2.774575597719365,0.0,5526.131843307318,0.28123378742380994,95.56540730700887,2.205288024691168,1.210179543718713,99813.2532463155,287.32704737771775,0.0,0.0,0.0,413.5421052631579,0.22194504709782484,0.88,nominal,5807.974818924018,nan,pitch_program,14.662500000000001,0.0,0.0
0.48,43.548084221611404,0.0,127.01909587864834,95.18275758810579,0.0,13.700004764048174,96.1636494347581,17.902602198550525,0.0,11.047772556341878,0.0,0.0,0.9772620942357466,0.0,2.857231806356678,0.0,5595.314468397207,0.2829956344313135,96.1636494347581,2.203829196017927,1.2101316574047754,99808.37567235506,287.32437587678874,0.0,0.0,0.0,413.5073684210526,0.2219264040867288,0.88,nominal,5869.355552903872,nan,pitch_program,14.640000000000002,0.0,0.0
0.51,46.4220962891292,0.0,127.42718676840795,95.80040225059311,0.0,13.60302965865343,96.76135327324464,17.895944406427923,0.0,11.013888843408779,0.0,0.0,1.129457130687311,0.0,2.932288560208962,0.0,5664.863247609873,0.28475590434139564,96.76135327324462,2.2024235034612465,1.2100841114870613,99803.5328151275,287.32172328600535,0.0,0.0,0.0,413.47263157894736,0.22190776107563284,0.88,nominal,5931.013564757232,nan,pitch_program,14.6175,0.0,0.0
0.54,49.314601199018675,0.0,127.83244137352249,96.41683032964913,0.0,13.50848683715112,97.35853525729438,17.889287173595655,0.0,10.97630247799671,0.0,0.0,1.2528788919997451,0.0,3.000787782936036,0.0,5734.778923970179,0.28651464556065165,97.35853525729439,2.2010692580177142,1.2100368974339266,99798.72380468306,287.3190891310721,0.0,0.0,0.0,413.4378947368421,0.22188911806453684,0.88,nominal,5992.950204918571,nan,pitch_program,14.595000000000002,0.0,0.0
0.57,52.22556405370164,0.0,128.2349281722115,97.03209515609886,0.0,13.416226622967379,97.95520724893109,17.88263050005372,0.0,10.935748912610057,0.0,0.0,1.351785569322165,0.0,3.06361022607798,0.0,5805.061748056869,0.2882718930307535,97.95520724893107,2.199762391149202,1.2099900072380763,99793.94782451763,287.3164729668806,0.0,0.0,0.0,413.40315789473686,0.22187047505344087,0.88,nominal,6055.166371950539,nan,pitch_program,14.5725,0.0,0.0
0.6,55.15495126173704,0.0,128.63471209802202,97.64624026784675,0.0,13.32613086035064,98.55137747466163,17.875974385802117,0.0,10.892594891395108,0.0,0.0,1.4384674418327492,0.0,3.1212453017775545,0.0,5875.711572860083,0.29002767098911963,98.55137747466163,2.1984948686103727,1.209943433306302,99789.204100339,287.31387437136283,0.0,0.0,0.0,413.3684210526316,0.22185183204234488,0.88,nominal,6117.6626004726895,nan,pitch_program,14.55,0.0,0.0
0.63,58.10273046041859,0.0,129.03185467813225,98.2593066227185,0.0,13.23808600367381,99.14705370820697,17.869318830840847,0.0,10.847136493761635,0.0,0.0,1.5152800006024467,0.0,3.1741058100461004,0.0,5946.728222496038,0.2917820023352832,99.14705370820697,2.1972603994473556,1.2098971684432953,99784.49189841605,287.31129294459214,0.0,0.0,0.0,413.3336842105263,0.22183318903124885,0.88,nominal,6180.439367188344,nan,pitch_program,14.5275,0.0,0.0
0.6599999999999999,61.068870441868114,0.0,129.42641419620247,98.87133271498412,0.0,13.15198393567458,99.74224337902838,17.862663835169908,0.0,10.79975172567868,0.0,0.0,1.5794923594579366,0.0,3.222680266124024,0.0,6018.111503628574,0.2935349089504337,99.74224337902838,2.196055943586961,1.2098512058326034,99779.81052363658,287.30872830772466,0.0,0.0,0.0,413.298947368421,0.22181454602015285,0.88,nominal,6243.497101917855,nan,pitch_program,14.505,0.0,0.0
0.69,64.05334100480097,0.0,129.81844614695723,99.48235209776172,0.0,13.067731691825133,100.33695226820758,17.856009398789304,0.0,10.7508010129435,0.0,0.0,1.6316905237558141,0.0,3.2674279018856667,0.0,6089.861045706671,0.2952864078606175,100.33695226820758,2.1948789559803625,1.2098055389836133,99775.15931410558,287.30618010004474,0.0,0.0,0.0,413.26421052631576,0.22179590300905686,0.88,nominal,6306.8360601433415,nan,pitch_program,14.4825,0.0,0.0
0.72,67.05611281238228,0.0,130.20800366341572,100.0923935860437,0.0,12.985250548616284,100.93118440597941,17.84935552169903,0.0,10.700558184941926,0.0,0.0,1.6747610407041944,0.0,3.308710540976994,0.0,6161.976282340247,0.297036510936217,100.93118440597941,2.1937261845966765,1.209760161681722,99770.53763606823,287.3036479761878,0.0,0.0,0.0,413.2294736842105,0.22177725999796086,0.88,nominal,6370.456311922746,nan,pitch_program,14.46,0.0,0.0
0.75,70.07715729746542,0.0,130.59513777005816,100.70148283610483,0.0,12.904470221414666,101.5249427337228,17.842702203899094,0.0,10.649251652288195,0.0,0.0,1.7102178694044698,0.0,3.3468374711506095,0.0,6234.456526228596,0.2987852268406689,101.52494273372281,2.1925947538138972,1.209715067958798,99765.94488089977,287.30113160449457,0.0,0.0,0.0,413.19473684210527,0.2217586169868649,0.88,nominal,6434.357806355588,nan,pitch_program,14.437499999999998,0.0,0.0
0.78,73.11644658328618,0.0,130.97989759022232,101.3096428606921,0.0,12.825327338804977,102.11822931244195,17.836049445389488,0.0,10.597101620648939,0.0,0.0,1.73833450798487,0.0,3.3821037631556847,0.0,6307.300990933984,0.3005325616444354,102.11822931244195,2.191482727083151,1.209670252068983,99761.38046263962,287.29863066566355,0.0,0.0,0.0,413.16,0.2217399739757689,0.88,nominal,6498.540391657393,nan,pitch_program,14.415000000000001,0.0,0.0
0.8099999999999999,76.1739533981784,0.0,131.3623305854354,101.91689382974074,0.0,12.747766507101831,102.71104516468631,17.829397246170213,0.0,10.544309522534645,0.0,0.0,1.7597367283067888,0.0,3.41477928379268,0.0,6380.508767986918,0.3022785183603406,102.71104516468633,2.1903885460639536,1.2096257084607644,99756.84381514566,287.29614485119464,0.0,0.0,0.0,413.1252631578947,0.2217213309646729,0.88,nominal,6563.003798646776,nan,pitch_program,14.392500000000002,0.0,0.0
0.84,79.2496509955452,0.0,131.74248278017097,102.52325324555981,0.0,12.671739824519939,103.30339029399526,17.822745606241273,0.0,10.49104612380709,0.0,0.0,1.7754467521131294,0.0,3.4450972766584202,0.0,6454.078825506518,0.3040230970013286,103.30339029399526,2.189310665987084,1.2095814317507758,99752.33438942471,287.2936738619289,0.0,0.0,0.0,413.0905263157895,0.2217026879535769,0.88,nominal,6627.747641872921,nan,pitch_program,14.37,0.0,0.0
0.87,82.34351308764164,0.0,132.12039894021476,103.12873640321489,0.0,12.597205334792543,103.89526386881505,17.816094525602665,0.0,10.437459424511594,0.0,0.0,1.786223440053495,0.0,3.473263319449765,0.0,6528.010027601993,0.30576629512214004,103.89526386881505,2.188247741960534,1.209537416702973,99747.85165151094,287.29121740688856,0.0,0.0,0.0,413.05578947368423,0.2216840449424809,0.88,nominal,6692.771437452409,nan,pitch_program,14.347500000000002,0.0,0.0
0.8999999999999999,85.45551378755805,0.0,132.49612272707154,103.7333566638803,0.0,12.524126228559476,104.48666432872996,17.80944400425439,0.0,10.383683037804458,0.0,0.0,1.7925463551624616,0.0,3.4994643022748977,0.0,6602.301144758487,0.30750810813230683,104.48666432872996,2.187198743926036,1.2094936582106406,99743.39508063198,287.288775202274,0.0,0.0,0.0,413.021052631579,0.22166540193138493,0.88,nominal,6758.074613213781,nan,pitch_program,14.325,0.0,0.0
0.9299999999999999,88.58562755476173,0.0,132.86969684520625,104.33712557345596,0.0,12.452470604489942,105.07758941414104,17.80279404219645,0.0,10.329835808047115,0.0,0.0,1.794907790690177,0.0,3.523868310589235,0.0,6676.950854952838,0.30924852938385367,105.07758941414104,2.1861628217598557,1.2094501512792035,99738.964167458,287.28634697050614,0.0,0.0,0.0,412.9863157894737,0.2216467589202889,0.88,nominal,6823.656511110445,nan,pitch_program,14.3025,0.0,0.0
0.96,91.7338291457485,0.0,133.24116317505937,104.9400530328922,0.0,12.382210995103861,105.66803622512106,17.796144639428842,0.0,10.276021059928107,0.0,0.0,1.7938250691733595,0.0,3.546624259475502,0.0,6751.957748634483,0.3109875503448359,105.66803622512106,2.185139214616282,1.209406891010718,99734.5584125213,287.2839324393621,0.0,0.0,0.0,412.95157894736843,0.22162811590919293,0.88,nominal,6889.516392687445,nan,pitch_program,14.28,0.0,0.0
0.99,94.90009357090553,0.0,133.61056288734423,105.54214750523433,0.0,12.313323742828198,106.25800130631262,17.789495795951566,0.0,10.222329260443168,0.0,0.0,1.7897267804693278,0.0,3.5678650095991045,0.0,6827.320337316858,0.31272516084948043,106.25800130631262,2.1841272804456247,1.2093638725905447,99730.17732485835,287.28153134123227,0.0,0.0,0.0,412.91684210526313,0.2216094728980969,0.88,nominal,6955.653447345342,nan,pitch_program,14.2575,0.0,0.0
1.02,98.08439605611002,0.0,133.97793654411223,106.14341617348332,0.0,12.24578855893316,106.8474807115609,17.782847511764622,0.0,10.168840372960268,0.0,0.0,1.782963045588633,0.0,3.587710058891344,0.0,6903.0370599212265,0.31446134928865627,106.8474807115609,2.183126503809969,1.209321091275554,99725.82042080819,287.27914341246327,0.0,0.0,0.0,412.8821052631579,0.2215908298870009,0.88,nominal,7022.066798614007,nan,pitch_program,14.235000000000001,0.0,0.0
1.05,101.28671200798777,0.0,134.34332419020296,106.7438650625916,0.0,12.179588203024178,107.43647005228722,17.776199786868013,0.0,10.115624549228727,0.0,0.0,1.773860918570293,0.0,3.6062664943105003,0.0,6979.106287290311,0.31619610275247645,107.43647005228722,2.182136454564623,1.2092785423834629,99721.48722292588,287.27676839276364,0.0,0.0,0.0,412.84736842105264,0.22157218687590494,0.88,nominal,7088.755508817858,nan,pitch_program,14.2125,0.0,0.0
1.08,104.50701698289558,0.0,134.70676543431756,107.34349916359372,0.0,12.114708137152938,108.02496454955607,17.769552621261735,0.0,10.062742882681462,0.0,0.0,1.7627223433740038,0.0,3.6236300093256637,0.0,7055.526327397766,0.31792940718374674,108.02496454955607,2.1811567648352943,1.2092362212833838,99717.17725901947,287.2744060246769,0.0,0.0,0.0,412.8126315789474,0.22155354386480894,0.88,nominal,7155.718584212873,nan,pitch_program,14.19,0.0,0.0
1.1099999999999999,107.74528665947672,0.0,135.0682995199671,107.94232255270491,0.0,12.051136188318246,108.61295908638886,17.76290601494579,0.0,10.010248653620407,0.0,0.0,1.7498077577699893,0.0,3.6398863994625836,0.0,7132.295430818737,0.3196612475321188,108.61295908638887,2.1801871296998576,1.2091941233875414,99712.8900613062,287.2720560531202,0.0,0.0,0.0,412.77789473684214,0.22153490085371297,0.88,nominal,7222.954980238275,nan,pitch_program,14.167500000000002,0.0,0.0
1.14,111.00149681423015,0.0,135.4279653881485,108.54033849178104,0.0,11.988862272712998,109.20044825230565,17.75625996792018,0.0,9.95818830469722,0.0,0.0,1.7353450834977588,0.0,3.655112746290092,0.0,7209.411795402662,0.3213916078853505,109.20044825230568,2.1792272993807598,1.2091522441439675,99708.62516566801,287.269718224977,0.0,0.0,0.0,412.74315789473684,0.22151625784261694,0.88,nominal,7290.463606025929,nan,pitch_program,14.145,0.0,0.0
1.17,114.27562329973027,0.0,135.7858017328032,109.13754951667069,0.0,11.927878155156694,109.78742638293336,17.749614480184903,0.0,9.90660208768363,0.0,0.0,1.719540683278951,0.0,3.669378246643195,0.0,7286.8735704856745,0.3231204715860311,109.78742638293335,2.1782770644941456,1.2091105790300345,99704.38211099271,287.26739228873674,0.0,0.0,0.0,412.7084210526316,0.22149761483152094,0.88,nominal,7358.243328457,nan,pitch_program,14.1225,0.0,0.0
1.2,117.56764202532734,0.0,136.14184704940232,109.73395751990233,0.0,11.868177219970244,110.37388759803811,17.742969551739957,0.0,9.85552473174405,0.0,0.0,1.7025786440747288,0.0,3.6827450509415556,0.0,7364.678861065933,0.3248478213436533,110.37388759803811,2.1773362484894028,1.2090691235467834,99700.16043859613,287.26507799417885,0.0,0.0,0.0,412.67368421052635,0.22147897182042497,0.88,nominal,7426.292976119195,nan,pitch_program,14.1,0.0,0.0
1.23,120.87752894008757,0.0,136.49613967733058,110.32956382534068,0.0,11.809754264275352,110.9598258365274,17.736325182585343,0.0,9.804986113406597,0.0,0.0,1.6846207204733699,0.0,3.69526908553313,0.0,7442.825731738345,0.3265736393377511,110.9598258365274,2.176404703768799,1.209027873213984,99695.95969171872,287.26277509209734,0.0,0.0,0.0,412.63894736842104,0.22146032880932895,0.88,nominal,7494.611343002941,nan,pitch_program,14.0775,0.0,0.0
1.26,124.20526001770392,0.0,136.84871783686754,110.92436925387852,0.0,11.752605317898745,111.54523488759658,17.729681372721064,0.0,9.755011798492518,0.0,0.0,1.6658106027429338,0.0,3.7070007278323818,0.0,7521.312210261789,0.32829790730967834,111.54523488759658,2.1754823054830164,1.2089868235658199,99691.7794150858,287.2604833340603,0.0,0.0,0.0,412.6042105263158,0.22144168579823295,0.88,nominal,7563.197191839463,nan,pitch_program,14.055,0.0,0.0
1.29,127.55081124318251,0.0,137.19961966128983,111.5183741826196,0.0,11.69672748074291,112.13010841916422,17.723038122147116,0.0,9.705623505050399,0.0,0.0,1.6462765500059355,0.0,3.7179853888188252,0.0,7600.136290894366,0.3300206066463962,112.13010841916422,2.1745689456606128,1.2089459701471437,99687.6191545262,287.2582024722016,0.0,0.0,0.0,412.5694736842105,0.22142304278713695,0.88,nominal,7632.0492571981495,nan,pitch_program,14.0325,0.0,0.0
1.3199999999999998,130.91415860113932,0.0,137.54888322452797,112.11157859856053,0.0,11.642118774604784,112.71444000403505,17.716395430863503,0.0,9.656839542530006,0.0,0.0,1.626132182251978,0.0,3.72826406024098,0.0,7679.29593754269,0.331741718457561,112.71444000403507,2.1736645295620227,1.2089053085102477,99683.47845664297,287.25593225904055,0.0,0.0,0.0,412.53473684210525,0.22140439977604096,0.88,nominal,7701.166248385427,nan,pitch_program,14.01,0.0,0.0
1.3499999999999999,134.2952780655359,0.0,137.8965465648605,112.70398214655343,0.0,11.588778011084456,113.29822314352873,17.709753298870222,0.0,9.608675203353755,0.0,0.0,1.6054780670847406,0.0,3.7378738022935414,0.0,7758.789086677744,0.3334612236451431,113.29822314352873,2.1727689724047674,1.2088648342121047,99679.35686853234,287.25367244732837,0.0,0.0,0.0,412.5,0.22138575676494499,0.88,nominal,7770.546852110703,nan,pitch_program,13.9875,0.0,0.0
1.38,137.69414559070063,0.0,138.24264770507216,113.29558417215702,0.0,11.536704673721754,113.88145128878095,17.703111726167272,0.0,9.561143099681486,0.0,0.0,1.5844035466107849,0.0,3.7468481659832817,0.0,7838.613650032785,0.3351791029661875,113.88145128878097,2.1718821959692707,1.208824542812012,99675.25393754353,287.251422789917,0.0,0.0,0.0,412.46526315789475,0.221367113753849,0.88,nominal,7840.189734936441,nan,pitch_program,13.965,0.0,0.0
1.41,141.1107371035064,0.0,138.58722466942353,113.88638376019291,0.0,11.485898811712493,114.46411786008238,17.696470712754657,0.0,9.514253466122035,0.0,0.0,1.5629878725483606,0.0,3.7552175726971893,0.0,7918.767517121993,0.33689533708978914,114.46411786008237,2.171004125931029,1.2087844298696087,99671.16921107679,287.2491830396487,0.0,0.0,0.0,412.4305263157895,0.221348470742753,0.88,nominal,7910.0935455478175,nan,pitch_program,13.9425,0.0,0.0
1.44,144.54502849658616,0.0,138.93031549775964,114.47637976932471,0.0,11.436360944537194,115.04621626435348,17.689830258632373,0.0,9.468014432795405,0.0,0.0,1.5413011945400599,0.0,3.7630096560549773,0.0,7999.248557583716,0.33860990664857477,115.04621626435349,2.1701346897588745,1.2087444909432332,99667.10223641587,287.24695294926454,0.0,0.0,0.0,412.3957894736842,0.221329827731657,0.88,nominal,7980.2569168483,nan,pitch_program,13.920000000000002,0.0,0.0
1.47,147.99699562247505,0.0,139.2719582570632,115.06557086296358,0.0,11.38809197678555,115.62773991085106,17.683190363800424,0.0,9.422432265614125,0.0,0.0,1.5194056528471973,0.0,3.7702495635866833,0.0,8080.054623351926,0.34032279228497275,115.62773991085106,2.169273814756332,1.208704721588568,99663.05256058995,287.24473227132904,0.0,0.0,0.0,412.36105263157896,0.221311184720561,0.88,nominal,8050.678467887339,nan,pitch_program,13.8975,0.0,0.0
1.5,151.4666142885835,0.0,139.61219105071822,115.65395553694793,0.0,11.341093121833639,116.2086822252986,17.676551028258807,0.0,9.377511579343013,0.0,0.0,1.4973562857364344,0.0,3.7769602247516425,0.0,8161.183550674221,0.3420339746928375,116.20868222529862,2.168421426380899,1.2086651173575642,99659.01973026394,287.2425207581703,0.0,0.0,0.0,412.32631578947365,0.22129254170946497,0.88,nominal,8121.356805637742,nan,pitch_program,13.875,0.0,0.0
1.53,154.9538602529135,0.0,139.95105202572196,116.24153214433366,0.0,11.295365833457817,116.78903666258148,17.669912252007524,0.0,9.333255528385664,0.0,0.0,1.4752017719231092,0.0,3.7831625909499715,0.0,8242.633161987933,0.34374343465484325,116.78903666258148,2.1675774469027758,1.2086256737975871,99655.00329165145,287.24031816183276,0.0,0.0,0.0,412.2915789473684,0.221273898698369,0.88,nominal,8192.290526634946,nan,pitch_program,13.8525,0.0,0.0
1.56,158.45870922044,0.0,140.28857937806447,116.82829891754972,0.0,11.25091174474981,117.36879671810773,17.663274035046573,0.0,9.289665976176073,0.0,0.0,1.4529851437339958,0.0,3.788875848937628,0.0,8324.401267661775,0.34545115307594515,117.36879671810775,2.166741794252593,1.2085863864508004,99651.00279045175,287.2381242340426,0.0,0.0,0.0,412.25684210526316,0.221255255687273,0.88,nominal,8263.478218486143,nan,pitch_program,13.83,0.0,0.0
1.5899999999999999,161.98113684008587,0.0,140.62481135647133,117.41425398819602,0.0,11.207732613561783,117.94795593795469,17.656636377375953,0.0,9.246743645359098,0.0,0.0,1.430744427477552,0.0,3.7941176104056122,0.0,8406.485667612893,0.34715711101326097,117.94795593795469,2.165914381035164,1.2085472508537116,99647.01777180361,287.2359387261829,0.0,0.0,0.0,412.2221052631579,0.22123661267617703,0.88,nominal,8334.918461259791,nan,pitch_program,13.807500000000001,0.0,0.0
1.6199999999999999,165.5211187022279,0.0,140.95978626468496,117.99939540473476,0.0,11.165830273787531,118.52650792791445,17.64999927899567,0.0,9.204488251604797,0.0,0.0,1.4085131889842395,0.0,3.798904081082336,0.0,8488.88415280993,0.3488612897027069,118.52650792791447,2.165095113734497,1.2085082625369168,99643.04778025902,287.23376138927955,0.0,0.0,0.0,412.1873684210526,0.221217969665081,0.88,nominal,8406.609828765557,nan,pitch_program,13.785,0.0,0.0
1.65,169.07863033667633,0.0,141.29354246244313,118.58372114828025,0.0,11.125206591939195,119.10444636152931,17.643362739905715,0.0,9.16289862260567,0.0,0.0,1.3863210275080753,0.0,3.803250211325497,0.0,8571.594506669095,0.35056367058265675,119.10444636152931,2.1642838920637106,1.2084694170249728,99639.09235977009,287.2315919739941,0.0,0.0,0.0,412.15263157894736,0.221199326653985,0.88,nominal,8478.550889732525,nan,pitch_program,13.7625,0.0,0.0
1.68,172.65364721107676,0.0,141.62611836529797,119.16722914668127,0.0,11.085863428494402,119.68176498720626,17.636726760106097,0.0,9.121972803707225,0.0,0.0,1.3641940212836892,0.0,3.807169830045799,0.0,8654.614506351472,0.352264235314885,119.68176498720626,2.1634806084313447,1.20843070983642,99635.15105369141,287.22943023062555,0.0,0.0,0.0,412.1178947368421,0.22118068364288904,0.88,nominal,8550.740208893485,nan,pitch_program,13.74,0.0,0.0
1.71,176.24614472968898,0.0,141.95755244340367,119.74991728707444,0.0,11.04780260352322,120.2584576344948,17.63009133959681,0.0,9.081708151840909,0.0,0.0,1.3421551174467734,0.0,3.8106757639903015,0.0,8737.941923968869,0.3539629658030447,120.2584576344948,2.162685147523666,1.2083921364839192,99631.22340479371,287.22727590911785,0.0,0.0,0.0,412.08315789473687,0.22116204063179304,0.88,nominal,8623.176347982895,nan,pitch_program,13.7175,0.0,0.0
1.74,179.8560982325009,0.0,142.28788321938902,120.33178342706381,0.0,11.011025866177832,120.8345182196024,17.623456478377857,0.0,9.0421014190279,0.0,0.0,1.3202244796729168,0.0,3.813779943962183,0.0,8821.574527704955,0.35565984420889674,120.8345182196024,2.161897385985028,1.2083536924744973,99627.30895528886,287.2251287590739,0.0,0.0,0.0,412.0484210526316,0.22114339762069707,0.88,nominal,8695.857866655135,nan,pitch_program,13.695,0.0,0.0
1.77,183.48348299464092,0.0,142.61714926541893,120.91282540466715,0.0,10.97553486766426,121.40994075021548,17.616822176449237,0.0,9.003148826536282,0.0,0.0,1.2984197997311464,0.0,3.8164934993374136,0.0,8905.510082857785,0.3573548529664921,121.40994075021548,2.1611171921789976,1.208315373309885,99623.40724686412,287.22298852977474,0.0,0.0,0.0,412.0136842105263,0.22112475460960104,0.88,nominal,8768.783323329139,nan,pitch_program,13.672500000000001,0.0,0.0
1.7999999999999998,187.12827422605562,0.0,142.9453891995393,121.49304104715702,0.0,10.941331137345403,121.98471932968991,17.610188433810947,0.0,8.964846130771843,0.0,0.0,1.2767565730301653,0.0,3.8188268422106897,0.0,8989.746352809612,0.3590479747944957,121.98471932968991,2.160344426023882,1.2082771744869396,99619.51782072516,287.220854970203,0.0,0.0,0.0,411.978947368421,0.22110611159850502,0.88,nominal,8841.951275965273,nan,pitch_program,13.65,0.0,0.0
1.8299999999999998,190.79044707142293,0.0,143.2726416813893,122.07242817891071,0.0,10.908416061666085,122.55884816066822,17.603555250462993,0.0,8.92718868181751,0.0,0.0,1.2552483436639037,0.0,3.8207897423077637,0.0,9074.281099929305,0.3607391927068186,122.55884816066822,2.159578938892777,1.2082390914981378,99615.64021764611,287.21872782907093,0.0,0.0,0.0,411.94421052631577,0.22108746858740905,0.88,nominal,8915.36028277966,nan,pitch_program,13.6275,0.0,0.0
1.8599999999999999,194.46997661027407,0.0,143.59894540735795,122.65098462837098,0.0,10.876790865621054,123.13232154817577,17.59692262640537,0.0,8.890171475414098,0.0,0.0,1.233906923034155,0.0,3.8223913936555154,0.0,9159.112086412322,0.3624284900217149,123.13232154817577,2.1588205735681663,1.2082011198321456,99611.7739780275,287.21660685485216,0.0,0.0,0.0,411.9094736842105,0.22106882557631305,0.88,nominal,8989.008902900741,nan,pitch_program,13.605000000000002,0.0,0.0
1.89,198.16683785730038,0.0,143.9243391052533,123.22870823421042,0.0,10.846456596512125,123.70513390224424,17.59029056163808,0.0,8.853789199120776,0.0,0.0,1.212742583860242,0.0,3.823640473926887,0.0,9244.237075062654,0.364115850369485,123.70513390224424,2.1580691642451377,1.2081632549744241,99607.91864195786,287.21449179581583,0.0,0.0,0.0,411.8747368421053,0.22105018256521705,0.88,nominal,9062.895696972622,nan,pitch_program,13.5825,0.0,0.0
1.92,201.88100576282383,0.0,144.2488615285463,123.80559685078205,0.0,10.817414109767638,124.27727974010605,17.583659056161125,0.0,8.818036273300077,0.0,0.0,1.1917642326944249,0.0,3.8245451972643254,0.0,9329.653830021198,0.365801257698912,124.27727974010607,2.1573245365767373,1.2081254924079068,99604.07374928257,287.2123824000644,0.0,0.0,0.0,411.84,0.22103153955412105,0.88,nominal,9137.019227709206,nan,pitch_program,13.56,0.0,0.0
1.95,205.61245521341175,0.0,144.5725514502449,124.38164835293047,0.0,10.789664056619811,124.84875368799949,17.577028109974503,0.0,8.78290688749617,0.0,0.0,1.1709795634798905,0.0,3.8251133612924977,0.0,9415.360117444128,0.3674846962825513,124.84875368799949,2.1565865077554704,1.2080878276137046,99600.23883967559,287.2102784155734,0.0,0.0,0.0,411.80526315789473,0.22101289654302506,0.88,nominal,9211.378060402927,nan,pitch_program,13.5375,0.0,0.0
1.98,209.36116103261867,0.0,144.89544765644857,124.95686064023035,0.0,10.76320687345525,125.41955048262109,17.570397723078212,0.0,8.748395032720365,0.0,0.0,1.1503951939756702,0.0,3.825352388961401,0.0,9501.353706135045,0.36916615072098014,125.4195504826211,2.1558548866264093,1.2080502560718522,99596.41345271537,287.20817959023304,0.0,0.0,0.0,411.7705263157895,0.22099425353192909,0.88,nominal,9285.970763391482,nan,pitch_program,13.515,0.0,0.0
2.01,213.12709798184005,0.0,145.21758893962874,125.53123164071236,0.0,10.738042772672635,125.98966497225847,17.563767895472253,0.0,8.714494530098419,0.0,0.0,1.1300167870312534,0.0,3.8252693657879013,0.0,9587.6323681341,0.3708456059461028,125.98966497225845,2.1551294738276243,1.2080127732620922,99592.59712796459,287.20608567189237,0.0,0.0,0.0,411.73578947368424,0.2209756105208331,0.88,nominal,9360.795908485778,nan,pitch_program,13.4925,0.0,0.0
2.04,216.91024076126396,0.0,145.53901409167568,126.10475931413022,0.0,10.714171734898093,126.55909211763334,17.55713862715663,0.0,8.681199056282315,0.0,0.0,1.109849158436071,0.0,3.8248710729998243,0.0,9674.1938792671,0.3725230472236028,126.55909211763336,2.154410061954048,1.2079753746646777,99588.78940505181,287.20399640840407,0.0,0.0,0.0,411.701052631579,0.2209569675097371,0.88,nominal,9435.852071361931,nan,pitch_program,13.47,0.0,0.0
2.07,220.71056401090848,0.0,145.85976189674838,126.67744165481707,0.0,10.69159350242337,127.12782699248284,17.550509918131336,0.0,8.64850216598742,0.0,0.0,1.089896372741404,0.0,3.8241640170341347,0.0,9761.036019657338,0.37419846015462166,127.12782699248284,2.1536964357416006,1.207938055761202,99584.98982375584,287.2019115476711,0.0,0.0,0.0,411.6663157894737,0.2209383244986411,0.88,nominal,9511.13783192007,nan,pitch_program,13.4475,0.0,0.0
2.1,224.52804231173374,0.0,146.17987112396074,127.2492766941748,0.0,10.670307573745468,127.69586478390357,17.54388176839638,0.0,8.616397311974714,0.0,0.0,1.0701618284239143,0.0,3.823154455790023,0.0,9848.156574202854,0.3758718306767386,127.69586478390357,2.1529883722686622,1.2079008120354486,99581.19792409224,287.1998308376942,0.0,0.0,0.0,411.6315789473684,0.22091968148754507,0.88,nominal,9586.651774612283,nan,pitch_program,13.425,0.0,0.0
2.13,228.3626501868188,0.0,146.49938051993368,127.82026250283474,0.0,10.650313199098374,128.26320079248165,17.537254177951752,0.0,8.584877862762406,0.0,0.0,1.0506483335733736,0.0,3.8218484219935562,0.0,9935.55333302128,0.3775431450643182,128.26320079248165,2.152285641172312,1.2078636389742552,99577.41324640118,287.19775402662043,0.0,0.0,0.0,411.59684210526314,0.22090103847644907,0.88,nominal,9662.392488742042,nan,pitch_program,13.4025,0.0,0.0
2.16,232.21436210259455,0.0,146.81832880124003,128.39039719252506,0.0,10.631609376878313,128.829830432229,17.530627146797457,0.0,8.553937118320643,0.0,0.0,1.0313581731224233,0.0,3.8202517439924444,0.0,10023.224091864524,0.379212389928286,128.82983043222896,2.1515880048771625,1.2078265320683865,99573.63533143626,287.1956808627919,0.0,0.0,0.0,411.5621052631579,0.2208823954653531,0.88,nominal,9738.358568737116,nan,pitch_program,13.379999999999999,0.0,0.0
2.19,236.08315247012482,0.0,147.13675464676624,128.9596789176756,0.0,10.614194850873753,129.3957492303449,17.524000674933497,0.0,8.523568323974176,0.0,0.0,1.01229316858152,0.0,3.818370064263609,0.0,10111.16665250536,0.38087955221538994,129.3957492303449,2.1508952188347967,1.2077894868134293,99569.86372045548,287.193611094796,0.0,0.0,0.0,411.52736842105264,0.2208637524542571,0.88,nominal,9814.54861439786,nan,pitch_program,13.357500000000002,0.0,0.0
2.2199999999999998,239.96899564642848,0.0,147.45469669001284,129.52810587678857,0.0,10.598068108220149,129.96095282682035,17.517374762359868,0.0,8.493764682713074,0.0,0.0,0.9934547311040577,0.0,3.81620885588545,0.0,10199.3788230975,0.38254461920699534,129.96095282682035,2.1502070317720463,1.2077524987106751,99566.09795531118,287.1915444715149,0.0,0.0,0.0,411.4926315789474,0.22084510944316113,0.88,nominal,9890.961231122625,nan,pitch_program,13.335,0.0,0.0
2.25,243.87186593583647,0.0,147.77219351135307,130.09567631359982,0.0,10.583227378007244,130.52543697389999,17.510749409076574,0.0,8.464519366090158,0.0,0.0,0.9748439085956963,0.0,3.8137734371997256,0.0,10287.858418511196,0.3842075785174618,130.5254369739,2.1495231859466606,1.2077155632680259,99562.337578542,287.18948074217616,0.0,0.0,0.0,411.4578947368421,0.2208264664320651,0.88,nominal,9967.595030111881,nan,pitch_program,13.3125,0.0,0.0
2.28,247.79173759137808,0.0,148.0892836302673,130.66238851805355,0.0,10.569670630473995,131.08919753541662,17.50412461508361,0.0,8.435825523863077,0.0,0.0,0.9564614275595883,0.0,3.811068984862398,0.0,10376.60326064555,0.3858684180921421,131.08919753541662,2.1488434174089774,1.2076786760008924,99558.58213346444,287.1874196564032,0.0,0.0,0.0,411.42315789473685,0.2208078234209691,0.88,nominal,10044.4486285525,nan,pitch_program,13.29,0.0,0.0
2.31,251.7285848161914,0.0,148.40600549756925,131.2282408271102,0.0,10.557395576732468,131.65223048601055,17.497500380380984,0.0,8.407676292521483,0.0,0.0,0.9383077302600066,0.0,3.8081005454608428,0.0,10465.611178719266,0.387527126205043,131.65223048601055,2.1481674562683484,1.2076418324330978,99554.83116426456,287.1853609642658,0.0,0.0,0.0,411.3884210526316,0.22078918040987314,0.88,nominal,10121.520649783559,nan,pitch_program,13.2675,0.0,0.0
2.34,255.68238176495356,0.0,148.7223974876383,131.7932316254058,0.0,10.54639966896779,132.21453191024605,17.490876704968688,0.0,8.380064802825775,0.0,0.0,0.9203830076693036,0.0,3.8048730458570863,0.0,10554.880009540857,0.3891836914561795,132.21453191024602,2.1474228226668584,1.2076050280977733,99551.0842160894,287.1833044163303,0.0,0.0,0.0,411.35368421052635,0.22077053739877714,0.88,nominal,10198.809723444881,nan,pitch_program,13.245000000000001,0.0,0.0
2.37,259.65310283992005,0.0,149.03849589087497,132.35736916555038,0.0,10.536613441222872,132.7761025005462,17.484253588846723,0.0,8.35545319416981,0.0,0.0,0.8203869678134549,0.0,3.8038893208257205,0.0,10644.408321148721,0.39083811600275264,132.7761025005462,2.146853407467837,1.207568258770887,99547.34085882123,287.1812497767093,0.0,0.0,0.0,411.31894736842105,0.22075189438768114,0.88,nominal,10276.31506334602,nan,pitch_program,13.2225,0.0,0.0
2.4,263.6407204416927,0.0,149.35434413681693,132.92058672575473,0.0,10.528274864731973,133.33689267095673,17.477631032015093,0.0,8.332678884177248,0.0,0.0,0.7591436764138392,0.0,3.8038925319837373,0.0,10734.186581728245,0.3924902540371215,133.33689267095673,2.1463053757786543,1.2075315193983842,99543.60057785403,287.17919676311067,0.0,0.0,0.0,411.2842105263158,0.22073325137658514,0.88,nominal,10354.02925250243,nan,pitch_program,13.2,0.0,0.0
2.4299999999999997,267.6452062144259,0.0,149.66998724588052,133.48285909110726,0.0,10.52143696878666,133.89687937746925,17.471009034473795,0.0,8.311608196119977,0.0,0.0,0.7023562764914032,0.0,3.804736620082905,0.0,10824.209416597836,0.39414003788905383,133.89687937746925,2.14579109077906,1.2074948047416416,99539.86283980652,287.17714508290175,0.0,0.0,0.0,411.2494736842105,0.22071460836548912,0.88,nominal,10431.948333937087,nan,pitch_program,13.1775,0.0,0.0
2.46,271.6665310640207,0.0,149.98547199991535,134.04416165316022,0.0,10.516158467827724,134.4560406312004,17.46438759622283,0.0,8.292486066561093,0.0,0.0,0.6374043245459965,0.0,3.806651934275335,0.0,10914.471559607731,0.395787403004526,134.45604063120038,2.145353859026395,1.207458109357647,99536.1270905051,287.17509443200055,0.0,0.0,0.0,411.21473684210525,0.22069596535439315,0.88,nominal,10510.068460097476,nan,pitch_program,13.155,0.0,0.0
2.4899999999999998,275.7046648662993,0.0,150.3008482990539,134.60446007595334,0.0,10.512543304618795,135.0143482711019,17.4577667172622,0.0,8.274784916505787,0.0,0.0,0.5900383398698973,0.0,3.8090770745009053,0.0,11004.966677192293,0.39743226667756903,135.0143482711019,2.1449360620316678,1.2074214274412047,99532.3927389206,287.17304448605614,0.0,0.0,0.0,411.18,0.22067732234329715,0.88,nominal,10588.384933507119,nan,pitch_program,13.1325,0.0,0.0
2.52,279.7595769733263,0.0,150.61616703032908,135.16373690090032,0.0,10.510624375838576,135.57178540458105,17.451146397591902,0.0,8.258699918791939,0.0,0.0,0.5361665939830429,0.0,3.8122044204496013,0.0,11095.690204921451,0.3990745793795102,135.57178540458102,2.1445795727242603,1.207384753072877,99528.65918241057,287.17099491430287,0.0,0.0,0.0,411.14526315789476,0.22065867933220115,0.88,nominal,10666.894533300865,nan,pitch_program,13.110000000000001,0.0,0.0
2.55,283.8312359506878,0.0,150.93148133678886,135.72196591204997,0.0,10.510476881992798,136.12832973087768,17.444526637211936,0.0,8.243951257479832,0.0,0.0,0.49162204645159385,0.0,3.815733345975705,0.0,11186.636643088115,0.4007142756752436,136.12832973087768,2.1442549566984446,1.2073480800713894,99524.92579169436,287.1689453713108,0.0,0.0,0.0,411.1105263157895,0.22064003632110518,0.88,nominal,10745.5932891107,nan,pitch_program,13.0875,0.0,0.0
2.58,287.9196098417026,0.0,151.246845516579,136.27912970049306,0.0,10.512139326337051,136.68396491593347,17.437907436122302,0.0,8.230540348117614,0.0,0.0,0.447030314114839,0.0,3.8196603919381866,0.0,11277.80141705693,0.40235130770189015,136.68396491593347,2.1439748355110972,1.2073114021217044,99521.19192389202,287.1668955041422,0.0,0.0,0.0,411.0757894736842,0.22062139331000916,0.88,nominal,10824.478010155224,nan,pitch_program,13.065,0.0,0.0
2.61,292.0246661199179,0.0,151.56231532075589,136.83520927384473,0.0,10.515660139229908,137.23867386848602,17.431288794323002,0.0,8.21835027089219,0.0,0.0,0.40633590904691,0.0,3.823859630508319,0.0,11369.179782908417,0.4039856253775919,137.23867386848602,2.1437313970984286,1.2072747127403975,99517.45691900012,287.16484495041504,0.0,0.0,0.0,411.04105263157896,0.22060275029891319,0.88,nominal,10903.545382130626,nan,pitch_program,13.042500000000002,0.0,0.0
2.6399999999999997,296.1463717823451,0.0,151.87794760189584,137.39018874757335,0.0,10.52107603799823,137.79244175603816,17.424670711814034,0.0,8.207314150375197,0.0,0.0,0.3678706850371438,0.0,3.8282602479184775,0.0,11460.767327128066,0.4056171852780318,137.79244175603813,2.143524417234569,1.207238005316542,99513.72010405445,287.16279334058765,0.0,0.0,0.0,411.00631578947366,0.22058410728781716,0.88,nominal,10982.792377395717,nan,pitch_program,13.02,0.0,0.0
2.67,300.284693386507,0.0,152.19380021569123,137.944053472062,0.0,10.52842045984574,138.34525480001977,17.4180531885954,0.0,8.197368948220737,0.0,0.0,0.3315067393143851,0.0,3.83279669155383,0.0,11552.559773114794,0.40724594708950995,138.34525480001977,2.1433527632356855,1.2072012731231738,99509.98079429753,287.160740298598,0.0,0.0,0.0,410.9715789473684,0.22056546427672116,0.88,nominal,11062.216093726407,nan,pitch_program,12.9975,0.0,0.0
2.6999999999999997,304.4395970886643,0.0,152.5099319063996,138.49679007191085,0.0,10.537723023612415,138.89710028199045,17.4114362246671,0.0,8.188443761714302,0.0,0.0,0.29750621748279593,0.0,3.837397161078934,0.0,11644.552985953253,0.40887187362680055,138.89710028199045,2.1432134401481573,1.207164509330622,99506.23829453613,287.1586854426084,0.0,0.0,0.0,410.93684210526317,0.2205468212656252,0.88,nominal,11141.81375710255,nan,pitch_program,12.975,0.0,0.0
2.73,308.6110486925772,0.0,152.8264021425458,139.0483867970954,0.0,10.549007871540024,139.4479667759572,17.40481982002913,0.0,8.180490739078698,0.0,0.0,0.26510075494580587,0.0,3.842015180556831,0.0,11736.74301531889,0.41049493151638433,139.4479667759572,2.1431062565439256,1.2071277070256308,99502.49190108826,287.1566283860734,0.0,0.0,0.0,410.90210526315786,0.22052817825452917,0.88,nominal,11221.582755545429,nan,pitch_program,12.9525,0.0,0.0
2.76,312.7990136753103,0.0,153.14327104921824,139.5988327577706,0.0,10.56229688908173,139.99784363662573,17.398203974681493,0.0,8.173449083249702,0.0,0.0,0.23472186126193617,0.0,3.8465922185409784,0.0,11829.126013442457,0.41211508968980004,139.99784363662576,2.1430282000817775,1.2070908592192426,99498.74090258604,287.15456873818005,0.0,0.0,0.0,410.8673684210526,0.22050953524343317,0.88,nominal,11301.520570487372,nan,pitch_program,12.93,0.0,0.0
2.79,317.00345722985685,0.0,153.46059926177645,140.1481184848852,0.0,10.57760708527379,140.54672136518823,17.39158868862419,0.0,8.167277860328431,0.0,0.0,0.20570743090796306,0.0,3.8510915603230074,0.0,11921.698299999722,0.41373232045982244,140.54672136518823,2.1429788940864962,1.2070539588638223,99494.98458170885,287.1525061047984,0.0,0.0,0.0,410.83263157894737,0.2204908922323372,0.88,nominal,11381.624829002427,nan,pitch_program,12.907499999999999,0.0,0.0
2.82,321.2243442872457,0.0,153.77844786706507,140.6962352462954,0.0,10.594953509620517,141.09459115200667,17.38497396185722,0.0,8.161925857047267,0.0,0.0,0.1784001095017938,0.0,3.855466924560592,0.0,12014.45628815703,0.41534659817404834,141.09459115200667,2.1429556045892295,1.2070169988598975,99491.22221588017,287.15044008886406,0.0,0.0,0.0,410.7978947368421,0.2204722492212412,0.88,nominal,11461.893241951511,nan,pitch_program,12.885,0.0,0.0
2.85,325.4616395523044,0.0,154.09687828076383,141.24317550195738,0.0,10.61434712329184,141.64144517312178,17.378359794380582,0.0,8.15735780366357,0.0,0.0,0.15226844620391816,0.0,3.859689544408891,0.0,12107.396537750275,0.416957900087224,141.6414451731218,2.1429577909206006,1.2069799720704335,99487.4530787208,287.148370291175,0.0,0.0,0.0,410.7631578947369,0.22045360621014523,0.88,nominal,11542.323646757286,nan,pitch_program,12.8625,0.0,0.0
2.88,329.71530752273975,0.0,154.415952195922,141.78893234784445,0.0,10.635797171938894,142.18727621634866,17.37174618619428,0.0,8.153529550217387,0.0,0.0,0.12760844825359352,0.0,3.8637223429255068,0.0,12200.51569448659,0.41856620526037414,142.1872762163487,2.1429828458082274,1.206942871326821,99483.67644065872,287.1462963107265,0.0,0.0,0.0,410.7284210526316,0.2204349631990492,0.88,nominal,11622.913956514254,nan,pitch_program,12.84,0.0,0.0
2.9099999999999997,333.9853125200313,0.0,154.73573147663845,142.3334999097189,0.0,10.65930935721515,142.73207793808217,17.365133137298308,0.0,8.150411166580689,0.0,0.0,0.1039461212489136,0.0,3.867543765823448,0.0,12293.810536381392,0.4201714953163105,142.7320779380822,2.143030228430421,1.2069056894412502,99479.89157018861,287.1442177454018,0.0,0.0,0.0,410.6936842105263,0.2204163201879532,0.88,nominal,11703.662197346759,nan,pitch_program,12.8175,0.0,0.0
2.94,338.27161870514544,0.0,155.05627811668649,142.87687283713802,0.0,10.684888001600873,143.27584452142122,17.358520647692668,0.0,8.147963363938826,0.0,0.0,0.08159342140782105,0.0,3.8711232997285805,0.0,12387.277917594656,0.42177375343306345,143.2758445214212,2.1430972838305355,1.2068684192115222,99476.09773436228,287.14213419224154,0.0,0.0,0.0,410.658947368421,0.2203976771768572,0.88,nominal,11784.566461456236,nan,pitch_program,12.795000000000002,0.0,0.0
2.9699999999999998,342.5741901064394,0.0,155.37765414233922,143.41904670979804,0.0,10.712534188425057,143.8185709423001,17.351908717377363,0.0,8.146161397001839,0.0,0.0,0.060065564571260936,0.0,3.874446117975352,0.0,12480.914816516492,0.42337296512687206,143.81857094230008,2.143183639153399,1.2068310534323525,99472.29419993903,287.1400452480748,0.0,0.0,0.0,410.6242105263158,0.2203790341657612,0.88,nominal,11865.624945937674,nan,pitch_program,12.7725,0.0,0.0
3.0,346.8929906315756,0.0,155.6999215840013,143.96001750454133,0.0,10.742248055402264,144.3602526085059,17.34529734635239,0.0,8.144968882453497,0.0,0.0,0.03975048494612322,0.0,3.8774859542697886,0.0,12574.718275548863,0.4249691171894049,144.3602526085059,2.143286401576942,1.2067935848986804,99468.48023372279,287.13795050970396,0.0,0.0,0.0,410.58947368421053,0.22036039115466524,0.88,nominal,11946.835902597566,nan,pitch_program,12.75,0.0,0.0
3.03,351.22798409421347,0.0,156.02314238124572,144.49978208792743,0.0,10.774026574814442,144.90088568429567,17.33868653461775,0.0,8.14436650580137,0.0,0.0,0.020079221737759775,0.0,3.8802346960083365,0.0,12668.68545943778,0.4265621986429179,144.90088568429564,2.1434055864841537,1.2067560064167084,99464.65510368612,287.1358495745219,0.0,0.0,0.0,410.5547368421053,0.22034174814356924,0.88,nominal,12028.197685279703,nan,pitch_program,12.7275,0.0,0.0
3.06,355.5791342213081,0.0,156.3473783718096,145.03833756982007,0.0,10.807866352129391,145.44046665251926,17.332076282173443,0.0,8.144318624158737,0.0,0.0,0.0015960547544040125,0.0,3.8826678489530684,0.0,12762.813580934999,0.4281521994511753,145.44046665251926,2.143537778308326,1.2067183108051844,99460.81807910054,287.13374204058323,0.0,0.0,0.0,410.52,0.22032310513247322,0.88,nominal,12109.70868816119,nan,pitch_program,12.705,0.0,0.0
3.09,359.94640468077836,0.0,156.6726911899605,145.57568198234117,0.0,10.843760605028805,145.97899276499652,17.32546658901947,0.0,8.144812477773378,0.0,0.0,-0.016461787154678876,0.0,3.8847849525433737,0.0,12857.099981331228,0.42973911184477825,145.97899276499652,2.143683759954007,1.206680490907226,99456.96843174048,287.13162750726525,0.0,0.0,0.0,410.48526315789474,0.22030446212137725,0.88,nominal,12191.367411399478,nan,pitch_program,12.682500000000001,0.0,0.0
3.12,364.3297590823749,0.0,156.99914228138653,146.1118133865521,0.0,10.881703047534437,146.51646143802867,17.31885745515583,0.0,8.14581005666667,0.0,0.0,-0.0332526297772664,0.0,3.8865598853635155,0.0,12951.542026088322,0.4313229285417148,146.51646143802867,2.143839063867384,1.2066425395885885,99453.10543570694,287.129505575171,0.0,0.0,0.0,410.4505263157895,0.22028581911028125,0.88,nominal,12273.17237481443,nan,pitch_program,12.66,0.0,0.0
3.15,368.72916100981826,0.0,157.32679278021067,146.64673091477954,0.0,10.92168329413762,147.0528709477282,17.31224888058252,0.0,8.147308105864255,0.0,0.0,-0.04993497325571048,0.0,3.8880026944851442,0.0,13046.13722893454,0.43290364479368243,147.0528709477282,2.1440059961366504,1.2066044497519643,99449.22836888314,287.1273758469286,0.0,0.0,0.0,410.41578947368424,0.22026717609918528,0.88,nominal,12355.122219402654,nan,pitch_program,12.6375,0.0,0.0
3.1799999999999997,373.14457401119193,0.0,157.6557035678457,147.18043337912306,0.0,10.963692921167832,147.58821948968742,17.305640865299544,0.0,8.149260709687283,0.0,0.0,-0.0650867941072174,0.0,3.8890797681226923,0.0,13140.883087134614,0.4344812556181563,147.58821948968742,2.144177934936285,1.2065662143301483,99445.33651223882,287.125237926809,0.0,0.0,0.0,410.381052631579,0.22024853308808928,0.88,nominal,12437.215571461686,nan,pitch_program,12.615,0.0,0.0
3.21,377.5759616422323,0.0,157.98593510004085,147.71292103467843,0.0,11.007717739838426,148.12250636023242,17.2990334093069,0.0,8.151681090283251,0.0,0.0,-0.08067935321090645,0.0,3.889818684328034,0.0,13235.77729258693,0.4360557592749644,148.12250636023245,2.1443603499949666,1.2065278263061376,99441.42915187628,287.1230914218497,0.0,0.0,0.0,410.34631578947364,0.22022989007699323,0.88,nominal,12519.451215667365,nan,pitch_program,12.592500000000001,0.0,0.0
3.2399999999999998,382.0232874371259,0.0,158.31754754966954,148.24419316311827,0.0,11.053748320956073,148.65573032522818,17.292426512604592,0.0,8.15450396287672,0.0,0.0,-0.09409575313472265,0.0,3.8901664157879523,0.0,13330.81744262892,0.43762715246492445,148.65573032522815,2.1445419873641245,1.2064892786965415,99437.50557734171,287.1209359409271,0.0,0.0,0.0,410.3115789473684,0.22021124706589726,0.88,nominal,12601.827856941447,nan,pitch_program,12.57,0.0,0.0
3.27,386.48651497732544,0.0,158.65060052179675,148.77425133998494,0.0,11.101765737573599,149.18789181520387,17.285820175192615,0.0,8.157775496020422,0.0,0.0,-0.10905110481967362,0.0,3.8901848821679215,0.0,13426.001433829731,0.43919543679060097,149.18789181520387,2.1447352916341664,1.2064505645847017,99433.56508499647,287.11877109660827,0.0,0.0,0.0,410.27684210526314,0.22019260405480126,0.88,nominal,12684.344443739565,nan,pitch_program,12.547500000000001,0.0,0.0
3.3,390.9656078214126,0.0,158.98515337314194,149.30309480290586,0.0,11.15176171150614,149.718989800879,17.27921439707097,0.0,8.161384783523062,0.0,0.0,-0.12030958346110691,0.0,3.889774540641506,0.0,13521.326902543942,0.44076060955971863,149.718989800879,2.144918431880266,1.206411677083557,99429.60697423725,287.11659650307456,0.0,0.0,0.0,410.2421052631579,0.22017396104370526,0.88,nominal,12766.999707824576,nan,pitch_program,12.525,0.0,0.0
3.33,395.4605296330862,0.0,159.32126466978718,149.83072705578525,0.0,11.20370988817491,150.2490262375221,17.27260917823966,0.0,8.165451313526294,0.0,0.0,-0.13555100016465696,0.0,3.8890730445694914,0.0,13616.792026566287,0.4423226768662078,150.2490262375221,2.1451202575925596,1.2063726093986802,99425.63055391227,287.1144117796464,0.0,0.0,0.0,410.20736842105265,0.2201553180326093,0.88,nominal,12849.79282283577,nan,pitch_program,12.5025,0.0,0.0
3.36,399.97124401757895,0.0,159.6589929106011,150.35714614975907,0.0,11.257608027131043,150.77799951184036,17.26600451869868,0.0,8.169753648021477,0.0,0.0,-0.14341114990695333,0.0,3.8878675415480726,0.0,13712.394341719326,0.4438816343019405,150.77799951184036,2.145293185701614,1.206333354744193,99421.63513376276,287.1122165460811,0.0,0.0,0.0,410.17263157894735,0.22013667502151327,0.88,nominal,12932.722431223016,nan,pitch_program,12.480000000000002,0.0,0.0
3.3899999999999997,404.4977147932664,0.0,159.9983953629783,150.88235918958188,0.0,11.313415079239123,151.30591421147145,17.259400418448035,0.0,8.174588832381698,0.0,0.0,-0.1611728121029972,0.0,3.8864784220228143,0.0,13808.13251523891,0.4454374957115574,151.30591421147145,2.1455072832375772,1.2062939064780902,99417.6200381967,287.1100104301406,0.0,0.0,0.0,410.1378947368421,0.2201180320104173,0.88,nominal,13015.788101570928,nan,pitch_program,12.4575,0.0,0.0
3.42,409.03990559786007,0.0,160.33952978066017,151.40636015312126,0.0,11.371147256061963,151.83276617626285,17.25279687748772,0.0,8.179453413194198,0.0,0.0,-0.16215269384733821,0.0,3.884403305083662,0.0,13904.003625222384,0.4469902491928824,151.83276617626282,2.1456480433996794,1.2062542579025757,99413.58458596667,287.1077930564257,0.0,0.0,0.0,410.10315789473685,0.2200993889993213,0.88,nominal,13098.988092091366,nan,pitch_program,12.435,0.0,0.0
3.4499999999999997,413.59778052957654,0.0,160.6824516435836,151.92916439054824,0.0,11.430728764113532,152.3585657338929,17.246193895817743,0.0,8.185106976845352,0.0,0.0,-0.1884521218580901,0.0,3.8824379088546275,0.0,14000.007406961924,0.44853992548753924,152.3585657338929,2.1458961267204955,1.206214402584869,99409.52812282176,287.1055640643167,0.0,0.0,0.0,410.0684210526316,0.2200807459882253,0.88,nominal,13182.322840655032,nan,pitch_program,12.4125,0.0,0.0
3.48,418.1713031451141,0.0,161.02721849815546,152.4507538512515,0.0,11.492228485729466,152.88330080614784,17.239591473438097,0.0,8.190282041481154,0.0,0.0,-0.17250215464399277,0.0,3.8792953520931994,0.0,14096.13948926586,0.45008648938902457,152.88330080614784,2.1459514620402595,1.2061743338527602,99405.44997016511,287.103323079762,0.0,0.0,0.0,410.03368421052636,0.22006210297712933,0.88,nominal,13265.78940497648,nan,pitch_program,12.39,0.0,0.0
3.51,422.7604381131621,0.0,161.37388283582848,152.97116560159978,0.0,11.555477922434207,153.4069965012285,17.23298961034878,0.0,8.197027068262615,0.0,0.0,-0.22483422630832436,0.0,3.8770948884069094,0.0,14192.402360214404,0.451630015144854,153.4069965012285,2.1463112695175184,1.2061340456222653,99401.34950929205,287.1010697615671,0.0,0.0,0.0,409.99894736842106,0.2200434599660333,0.88,nominal,13349.390475875942,nan,pitch_program,12.3675,0.0,0.0
3.54,427.36514849539566,0.0,161.72250382131602,153.49034607445222,0.0,11.620699516251065,153.92961701798035,17.2263883065498,0.0,8.20187180611532,0.0,0.0,-0.161491261853123,0.0,3.8722884272707376,0.0,14288.787255626215,0.4531703977234492,153.92961701798038,2.146127085642092,1.2060935310346026,99397.22604266366,287.0988037251614,0.0,0.0,0.0,409.96421052631575,0.22002481695493728,0.88,nominal,13433.119489750363,nan,pitch_program,12.344999999999999,0.0,0.0
3.57,431.9854003541089,0.0,162.07312747280423,154.00839529044194,0.0,11.687455049606507,154.4512299254156,17.21978756204115,0.0,8.210694680989803,0.0,0.0,-0.29409582973058734,0.0,3.8709262611049895,0.0,14385.304597594626,0.45470783635168355,154.4512299254156,2.14686141283645,1.2060527847595395,99393.07902833591,287.0965246714268,0.0,0.0,0.0,409.9294736842105,0.2200061739438413,0.88,nominal,13516.985648267972,nan,pitch_program,12.3225,0.0,0.0
3.5999999999999996,436.62115486562965,0.0,162.42582057783406,154.52515038402586,0.0,11.75643683432808,154.97172615753286,17.213187376822837,0.0,8.213267990966385,0.0,0.0,-0.08577699923382096,0.0,3.8625260895130475,0.0,14481.93193710372,0.45624201035020545,154.97172615753286,2.1459409302600343,1.206011799053966,99388.90767881378,287.09423216624407,0.0,0.0,0.0,409.89473684210526,0.2199875309327453,0.88,nominal,13600.971127492294,nan,pitch_program,12.3,0.0,0.0
3.63,441.272382104143,0.0,162.7806115150245,155.04090795044507,0.0,11.826364573015073,155.49130534249255,17.206587750894855,0.0,8.227581870571564,0.0,0.0,-0.4771293226541994,0.0,3.865564441384806,0.0,14578.704495512655,0.4577735076494247,155.49130534249255,2.147959118337138,1.2059705706389319,99384.71166096839,287.0919260251523,0.0,0.0,0.0,409.86,0.21996888792164934,0.88,nominal,13685.10550246994,nan,pitch_program,12.2775,0.0,0.0
3.6599999999999997,445.939036603527,0.0,163.1375950808938,155.55514997946673,0.0,11.89945219564316,156.00962036903616,17.199988684257207,0.0,8.221374979352316,0.0,0.0,0.20689637417729545,0.0,3.8469575712399826,0.0,14675.555036220974,0.45930130690376875,156.00962036903618,2.144578189391854,1.2059290885181682,99380.48985626521,287.08960563197417,0.0,0.0,0.0,409.82526315789477,0.21995024491055334,0.88,nominal,13769.334120645439,nan,pitch_program,12.255,0.0,0.0
3.69,450.62110144170094,0.0,163.4967436200978,156.06882793913317,0.0,11.971617973466977,156.527309729636,17.19339017690989,0.0,8.253328336873405,0.0,0.0,-1.065111944975514,0.0,3.8669137249751477,0.0,14772.6016758923,0.46082728780436283,156.527309729636,2.1511799043309963,1.2058873559252397,99376.2425944204,287.08727116646935,0.0,0.0,0.0,409.79052631578946,0.21993160189945732,0.88,nominal,13853.754686420729,nan,pitch_program,12.232500000000002,0.0,0.0
3.7199999999999998,455.31850747405514,0.0,163.85825263065962,156.58020107847292,0.0,12.050300352060978,157.04320777528042,17.186792228852905,0.0,8.21492424932211,0.0,0.0,1.2801362996373364,0.0,3.8141565217926576,0.0,14869.622141205915,0.4623480196988884,157.04320777528042,2.1389999737331413,1.2058453501643973,99371.96756626466,287.08492135790067,0.0,0.0,0.0,409.7557894736842,0.21991295888836135,0.88,nominal,13938.185087335407,nan,pitch_program,12.21,0.0,0.0
3.75,460.03128361046424,0.0,164.22189824144849,157.0925378803037,0.0,12.121520359629123,157.55950213650573,17.180194840086255,0.0,8.309848053158987,0.0,0.0,-3.1641275182944844,0.0,3.897553784476933,0.0,14967.028963422004,0.4638699420587674,157.55950213650576,2.162886139617915,1.2058030972693492,99367.66742196254,287.08255766143054,0.0,0.0,0.0,409.72105263157897,0.21989431587726535,0.88,nominal,14022.965035141278,nan,pitch_program,12.1875,0.0,0.0
3.78,464.7592726406977,0.0,164.58825004963302,157.5996343411153,0.0,12.21172693948395,158.07204376263934,17.173598010609936,0.0,8.149868985649318,0.0,0.0,5.332639048167399,0.0,3.7191154726435345,0.0,15064.031147098776,0.4653808427656433,158.07204376263934,2.117632586244886,1.205760531079789,99363.33542898021,287.08017637467736,0.0,0.0,0.0,409.68631578947367,0.21987567286616932,0.88,nominal,14107.444871998116,nan,pitch_program,12.165,0.0,0.0
3.81,469.50267570834757,0.0,164.95634660805035,158.11343558832888,0.0,12.26988528057829,158.58880350876976,17.167001740423952,0.0,8.485935250618391,0.0,0.0,-11.20224094882289,0.0,4.048573386357373,0.0,15162.147200971918,0.4669041838793255,158.58880350876976,2.2052102957955255,1.2057177633265763,99358.98295890326,287.07778374704765,0.0,0.0,0.0,409.6515789473684,0.21985702985507335,0.88,nominal,14192.873455635427,nan,pitch_program,12.1425,0.0,0.0
3.84,474.2610052501026,0.0,165.3281082237754,158.6109847251676,0.0,12.39205385750138,159.09433514206145,17.1604060295283,0.0,7.976935924000617,0.0,0.0,16.966755805969708,0.0,3.509571965386794,0.0,15258.419038087692,0.4683945001029347,159.09433514206145,2.0983025969222204,1.2056745709220689,99354.58730892316,287.07536729654544,0.0,0.0,0.0,409.6168421052632,0.21983838684397736,0.88,nominal,14276.81862965997,nan,pitch_program,12.120000000000001,0.0,0.0
3.8699999999999997,479.03486316806163,0.0,165.70113612432917,159.12859726530243,0.0,12.434263351793003,159.6136628635674,17.15381087792298,0.0,8.107830377582934,0.0,0.0,-4.363150350394285,0.0,3.639833283969974,0.0,15357.644932306966,0.4699254532727607,159.61366286356738,2.1355204994109673,1.205631232586489,99350.17684486484,287.07294261519183,0.0,0.0,0.0,409.58210526315787,0.21981974383288136,0.88,nominal,14363.23373293593,nan,pitch_program,12.0975,0.0,0.0
3.9,483.824023128158,0.0,166.07634292277092,159.6386653365448,0.0,12.506893281392133,160.12784220736094,17.147216285607993,0.0,8.123207565541765,0.0,0.0,-0.5125729350377048,0.0,3.6435193857027652,0.0,15456.19167105278,0.4714412733868637,160.1278422073609,2.1317719066361924,1.2055876423090655,99345.74077871813,287.07050377100194,0.0,0.0,0.0,409.5473684210526,0.21980110082178536,0.88,nominal,14449.11549331633,nan,pitch_program,12.075,0.0,0.0
3.9299999999999997,488.6284544327396,0.0,166.45371463724067,160.1477101527199,0.0,12.579057148991764,160.64097156677428,17.140622252583338,0.0,8.14839188428751,0.0,0.0,-0.8394773050406891,0.0,3.6572246000662343,0.0,15554.843395665144,0.4729540266489153,160.64097156677425,2.1332969107445754,1.2055438017350808,99341.27927857143,287.0680508548579,0.0,0.0,0.0,409.5126315789474,0.21978245781068936,0.88,nominal,14535.114193605888,nan,pitch_program,12.0525,0.0,0.0
