time_s,sensor_time_s,imu_valid,imu_ax_mps2,imu_ay_mps2,imu_az_mps2,gyro_p_rps,gyro_q_rps,gyro_r_rps,imu_accel_norm_mps2,imu_gyro_norm_rps,gps_valid,gps_latency_s,gps_x_m,gps_y_m,gps_z_m,gps_vx_mps,gps_vy_mps,gps_vz_mps,baro_valid,baro_alt_m,baro_bias_m,pitot_valid,pitot_airspeed_mps,pitot_qbar_pa,pitot_compressibility_factor,mag_valid,mag_heading_deg,mag_x_ut,mag_y_ut,mag_z_ut,radar_valid,radar_agl_m,optical_flow_valid,horizon_valid,horizon_roll_deg,horizon_pitch_deg
0.0,0.0,1.0,17.96056864228607,0.11675732850390258,-0.5622234893076903,0.00137549877701089,-0.0017271349075047198,0.0019280334633471235,17.969745504039793,0.0029312633641599135,1.0,0.0,-0.49813771915299343,-0.6559407614011687,997.407221941231,91.98344916694978,0.24651826149516026,13.948980899356233,1.0,999.1546776618185,0.0,1.0,93.02269950565217,4854.514922071296,1.0,1.0,0.19321811565037783,17.981004822693684,-0.05902936392384759,-44.48383852086139,1.0,1000.3353165514293,0.0,1.0,0.5211686457673336,8.24100404303537
0.025,0.025,1.0,18.200882916422067,0.16222429899037355,-0.45874105494330675,0.0006804958028558103,-0.08461691084975384,-0.001808736594498342,18.207385836961276,0.08463897568119058,1.0,0.0,-0.49813771915299343,-0.6559407614011687,997.407221941231,91.98344916694978,0.24651826149516026,13.948980899356233,1.0,999.1546776618185,0.0,1.0,94.05491919067737,4929.777722569309,1.0,1.0,0.19321811565037783,17.981004822693684,-0.05902936392384759,-44.48383852086139,1.0,1000.3353165514293,0.0,1.0,0.5211686457673336,8.24100404303537
0.05,0.05,1.0,18.548401466829567,0.30350868146669496,-0.23012121434382632,0.0006669330678437417,-0.20236868294369875,-0.020805875878683173,18.55231172300913,0.20343650878631253,1.0,0.0,-0.49813771915299343,-0.6559407614011687,997.407221941231,91.98344916694978,0.24651826149516026,13.948980899356233,1.0,999.8748543039079,0.0,1.0,94.09289442763058,4914.8583930352415,1.0,1.0,-0.4440687621877697,17.631350980506454,0.031145556888057507,-44.57640761704615,1.0,1000.7562451609707,0.0,1.0,-0.18636733488041632,8.31900914172472
0.07500000000000001,0.07500000000000001,1.0,18.7421069934583,0.266424291741937,0.18583643467102431,-0.004511986797901262,-0.3545765078426909,-0.03868316750180713,18.74492175598287,0.3567089084768632,1.0,0.0,-0.49813771915299343,-0.6559407614011687,997.407221941231,91.98344916694978,0.24651826149516026,13.948980899356233,1.0,999.8748543039079,0.0,1.0,93.87920390897473,4983.591153405319,1.0,1.0,-0.4440687621877697,17.631350980506454,0.031145556888057507,-44.57640761704615,1.0,1000.7562451609707,0.0,1.0,-0.18636733488041632,8.31900914172472
0.1,0.1,1.0,18.892476067227985,0.4192970633612678,1.055501945614271,-0.0019733345249929968,-0.5143907744108808,-0.06547456302396545,18.92658306021774,0.5185447726584006,1.0,0.0,-0.49813771915299343,-0.6559407614011687,997.407221941231,91.98344916694978,0.24651826149516026,13.948980899356233,1.0,1000.0938794641497,0.0,1.0,94.24977270958097,4995.838612705678,1.0,1.0,-0.09208836895569764,16.689294025763772,0.10321570625500082,-45.05321765044904,1.0,1001.2478107928138,0.0,1.0,0.051572997770887245,9.521495051035606
0.125,0.125,1.0,18.99619188901084,0.42963416756492545,1.9851970649005786,0.0021586631133795483,-0.5673247704653447,-0.09999524621096689,19.104473276919997,0.5760738705016788,1.0,0.0,-0.49813771915299343,-0.6559407614011687,997.407221941231,91.98344916694978,0.24651826149516026,13.948980899356233,1.0,1000.0938794641497,0.0,1.0,95.62824211873856,4910.105302866445,1.0,1.0,-0.09208836895569764,16.689294025763772,0.10321570625500082,-45.05321765044904,1.0,1001.2478107928138,0.0,1.0,0.051572997770887245,9.521495051035606
0.15000000000000002,0.15000000000000002,1.0,19.214011818216903,0.3784510999044399,2.7689185571869475,-0.0020309966190127223,-0.5082225480946573,-0.13503753111169364,19.416188744497,0.525860645178772,1.0,0.0,-0.49813771915299343,-0.6559407614011687,997.407221941231,91.98344916694978,0.24651826149516026,13.948980899356233,1.0,1001.1634178325196,0.0,1.0,95.45030110433255,5062.325330086904,1.0,1.0,-0.1931083706306607,15.51942542668757,0.11671488509415048,-45.462448771585564,1.0,1002.1924114763362,0.0,1.0,0.56671346472935,10.662945010222632
0.17500000000000002,0.17500000000000002,1.0,19.430849393743472,0.33522810797383606,3.3471762953053004,-0.0039483709411957625,-0.39234161077137153,-0.17640125065731804,19.7198852734637,0.4301917367979418,1.0,0.0,-0.49813771915299343,-0.6559407614011687,997.407221941231,91.98344916694978,0.24651826149516026,13.948980899356233,1.0,1001.1634178325196,0.0,1.0,95.71193293971847,5061.2089501238515,1.0,1.0,-0.1931083706306607,15.51942542668757,0.11671488509415048,-45.462448771585564,1.0,1002.1924114763362,0.0,1.0,0.56671346472935,10.662945010222632
0.2,0.2,1.0,19.60992793249561,0.2716784940199185,3.763800219496848,-0.008070085105254466,-0.28436024605182786,-0.21324481583022722,19.96970893163115,0.3555266899780235,1.0,0.0,17.26442080405687,1.4624934273289498,1001.0111859228487,95.5768997223939,-0.061152999856106116,13.195593520889597,1.0,1002.0082814620932,0.0,1.0,96.6989091584812,5270.833458924127,1.0,1.0,-2.307920565685342,14.674492239810712,0.2977191808558589,-45.745793822250285,1.0,1002.5288241716908,0.0,1.0,0.5587401597455466,12.335645895315322
0.225,0.225,1.0,19.854722731712947,0.15518482734382488,4.0213252604608085,-0.009812164779790362,-0.2143262196956892,-0.2509229977753385,20.258458824260465,0.33014293546776546,1.0,0.0,17.26442080405687,1.4624934273289498,1001.0111859228487,95.5768997223939,-0.061152999856106116,13.195593520889597,1.0,1002.0082814620932,0.0,1.0,97.47379919296885,5143.28151633423,1.0,1.0,-2.307920565685342,14.674492239810712,0.2977191808558589,-45.745793822250285,1.0,1002.5288241716908,0.0,1.0,0.5587401597455466,12.335645895315322
0.25,0.25,1.0,19.973574243656294,0.18244262338926856,4.245042137977452,-0.014229432889208866,-0.1888849606594126,-0.28499760596804924,20.42051263144203,0.3422040919264055,1.0,0.0,17.26442080405687,1.4624934273289498,1001.0111859228487,95.5768997223939,-0.061152999856106116,13.195593520889597,1.0,1004.5613832478284,0.0,1.0,97.54706998739486,5278.396674751438,1.0,1.0,-1.0712885627473343,14.256192621899478,0.4605105743848573,-45.85995238294493,1.0,1003.4638704617989,0.0,1.0,0.7713576669436896,12.845956489840166
0.275,0.275,1.0,20.206795248204415,0.09019094296626226,4.5746070870475375,-0.0184021174582387,-0.1912516091276004,-0.32090332629511725,20.718343046921373,0.37402508037311316,1.0,0.0,17.26442080405687,1.4624934273289498,1001.0111859228487,95.5768997223939,-0.061152999856106116,13.195593520889597,1.0,1004.5613832478284,0.0,1.0,97.61926781129672,5388.396562781819,1.0,1.0,-1.0712885627473343,14.256192621899478,0.4605105743848573,-45.85995238294493,1.0,1003.4638704617989,0.0,1.0,0.7713576669436896,12.845956489840166
0.30000000000000004,0.30000000000000004,1.0,20.536105837530606,-0.02517316862699432,4.864494939829937,-0.026327560748007656,-0.18662981695717548,-0.3535974592241341,21.10439735406601,0.4006931396994114,1.0,0.0,17.26442080405687,1.4624934273289498,1001.0111859228487,95.5768997223939,-0.061152999856106116,13.195593520889597,1.0,1004.3434003634287,0.0,1.0,98.37973555618353,5377.584522194467,1.0,1.0,-2.763366705805167,13.774781961920105,0.7705574495855645,-45.99979617134292,1.0,1003.3598622329192,0.0,1.0,0.33183954992608145,12.907953362485152
0.325,0.325,1.0,20.71511538092353,-0.11036427901761982,5.186392592654743,-0.038447778334061246,-0.16867818986657251,-0.3851068952888828,21.354785263359634,0.4221822878740073,1.0,0.0,17.26442080405687,1.4624934273289498,1001.0111859228487,95.5768997223939,-0.061152999856106116,13.195593520889597,1.0,1004.3434003634287,0.0,1.0,98.82646610411341,5481.206179424635,1.0,1.0,-2.763366705805167,13.774781961920105,0.7705574495855645,-45.99979617134292,1.0,1003.3598622329192,0.0,1.0,0.33183954992608145,12.907953362485152
0.35000000000000003,0.35000000000000003,1.0,20.958774189319715,-0.2429650210045223,5.50582807269834,-0.05253735878679801,-0.1472162237058095,-0.40969145449588806,21.67125723825083,0.4384972958610441,1.0,0.0,17.26442080405687,1.4624934273289498,1001.0111859228487,95.5768997223939,-0.061152999856106116,13.195593520889597,1.0,1005.2536455720012,0.0,1.0,99.14610244796339,5423.3358187097065,1.0,1.0,-4.04762330056526,13.43076721958768,1.185586524469947,-46.03689831421486,1.0,1004.8288493523643,0.0,1.0,0.6938196200035702,13.505139411450964
0.375,0.375,1.0,21.139944901804846,-0.4389815479269119,5.763646772049534,-0.06421085430667815,-0.12290609867055302,-0.4417659629933609,21.915966767718054,0.46301847583078226,1.0,0.0,17.26442080405687,1.4624934273289498,1001.0111859228487,95.5768997223939,-0.061152999856106116,13.195593520889597,1.0,1005.2536455720012,0.0,1.0,99.78708318479464,5598.462085011927,1.0,1.0,-4.04762330056526,13.43076721958768,1.185586524469947,-46.03689831421486,1.0,1004.8288493523643,0.0,1.0,0.6938196200035702,13.505139411450964
0.4,0.4,1.0,21.41859545672042,-0.4534572342087627,5.946877348690564,-0.08143478229868176,-0.10251017489337992,-0.4625310895499828,22.23347037694003,0.48070257803032346,1.0,0.0,39.807141459766704,-0.944832073603964,1006.3445562297602,99.21184181921694,-0.03346462229109105,12.822103322539544,1.0,1006.3334229997761,0.0,1.0,100.11218069396267,5559.117792810095,1.0,1.0,-5.497572984439745,13.16477982107661,1.6204513811713133,-46.148280533727885,1.0,1005.394021979844,0.0,1.0,1.008375120401351,13.82541749138326
0.42500000000000004,0.42500000000000004,1.0,21.38154761671094,-0.6612645797050156,6.166750797659938,-0.09728550287856665,-0.09610853277169001,-0.47283633357941857,22.262898839335573,0.49221490986629995,1.0,0.0,39.807141459766704,-0.944832073603964,1006.3445562297602,99.21184181921694,-0.03346462229109105,12.822103322539544,1.0,1006.3334229997761,0.0,1.0,101.06382265752323,5592.978186038278,1.0,1.0,-5.497572984439745,13.16477982107661,1.6204513811713133,-46.148280533727885,1.0,1005.394021979844,0.0,1.0,1.008375120401351,13.82541749138326
0.45,0.45,1.0,21.484802465761636,-0.8081574556147987,6.336073075061449,-0.12238159672843722,-0.08246606906133086,-0.4853107548048541,22.414184738204995,0.5072518472055939,1.0,0.0,39.807141459766704,-0.944832073603964,1006.3445562297602,99.21184181921694,-0.03346462229109105,12.822103322539544,1.0,1005.1189524944249,0.0,1.0,101.12388008806529,5689.606478016439,1.0,1.0,-6.065335784563281,12.843862856966899,2.2376796345061134,-46.179881303150545,1.0,1005.1866069263397,0.0,1.0,0.811195926145197,14.362746218401833
0.47500000000000003,0.47500000000000003,1.0,21.304593586422108,-0.9794068798743026,6.458692896080844,-0.14967194924952287,-0.0753701460879007,-0.49237725883723205,22.283618638920572,0.5201131764659782,1.0,0.0,39.807141459766704,-0.944832073603964,1006.3445562297602,99.21184181921694,-0.03346462229109105,12.822103322539544,1.0,1005.1189524944249,0.0,1.0,101.7353554157827,5746.173363090994,1.0,1.0,-6.065335784563281,12.843862856966899,2.2376796345061134,-46.179881303150545,1.0,1005.1866069263397,0.0,1.0,0.811195926145197,14.362746218401833
0.5,0.5,1.0,21.3641576157912,-1.2015036945381963,6.607899724220913,-0.1857186118154072,-0.06916575745867005,-0.49289439686252023,22.394981145911174,0.5312440034842192,1.0,0.0,39.807141459766704,-0.944832073603964,1006.3445562297602,99.21184181921694,-0.03346462229109105,12.822103322539544,1.0,1005.7052737161216,0.0,1.0,102.01005795077575,5835.007388509251,1.0,1.0,-10.011638580641351,12.659923925542882,2.9371420816929974,-46.266407780005295,1.0,1006.4390488197747,0.0,1.0,1.3432398921204762,14.352353273387271
0.525,0.525,1.0,21.36003984024197,-1.4403747434852878,6.7097446165592425,-0.219897065038581,-0.06229156455418865,-0.4817550441711229,22.435388434298176,0.5332193552483923,1.0,0.0,39.807141459766704,-0.944832073603964,1006.3445562297602,99.21184181921694,-0.03346462229109105,12.822103322539544,1.0,1005.7052737161216,0.0,1.0,102.95390273755996,5755.176028866828,1.0,1.0,-10.011638580641351,12.659923925542882,2.9371420816929974,-46.266407780005295,1.0,1006.4390488197747,0.0,1.0,1.3432398921204762,14.352353273387271
0.55,0.55,1.0,21.279482588001443,-1.6532902079845302,6.909055209478498,-0.25906565299731193,-0.05427699316522046,-0.4622323284011169,22.43400970875461,0.5326534801999316,1.0,0.0,39.807141459766704,-0.944832073603964,1006.3445562297602,99.21184181921694,-0.03346462229109105,12.822103322539544,1.0,1006.47336307215,0.0,1.0,103.31058461580174,5819.516010526961,1.0,1.0,-10.59449055126956,12.503800185029496,3.8152367735842625,-46.194170393819114,1.0,1007.0604509784154,0.0,1.0,0.5385685411363275,14.318203554143118
0.5750000000000001,0.5750000000000001,1.0,21.207060734800763,-1.8628706578849918,6.924034584789513,-0.3045920837858156,-0.05067153924091866,-0.4320560059053068,22.386423721284704,0.5310521016179823,1.0,0.0,39.807141459766704,-0.944832073603964,1006.3445562297602,99.21184181921694,-0.03346462229109105,12.822103322539544,1.0,1006.47336307215,0.0,1.0,103.58902177103805,6036.373562462871,1.0,1.0,-10.59449055126956,12.503800185029496,3.8152367735842625,-46.194170393819114,1.0,1007.0604509784154,0.0,1.0,0.5385685411363275,14.318203554143118
0.6000000000000001,0.6000000000000001,1.0,21.25027604389484,-1.9566436418121709,7.0420929742109015,-0.3577288716484228,-0.0429902139108993,-0.4045937820571667,22.472066209857193,0.5417695382561488,1.0,0.0,62.57951594853639,-0.5531195206196421,1005.9155822772351,103.02618564882071,-1.0497832842330492,13.040241462355743,1.0,1009.0148622319343,0.0,1.0,103.41776392197053,5963.120128938945,1.0,1.0,-9.476226715368256,12.22624018199069,4.811035424426752,-46.18682273922585,1.0,1007.5353563122003,0.0,1.0,0.03468287398950859,14.791555635015978
0.625,0.625,1.0,21.216135319891684,-2.0825000579166204,7.094358396865541,-0.41494597289993157,-0.04393678062224679,-0.3568128029557668,22.467557176211987,0.5490227476803389,1.0,0.0,62.57951594853639,-0.5531195206196421,1005.9155822772351,103.02618564882071,-1.0497832842330492,13.040241462355743,1.0,1009.0148622319343,0.0,1.0,103.89474297544879,6036.125961352438,1.0,1.0,-9.476226715368256,12.22624018199069,4.811035424426752,-46.18682273922585,1.0,1007.5353563122003,0.0,1.0,0.03468287398950859,14.791555635015978
0.65,0.65,1.0,21.24165546961786,-2.3103840527854524,6.961077267925664,-0.4847539121544395,-0.043600855134311854,-0.3073393996156527,22.4722584154629,0.5756256565456296,1.0,0.0,62.57951594853639,-0.5531195206196421,1005.9155822772351,103.02618564882071,-1.0497832842330492,13.040241462355743,1.0,1007.2141264055426,0.0,1.0,104.88651627545475,6130.809144168997,1.0,1.0,-12.387576751923865,12.025431457995058,6.095158081588409,-46.1070538694023,1.0,1008.3555467053854,0.0,1.0,-1.6490055416385756,14.868280908074508
0.675,0.675,1.0,21.266799353789445,-2.4055463904131082,6.994738455148513,-0.5537752092636657,-0.04438276550428634,-0.25212582846355697,22.516433426426623,0.6100854412680736,1.0,0.0,62.57951594853639,-0.5531195206196421,1005.9155822772351,103.02618564882071,-1.0497832842330492,13.040241462355743,1.0,1007.2141264055426,0.0,1.0,105.3711446546619,6233.98326145058,1.0,1.0,-12.387576751923865,12.025431457995058,6.095158081588409,-46.1070538694023,1.0,1008.3555467053854,0.0,1.0,-1.6490055416385756,14.868280908074508
0.7000000000000001,0.7000000000000001,1.0,21.182818579560475,-2.5269972148757596,6.948945206578468,-0.6352864345053063,-0.04868896719289188,-0.19151954612857638,22.436250965404007,0.6653113601480672,1.0,0.0,62.57951594853639,-0.5531195206196421,1005.9155822772351,103.02618564882071,-1.0497832842330492,13.040241462355743,1.0,1008.3721173327222,0.0,1.0,106.0785886563059,6251.382127300795,1.0,1.0,-11.901196485621968,11.892181511983496,7.440563348969048,-45.91245716181708,1.0,1008.9476539497615,0.0,1.0,-3.094086254775138,14.752721067426265
0.7250000000000001,0.7250000000000001,1.0,21.230365492312615,-2.605576558758155,6.90647357756478,-0.7189878740305884,-0.051615560909291223,-0.12616981614604894,22.47702883875733,0.7317967966842529,1.0,0.0,62.57951594853639,-0.5531195206196421,1005.9155822772351,103.02618564882071,-1.0497832842330492,13.040241462355743,1.0,1008.3721173327222,0.0,1.0,106.52459260879854,6280.484778279759,1.0,1.0,-11.901196485621968,11.892181511983496,7.440563348969048,-45.91245716181708,1.0,1008.9476539497615,0.0,1.0,-3.094086254775138,14.752721067426265
0.75,0.75,1.0,21.234940435914645,-2.6723540963405887,6.681158217268283,-0.8159428955799805,-0.05174185637010952,-0.051829699760018326,22.421017971029833,0.8192230137912885,1.0,0.0,62.57951594853639,-0.5531195206196421,1005.9155822772351,103.02618564882071,-1.0497832842330492,13.040241462355743,1.0,1011.0092091422711,0.0,1.0,106.93528054779516,6338.274477203109,1.0,1.0,-12.540879033834536,11.67369258353906,9.372330993859228,-45.63724344034163,1.0,1010.6146789480335,0.0,1.0,-4.817181151729498,15.050053017799703
0.775,0.775,1.0,21.28706774684153,-2.683981634983956,6.637329326270062,-0.9216872537231792,-0.06604461509452994,0.019735569957108023,22.458787840418207,0.9242612063590533,1.0,0.0,62.57951594853639,-0.5531195206196421,1005.9155822772351,103.02618564882071,-1.0497832842330492,13.040241462355743,1.0,1011.0092091422711,0.0,1.0,106.57478963744774,6398.298546689832,1.0,1.0,-12.540879033834536,11.67369258353906,9.372330993859228,-45.63724344034163,1.0,1010.6146789480335,0.0,1.0,-4.817181151729498,15.050053017799703
0.8,0.8,1.0,21.318438933330413,-2.725022555661841,6.482977776039272,-1.036122994447017,-0.08413884060488673,0.08954990466230822,22.448398324326455,1.0433836253005009,1.0,0.0,78.55956973343461,0.20766741198249417,1012.6916277841979,106.89064441630453,-1.8971998540890123,13.812974247851166,1.0,1012.0113895894935,0.0,1.0,107.69214223216129,6492.595060552184,1.0,1.0,-11.90406528087714,11.442627328316522,11.533831544778051,-45.13692534725271,1.0,1010.3472736750999,0.0,1.0,-8.104120600488585,15.225236162451326
0.8250000000000001,0.8250000000000001,1.0,21.276809296633502,-2.7176711675611873,6.230961504273747,-1.164531824107451,-0.10236628873048237,0.16524933601326475,22.33636567770246,1.1806441332934765,1.0,0.0,78.55956973343461,0.20766741198249417,1012.6916277841979,106.89064441630453,-1.8971998540890123,13.812974247851166,1.0,1012.0113895894935,0.0,1.0,108.13848472899981,6456.2436738388205,1.0,1.0,-11.90406528087714,11.442627328316522,11.533831544778051,-45.13692534725271,1.0,1010.3472736750999,0.0,1.0,-8.104120600488585,15.225236162451326
0.8500000000000001,0.8500000000000001,1.0,21.300484147812718,-2.73903410795643,6.211852861716651,-1.295160454467277,-0.12101728275469482,0.23654387013796718,22.35620828207205,1.3221341792878138,1.0,0.0,78.55956973343461,0.20766741198249417,1012.6916277841979,106.89064441630453,-1.8971998540890123,13.812974247851166,1.0,1010.6352340468953,0.0,1.0,108.85305793413767,6603.429538173662,1.0,1.0,-13.644737162731344,11.522943670824215,14.173816368039583,-44.451182069267816,1.0,1010.9816768090888,0.0,1.0,-12.07823557630782,15.671201863122622
0.875,0.875,1.0,21.396457748235274,-2.7163408592980454,5.883554953448155,-1.4391099818628195,-0.1512237653855308,0.31570820379694453,22.35627721080041,1.481073204490337,1.0,0.0,78.55956973343461,0.20766741198249417,1012.6916277841979,106.89064441630453,-1.8971998540890123,13.812974247851166,1.0,1010.6352340468953,0.0,1.0,109.40219880667475,6633.9348549131355,1.0,1.0,-13.644737162731344,11.522943670824215,14.173816368039583,-44.451182069267816,1.0,1010.9816768090888,0.0,1.0,-12.07823557630782,15.671201863122622
0.9,0.9,1.0,21.33068046178279,-2.702125782718187,5.760677916202142,-1.5980568513772473,-0.1858538089412384,0.3932240543581695,22.25948837602813,1.656186129472652,1.0,0.0,78.55956973343461,0.20766741198249417,1012.6916277841979,106.89064441630453,-1.8971998540890123,13.812974247851166,1.0,1012.4930261815517,0.0,1.0,109.42204528429161,6724.378656231435,1.0,1.0,-11.495314605501347,11.362472625715295,17.242870196917536,-43.353695198853174,1.0,1011.5096816062016,0.0,1.0,-16.378842346068613,15.372506355914714
0.925,0.925,1.0,21.3180398645055,-2.5936164237709654,5.630124441870333,-1.763385063380548,-0.22740915535905365,0.46605531195950967,22.200990316858523,1.8380558640858586,1.0,0.0,78.55956973343461,0.20766741198249417,1012.6916277841979,106.89064441630453,-1.8971998540890123,13.812974247851166,1.0,1012.4930261815517,0.0,1.0,109.76451984603773,6779.931633823579,1.0,1.0,-11.495314605501347,11.362472625715295,17.242870196917536,-43.353695198853174,1.0,1011.5096816062016,0.0,1.0,-16.378842346068613,15.372506355914714
0.9500000000000001,0.9500000000000001,1.0,21.365502436243865,-2.4837895346771797,5.468947280087168,-1.9326374176376864,-0.27363233259592046,0.5404883925795286,22.193766898795868,2.0253616328962964,1.0,0.0,78.55956973343461,0.20766741198249417,1012.6916277841979,106.89064441630453,-1.8971998540890123,13.812974247851166,1.0,1012.0772251050835,0.0,1.0,110.46875339625976,6789.353095994384,1.0,1.0,-8.705951380820826,11.416793063619194,20.819401985318322,-41.717679733410726,1.0,1012.4589945148433,0.0,1.0,-22.24249764295848,15.901615724971759
0.9750000000000001,0.9750000000000001,1.0,21.40195778894824,-2.504299776177287,5.452730759604178,-2.1105512489659755,-0.3278987758116473,0.6102419392902199,22.227181272163534,2.221337301302822,1.0,0.0,78.55956973343461,0.20766741198249417,1012.6916277841979,106.89064441630453,-1.8971998540890123,13.812974247851166,1.0,1012.0772251050835,0.0,1.0,111.280253161573,6832.391047401362,1.0,1.0,-8.705951380820826,11.416793063619194,20.819401985318322,-41.717679733410726,1.0,1012.4589945148433,0.0,1.0,-22.24249764295848,15.901615724971759
1.0,1.0,1.0,21.274416789485915,-2.410922719187999,5.634665596757112,-2.2885160238576914,-0.3883752732557381,0.6831457968830246,22.139620919923974,2.4196754171022254,1.0,0.0,101.81691515808777,-2.350737801556758,1009.712647463229,110.35478696426385,-3.177272998743485,13.994067787257176,1.0,1014.0270734246524,0.0,1.0,111.59440180831902,6875.726487044726,1.0,1.0,-6.931857676349956,11.315691762496574,24.994279224202447,-39.41257679580909,1.0,1013.2528686960693,0.0,1.0,-29.18237361055101,16.039695786789146
1.0250000000000001,1.0250000000000001,1.0,21.193644307025973,-2.3330483950785563,5.794082850470589,-2.4609562981315922,-0.46570463613218865,0.7453475434277794,22.0949104977737,2.6131838186247807,1.0,0.0,101.81691515808777,-2.350737801556758,1009.712647463229,110.35478696426385,-3.177272998743485,13.994067787257176,1.0,1014.0270734246524,0.0,1.0,111.65003866362878,6992.64663252087,1.0,1.0,-6.931857676349956,11.315691762496574,24.994279224202447,-39.41257679580909,1.0,1013.2528686960693,0.0,1.0,-29.18237361055101,16.039695786789146
1.05,1.05,1.0,21.224250682354445,-2.0680332310396614,6.083841074879135,-2.6348336476375316,-0.5449310955213005,0.8070925627024815,22.175633039363134,2.809038386060006,1.0,0.0,101.81691515808777,-2.350737801556758,1009.712647463229,110.35478696426385,-3.177272998743485,13.994067787257176,1.0,1013.975931765899,0.0,1.0,112.18199197802876,7034.372280746642,1.0,1.0,-4.041735463797103,11.404208774415956,29.507416224941625,-36.202612762144035,1.0,1014.0404138315916,0.0,1.0,-36.77903429320139,16.4889514018818
1.075,1.075,1.0,21.0587502524427,-1.9919802212542084,6.5700961549112575,-2.7981201808051552,-0.6340856953021647,0.8584333142561419,22.14960746562799,2.9947368782984407,1.0,0.0,101.81691515808777,-2.350737801556758,1009.712647463229,110.35478696426385,-3.177272998743485,13.994067787257176,1.0,1013.975931765899,0.0,1.0,112.64699572917104,7050.401192461931,1.0,1.0,-4.041735463797103,11.404208774415956,29.507416224941625,-36.202612762144035,1.0,1014.0404138315916,0.0,1.0,-36.77903429320139,16.4889514018818
1.1,1.1,1.0,21.005121460955852,-1.7597715379435794,7.211958559320864,-2.9670156380504653,-0.7314860444282755,0.9034327963596693,22.278336331885868,3.186603904969613,1.0,0.0,101.81691515808777,-2.350737801556758,1009.712647463229,110.35478696426385,-3.177272998743485,13.994067787257176,1.0,1013.7028066328696,0.0,1.0,113.4496201656128,7205.515017823673,1.0,1.0,-1.6683294491576839,11.640547173376188,33.789874749782555,-32.002993622182274,1.0,1014.7833502088921,0.0,1.0,-45.81263497940305,15.880412284118856
1.125,1.125,1.0,20.817881507394794,-1.7302437869142138,8.207778677333206,-3.1208485173190503,-0.8406926571539969,0.9481965210763453,22.444276883744127,3.3683135623671454,1.0,0.0,101.81691515808777,-2.350737801556758,1009.712647463229,110.35478696426385,-3.177272998743485,13.994067787257176,1.0,1013.7028066328696,0.0,1.0,113.14874557279542,7044.098587388007,1.0,1.0,-1.6683294491576839,11.640547173376188,33.789874749782555,-32.002993622182274,1.0,1014.7833502088921,0.0,1.0,-45.81263497940305,15.880412284118856
1.1500000000000001,1.1500000000000001,1.0,20.658846040662553,-1.564128005086755,9.321106474901693,-3.279798065777001,-0.9599441290973599,0.975019632457391,22.718218285432282,3.5537629868831138,1.0,0.0,101.81691515808777,-2.350737801556758,1009.712647463229,110.35478696426385,-3.177272998743485,13.994067787257176,1.0,1015.6793677920112,0.0,1.0,113.87801712504994,7345.172625244392,1.0,1.0,1.783385277720632,12.056388000401636,38.030268617585406,-26.70273968907476,1.0,1015.248322372115,0.0,1.0,-56.9565527567511,15.241950211720786
1.175,1.175,1.0,20.498760719512017,-1.4818210822817404,10.754411208887516,-3.433563740318692,-1.0852587930812356,0.9873058458056229,23.19595536307028,3.7338879790311577,1.0,0.0,101.81691515808777,-2.350737801556758,1009.712647463229,110.35478696426385,-3.177272998743485,13.994067787257176,1.0,1015.6793677920112,0.0,1.0,114.36833919571339,7163.114003805127,1.0,1.0,1.783385277720632,12.056388000401636,38.030268617585406,-26.70273968907476,1.0,1015.248322372115,0.0,1.0,-56.9565527567511,15.241950211720786
1.2000000000000002,1.2000000000000002,1.0,20.00580689190178,-1.4990870113164005,12.186602712969446,-3.585503329614921,-1.194468231572344,1.0041947467239878,23.473237035980286,3.9103702602520007,1.0,0.0,123.40049803456013,-1.160491149794046,1015.4797465006412,114.25284356075237,-2.474434581247984,14.273844528902972,1.0,1016.1110105705758,0.0,1.0,113.95560551761298,7442.480679271862,1.0,1.0,7.05263968341662,12.712481994679809,41.49992450232472,-20.606474650381756,1.0,1016.1911983521037,0.0,1.0,-67.90889737428412,14.086376969056618
1.225,1.225,1.0,19.33353201518409,-1.4732758125818264,13.30861413764778,-3.733487242610986,-1.26104331847198,1.006617725337476,23.517551149447623,4.06723941842196,1.0,0.0,123.40049803456013,-1.160491149794046,1015.4797465006412,114.25284356075237,-2.474434581247984,14.273844528902972,1.0,1016.1110105705758,0.0,1.0,115.62911029469367,7442.954006925702,1.0,1.0,7.05263968341662,12.712481994679809,41.49992450232472,-20.606474650381756,1.0,1016.1911983521037,0.0,1.0,-67.90889737428412,14.086376969056618
1.25,1.25,1.0,18.720446870319947,-1.6900048358281916,14.511541187226248,-3.8740509830468226,-1.2912873320051428,1.0096467513801766,23.746496057274605,4.206552098288521,1.0,0.0,123.40049803456013,-1.160491149794046,1015.4797465006412,114.25284356075237,-2.474434581247984,14.273844528902972,1.0,1016.867577379839,0.0,1.0,116.35995015551576,7252.082263806624,1.0,1.0,11.479854350483519,13.79483335338034,44.02770980843062,-13.25130528736895,1.0,1016.8803284898914,0.0,1.0,-79.53184151321132,12.17607924548463
1.2750000000000001,1.2750000000000001,1.0,18.003021748721,-1.8461686622920703,15.571645737009675,-4.022332611054484,-1.2628258524217297,1.0195413129259352,23.874532074440374,4.337436253855472,1.0,0.0,123.40049803456013,-1.160491149794046,1015.4797465006412,114.25284356075237,-2.474434581247984,14.273844528902972,1.0,1016.867577379839,0.0,1.0,116.02842958223017,7520.249679251858,1.0,1.0,11.479854350483519,13.79483335338034,44.02770980843062,-13.25130528736895,1.0,1016.8803284898914,0.0,1.0,-79.53184151321132,12.17607924548463
1.3,1.3,1.0,17.51315492267002,-2.117656064544941,16.707196412494483,-4.174256879094353,-1.1861578887235216,1.036450544472259,24.29661446619289,4.461571557286111,1.0,0.0,123.40049803456013,-1.160491149794046,1015.4797465006412,114.25284356075237,-2.474434581247984,14.273844528902972,1.0,1018.20187827325,0.0,1.0,116.094912170181,7472.456238251224,1.0,1.0,15.290503224235792,15.44174078163691,45.14757523922793,-4.994131061042395,1.0,1017.45206605701,0.0,0.0,-79.53184151321132,12.17607924548463
1.3250000000000002,1.3250000000000002,1.0,17.055539377180356,-2.420142514472303,17.53658345566282,-4.317400025254224,-1.0740990958485577,1.0692779726725834,24.582112857407783,4.575695272700167,1.0,0.0,123.40049803456013,-1.160491149794046,1015.4797465006412,114.25284356075237,-2.474434581247984,14.273844528902972,1.0,1018.20187827325,0.0,1.0,116.01065841327421,7466.670211642043,1.0,1.0,15.290503224235792,15.44174078163691,45.14757523922793,-4.994131061042395,1.0,1017.45206605701,0.0,0.0,-79.53184151321132,12.17607924548463
1.35,1.35,1.0,16.803307490760034,-2.560511884410976,18.242465870455298,-4.47186875213812,-0.9361608394745636,1.1264363755427953,24.933810875475263,4.705620698894149,1.0,0.0,123.40049803456013,-1.160491149794046,1015.4797465006412,114.25284356075237,-2.474434581247984,14.273844528902972,1.0,1017.9505516444149,0.0,1.0,117.72796266817994,7637.480706689395,1.0,1.0,19.30550388801257,17.848269306821592,44.34695988858329,4.055832993722511,1.0,1018.0931345787636,0.0,0.0,-79.53184151321132,12.17607924548463
1.375,1.375,1.0,16.518883482919396,-2.6556722612973496,18.529118767472863,-4.6213121141201245,-0.785573491234187,1.1888718572684789,24.965062567131824,4.83601774802867,1.0,0.0,123.40049803456013,-1.160491149794046,1015.4797465006412,114.25284356075237,-2.474434581247984,14.273844528902972,1.0,1017.9505516444149,0.0,1.0,117.30173602903433,7511.914750467476,1.0,1.0,19.30550388801257,17.848269306821592,44.34695988858329,4.055832993722511,1.0,1018.0931345787636,0.0,0.0,-79.53184151321132,12.17607924548463
1.4000000000000001,1.4000000000000001,1.0,16.473239623704472,-2.775516877004752,18.704179301921982,-4.7762151748832595,-0.6463828821159091,1.2657007035710666,25.078226432365028,4.98317574425164,1.0,0.0,147.68700382463527,-2.6895433794410852,1019.2439218607323,116.40821051301393,1.4086857819700296,13.435314727012893,1.0,1018.9717502584655,0.0,1.0,117.75156053098274,7692.7010256366575,1.0,1.0,17.580462747185518,20.825403366975074,41.11411453647408,13.504577953811395,1.0,1018.8031571741853,0.0,0.0,-79.53184151321132,12.17607924548463
1.425,1.425,1.0,16.572780429392843,-2.7562375919670483,18.535147571121197,-4.928330946308751,-0.5171810943829988,1.347955734240856,25.016106657661155,5.135455857292954,1.0,0.0,147.68700382463527,-2.6895433794410852,1019.2439218607323,116.40821051301393,1.4086857819700296,13.435314727012893,1.0,1018.9717502584655,0.0,1.0,118.09435320658315,7688.401201767935,1.0,1.0,17.580462747185518,20.825403366975074,41.11411453647408,13.504577953811395,1.0,1018.8031571741853,0.0,0.0,-79.53184151321132,12.17607924548463
1.4500000000000002,1.4500000000000002,1.0,16.84017386733151,-2.694181308694241,18.316798735107163,-5.086945097719132,-0.4236366332588621,1.4291604071988466,25.027089017872132,5.300846903444051,1.0,0.0,147.68700382463527,-2.6895433794410852,1019.2439218607323,116.40821051301393,1.4086857819700296,13.435314727012893,1.0,1019.195244452441,0.0,1.0,117.77854932554057,7723.925482625693,1.0,1.0,16.60482535572169,23.913927708239505,35.0603201384886,22.49706393234941,1.0,1019.2969270158999,0.0,0.0,-79.53184151321132,12.17607924548463
1.475,1.475,1.0,17.0172102321701,-2.68767940057144,17.752562512688236,-5.243011430066035,-0.3633157829450348,1.5149221219685207,24.73787663509208,5.469566367598959,1.0,0.0,147.68700382463527,-2.6895433794410852,1019.2439218607323,116.40821051301393,1.4086857819700296,13.435314727012893,1.0,1019.195244452441,0.0,1.0,117.9694244007478,7738.264577807252,1.0,1.0,16.60482535572169,23.913927708239505,35.0603201384886,22.49706393234941,1.0,1019.2969270158999,0.0,0.0,-79.53184151321132,12.17607924548463
1.5,1.5,1.0,17.3014297340459,-2.4673390751203965,17.391930831741337,-5.401574724870894,-0.34733233315356443,1.588486173270354,24.655759793805146,5.641005015127098,1.0,0.0,147.68700382463527,-2.6895433794410852,1019.2439218607323,116.40821051301393,1.4086857819700296,13.435314727012893,1.0,1020.2496401503313,0.0,1.0,118.82467131332999,7796.680039095254,1.0,1.0,16.570237259701255,26.79651348401572,25.90589833808003,30.247916579454095,1.0,1020.1446288203513,0.0,0.0,-79.53184151321132,12.17607924548463
1.5250000000000001,1.5250000000000001,1.0,17.501686200675035,-2.2266713431098655,16.983772745093624,-5.560098300293489,-0.3637684801774667,1.6643316461775892,24.48909189402724,5.8152403599993505,1.0,0.0,147.68700382463527,-2.6895433794410852,1019.2439218607323,116.40821051301393,1.4086857819700296,13.435314727012893,1.0,1020.2496401503313,0.0,1.0,118.98260087225823,7909.060125709943,1.0,1.0,16.570237259701255,26.79651348401572,25.90589833808003,30.247916579454095,1.0,1020.1446288203513,0.0,0.0,-79.53184151321132,12.17607924548463
1.55,1.55,1.0,17.747262869030454,-1.973484178597782,16.505961212367936,-5.717023049598695,-0.4256551677683742,1.7156424225729754,24.316799433515868,5.98405914021768,1.0,0.0,147.68700382463527,-2.6895433794410852,1019.2439218607323,116.40821051301393,1.4086857819700296,13.435314727012893,1.0,1020.8864092100602,0.0,1.0,119.27956632197666,7968.464055854025,1.0,1.0,10.015854325082667,29.10559903943922,14.353659275248472,35.347897009942486,1.0,1020.2918750832641,0.0,0.0,-79.53184151321132,12.17607924548463
1.5750000000000002,1.5750000000000002,1.0,17.873079736374027,-1.862840159161876,16.33561820561276,-5.871399803270099,-0.49947511208144046,1.7451509906708045,24.285171913760816,6.14559704322275,1.0,0.0,147.68700382463527,-2.6895433794410852,1019.2439218607323,116.40821051301393,1.4086857819700296,13.435314727012893,1.0,1020.8864092100602,0.0,1.0,119.69856521691824,7899.279704751141,1.0,1.0,10.015854325082667,29.10559903943922,14.353659275248472,35.347897009942486,1.0,1020.2918750832641,0.0,0.0,-79.53184151321132,12.17607924548463
1.6,1.6,1.0,17.987724771915254,-1.4544149368710892,16.214504703756415,-6.024454759563624,-0.5948399773543396,1.7511012033775926,24.260744590117312,6.301923926322672,1.0,0.0,170.1734625619131,-2.096018579998838,1021.9575960074353,118.9046799618751,4.720720341228396,8.850893742437094,1.0,1021.8528041547639,0.0,1.0,119.46375038398311,7835.416775110799,1.0,1.0,2.9982685334598704,30.754920749104027,0.9340684797168718,36.78955133690119,1.0,1021.3976476142001,0.0,0.0,-79.53184151321132,12.17607924548463
1.625,1.625,1.0,17.958440885509184,-1.2094578754234493,16.264064902727377,-6.162235624477448,-0.6890229343324714,1.72749129143223,24.25877561936876,6.436779214606424,1.0,0.0,170.1734625619131,-2.096018579998838,1021.9575960074353,118.9046799618751,4.720720341228396,8.850893742437094,1.0,1021.8528041547639,0.0,1.0,120.02530107825237,7899.82705340911,1.0,1.0,2.9982685334598704,30.754920749104027,0.9340684797168718,36.78955133690119,1.0,1021.3976476142001,0.0,0.0,-79.53184151321132,12.17607924548463
1.6500000000000001,1.6500000000000001,1.0,17.870051629343294,-1.0930360666414058,16.47602163639814,-6.285957914086103,-0.7816666037481214,1.6793055615638357,24.330901381605933,6.553192866548036,1.0,0.0,170.1734625619131,-2.096018579998838,1021.9575960074353,118.9046799618751,4.720720341228396,8.850893742437094,1.0,1020.7014286872395,0.0,1.0,120.14919081054748,7885.6727462487115,1.0,1.0,0.29429145277386914,31.618666343907226,-12.867612971210244,33.70260731453034,1.0,1021.3738123359963,0.0,0.0,-79.53184151321132,12.17607924548463
1.675,1.675,1.0,17.713201537680654,-0.9275501063390319,16.81827743996427,-6.395290236517194,-0.8554257348439464,1.607858993718443,24.44324679664862,6.649563966216638,1.0,0.0,170.1734625619131,-2.096018579998838,1021.9575960074353,118.9046799618751,4.720720341228396,8.850893742437094,1.0,1020.7014286872395,0.0,1.0,120.64330657334416,7995.741795586274,1.0,1.0,0.29429145277386914,31.618666343907226,-12.867612971210244,33.70260731453034,1.0,1021.3738123359963,0.0,0.0,-79.53184151321132,12.17607924548463
1.7000000000000002,1.7000000000000002,1.0,17.450957219882675,-0.8599575417776051,17.246574101823633,-6.492659613241259,-0.9008135252914139,1.5120469545516892,24.55035138472623,6.7269889143309225,1.0,0.0,170.1734625619131,-2.096018579998838,1021.9575960074353,118.9046799618751,4.720720341228396,8.850893742437094,1.0,1021.4540820986143,0.0,1.0,120.65101904520229,8088.333803294152,1.0,1.0,-5.6255411239136555,31.458131817347923,-25.064971548605097,26.19751568268365,1.0,1021.8013788921463,0.0,0.0,-79.53184151321132,12.17607924548463
1.725,1.725,1.0,17.33585182211532,-0.9418001161618781,17.6840181534616,-6.575265946854599,-0.9218670230681971,1.3985040587974849,24.78191364501743,6.785261578049837,1.0,0.0,170.1734625619131,-2.096018579998838,1021.9575960074353,118.9046799618751,4.720720341228396,8.850893742437094,1.0,1021.4540820986143,0.0,1.0,121.10358956735529,7989.395394454977,1.0,1.0,-5.6255411239136555,31.458131817347923,-25.064971548605097,26.19751568268365,1.0,1021.8013788921463,0.0,0.0,-79.53184151321132,12.17607924548463
1.75,1.75,1.0,17.208174636717786,-1.0299956294282022,17.92424334349935,-6.643838210038198,-0.9136668575838267,1.2849398321849042,24.868869390492993,6.828355853362217,1.0,0.0,170.1734625619131,-2.096018579998838,1021.9575960074353,118.9046799618751,4.720720341228396,8.850893742437094,1.0,1022.163334834,0.0,1.0,121.5998046298604,8080.209385905779,1.0,1.0,-7.903935956052096,30.441167753753,-33.94855438397964,15.023857341376203,1.0,1022.2113578737584,0.0,0.0,-79.53184151321132,12.17607924548463
1.7750000000000001,1.7750000000000001,1.0,17.110465816115642,-1.2703251838706706,18.13673917456757,-6.708690866950367,-0.8842480016099618,1.1666343039460598,24.966438961204137,6.866546677610091,1.0,0.0,170.1734625619131,-2.096018579998838,1021.9575960074353,118.9046799618751,4.720720341228396,8.850893742437094,1.0,1022.163334834,0.0,1.0,121.98320370420164,8024.969356848561,1.0,1.0,-7.903935956052096,30.441167753753,-33.94855438397964,15.023857341376203,1.0,1022.2113578737584,0.0,0.0,-79.53184151321132,12.17607924548463
1.8,1.8,1.0,17.158855251132174,-1.7078981676877876,18.31664731313827,-6.761678379489714,-0.8477221779443107,1.048136807040387,25.15636695698313,6.894745692548066,1.0,0.0,195.7015202409762,0.7204750873732723,1022.6767093908645,121.69707460207265,2.7419991430562383,3.7315260288650665,1.0,1023.2103790453943,0.0,1.0,122.05919628490912,8283.846648526582,1.0,1.0,-13.61591377877893,28.678865898422107,-38.40393298072525,1.472672893937047,1.0,1022.058317410896,0.0,0.0,-79.53184151321132,12.17607924548463
1.8250000000000002,1.8250000000000002,1.0,17.44770685044567,-2.103854138369877,18.10360578742899,-6.804655501084239,-0.7188789141991209,0.9498049518427429,25.230719749568326,6.908129473906891,1.0,0.0,195.7015202409762,0.7204750873732723,1022.6767093908645,121.69707460207265,2.7419991430562383,3.7315260288650665,1.0,1023.2103790453943,0.0,1.0,122.53527898310121,8087.234038001502,1.0,1.0,-13.61591377877893,28.678865898422107,-38.40393298072525,1.472672893937047,1.0,1022.058317410896,0.0,0.0,-79.53184151321132,12.17607924548463
1.85,1.85,1.0,17.82937648834188,-2.5313796476706134,17.54567973548889,-6.842236587997099,-0.5157530859260725,0.8832909535807283,25.142502386676323,6.918266089161792,1.0,0.0,195.7015202409762,0.7204750873732723,1022.6767093908645,121.69707460207265,2.7419991430562383,3.7315260288650665,1.0,1022.6807020707452,0.0,1.0,122.11058397120351,8146.277566494176,1.0,1.0,-12.604656298892136,26.914744125840706,-37.76074890937594,-12.564678432066238,1.0,1022.5591003354541,0.0,0.0,-79.53184151321132,12.17607924548463
1.875,1.875,1.0,18.567591605116036,-2.8539804451425526,16.52660435034291,-6.869391988015501,-0.27424945006144297,0.8565879873422767,25.020577806046063,6.9280229521797665,1.0,0.0,195.7015202409762,0.7204750873732723,1022.6767093908645,121.69707460207265,2.7419991430562383,3.7315260288650665,1.0,1022.6807020707452,0.0,1.0,122.7986815821069,8348.175509839608,1.0,1.0,-12.604656298892136,26.914744125840706,-37.76074890937594,-12.564678432066238,1.0,1022.5591003354541,0.0,0.0,-79.53184151321132,12.17607924548463
1.9000000000000001,1.9000000000000001,1.0,19.57337765647203,-2.9653184857164105,15.069366159761763,-6.892403112255736,-0.03084506965131588,0.8670976156524262,24.879630685795618,6.94680000829335,1.0,0.0,195.7015202409762,0.7204750873732723,1022.6767093908645,121.69707460207265,2.7419991430562383,3.7315260288650665,1.0,1023.134102486665,0.0,1.0,123.71480365399003,8258.122719592404,1.0,1.0,-13.46981190585255,25.17865491079048,-32.37179200861406,-24.885930736279658,1.0,1022.4043946969415,0.0,1.0,61.00103038785328,-3.3258089884215214
1.925,1.925,1.0,20.241255017564967,-3.031625409503075,12.028932925026993,-6.904905152783575,0.1650932732988764,0.9176387441805602,23.74014289393478,6.967570008449645,1.0,0.0,195.7015202409762,0.7204750873732723,1022.6767093908645,121.69707460207265,2.7419991430562383,3.7315260288650665,1.0,1023.134102486665,0.0,1.0,122.43431985057849,8661.441912526006,1.0,1.0,-13.46981190585255,25.17865491079048,-32.37179200861406,-24.885930736279658,1.0,1022.4043946969415,0.0,1.0,61.00103038785328,-3.3258089884215214
1.9500000000000002,1.9500000000000002,1.0,20.68326498290773,-3.039193388075213,8.789520123107932,-6.93747834440597,0.1304834333363963,1.0148201195065876,22.677958699975985,7.012523909437487,1.0,0.0,195.7015202409762,0.7204750873732723,1022.6767093908645,121.69707460207265,2.7419991430562383,3.7315260288650665,1.0,1021.4903268953651,0.0,1.0,124.6389271286469,8678.679969049139,1.0,1.0,-9.905959759453962,24.091756537109223,-23.28419447260597,-34.49680161329516,1.0,1022.6983674550498,0.0,1.0,40.65008731381372,-0.6073064056195934
1.975,1.975,1.0,20.9035456611629,-2.814726108942863,6.497108343109635,-6.983113995620883,-0.11696531431292649,1.1117669620426816,22.07019078075203,7.072028544800861,1.0,0.0,195.7015202409762,0.7204750873732723,1022.6767093908645,121.69707460207265,2.7419991430562383,3.7315260288650665,1.0,1021.4903268953651,0.0,1.0,124.74473047039852,8499.96577298843,1.0,1.0,-9.905959759453962,24.091756537109223,-23.28419447260597,-34.49680161329516,1.0,1022.6983674550498,0.0,1.0,40.65008731381372,-0.6073064056195934
2.0,2.0,1.0,21.115780438473504,-2.4288950344524034,5.177386522106855,-7.03319952613428,-0.3914923523389914,1.176554148325978,21.876495281774492,7.141669377694437,1.0,0.0,218.43951937228042,-2.0477381895394817,1022.3694698590859,124.82270883152674,-0.910463849622944,1.7823095355448262,1.0,1022.5343865133808,0.0,1.0,124.95488567108497,8577.4749839742,1.0,1.0,-10.57486192698695,22.566230006432185,-11.250749619378224,-40.844529787640525,1.0,1022.7376228114107,0.0,1.0,20.560654211190435,1.6647357085233945
2.025,2.025,1.0,21.176401861524305,-2.103122976274337,4.616486163362194,-7.098289651274497,-0.6384148917000363,1.203182557992436,21.775561222402917,7.227789275787736,1.0,0.0,218.43951937228042,-2.0477381895394817,1022.3694698590859,124.82270883152674,-0.910463849622944,1.7823095355448262,1.0,1022.5343865133808,0.0,1.0,126.29142040816778,8603.808952803658,1.0,1.0,-10.57486192698695,22.566230006432185,-11.250749619378224,-40.844529787640525,1.0,1022.7376228114107,0.0,1.0,20.560654211190435,1.6647357085233945
2.0500000000000003,2.0500000000000003,1.0,21.18415746630544,-1.7755840355630348,4.855399051514732,-7.167347587091852,-0.7984446431957456,1.1941508697517067,21.805873662250292,7.309882460215632,1.0,0.0,218.43951937228042,-2.0477381895394817,1022.3694698590859,124.82270883152674,-0.910463849622944,1.7823095355448262,1.0,1023.1658966835615,0.0,1.0,126.06751592325566,8768.893314269442,1.0,1.0,-4.862971234644272,20.79550894602671,2.5388364856040417,-43.230033614122526,1.0,1023.0979418973072,0.0,1.0,-0.12006808881687395,3.8667055999978404
2.075,2.075,1.0,21.08061830848469,-1.498276086978596,5.498076081188032,-7.244616073354979,-0.8371697747375588,1.1504480298418553,21.837264940815363,7.383010629236183,1.0,0.0,218.43951937228042,-2.0477381895394817,1022.3694698590859,124.82270883152674,-0.910463849622944,1.7823095355448262,1.0,1023.1658966835615,0.0,1.0,126.9401673789195,8880.365174362969,1.0,1.0,-4.862971234644272,20.79550894602671,2.5388364856040417,-43.230033614122526,1.0,1023.0979418973072,0.0,1.0,-0.12006808881687395,3.8667055999978404
2.1,2.1,1.0,21.01316169636199,-1.3405600758208271,5.922471682400492,-7.328069734535862,-0.7853533465030519,1.0925989459532113,21.872945312032744,7.450581075982067,1.0,0.0,218.43951937228042,-2.0477381895394817,1022.3694698590859,124.82270883152674,-0.910463849622944,1.7823095355448262,1.0,1022.5216242166672,0.0,1.0,126.39553631738777,8855.80916658768,1.0,1.0,-4.339504721153531,19.558424678390903,16.721652186702126,-40.50766972969331,1.0,1022.834234296726,0.0,1.0,-20.96915970409972,5.881507449811031
2.125,2.125,1.0,20.856407495589984,-1.15346723742153,6.657188695736942,-7.419000461123759,-0.8054154827277548,1.0385866052404076,21.923466459950046,7.534515517175403,1.0,0.0,218.43951937228042,-2.0477381895394817,1022.3694698590859,124.82270883152674,-0.910463849622944,1.7823095355448262,1.0,1022.5216242166672,0.0,1.0,127.87122748061803,8901.293867674938,1.0,1.0,-4.339504721153531,19.558424678390903,16.721652186702126,-40.50766972969331,1.0,1022.834234296726,0.0,1.0,-20.96915970409972,5.881507449811031
2.15,2.15,1.0,20.67987200012574,-1.1734319657882564,7.581053131835843,-7.523593287194711,-0.8773348728646716,0.9778733496607551,22.056890422442514,7.637434694859428,1.0,0.0,218.43951937228042,-2.0477381895394817,1022.3694698590859,124.82270883152674,-0.910463849622944,1.7823095355448262,1.0,1022.8335029224157,0.0,1.0,128.4776407073259,9222.509832275216,1.0,1.0,-0.21753500486829458,19.201052546930544,29.517874139186,-32.55875883753855,1.0,1022.8943760302873,0.0,1.0,-42.061826084257085,6.541406411466033
2.1750000000000003,2.1750000000000003,1.0,20.47224997945511,-1.1613113525567937,8.88927319112534,-7.6397909835808635,-0.9760216355181801,0.9092046718814955,22.34906801513962,7.755364442834017,1.0,0.0,218.43951937228042,-2.0477381895394817,1022.3694698590859,124.82270883152674,-0.910463849622944,1.7823095355448262,1.0,1022.8335029224157,0.0,1.0,128.14508118966185,9079.692674935366,1.0,1.0,-0.21753500486829458,19.201052546930544,29.517874139186,-32.55875883753855,1.0,1022.8943760302873,0.0,1.0,-42.061826084257085,6.541406411466033
2.2,2.2,1.0,20.22973218817335,-1.4221734686765877,10.359190201822349,-7.772554156805069,-1.0842728737366554,0.8470090329341861,22.772295962808773,7.893394079042362,1.0,0.0,244.76399644547325,-1.6871286785293955,1023.6845517616189,128.62985165694636,-1.1086026651145986,1.30449607344262,1.0,1022.950368707289,0.0,1.0,128.66080572932364,9160.382169649707,1.0,1.0,3.846369001179562,19.40386880324385,38.95403355481387,-20.33235112788796,1.0,1023.1455444843423,0.0,1.0,-64.65117267415695,6.672296747771692
2.225,2.225,1.0,19.9485132461167,-1.8874359098782907,12.042413034417457,-7.919650471980107,-1.187927585920634,0.7686493102190215,23.377880715238046,8.045051728225626,1.0,0.0,244.76399644547325,-1.6871286785293955,1023.6845517616189,128.62985165694636,-1.1086026651145986,1.30449607344262,1.0,1022.950368707289,0.0,1.0,129.37178271898222,9111.025266076536,1.0,1.0,3.846369001179562,19.40386880324385,38.95403355481387,-20.33235112788796,1.0,1023.1455444843423,0.0,1.0,-64.65117267415695,6.672296747771692
2.25,2.25,1.0,19.71216909347134,-2.3167518162205445,13.652591031373474,-8.069041333415482,-1.281795279219505,0.7136168257369254,24.090043404226304,8.201321610092593,1.0,0.0,244.76399644547325,-1.6871286785293955,1023.6845517616189,128.62985165694636,-1.1086026651145986,1.30449607344262,1.0,1023.0096794433391,0.0,1.0,129.67192875720022,9061.198622749458,1.0,1.0,7.39042974727808,20.085996410233836,43.332211431465005,-4.920295143909784,1.0,1023.0204276447502,0.0,0.0,-64.65117267415695,6.672296747771692
2.275,2.275,1.0,19.5108218107162,-2.9791885177367172,15.093257377488873,-8.235148191026674,-1.3777091473120637,0.6589336234537518,24.846612449524297,8.375556204985738,1.0,0.0,244.76399644547325,-1.6871286785293955,1023.6845517616189,128.62985165694636,-1.1086026651145986,1.30449607344262,1.0,1023.0096794433391,0.0,1.0,129.84762646825325,9495.189659849773,1.0,1.0,7.39042974727808,20.085996410233836,43.332211431465005,-4.920295143909784,1.0,1023.0204276447502,0.0,0.0,-64.65117267415695,6.672296747771692
2.3000000000000003,2.3000000000000003,1.0,19.22899581685592,-3.844420737520793,15.98601944183947,-8.411773770869946,-1.4656217534126956,0.6324674574718498,25.29993416051931,8.56189232478037,1.0,0.0,244.76399644547325,-1.6871286785293955,1023.6845517616189,128.62985165694636,-1.1086026651145986,1.30449607344262,1.0,1023.7723396665202,0.0,1.0,130.78208005917173,9435.215872314053,1.0,1.0,14.17727945797976,21.744176114478943,41.24494646967787,11.416057642404281,1.0,1022.8936249392137,0.0,0.0,-64.65117267415695,6.672296747771692
2.325,2.325,1.0,18.82747058239877,-4.740834274167465,16.46599977439464,-8.595626558154013,-1.5352363734781371,0.6354775210793554,25.457382165426523,8.754746045973583,1.0,0.0,244.76399644547325,-1.6871286785293955,1023.6845517616189,128.62985165694636,-1.1086026651145986,1.30449607344262,1.0,1023.7723396665202,0.0,1.0,130.43959623599645,9526.136581818808,1.0,1.0,14.17727945797976,21.744176114478943,41.24494646967787,11.416057642404281,1.0,1022.8936249392137,0.0,0.0,-64.65117267415695,6.672296747771692
2.35,2.35,1.0,18.715580580368897,-5.46104888534532,16.753190796184693,-8.791166078808462,-1.6037393139976055,0.6555741405095993,25.70535767581887,8.96026552431115,1.0,0.0,244.76399644547325,-1.6871286785293955,1023.6845517616189,128.62985165694636,-1.1086026651145986,1.30449607344262,1.0,1023.1510711997721,0.0,1.0,131.68542505065744,9738.486040256392,1.0,1.0,16.936704407904546,24.402109666648826,32.25775815063685,25.77703904899485,1.0,1023.4522675527969,0.0,0.0,-64.65117267415695,6.672296747771692
2.375,2.375,1.0,18.824329659171635,-6.109222857635779,16.727543845515694,-9.003403669485573,-1.6700560293176256,0.693314877031838,25.91309927710459,9.183193904926549,1.0,0.0,244.76399644547325,-1.6871286785293955,1023.6845517616189,128.62985165694636,-1.1086026651145986,1.30449607344262,1.0,1023.1510711997721,0.0,1.0,131.42111207439348,9727.488240601766,1.0,1.0,16.936704407904546,24.402109666648826,32.25775815063685,25.77703904899485,1.0,1023.4522675527969,0.0,0.0,-64.65117267415695,6.672296747771692
2.4000000000000004,2.4000000000000004,1.0,19.133556418507432,-6.487018186047092,16.393002762760847,-9.074171696660853,-1.7516465838105446,0.7460785918651319,26.017396598164805,9.271757708239335,1.0,0.0,269.53920228243277,0.5379366522307957,1022.3515664546918,131.9983433595739,2.6676873325214876,-1.1782163697829962,1.0,1023.6260107529972,0.0,1.0,131.63517555865187,9688.65165704589,1.0,1.0,15.977741867064774,27.989378616074564,17.406526528007696,34.87281407085518,1.0,1023.6330306565925,0.0,0.0,-64.65117267415695,6.672296747771692
2.4250000000000003,2.4250000000000003,1.0,19.33233582163291,-6.928796399164343,15.990873307902532,-9.07753539102184,-1.8529138081722254,0.7903661368139324,26.027974508417927,9.298366361140623,1.0,0.0,269.53920228243277,0.5379366522307957,1022.3515664546918,131.9983433595739,2.6676873325214876,-1.1782163697829962,1.0,1023.6260107529972,0.0,1.0,132.51483981130718,9676.625425325929,1.0,1.0,15.977741867064774,27.989378616074564,17.406526528007696,34.87281407085518,1.0,1023.6330306565925,0.0,0.0,-64.65117267415695,6.672296747771692
2.45,2.45,1.0,19.55826470719817,-7.236177159093137,14.930151581321258,-9.074424651376521,-1.9825555420707885,0.8347002757961401,25.647561374833366,9.3259012315872,1.0,0.0,269.53920228243277,0.5379366522307957,1022.3515664546918,131.9983433595739,2.6676873325214876,-1.1782163697829962,1.0,1021.7213710001544,0.0,1.0,132.51604758700083,9715.541064615969,1.0,1.0,13.937696264182797,31.759823968444415,-0.07197842559890823,36.00933209657327,1.0,1022.9216555654523,0.0,0.0,-64.65117267415695,6.672296747771692
2.475,2.475,1.0,19.596438096109665,-7.42861722489224,14.14262830132239,-9.074541818194945,-2.164858853156335,0.8691395559794617,25.282774278112537,9.369595862790794,1.0,0.0,269.53920228243277,0.5379366522307957,1022.3515664546918,131.9983433595739,2.6676873325214876,-1.1782163697829962,1.0,1021.7213710001544,0.0,1.0,133.6640034073527,9818.630809544353,1.0,1.0,13.937696264182797,31.759823968444415,-0.07197842559890823,36.00933209657327,1.0,1022.9216555654523,0.0,0.0,-64.65117267415695,6.672296747771692
2.5,2.5,1.0,19.695151550612653,-7.549681638881042,13.643155801052048,-9.072132922690086,-2.378916274845049,0.8787429700779995,25.120358032118844,9.41992715561758,1.0,0.0,269.53920228243277,0.5379366522307957,1022.3515664546918,131.9983433595739,2.6676873325214876,-1.1782163697829962,1.0,1023.7895329952952,0.0,1.0,132.80098990941042,9903.400268702424,1.0,1.0,7.828630552581224,35.063445885962714,-16.387031077724355,28.335124434956985,1.0,1022.9105060766241,0.0,0.0,-64.65117267415695,6.672296747771692
2.5250000000000004,2.5250000000000004,1.0,19.694843708376176,-7.65004554633558,13.566390018056008,-9.078543671438457,-2.6101636503329098,0.8573834880424412,25.108902876875828,9.485147121753162,1.0,0.0,269.53920228243277,0.5379366522307957,1022.3515664546918,131.9983433595739,2.6676873325214876,-1.1782163697829962,1.0,1023.7895329952952,0.0,1.0,134.07362468814298,9827.752948321,1.0,1.0,7.828630552581224,35.063445885962714,-16.387031077724355,28.335124434956985,1.0,1022.9105060766241,0.0,0.0,-64.65117267415695,6.672296747771692
2.5500000000000003,2.5500000000000003,1.0,19.675804710724442,-7.818578431512222,13.781298324512017,-9.075202160085363,-2.8142821049713884,0.8010521431760925,25.262455209529257,9.53525891357268,1.0,0.0,269.53920228243277,0.5379366522307957,1022.3515664546918,131.9983433595739,2.6676873325214876,-1.1782163697829962,1.0,1022.9171884179775,0.0,1.0,134.64831092488498,10101.14819830631,1.0,1.0,1.96069202879012,37.015943666048905,-27.486293787049263,13.2844669147927,1.0,1022.9332255248137,0.0,0.0,-64.65117267415695,6.672296747771692
2.575,2.575,1.0,19.6480912329834,-8.152614558692328,14.351455361210029,-9.074297573429314,-2.9817112075308914,0.7097049774360349,25.660804434527094,9.577951729428268,1.0,0.0,269.53920228243277,0.5379366522307957,1022.3515664546918,131.9983433595739,2.6676873325214876,-1.1782163697829962,1.0,1022.9171884179775,0.0,1.0,134.99965285379744,10004.90248927042,1.0,1.0,1.96069202879012,37.015943666048905,-27.486293787049263,13.2844669147927,1.0,1022.9332255248137,0.0,0.0,-64.65117267415695,6.672296747771692
2.6,2.6,1.0,19.544218961404848,-8.554324069497213,14.810461251932688,-9.07632347229114,-3.0969612836272344,0.605085023264485,25.971190145858078,9.609211458352247,1.0,0.0,296.69876754144485,-0.1293181216065511,1019.3188906062556,134.90193012665165,2.7536059048067165,-6.6040278569249615,1.0,1023.6054513513101,0.0,1.0,134.6131589959555,9955.883659687983,1.0,1.0,-9.64615219200819,36.681701494249495,-30.520516345790497,-5.783120961600627,1.0,1022.0396977522288,0.0,0.0,-64.65117267415695,6.672296747771692
2.625,2.625,1.0,19.58276951000483,-8.98372791823256,15.01656555256204,-9.080867823518856,-3.1612120504131367,0.4872038263234074,26.261939570130743,9.62770946924976,1.0,0.0,296.69876754144485,-0.1293181216065511,1019.3188906062556,134.90193012665165,2.7536059048067165,-6.6040278569249615,1.0,1023.6054513513101,0.0,1.0,134.87574001615837,10079.600575976778,1.0,1.0,-9.64615219200819,36.681701494249495,-30.520516345790497,-5.783120961600627,1.0,1022.0396977522288,0.0,0.0,-64.65117267415695,6.672296747771692
2.6500000000000004,2.6500000000000004,1.0,19.624251570835597,-9.431390081050846,14.958846085475392,-9.077402422370135,-3.2010541049832635,0.3735187992899961,26.4164616250044,9.632522951652097,1.0,0.0,296.69876754144485,-0.1293181216065511,1019.3188906062556,134.90193012665165,2.7536059048067165,-6.6040278569249615,1.0,1022.0165741692853,0.0,1.0,136.53103380166576,10387.917552172765,1.0,1.0,-18.50115788784066,33.58215498233859,-24.351583949869728,-24.006593156556644,1.0,1022.0757481461972,0.0,1.0,57.169995612862195,-15.969989130888333
2.6750000000000003,2.6750000000000003,1.0,19.81734431245133,-10.014271909926347,14.261315145586076,-9.078858191789465,-3.1167427385583473,0.27059487575294877,26.389351776159828,9.60275861155338,1.0,0.0,296.69876754144485,-0.1293181216065511,1019.3188906062556,134.90193012665165,2.7536059048067165,-6.6040278569249615,1.0,1022.0165741692853,0.0,1.0,136.43426834520656,10396.568645821131,1.0,1.0,-18.50115788784066,33.58215498233859,-24.351583949869728,-24.006593156556644,1.0,1022.0757481461972,0.0,1.0,57.169995612862195,-15.969989130888333
2.7,2.7,1.0,19.99060570460574,-10.396540678970037,12.302215368384482,-9.075442924331691,-2.9747295761753523,0.19771403820340372,25.67210309843371,9.552579293838772,1.0,0.0,296.69876754144485,-0.1293181216065511,1019.3188906062556,134.90193012665165,2.7536059048067165,-6.6040278569249615,1.0,1022.4258727865108,0.0,1.0,136.88457606339864,10412.747720189362,1.0,1.0,-25.612548692689806,28.785227565182915,-10.71395596332699,-37.056641972215004,1.0,1021.5029838314495,0.0,1.0,30.103869501738345,-9.050928931027055
2.725,2.725,1.0,20.48089853095784,-10.569557247552432,9.671059765750337,-9.076985247058579,-2.841071591092735,0.16302904455123568,24.99424217769753,9.512619377984205,1.0,0.0,296.69876754144485,-0.1293181216065511,1019.3188906062556,134.90193012665165,2.7536059048067165,-6.6040278569249615,1.0,1022.4258727865108,0.0,1.0,136.12697093150442,10527.325222848438,1.0,1.0,-25.612548692689806,28.785227565182915,-10.71395596332699,-37.056641972215004,1.0,1021.5029838314495,0.0,1.0,30.103869501738345,-9.050928931027055
2.75,2.75,1.0,20.913693188853795,-10.710207695366714,6.2704806068403505,-9.073988104817616,-2.7687467610266645,0.16176515237770916,24.31892346951573,9.48838167010534,1.0,0.0,296.69876754144485,-0.1293181216065511,1019.3188906062556,134.90193012665165,2.7536059048067165,-6.6040278569249615,1.0,1021.7383406027474,0.0,1.0,136.43538982539386,10340.338203839856,1.0,1.0,-23.254154429417163,23.140775541428606,7.1836112903442535,-41.41517205219595,1.0,1021.3738347326424,0.0,1.0,4.143358977449571,-2.104319879452862
2.7750000000000004,2.7750000000000004,1.0,21.37625734985661,-10.497868497943195,2.7592750037067524,-9.07984808923888,-2.787386852765608,0.17352455764979485,23.974219900415687,9.499646180923428,1.0,0.0,296.69876754144485,-0.1293181216065511,1019.3188906062556,134.90193012665165,2.7536059048067165,-6.6040278569249615,1.0,1021.7383406027474,0.0,1.0,137.64838713978634,10516.079130335973,1.0,1.0,-23.254154429417163,23.140775541428606,7.1836112903442535,-41.41517205219595,1.0,1021.3738347326424,0.0,1.0,4.143358977449571,-2.104319879452862
2.8000000000000003,2.8000000000000003,1.0,21.79285041137703,-10.25880016315269,-0.2843527633487186,-9.076458650120058,-2.897078490162191,0.17786832774448796,24.088423907225266,9.529260335803313,1.0,0.0,324.01743617332573,1.5903349973238152,1019.0610587561594,137.59623637584366,-1.269233749720718,-8.827204301521112,1.0,1021.2986060761394,0.0,1.0,137.89346204884768,10481.594860707131,1.0,1.0,-23.06406030694517,17.570061375764997,25.047459506556976,-37.023533022105106,1.0,1020.5725077238591,0.0,1.0,-21.191724492846834,5.778759729925624
2.825,2.825,1.0,21.74673125324243,-10.263574847848657,-2.522601474395071,-9.077787538210806,-3.0746527253080087,0.16789168995067685,24.179015841360517,9.5858178362461,1.0,0.0,324.01743617332573,1.5903349973238152,1019.0610587561594,137.59623637584366,-1.269233749720718,-8.827204301521112,1.0,1021.2986060761394,0.0,1.0,139.06227721683902,10670.142378987348,1.0,1.0,-23.06406030694517,17.570061375764997,25.047459506556976,-37.023533022105106,1.0,1020.5725077238591,0.0,1.0,-21.191724492846834,5.778759729925624
