time_s,x_m,y_m,altitude_m,vx_mps,vy_mps,vz_mps,speed_mps,mass_kg,roll_deg,pitch_deg,yaw_deg,p_dps,q_dps,r_dps,alpha_deg,beta_deg,qbar_pa,mach,airspeed_mps,load_factor_g,density_kgpm3,pressure_pa,temperature_k,wind_x_mps,wind_y_mps,wind_z_mps,thrust_n,mass_flow_kgps,propulsion_throttle_actual,propulsion_health,energy_j_per_kg,target_distance_m,guidance_mode,pitch_command_deg,heading_command_deg,roll_command_deg
0.0,0.0,0.0,1000.0,92.0,0.0,14.0,93.05912099305473,18.0,0.0,8.000000000000004,0.0,0.0,0.0,0.0,-0.6525417911147219,0.0,4813.4120263251225,0.2766044123965224,93.05912099305475,1.8255010316395077,1.1116425003060326,89874.56291621955,281.65,0.0,0.0,0.0,342.0,0.1835489183360271,0.9,nominal,14136.65,nan,fixed_pitch,26.0,12.000000000000002,0.0
0.025,2.3111251333924625,4.645338431329378e-05,1000.3450635993931,92.4450053356985,0.001858135372531751,13.80254397572591,93.46972362841264,17.9954112770416,0.0013615355553477592,8.117163664792285,-0.00971237832743065,0.0,-4.6865527945085415,-0.3846033604636813,-0.3746792923985618,0.01075381796489586,4855.817375890151,0.2778259739640994,93.46972362841265,1.8557093828085274,1.1116048254487132,89870.80127295671,281.6477570866039,0.0,0.0,0.0,347.0625,0.1862659253508696,0.9,nominal,14178.328535532908,nan,fixed_pitch,26.0,12.000000000000002,0.0
0.05,4.633548963941853,0.0001832697551670443,1000.6853028999727,92.89695322197561,0.00547265483415002,13.609572023184688,93.88857437691834,17.99075462890783,0.005490918700875247,8.405993189200307,-0.03887047713628621,-0.0024173422768333603,-11.553274435113364,-1.1535330921674785,0.07135015425342368,0.041792805690641435,4899.270333664466,0.27907204621460624,93.88857437691833,1.8857664409916801,1.1115676782761563,89867.09234566866,281.64554553115016,0.0,0.0,0.0,352.125,0.18898293236571212,0.9,nominal,14220.90272494908,nan,fixed_pitch,26.0,12.000000000000002,0.0
0.07500000000000001,6.967427953842465,0.00044846147996601527,1001.0209491968529,93.35515959602452,0.010607668991958839,13.425851875206508,94.31563727344918,17.986030055598686,0.013975307367063799,8.90693664014,-0.09713536035939543,-0.01140501229840838,-20.038256737944007,-2.30066467629043,0.7230820759472484,0.10241385397746837,4943.778493903454,0.2803425230745056,94.3156372734492,1.9057833657629921,1.1115310334962099,89863.43360787148,281.64336383022044,0.0,0.0,0.0,357.1875,0.19169993938055463,0.9,nominal,14264.381808589736,nan,fixed_pitch,26.0,12.000000000000002,0.0
0.1,9.312825818888635,0.0008706847932724829,1001.3524003578723,93.8159146018468,0.016888932532258705,13.258046440772715,94.7480971484005,17.981237557114174,0.028773540876562417,9.63971314379808,-0.19402272722986097,-0.03259766213325942,-29.31288427427302,-3.813989297060596,1.5960018190165952,0.20152547416619365,4989.056836372481,0.28162903811427936,94.74809714840052,1.9258726177536438,1.11149484763462,89859.82071783482,281.64120939767383,0.0,0.0,0.0,362.25,0.19441694639539714,0.9,nominal,14308.513473590898,nan,fixed_pitch,26.0,12.000000000000002,0.0
0.125,11.66973055087818,0.001465754196302562,1001.6803503061476,94.27618927958179,0.023802776121203163,13.117997931011674,95.18446460095107,17.97637713345429,0.05218145357828961,10.450113493692355,-0.3386989904382777,-0.07308718915724814,-32.420571341877,-5.675585534114206,2.528761026152886,0.3474928102978865,5034.955210704988,0.28292716648809724,95.18446460095107,1.949713787206868,1.111459044901568,89856.24610754248,281.63907772301,0.0,0.0,0.0,367.3125,0.19713395341023965,0.9,nominal,14353.169758014636,nan,fixed_pitch,26.0,12.000000000000002,0.0
0.15000000000000002,14.038095165297223,0.002219874753830104,1002.0055569173555,94.73458457676175,0.030164822301101683,13.008264448315236,95.62351891038853,17.97144878461903,0.08621859952133226,11.183061624625982,-0.5368831551668041,-0.12624071684555294,-29.327706648879936,-7.751271984053873,3.364976385432922,0.5449061549800724,5081.349174629496,0.2842332821612833,95.62351891038853,1.9771678867740732,1.111423542533523,89852.70151295759,281.6369638800372,0.0,0.0,0.0,372.375,0.19985096042508213,0.9,nominal,14398.246479146299,nan,fixed_pitch,26.0,12.000000000000002,0.0
0.17500000000000002,16.417880407583116,0.0030897123436358347,1002.3286873264797,95.19140969143575,0.03479350359222922,12.925216364963605,96.06490986677593,17.966452510608406,0.13156547577203354,11.745285064694214,-0.7910958377851806,-0.2071957090077289,-22.508015461804177,-9.92301345718139,4.01394211286701,0.7954465437350489,5128.204924956351,0.2855463463229979,96.06490986677592,2.0052558545102417,1.1113882676809426,89849.1796601104,281.63486353237784,0.0,0.0,0.0,377.4375,0.20256796743992464,0.9,nominal,14443.720075426112,nan,fixed_pitch,26.0,12.000000000000002,0.0
0.2,18.809092417758862,0.004006932563222302,1002.6502164117945,95.6484804070298,0.03668880878345866,12.861163412595747,96.50928802228387,17.961388311422407,0.18762201249047222,12.14861100304421,-1.1019616087098163,-0.3318025189898382,-16.16692495918507,-12.120411368005618,4.492550497044965,1.0992225711216308,5175.595418909785,0.2868682942574234,96.50928802228388,2.032989917507593,1.1113531684886242,89845.67537131063,281.6327735933233,0.0,0.0,0.0,382.5,0.20528497445476715,0.9,nominal,14489.661082058796,nan,fixed_pitch,26.0,12.000000000000002,0.0
0.225,21.211779806154503,0.004880217677363433,1002.9704740071234,96.10749553582558,0.03493140456564523,12.810303813155159,96.95749482199453,17.956256187061037,0.25294650804295227,12.452651152246824,-1.4689568799697932,-0.514445148693578,-12.2166856970058,-14.296042512924618,4.864281133791804,1.4552837561108105,5223.615550365036,0.2882016282433541,96.95749482199453,2.060633998394059,1.1113182089394187,89842.18505027119,281.6306919189537,0.0,0.0,0.0,387.5625,0.20800198146960966,0.9,nominal,14536.158300000503,nan,fixed_pitch,26.0,12.000000000000002,0.0
0.25,23.62601506817693,0.005596255423217401,1003.2897168614637,96.56941048089705,0.028641509834158727,12.769714173614913,97.4100480496745,17.951056137524297,0.32567589352570847,12.72128349124252,-1.8907950983143238,-0.7679509977910906,-10.828327221401205,-16.4136434932192,5.195059836608061,1.8618596426228229,5272.32691582954,0.28954788829999106,97.4100480496745,2.0890925233692843,1.1112833609973947,89838.70589763943,281.62861684040047,0.0,0.0,0.0,392.625,0.21071898848445217,0.9,nominal,14583.26983237942,nan,fixed_pitch,26.0,12.000000000000002,0.0
0.275,26.05187215314178,0.006020450150523802,1003.6081990630668,97.03428339859404,0.016967789092256044,12.739288064122153,97.86696022133933,17.945788162812185,0.40367312068837113,12.98856850155814,-2.3654634208550442,-1.104374718483065,-10.809016546297784,-18.442585333943114,5.519214765454224,2.3164919796877532,5321.737250524602,0.2909071125794638,97.86696022133933,2.1188663319946284,1.111248596919774,89835.23514341371,281.62654670609004,0.0,0.0,0.0,397.6875,0.21343599549929468,0.9,nominal,14631.00529682443,nan,fixed_pitch,26.0,12.000000000000002,0.0
0.30000000000000004,28.48941468587877,0.005997641578228798,1003.9262028577289,97.50170130947961,-0.0009123428918001615,12.720151786482491,98.32794119957207,17.940452262924705,0.48434194594936086,13.251633712118876,-2.8900828891122243,-1.536688915731818,-10.680680076716882,-20.355030251043633,5.833311760251988,2.8161201348078997,5371.821288888681,0.2922784397115094,98.32794119957205,2.149526912287387,1.1112138858930103,89831.76971110037,281.62447968142476,0.0,0.0,0.0,402.75,0.2161530025141372,0.9,nominal,14679.344907527997,nan,fixed_pitch,26.0,12.000000000000002,0.0
0.325,30.938699509738523,0.005352865472054347,1004.2440213799639,97.97139295439011,-0.025791044246978038,12.712740889403426,98.79275420557215,17.93504843786185,0.5643523321500353,13.492289719159318,-3.460882491430609,-2.0800325979256873,-9.829129156193623,-22.12418591858098,6.118886563631669,3.357123785737948,5422.559078318917,0.293661166975836,98.79275420557215,2.1803581192201698,1.1111791959180184,89828.30640593733,281.6224138610302,0.0,0.0,0.0,407.8125,0.2188700095289797,0.9,nominal,14728.27377402712,nan,fixed_pitch,26.0,12.000000000000002,0.0
0.35000000000000003,33.399785458231996,0.0038922089146470567,1004.561930218555,98.44343793973881,-0.05842626229629161,12.716353543643992,99.26136979948585,17.929576687623626,0.6395252220275318,13.697351883496296,-4.073310168295008,-2.7512949451314563,-8.452187038551017,-23.723517362025046,6.362966183598958,3.935334199716931,5473.953102405848,0.29505520791725426,99.26136979948585,2.2108689284488157,1.1111444969138258,89824.84222475078,281.62034745357937,0.0,0.0,0.0,412.875,0.2215870165438222,0.9,nominal,14777.79702021293,nan,fixed_pitch,26.0,12.000000000000002,0.0
0.375,35.87273919691001,0.0014038796792252097,1004.8801711387983,98.91814954712055,-0.09953316941687387,12.729636809735645,99.73391534471158,17.924037012210032,0.7049015952996751,13.866343810833238,-4.722179842149693,-3.5681141072891247,-7.0549525898972725,-25.126785150615223,6.565412606211154,4.54603921559381,5526.023220521174,0.29646094208195467,99.73391534471159,2.241012171141589,1.1111097624939568,89821.37453329175,281.6182788875978,0.0,0.0,0.0,417.9375,0.2243040235586647,0.9,nominal,14827.935065291345,nan,fixed_pitch,26.0,12.000000000000002,0.0
0.4,38.357635223567236,-0.002340355728878673,1005.1989533328864,99.39584106628894,-0.1497694163241553,12.751287763520663,100.2105333374748,17.918429411621066,0.7548761491554267,14.007799672169039,-5.401747342340463,-4.5482148947168595,-5.993855425808255,-26.308560973518844,6.734752989790195,5.184004943971438,5578.791305108391,0.29787879390841115,100.21053333747481,2.2710282710857874,1.1110749698295255,89817.9010525548,281.61620680333624,0.0,0.0,0.0,423.0,0.2270210305735072,0.9,nominal,14878.709811592522,nan,fixed_pitch,26.0,12.000000000000002,0.0
0.42500000000000004,40.854552038196815,-0.007583278434579685,1005.5184644529767,99.87667258518319,-0.20971690822804046,12.780444803612276,100.69127805946083,17.912753885856727,0.7832744362767586,14.13163126016992,-6.105698638398507,-5.709444709962826,-5.319435209966771,-27.244733027571378,6.880275328907298,5.843517920614512,5632.26972033284,0.29930892555972183,100.69127805946083,2.2732925769067984,1.1110400984446869,89814.41973851188,281.6141299810556,0.0,0.0,0.0,422.97039473684214,0.22700514164359586,0.9,nominal,14930.134388051614,nan,fixed_pitch,26.0,12.000000000000002,0.0
0.45,43.36339681470219,-0.01456157092210833,1005.8388376964676,100.3537910602152,-0.2791316995011458,12.814929739637664,101.16908479814792,17.907078757315638,0.783340405731475,14.244029863964558,-6.827113660330559,-7.070253449183942,-4.877992345221869,-27.91270551975352,7.007399404392911,6.518838685690443,5685.6708285829,0.30073033744683053,101.1690847981479,2.275882350770839,1.1110051338085445,89810.92914069098,281.61204755497295,0.0,0.0,0.0,422.9407894736842,0.2269892527136845,0.9,nominal,14981.501297143486,nan,fixed_pitch,26.0,12.000000000000002,0.0
0.47500000000000003,45.88407477125778,-0.023523966738800195,1006.1601985271499,100.82711826222338,-0.3584958326676746,12.854433227290874,101.64385249448831,17.901404025997795,0.747319734767238,14.346893670065475,-7.557010369192086,-8.650041330672671,-4.4920916698183015,-28.234753602772113,7.116230529752716,7.2019606386493695,5738.978461982779,0.30214272954866367,101.64385249448831,2.2787316269183964,1.1109700622356085,89807.42789306137,281.6099587095735,0.0,0.0,0.0,422.91118421052636,0.22697336378377314,0.9,nominal,15032.797285846922,nan,fixed_pitch,26.0,12.000000000000002,0.0
0.5,48.416489375643174,-0.034728305595371545,1006.482663569967,101.29658417541572,-0.4481735542628538,12.898601712685561,102.1154873233454,17.895729691903203,0.6663789456503839,14.440124836329263,-8.284289673600624,-10.469231487434522,-4.076593401209848,-28.130314634533097,7.204432984619404,7.88300963902912,5792.177094678555,0.3035458233196693,102.11548732334542,2.2816709425362816,1.1109348710063245,89803.91472606323,281.6078626867952,0.0,0.0,0.0,422.88157894736844,0.22695747485386178,0.9,nominal,15084.009588340574,nan,fixed_pitch,26.0,12.000000000000002,0.0
0.525,50.960544439299134,-0.04843289728397822,1006.8063376612296,101.7622025462383,-0.5481836675442668,12.946963650502555,102.58396677923126,17.890055755031856,0.5308399962614195,14.52403504407178,-8.996797233001125,-12.548952878926068,-3.644535169951068,-27.55859179342404,7.269734505070353,8.551341512721264,5845.259170218576,0.30493955217925406,102.58396677923128,2.284552699128842,1.1108995486888662,89800.38849872885,281.60575880520196,0.0,0.0,0.0,422.8519736842105,0.22694158592395042,0.9,nominal,15135.132491306707,nan,fixed_pitch,26.0,12.000000000000002,0.0
0.55,53.516146196534145,-0.06488946279078112,1007.1313119975523,102.22407028940043,-0.658262620272116,12.998973452911072,103.04934336054265,17.884382215383756,0.3303489236124544,14.600307468255334,-9.68197221190738,-14.910726357146931,-3.2501801470030527,-26.50331486228977,7.310955403596358,9.19609379898444,5898.225711047953,0.30632407245985294,103.04934336054264,2.2872800601370367,1.110864085340994,89796.84821882946,281.6036464720159,0.0,0.0,0.0,422.8223684210526,0.22692569699403903,0.9,nominal,15186.167864320305,nan,fixed_pitch,26.0,12.000000000000002,0.0
0.5750000000000001,56.08320498910425,-0.08433688948539637,1007.4576641954463,102.68235170280434,-0.7778970677846101,13.054087915763455,103.51173694986939,17.878709072958905,0.053996305270627314,14.671567227875592,-10.327272727072945,-17.576342029378463,-2.9341594676364804,-24.965169442043088,7.327668345022033,9.806566889298391,5951.085634691623,0.3076997407597821,103.51173694986937,2.2897793447701367,1.1108284725033726,89793.2930422028,281.6015251827296,0.0,0.0,0.0,422.79276315789474,0.2269098080641277,0.9,nominal,15237.124545771752,nan,fixed_pitch,26.0,12.000000000000002,0.0
0.6000000000000001,58.66163680617839,-0.10699548551859984,1007.7854593524627,103.13727268296564,-0.9063438413281388,13.111806280654372,103.97133229684292,17.8730363277573,-0.3096038228274027,14.740477413742315,-10.920490355894353,-20.567954486269258,-2.705230122731292,-22.957890094188276,7.319442081063383,10.372513346741753,6003.85563167152,0.30906710646713775,103.97133229684292,2.2919611413162313,1.1107927030836104,89789.72226117195,281.599394514209,0.0,0.0,0.0,422.7631578947369,0.22689391913421636,0.9,nominal,15288.018244749093,nan,fixed_pitch,26.0,12.000000000000002,0.0
0.625,61.25136506828383,-0.13306166567691827,1008.1147508810528,103.58913048421766,-1.0426472063327372,13.171661143604908,104.42838562840612,17.867363979778947,-0.7722656964160551,14.809163416463566,-11.450014178948882,-23.90831322472964,-2.5539930267599305,-20.506056325944655,7.285472777654265,10.884370173030106,6056.561091544089,0.3104269314153298,104.42838562840612,2.2937064063276718,1.1107567712651116,89786.1352954412,281.59725411927315,0.0,0.0,0.0,422.73355263157896,0.22687803020430497,0.9,nominal,15338.872384205226,nan,fixed_pitch,26.0,12.000000000000002,0.0
0.65,63.85232279002763,-0.16270310823449863,1008.4455805563368,104.03830886975172,-1.185657702303214,13.233187011358613,104.88323381333396,17.86169202902384,-1.3462032089271814,14.879181273841553,-11.905064339793931,-27.62104986732324,-2.475024018040275,-17.643710256918116,7.22479515924702,11.33345312927018,6109.237344313831,0.31178021712926207,104.88323381333396,2.294882546914204,1.110720672501713,89782.5316915563,281.5951037263838,0.0,0.0,0.0,422.7039473684211,0.22686214127439364,0.9,nominal,15389.71922013404,nan,fixed_pitch,26.0,12.000000000000002,0.0
0.675,66.46445493578202,-0.19605443765429423,1008.777978000214,104.48528583017533,-1.3340531767918242,13.295897755086578,105.33629740030575,17.85602047549198,-2.0440161843867073,14.951780358673888,-12.275893609980898,-31.731006631187736,-2.478754928535117,-14.413413124936435,7.136795756132053,11.712127958668878,6161.93021078543,0.31312821385838324,105.33629740030575,2.2953720297052724,1.1106844035738193,89778.9111285033,281.5929431429986,0.0,0.0,0.0,422.6743421052631,0.22684625234448222,0.9,nominal,15440.60033295863,nan,fixed_pitch,26.0,12.000000000000002,0.0
0.7000000000000001,69.08772063159043,-0.23321346442338817,1009.1119601487947,104.93062783233633,-1.4863610707637573,13.359285943222854,105.78807327593101,17.85034931918337,-2.8786928206657962,15.028121791142278,-12.55395410409431,-36.264637756392055,-2.589515956387281,-10.865527332512285,7.02166942975726,12.013969864110107,6214.695341040187,0.3144723987535338,105.78807327593101,2.295094534147863,1.110647962646352,89775.27342348841,281.5907722590328,0.0,0.0,0.0,422.64473684210526,0.22683036341457088,0.9,nominal,15491.56602771005,nan,fixed_pitch,26.0,12.000000000000002,0.0
0.7250000000000001,71.7220949408037,-0.2742379929792452,1009.447531102203,105.37497236853082,-1.6409811422342822,13.422838136335084,106.23911805174238,17.844678560098004,-3.8636313864739495,15.109294451879904,-12.732033202266068,-41.25051813888116,-2.836935457296647,-7.057553164155443,6.8806492470840475,12.233917043925164,6267.596436782227,0.31581442648494246,106.2391180517424,2.2940154897123226,1.1106113492849672,89771.61853355175,281.5885910478357,0.0,0.0,0.0,422.6151315789474,0.22681447448465955,0.9,nominal,15542.673733089447,nan,fixed_pitch,26.0,12.000000000000002,0.0
0.75,74.36757003868475,-0.3191432055130158,1009.7846824424727,105.81900391524185,-1.7962085013508229,13.48605361078818,106.69002575961517,17.839008198235888,-5.012683234891286,15.196179052630523,-12.804364718886669,-46.71997030637098,-3.249027002656242,-3.053390564586811,6.716050980944734,12.368418881941023,6320.7027510201415,0.3171560629415775,106.69002575961517,2.2921450750968657,1.1105745644211935,89767.94655208173,281.5863995641239,0.0,0.0,0.0,422.5855263157895,0.2267985855547482,0.9,nominal,15593.985754368148,nan,fixed_pitch,26.0,12.000000000000002,0.0
0.775,77.02415571990201,-0.36789963180993906,1010.1233939078006,106.26342724869087,-1.9502570518769304,13.548458613116944,107.14140284688061,17.83333823359702,-6.340218515590371,15.28929268159566,-12.766715645631349,-52.70780300712583,-3.8502522911905586,1.0775332373737219,6.531253358620069,12.41557724180349,6374.086202733517,0.31849911090313676,107.1414028468806,2.2895345921541432,1.1105376102787003,89764.25770144993,281.5841979395993,0.0,0.0,0.0,422.5559210526316,0.22678269662483683,0.9,nominal,15645.566682864712,nan,fixed_pitch,26.0,12.000000000000002,0.0
0.8,79.69187920739968,-0.42043170539973285,1010.4636343036476,106.70893949990692,-2.1012829435917517,13.609615833879152,107.59384184213145,17.8276686661814,-7.861216650011571,15.388701579238516,-12.616442268069886,-59.25315454175162,-4.662816205164215,5.2612635459297294,6.330688162751659,12.375280156661846,6427.818261815556,0.319845331759602,107.59384184213145,2.28637345730502,1.1105004902737312,89760.552323067,281.5819863770263,0.0,0.0,0.0,422.5263157894737,0.22676680769492547,0.9,nominal,15697.480600518664,nan,fixed_pitch,26.0,12.000000000000002,0.0
0.8250000000000001,82.37078295401354,-0.4766217497319157,1010.8053632883575,107.1561498645544,-2.247601773287313,13.669159388397349,108.0478509083431,17.821999495989026,-9.591670522910645,15.493846612216364,-12.351433468914271,-66.4004436908512,-5.707919223522053,9.4623608374213,6.119825743307215,12.248180794610048,6481.961465866264,0.32119623609751174,108.04785090834307,2.2829664253254456,1.1104632088201432,89756.83085791685,281.57976513862565,0.0,0.0,0.0,422.4967105263158,0.22675091876501408,0.9,nominal,15749.783458847538,nan,fixed_pitch,26.0,12.000000000000002,0.0
0.8500000000000001,85.06092063056184,-0.5363183536728797,1011.1485345658258,107.6055070619322,-2.3878641576385635,13.726851098730807,108.50379480173771,17.8163307230199,-11.548360202835308,15.60317856725041,-11.968069458042011,-74.16354869343212,-7.009979743484371,13.722322241091975,5.905480756704901,12.033672440859547,6536.562101463315,0.32255290819287086,108.50379480173771,2.279330965047196,1.110425770980984,89753.09381177324,281.5775345253221,0.0,0.0,0.0,422.46710526315786,0.2267350298351027,0.9,nominal,15802.516519688757,nan,fixed_pitch,26.0,12.000000000000002,0.0
0.875,87.76235643562413,-0.5993298948108529,1011.4930976043944,108.05743220249177,-2.5204616455189237,13.782521542744576,108.96200843036465,17.81066234727402,-13.74772027146371,15.714364933572675,-11.462257550211133,-82.522381332796,-8.606663034942047,18.038044072443867,5.696460026516691,11.731349188309805,6591.663590679703,0.3239163435896436,108.96200843036463,2.2755522282072604,1.1103881822808852,89749.3417364702,281.57529486557144,0.0,0.0,0.0,422.4375,0.22671914090519138,0.9,nominal,15855.71842621156,nan,fixed_pitch,26.0,12.000000000000002,0.0
0.9,90.47516308251957,-0.6654198426563643,1011.83900017497,108.51226587581789,-2.643597913820461,13.83610282302371,109.42274990496004,17.80499436875139,-16.205680598578713,15.824354581279362,-10.829918914153012,-91.45656247100528,-10.54279422534859,22.3824342903568,5.503795204561048,11.341748814274636,6647.3007179849055,0.32528730953890844,109.42274990496004,2.271757556422778,1.1103504484291218,89745.57520225648,281.57304649886265,0.0,0.0,0.0,422.40789473684214,0.22670325197528002,0.9,nominal,15909.420029447585,nan,fixed_pitch,26.0,12.000000000000002,0.0
0.925,93.1994186169651,-0.7343023439638197,1012.1861918193225,108.97022137782133,-2.7553000522982143,13.887665774098096,109.88615966609554,17.79932678745201,-18.937566439530478,15.92923709241802,-10.067237132822594,-100.94576620275151,-12.861514082076178,26.714631653982153,5.340682894356802,10.86693003574043,6703.494454040335,0.3266662235017735,109.88615966609551,2.268095503253103,1.1103125749412515,89741.79476002771,281.5707897531744,0.0,0.0,0.0,422.3782894736842,0.22668736304536866,0.9,nominal,15963.639761086279,nan,fixed_pitch,26.0,12.000000000000002,0.0
0.9500000000000001,95.93520223129084,-0.8056371578181322,1012.5346279320496,109.43134457302935,-2.853392554172499,13.937444509084683,110.35222418951555,17.793659603375875,-21.956019954850106,16.024036276041357,-9.170801402762406,-110.88998615114583,-15.600338651700012,30.985521266877544,5.222634333598703,10.310808341422483,6760.24721140602,0.32805304526191137,110.35222418951554,2.2647338563515738,1.1102745666938656,89738.00089688376,281.56852491844165,0.0,0.0,0.0,422.34868421052636,0.22667147411545732,0.9,nominal,16018.379400796384,nan,fixed_pitch,26.0,12.000000000000002,0.0
0.9750000000000001,98.68258911047005,-0.8790232581481575,1012.8842741470935,109.89547516716823,-2.9354440132010136,13.98584860175669,110.82073928143407,17.78799281652299,-25.265728464295933,16.102567535532962,-8.137696173611172,-120.98175761014483,-18.790279116574624,35.14142847697206,5.16799786723353,9.679218094236852,6817.537932122321,0.32944716781798694,110.82073928143407,2.261885870329121,1.1102364274461953,89734.1939883801,281.56625221804387,0.0,0.0,0.0,422.31907894736844,0.22665558518554593,0.9,nominal,16073.619694506386,nan,fixed_pitch,26.0,12.000000000000002,0.0
1.0,101.4416441539803,-0.9539904532646737,1013.2351109028104,110.36220174041044,-2.9986878046606473,14.033470228676357,111.29126645069694,17.782326426893352,-28.866845416900095,16.157274199405798,-6.965583083292386,-131.05466435612956,-22.452043149303904,39.12777194950811,5.1965515101575175,8.980708912138914,6875.316199090593,0.3308472876933233,111.29126645069694,2.259840284124774,1.1101981593423198,89730.37424884501,281.5639717791317,0.0,0.0,0.0,422.2894736842105,0.22663969625563457,0.9,nominal,16129.315094435056,nan,fixed_pitch,26.0,12.000000000000002,0.0
1.0250000000000001,104.21241488402433,-1.029988603255924,1013.5871367146901,110.83082920176066,-3.0399259996500128,14.08103247518791,111.76309465651212,17.77666043448696,-32.75670908358795,16.179184542357234,-5.652705286686378,-141.01513631479773,-26.60163425724459,42.891995359423156,5.328577701749654,8.22702753371301,6933.496872777304,0.33225129121837504,111.76309465651212,2.2589611222762014,1.1101597625544135,89726.5416957773,281.5616836113545,0.0,0.0,0.0,422.2598684210526,0.2266238073257232,0.9,nominal,16185.388957863359,nan,fixed_pitch,26.0,12.000000000000002,0.0
1.05,106.99492468917046,-1.1063703836922958,1013.9403664583797,111.30039220584561,-3.0552712174548744,14.12918974758432,112.2352261560982,17.770994839303818,-36.93051212414463,16.158514849958937,-4.198590518267465,-150.8086666955962,-31.257060380159405,46.3479332366738,5.584228565465353,7.434434293743268,6991.957610834358,0.3336562124363487,112.2352261560982,2.2599851517302296,1.1101212354702736,89722.69616857174,281.55938761802054,0.0,0.0,0.0,422.23026315789474,0.22660791839581185,0.9,nominal,16241.731289884323,nan,fixed_pitch,26.0,12.000000000000002,0.0
1.075,109.78916388768953,-1.1823757344912953,1014.2948278085241,111.76956794076246,-3.0402140319599784,14.178454005778082,112.70628987336424,17.76532964134392,-41.38179815293044,16.084654530364038,-2.603920410091006,-160.40371051475233,-36.42695500687558,49.41541553293146,5.982600304182042,6.623723309227187,7050.527279813353,0.33505797553181715,112.70628987336424,2.2640850454364605,1.1100825750819623,89718.83736731794,281.55708361924457,0.0,0.0,0.0,422.2006578947369,0.2265920294659005,0.9,nominal,16298.188261637864,nan,fixed_pitch,26.0,12.000000000000002,0.0
1.1,112.595079532855,-1.257115115918428,1014.6505529747109,112.2366258066188,-2.9895752570853023,14.22900664747157,113.17447752407138,17.759664840607275,-46.10280697635258,15.946010891855444,-0.8702651188738806,-169.78433291255507,-42.11163324060921,52.02850549812275,6.540846403653669,5.819995468355043,7108.976975090759,0.33645120488588254,113.17447752407138,2.2730093093236334,1.1100437778873042,89714.96494278578,281.5547714056644,0.0,0.0,0.0,422.17105263157896,0.22657614053598915,0.9,nominal,16354.554026752718,nan,fixed_pitch,26.0,12.000000000000002,0.0
1.125,115.41256394865187,-1.3295524205251912,1015.0075640562889,112.69937663187463,-2.8974921842705306,14.280443263119379,113.6374762741685,17.754000437093875,-51.08479811305959,15.729877669464253,1.000404668941452,-178.94722569499095,-48.31570313564678,54.14048863301878,7.27361546317994,5.052203581919081,7167.010447963217,0.33782902479427657,113.6374762741685,2.289217849747338,1.1100048414871653,89711.07865585314,281.5524508336341,0.0,0.0,0.0,422.1414473684211,0.2265602516060778,0.9,nominal,16410.561935033707,nan,fixed_pitch,26.0,12.000000000000002,0.0
1.1500000000000001,118.24144174878144,-1.3984890785687192,1015.365850944314,113.15511200518287,-2.7574663217411204,14.33147552100835,114.09239319091469,17.74833643080372,-56.31842779695571,15.422256057975755,3.006542215920077,-187.90089586205633,-55.06612410615369,55.72801785172505,8.192950368385741,4.352512143438988,7224.2533653557875,0.3391828347505453,114.0923931909147,2.3163022324489515,1.1099657669952758,89707.17861802578,281.55012196886196,0.0,0.0,0.0,422.1118421052631,0.2265443626761664,0.9,nominal,16465.874614178196,nan,fixed_pitch,26.0,12.000000000000002,0.0
1.175,121.0814539902514,-1.4625469904762671,1015.7253438624762,113.60048965879865,-2.562316476301922,14.37971672648618,114.53564060840422,17.742672821736818,-61.79271069361368,15.004337214433829,5.1428103736776025,-196.66590404656503,-62.189060597980486,56.79367365115841,9.30254379437136,3.7552842607228336,7280.23750332156,0.3405019685029911,114.53564060840422,2.3596991388702233,1.1099265620322993,89703.26559025807,281.5477852648939,0.0,0.0,0.0,422.08223684210526,0.22652847374625507,0.9,nominal,16520.069428177718,nan,fixed_pitch,26.0,12.000000000000002,0.0
1.2000000000000002,123.93223922125831,-1.5201474703325726,1016.0858804693538,114.03140924027647,-2.3040191942522195,14.42146427510464,114.96281759599063,17.73700960989316,-67.48945399823663,14.443436076978108,7.378538749130632,-205.27441546404518,-68.62784213959893,57.379841688293176,10.57501592303253,3.294313456654147,7334.3843185122205,0.3417733414933352,114.96281759599064,2.3926776871697197,1.1098872443125134,89699.34134090622,281.5454417769492,0.0,0.0,0.0,422.0526315789474,0.2265125848163437,0.9,nominal,16572.623314509292,nan,fixed_pitch,26.0,12.000000000000002,0.0
1.225,126.79326171129796,-1.569716577146968,1016.4470545369056,114.44089960158578,-1.9827642725758194,14.446962702071875,115.36622377063355,17.731346795272753,-73.3777778713882,13.69353345679161,9.632770051984421,-213.7661237201895,-72.45841177517998,57.622490030489026,11.935033100045757,2.996677831070751,7385.685445046052,0.3429740589732035,115.36622377063354,2.396881791047371,1.10984785814387,89695.41029251466,281.5430941455101,0.0,0.0,0.0,422.0230263157895,0.22649669588643234,0.9,nominal,16622.623300922292,nan,fixed_pitch,26.0,12.000000000000002,0.0
1.25,129.66382478461296,-1.6098997991530335,1016.8081597816429,114.82252293259984,-1.607328880242616,14.444209789490566,115.73863000389927,17.72568437787559,-79.42810927230848,12.723795233534208,11.821174658670598,-222.1821513481263,-73.8114584865615,57.8083148465418,13.310514107345352,2.876126237138816,7433.181170981734,0.34408262560088265,115.73863000389929,2.412792045941657,1.109808480549354,89691.48013265667,281.5407469614193,0.0,0.0,0.0,421.9934210526316,0.226480806956521,0.9,nominal,16669.196977712396,nan,fixed_pitch,26.0,12.000000000000002,0.0
1.2750000000000001,132.5431844324875,-1.6393805903088206,1017.1683122305825,115.17438591498129,-1.1792316462314847,14.406097957585624,116.077842056665,17.72002235770168,-85.6123492712461,11.516690114427062,13.844207890248159,-230.57058438309397,-72.26187633111692,58.249130985648996,14.61151426604807,2.9306186317351397,7476.551452379387,0.3450925133576232,116.077842056665,2.4391233997492368,1.1097692079193853,89687.56048163083,281.5384059705012,0.0,0.0,0.0,421.9638157894737,0.22646491802660962,0.9,nominal,16712.046337402076,nan,fixed_pitch,26.0,12.000000000000002,0.0
1.3,135.43060596619267,-1.6569587270671189,1017.5264397265204,115.49686134820668,-0.7031254703319366,14.325099837516783,116.38396733257004,17.714360734751015,-91.91098041096093,10.073243802552845,15.603480951383432,-238.979262249907,-67.96443365541224,59.3017449830411,15.752274404517234,3.139949674604309,7515.773916478611,0.34600403600286556,116.38396733257004,2.4720229476751556,1.1097301571535758,89683.66300633493,281.5360781417776,0.0,0.0,0.0,421.9342105263158,0.22644902909669826,0.9,nominal,16751.139586178444,nan,fixed_pitch,26.0,12.000000000000002,0.0
1.3250000000000002,138.325425153148,-1.661625154185403,1017.8812909670722,115.79276747821275,-0.18665708473136422,14.19404962207227,116.65963691784992,17.708699509023596,-98.3177252454148,8.412065306913108,17.013179341916754,-247.45156495930013,-61.45589790174774,61.31412252870062,16.662671106242737,3.4662004761363163,7551.156840343136,0.346825009370022,116.65963691784995,2.5056300052295613,1.109691464672503,89679.80132155573,281.533771608714,0.0,0.0,0.0,421.90460526315786,0.2264331401667869,0.9,nominal,16786.741004964526,nan,fixed_pitch,26.0,12.000000000000002,0.0
1.35,141.2271087342494,-1.6526276719886226,1018.2314388615988,116.067343244057,0.35989928787121783,14.005915781060924,116.90989424380354,17.703038680519427,-104.84123126883193,6.569630475609587,18.007415273153665,-256.0205334227463,-53.511062160191535,64.38793403529361,17.295862841766162,3.8613876452734623,7583.328041659188,0.3475704205322937,116.90989424380354,2.533559280550079,1.10965328604934,89675.9909531329,281.5314956473996,0.0,0.0,0.0,421.875,0.22641725123687553,0.9,nominal,16819.40102596076,nan,fixed_pitch,26.0,12.000000000000002,0.0
1.375,144.13530499474055,-1.6295344280977606,1018.575282565887,116.32785041964505,0.9237297556344797,13.753748171529422,117.14174170073879,17.697378249238504,-111.50396260670657,4.602243643432058,18.546406880822488,-264.70401600136324,-45.01104107081812,68.197878725985,17.631888045741697,4.279905368735566,7613.178083858443,0.3482610800437925,117.14174170073879,2.551743425809557,1.1096157957859356,89672.24931554722,281.52926066332174,0.0,0.0,0.0,421.84539473684214,0.2264013623069642,0.9,nominal,16849.905119116058,nan,fixed_pitch,26.0,12.000000000000002,0.0
1.4000000000000001,147.04986352277098,-1.592277327745781,1018.9111236068828,116.58234112121653,1.490284014079191,13.433641639831812,117.36322224382619,17.69171821518083,-118.33794133280064,2.5752297039453196,18.617755949575137,-273.50438594305774,-36.81720109785304,72.46708314038193,17.677504979830264,4.678499636380133,7641.741673529297,0.34892089196840914,117.36322224382619,2.558716782557041,1.1095791790112697,89668.59488335822,281.52707769655524,0.0,0.0,0.0,421.8157894736842,0.22638547337705284,0.9,nominal,16879.167738046304,nan,fixed_pitch,26.0,12.000000000000002,0.0
1.425,149.9708302990326,-1.5411611448237368,1019.237258403713,116.83867105046498,2.0446473168817603,13.045391873205652,117.5824726930621,17.686058578346405,-125.37877808930126,0.5511476278955527,18.232025392148508,-282.4109794459381,-29.692668604852635,77.06175562900181,17.464103946790548,5.015420583951138,7670.074163287963,0.3495740397488457,117.5824726930621,2.5552118153173797,1.1095436213938883,89665.04618444378,281.52495782037585,0.0,0.0,0.0,421.78618421052636,0.22636958444714148,0.9,nominal,16908.12200243212,nan,fixed_pitch,26.0,12.000000000000002,0.0
1.4500000000000002,152.89842470791848,-1.4768482296110217,1019.5520509518359,117.10377635543557,2.5725166085086024,12.591701924917654,117.80688959382171,17.680399338735224,-132.66020300386646,-1.4165757851112046,17.416126370506124,-291.402116162751,-24.248307436602513,81.87233331031531,17.044202175890838,5.253254545968466,7699.142023355395,0.35024250656951467,117.8068895938217,2.5435982858139776,1.109509301218787,89661.62100930684,281.52291166881304,0.0,0.0,0.0,421.75657894736844,0.2263536955172301,0.9,nominal,16937.621738352267,nan,fixed_pitch,26.0,12.000000000000002,0.0
1.475,155.83300254883434,-1.4003321576872159,1019.8539808646747,117.38311363663477,3.0606428769522305,12.077196513548698,118.0424566733437,17.674740496347294,-140.21022968587286,-3.284664997315421,16.207523849526513,-300.44709895904606,-20.898778931823202,86.69415486363631,16.486269604908383,5.364666336819828,7729.733938239501,0.35094407599126937,118.04245667334371,2.5273054022792345,1.1094763841521802,89658.33588867223,281.52094912437957,0.0,0.0,0.0,421.7269736842105,0.22633780658731872,0.9,nominal,16968.361830185673,nan,fixed_pitch,26.0,12.000000000000002,0.0
1.5,158.77500718616722,-1.3129018693022747,1020.1416798593194,117.68018549331512,3.497211535397648,11.507959785788268,118.29323600568078,17.66908205118261,-148.0490814282522,-5.018957098884104,14.649183120466269,-309.5094862849215,-19.8291889043624,91.24698747480329,15.867752393612195,5.337054830289662,7762.392771922057,0.3516908192108692,118.29323600568077,2.509884028623467,1.109445019266871,89655.20569691501,281.5190790809144,0.0,0.0,0.0,421.6973684210526,0.22632191765740736,0.9,nominal,17000.81724714024,nan,fixed_pitch,26.0,12.000000000000002,0.0
1.5250000000000001,161.72491490251875,-1.2161012055247278,1020.4139571177487,117.99630865406078,3.8720265511018734,10.89109033717223,118.56111206601119,17.663424003241175,-156.18858552008612,-6.591804457210103,12.785924699126442,-318.5514435843458,-20.98388568543702,95.20469425958629,15.266832109881511,5.175738357753905,7797.379966199958,0.3524883341065002,118.5611120660112,2.4942505720415697,1.1094153362808534,89652.24337658148,281.5173092787346,0.0,0.0,0.0,421.66776315789474,0.22630602872749603,0.9,nominal,17035.2111797334,nan,fixed_pitch,26.0,12.000000000000002,0.0
1.55,164.6831806485743,-1.1116880483018103,1020.6698161439734,118.33062984222182,4.1765262889166985,10.234361048988173,118.84579705138914,17.657766352522987,-164.63244713457973,-7.978722892470581,10.662710164785075,-327.5385053123991,-24.07924893184239,98.2324375555475,14.753751669314317,4.905057557381384,7834.673558112114,0.35333576100994407,118.84579705138914,2.482309910591838,1.1093874437231794,89649.45975545522,281.51564619506416,0.0,0.0,0.0,421.6381578947369,0.2262901397975847,0.9,nominal,17071.513390878285,nan,fixed_pitch,26.0,12.000000000000002,0.0
1.5750000000000002,167.6501897771626,-1.0015956815334655,1020.9084673772581,118.68036514353234,4.403694670733797,9.546049331390325,119.14507398626496,17.65210909902805,-173.3767906371512,-9.155344791419543,8.325061648181961,-336.4441413726873,-28.64045923920179,100.02753229697768,14.382749761573377,4.567023397991742,7873.997060578069,0.35422650543122736,119.14507398626498,2.4749910938162243,1.1093614275624153,89646.86340978702,281.5140949620478,0.0,0.0,0.0,421.60855263157896,0.2262742508676733,0.9,nominal,17109.466349201462,nan,fixed_pitch,26.0,12.000000000000002,0.0
1.6,170.62622030592294,-0.8878966612579219,1021.1293413851904,119.04122115041321,4.547960811021742,8.83496031728882,119.45523347400164,17.646452242756357,177.58940146819768,-10.095798392431002,5.821280016728712,-345.25370835003145,-34.05974871363251,100.35905823735087,14.185671209744298,4.21750013622934,7914.873945190506,0.3551495365425192,119.45523347400163,2.4725498188377664,1.1093373497717136,89644.46052119359,281.5126592809962,0.0,0.0,0.0,421.5789473684211,0.22625836193776197,0.9,nominal,17148.634457859196,nan,fixed_pitch,26.0,12.000000000000002,0.0
1.625,173.61141906010195,-0.772766930757556,1021.3321065549356,119.40795016716017,4.605189220014638,8.11060678981066,119.77165054124481,17.64079578370791,168.30312672480775,-10.77381184163417,3.20555602404641,-353.1939793070477,-39.67087793364677,99.10090946647392,14.169837898217875,3.9157671494468316,7956.701311547043,0.35609110222728035,119.77165054124482,2.4749183447810026,1.1093152464032732,89642.25468458675,281.5113413073929,0.0,0.0,0.0,421.5493421052631,0.22624247300785055,0.9,nominal,17188.470639433992,nan,fixed_pitch,26.0,12.000000000000002,0.0
1.6500000000000001,176.60579290201144,-0.658443957555057,1021.5166917220191,119.77495367637937,4.5729189280999565,7.383406683340238,120.08940756766765,17.635139721882716,158.80741394742498,-11.165771120337553,0.5402647397706264,-360.27677433879194,-44.80918621522371,96.2574683481364,14.315574445730334,3.7219687288837227,7998.830860063778,0.35703658120491477,120.08940756766765,2.481819685064366,1.1092951251242649,89640.24666235018,281.51014150380684,0.0,0.0,0.0,421.51973684210526,0.22622658407793922,0.9,nominal,17228.389569852436,nan,fixed_pitch,26.0,12.000000000000002,0.0
1.675,179.60921697436441,-0.5471765804484422,1021.6833114086298,120.13696289411861,4.450695084264591,6.664787464429198,120.40397805762873,17.629484057280767,149.14941664443916,-11.255748005834723,-2.1040772025415775,-366.53026026718464,-48.91597495669357,91.96691162468355,14.57911588519277,3.6891933588930574,8040.659472131108,0.35797251608777503,120.40397805762872,2.492653553442813,1.1092769624679866,89638.43411008689,281.50905847584386,0.0,0.0,0.0,421.4901315789474,0.22621069514802788,0.9,nominal,17267.84961187641,nan,fixed_pitch,26.0,12.000000000000002,0.0
1.7000000000000002,182.6214592937346,-0.4411636111880718,1021.8324883080346,120.48969277480747,4.240518770414815,5.967075976191077,120.71186379190476,17.623828789902067,139.37701933429227,-11.040889430788823,-4.652229459317984,-371.99889496403154,-51.610118715252696,86.4888978791664,14.89877488347096,3.856502426904674,8081.715212424827,0.35888850784629095,120.71186379190475,2.5062498703078684,1.1092607013847884,89636.81133227043,281.50808882599773,0.0,0.0,0.0,421.4605263157895,0.2261948062181165,0.9,nominal,17306.43060152367,nan,fixed_pitch,26.0,12.000000000000002,0.0
1.725,185.64221915628437,-0.34248146159403886,1021.9650653464637,120.8303945019912,3.947285983761317,5.303081537164796,121.01110682881237,17.618173919746614,129.53430572605055,-10.535256963452357,-7.03089602361834,-376.7415966906226,-52.73672087938761,80.17456997929973,15.203486573389174,4.244017139334963,8121.727986215096,0.35977873815855915,121.01110682881237,2.5207301906159723,1.1092462499286413,89635.36915121264,281.50722707524795,0.0,0.0,0.0,421.4309210526316,0.22617891728820516,0.9,nominal,17343.897696047017,nan,fixed_pitch,26.0,12.000000000000002,0.0
1.75,188.67117480621187,-0.25300521471229553,1022.0821995478425,121.15822599710006,3.5790498752697317,4.685368055153996,121.30159932410741,17.61251944681441,119.65703043560659,-9.7704728959692,-9.17721479417022,-380.82792657892304,-52.385356072089685,73.42323950200962,15.42243015226272,4.850789505407675,8160.673985856372,0.3606428905788733,121.3015993241074,2.5336823795309074,1.1092334819266878,89634.09497390552,281.506465702939,0.0,0.0,0.0,421.4013157894737,0.2261630283582938,0.9,nominal,17380.241401489,nan,fixed_pitch,26.0,12.000000000000002,0.0
1.7750000000000001,191.7080341146172,-0.1743312554248354,1022.1853323640222,121.47437233621355,3.146958371498405,4.125312647187273,121.58513349051367,17.606865371105453,109.76956771819228,-8.792430266030362,-11.046819051184757,-384.33241949558317,-50.87517136127929,66.6323736198614,15.494264539023684,5.6556617303922465,8198.785510726504,0.36148629900494234,121.58513349051367,2.5426798143281943,1.1092222402135046,89632.97311478785,281.50579533963383,0.0,0.0,0.0,421.3717105263158,0.2261471394283824,0.9,nominal,17415.686132580653,nan,fixed_pitch,26.0,12.000000000000002,0.0
1.8,194.75258118838795,-0.10771151605268726,1022.2761355659889,121.78188295082998,2.6647895748859254,3.6321280786668417,121.86517333884983,17.601211692619742,99.88438726477649,-7.654498445140128,-12.619260752629623,-387.3276811360685,-48.70950402407564,60.14847868869763,15.37467925106218,6.620804386111037,8236.52306446479,0.3623192688514852,121.86517333884983,2.5594699420154026,1.1092123425286635,89631.98538427561,281.50520511882104,0.0,0.0,0.0,421.34210526315786,0.22613125049847105,0.9,nominal,17450.664501302163,nan,fixed_pitch,26.0,12.000000000000002,0.0
1.8250000000000002,197.8046833436548,-0.05411016689712084,1022.3563915710188,122.08408621067446,2.144053966222657,3.2102402011958513,122.14510516371436,17.59555841135728,90.0209277232273,-6.3915789619470464,-13.763613941571336,-389.8773039491435,-41.0515695010886,54.448584511712625,14.904153282493729,7.679586203371249,8274.34087078086,0.3631518750578087,122.14510516371438,2.5656953347671028,1.1092035945603158,89631.11239040564,281.50468345478833,0.0,0.0,0.0,421.3125,0.22611536156855971,0.9,nominal,17485.60466512735,nan,fixed_pitch,26.0,12.000000000000002,0.0
1.85,200.86443133086968,-0.014011650465000032,1022.4279693891609,122.38991948859496,1.603940657284832,2.8631127256839464,122.43391046820656,17.589905527318066,80.18200762901148,-5.075989734739696,-14.391041707480847,-392.0007618593679,-29.483249207190525,50.4847531768851,13.979544248074873,8.720385046936745,8313.457090234,0.3640108282679802,122.43391046820655,2.5598098482585065,1.1091957925657667,89630.33380031424,281.5042181989704,0.0,0.0,0.0,421.28289473684214,0.22609947263864835,0.9,nominal,17521.624462278625,nan,fixed_pitch,26.0,12.000000000000002,0.0
1.875,203.93221872394125,0.012631734759633965,1022.4927221621317,122.71149572286255,1.06573540898536,2.5901109188295006,122.74345460787683,17.5842530405021,70.35835646774368,-3.799978244217427,-14.463341394350644,-393.6860511315074,-15.824929513630842,48.810969725256086,12.564627479831552,9.606236658053215,8355.494140505769,0.36493141325985445,122.74345460787681,2.54620566344252,1.1091887345384908,89629.62945459624,281.50379730594614,0.0,0.0,0.0,421.2532894736842,0.226083583708737,0.9,nominal,17560.20607832923,nan,fixed_pitch,26.0,12.000000000000002,0.0
1.9000000000000001,207.0087703357648,0.02640233377285249,1022.5523626212855,123.06206447294228,0.5508239605287409,2.3856183661496884,123.08641799307918,17.578600950909383,60.5374356508531,-2.657342971590616,-13.992217504759875,-394.8707590341967,-1.8843160900555112,49.57568969681222,10.694359113531462,10.195807252002107,8402.203105387902,0.3659513376377023,123.08641799307918,2.5326011965694044,1.1091822337818458,89628.98072183394,281.5034096429616,0.0,0.0,0.0,421.22368421052636,0.22606769477882566,0.9,nominal,17602.946274083533,nan,fixed_pitch,26.0,12.000000000000002,0.0
1.925,210.0951164843268,0.028378180617865158,1022.6083059879926,123.45384594247972,0.0790338738005067,2.2377346682821364,123.47415025335609,17.57294925853991,50.70340636783499,-1.7044423616075433,-13.056766899165252,-395.7642779534388,9.372191948163586,52.768883380345606,8.504080314609274,10.36316865275234,8455.175248594544,0.36710435131564245,123.4741502533561,2.4201956155143325,1.1091761360314598,89628.37220725807,281.503046011078,0.0,0.0,0.0,421.19407894736844,0.22605180584891427,0.9,nominal,17651.294634311325,nan,fixed_pitch,26.0,12.000000000000002,0.0
1.9500000000000002,213.19228330183603,0.02063169058261144,1022.6610255539027,123.88667270036824,-0.30985960141014873,2.108782636403388,123.90500655723459,17.56729796339369,40.81502796550777,-0.7930212141271743,-11.917449563938552,-397.5205070443754,7.23475886655645,58.12555683734577,6.427012331471701,10.043079236579791,8514.24183508377,0.3683855661207282,123.90500655723459,2.3067440943818087,1.1091703896944187,89627.79876209561,281.5027033338996,0.0,0.0,0.0,421.1644736842105,0.2260359169190029,0.9,nominal,17705.104071222355,nan,fixed_pitch,26.0,12.000000000000002,0.0
1.975,216.30107911273424,0.005325038503715518,1022.7103574014244,124.35183243592809,-0.6122660831558369,1.9732739008658806,124.36899496987807,17.561647065470712,30.845886096810705,0.27157082714995606,-10.732376981417831,-399.9921158473996,-6.80055201015743,63.6041927934564,4.845906543343491,9.291147508753824,8578.086390066548,0.36976527411616966,124.36899496987806,2.254329145168263,1.1091650126331631,89627.2621687649,281.5023826768907,0.0,0.0,0.0,421.1348684210526,0.22602002798909154,0.9,nominal,17763.185981319457,nan,fixed_pitch,26.0,12.000000000000002,0.0
2.0,219.4220634114783,-0.015925836667936094,1022.7562116325196,124.83937194976237,-0.8500350068660644,1.8341692438065327,124.85573885544444,17.555996564770986,20.775547628575197,1.5062111071227369,-9.465866600288104,-403.06163578678314,-22.48989889876349,67.367672659277,3.8518071212057032,8.248718554768084,8645.32306926,0.3712126238123627,124.85573885544444,2.2326198699188033,1.1091600146422183,89626.7634045639,281.5020846243886,0.0,0.0,0.0,421.10526315789474,0.22600413905918018,0.9,nominal,17824.289965375516,nan,fixed_pitch,26.0,12.000000000000002,0.0
2.025,222.55558824572634,-0.041884960365709434,1022.7987353382154,125.34099336992242,-1.0383649479109334,1.7009482278310368,125.35683485792767,17.550346461294506,10.583003340691285,2.843869901857505,-8.058950413711099,-406.62737309383857,-36.46059161739338,68.88025224558176,3.4232067905322996,7.075963922203645,8714.820181577948,0.37270263147432836,125.35683485792765,2.2252246462494907,1.1091553796852065,89626.30086905767,281.5018082203016,0.0,0.0,0.0,421.0756578947369,0.22598825012926885,0.9,nominal,17887.397240703383,nan,fixed_pitch,26.0,12.000000000000002,0.0
2.0500000000000003,225.70183448902614,-0.07150633812266967,1022.8384134957433,125.84984973199212,-1.1848551102784093,1.5871263011213521,125.86543421087882,17.544696755041276,0.2480644473737976,4.136318561344297,-6.47390705291186,-410.63068237426495,-45.67814964751405,68.16092133860903,3.435629417891717,5.9192091060409,8785.645138849091,0.3742149367806755,125.8654342108788,2.225083718443944,1.1091510548978147,89625.86928666713,281.50155031227763,0.0,0.0,0.0,421.04605263157896,0.22597236119935749,0.9,nominal,17951.67209225456,nan,fixed_pitch,26.0,12.000000000000002,0.0
2.075,228.86085187525543,-0.1037198717598301,1022.8759857330432,126.36069544917225,-1.2885413454864176,1.5028894919926328,126.37620175500857,17.539047446011292,-10.24145507017883,5.184748978326368,-4.733445173894776,-415.0523128974974,-48.018951750211215,65.74789055984729,3.6926231116704993,4.882590672532183,8857.062195459803,0.37573368066549856,126.37620175500858,2.228847284531228,1.1091469596606267,89625.46061208525,281.5013060927352,0.0,0.0,0.0,421.0164473684211,0.22595647226944612,0.9,nominal,18016.45897050026,nan,fixed_pitch,26.0,12.000000000000002,0.0
2.1,232.0326104071608,-0.13730969465014617,1022.9121626651159,126.87034127621484,-1.3435929156126427,1.4470772829098408,126.88570750927317,17.533398534204554,-20.883904994962162,5.848367465992496,-2.923577634757,-419.90653539623816,-45.094740968401744,62.563444019936,4.0301240351806475,4.014795832387994,8928.591727770738,0.37724866831588544,126.88570750927316,2.228603565788298,1.1091430165175633,89625.06711571454,281.50107094267673,0.0,0.0,0.0,420.9868421052631,0.22594058333953473,0.9,nominal,18081.33294506427,nan,fixed_pitch,26.0,12.000000000000002,0.0
2.125,235.21705405006173,-0.17098754837557073,1022.947278086013,127.37774571603686,-1.3471141490169818,1.4046168358783027,127.39261269275177,17.527750019621067,-31.678855209678243,6.2261602443195745,-1.0773118060380964,-425.24380200983035,-46.26864245885172,59.41831651783938,4.517924483904663,3.3361812252040335,9000.042164062064,0.3787559207320372,127.39261269275178,2.234277535661908,1.1091391890852929,89624.68516673535,281.50084269244087,0.0,0.0,0.0,420.95723684210526,0.2259246944096234,0.9,nominal,18146.12480898493,nan,fixed_pitch,26.0,12.000000000000002,0.0
2.15,238.4140638259854,-0.20335664430602518,1022.9815494617436,127.88039103694693,-1.294763837218178,1.3708550292289252,127.89429255704802,17.522101902260825,-42.63296740257668,6.382387396800145,0.8021036015275856,-431.173786854016,-50.33678733218091,56.03026546161245,5.184852810021741,2.8834602273771734,9071.036617453861,0.3802476350594252,127.894292557048,2.2495814819163162,1.1091354536601168,89624.31239967138,281.5006199284986,0.0,0.0,0.0,420.9276315789474,0.22590880547971204,0.9,nominal,18210.4970463629,nan,fixed_pitch,26.0,12.000000000000002,0.0
2.1750000000000003,241.62344040200196,-0.2328582526111657,1023.0150741476637,128.3750630406618,-1.1800643322056201,1.340987436803955,128.38749008305948,17.516454182123834,-53.757805615367346,6.341470337582603,2.7203414672820605,-437.81466214705097,-56.011657854178786,52.29395197745413,6.0185525510353886,2.6984387371426157,9141.102499208106,0.3817141280875751,128.38749008305948,2.278606557157613,1.1091317996300705,89623.94775550865,281.5004020180402,0.0,0.0,0.0,420.8980263157895,0.22589291654980068,0.9,nominal,18274.024581804035,nan,fixed_pitch,26.0,12.000000000000002,0.0
2.2,244.8448941026857,-0.2577473731091098,1023.047755149772,128.85814802734978,-0.995564819917763,1.307240084335104,128.86862433884806,17.51080685921009,-65.06713225551532,6.094044104849598,4.675064507525521,-445.2967949386153,-62.17491944855033,48.302804010181354,6.970094476709413,2.81605148704066,9209.714165445032,0.38314475270013776,128.86862433884806,2.32407781402542,1.1091282375663796,89623.59228915424,281.50018959152646,0.0,0.0,0.0,420.8684210526316,0.22587702761988934,0.9,nominal,18336.23243753308,nan,fixed_pitch,26.0,12.000000000000002,0.0
2.225,248.078045116839,-0.27613309906546557,1023.0791863006082,129.32604056613224,-0.7354290382542316,1.257246033448704,129.33424253449593,17.50515993351959,-76.57094698802389,5.609047071793933,6.647387966855249,-453.5803828840027,-68.08989038066022,44.32661054736761,7.966091981009566,3.253639492998304,9276.357403483145,0.3845292413721372,129.3342425344959,2.3853273482620336,1.109124811738402,89623.25041832145,281.49998528904604,0.0,0.0,0.0,420.8388157894737,0.22586113868997795,0.9,nominal,18396.652648320764,nan,fixed_pitch,26.0,12.000000000000002,0.0
2.25,251.32243614205467,-0.28609374951028627,1023.1085431605582,129.77564100862602,-0.3984260177928287,1.1742743980015289,129.7815651887942,17.49951340505234,-88.27127558952677,4.845472002582021,8.601891302579658,-462.4491595058532,-73.5269487342814,40.75202995447243,8.925616065216834,4.003812337314276,9340.608881532129,0.3858593265217287,129.7815651887942,2.457541488192698,1.109121612004391,89622.9311101219,281.49979446945633,0.0,0.0,0.0,420.8092105263158,0.2258452497600666,0.9,nominal,18454.894726212104,nan,fixed_pitch,26.0,12.000000000000002,0.0
2.275,254.57755672765512,-0.2858469471062808,1023.1345238436741,130.2048234240183,0.009872096160218946,1.0392273246382904,130.20897101878327,17.493867273808338,-100.16822590262481,3.7590011097194194,10.491228349616424,-471.8642638527419,-78.77839796927776,37.99611521931318,9.777747905274541,5.033732053778808,9402.208488784381,0.3871301818694177,130.20897101878327,2.534679761800788,1.1091187802607163,89622.64852463403,281.4996255950161,0.0,0.0,0.0,420.77960526315786,0.2258293608301552,0.9,nominal,18510.710245136735,nan,fixed_pitch,26.0,12.000000000000002,0.0
2.3000000000000003,257.84287142636214,-0.2739183605418335,1023.1553602625928,130.6125879482803,0.47714346257789164,0.8334567567489624,130.6161186324127,17.488221539787585,-112.26343385921123,2.3081490062019654,12.241254502880434,-481.8666664002083,-83.79905936728356,36.403834521375515,10.457003509493923,6.288057495589198,9461.080169481218,0.38834078427762014,130.6161186324127,2.5730240948082805,1.1091165092159803,89622.42189256147,281.4994901582931,0.0,0.0,0.0,420.75,0.22581347190024387,0.9,nominal,18564.01173701741,nan,fixed_pitch,26.0,12.000000000000002,0.0
2.325,261.11778003881153,-0.2495206147477904,1023.1689811469964,130.9963444979751,0.9759098317617243,0.5448353761443718,131.00111265717933,17.482576202990078,-124.56575077323068,0.4731588435881359,13.739213904697948,-492.5207322952197,-88.12853634325522,36.26108481054678,10.901037939540295,7.690970590767554,9516.92313195377,0.38948548895307883,131.00111265717936,2.5981554249905177,1.1091150246231682,89622.27374215005,281.4994016225445,0.0,0.0,0.0,420.72039473684214,0.22579758297033253,0.9,nominal,18614.50584767469,nan,fixed_pitch,26.0,12.000000000000002,0.0
2.35,264.4017516677046,-0.21246145863903274,1023.1731371629267,131.3588651557237,1.4823662443503056,0.16624063720907328,131.36733422214004,17.47693126341582,-137.10013054993357,-1.727314755672973,14.85748037799156,-503.8799678687936,-91.95878242131977,37.578067591838526,11.062905510627797,9.153619518670316,9570.203872591977,0.39057433802816516,131.36733422214004,2.6213346521326284,1.1091145716432396,89622.22853840902,281.499374608441,0.0,0.0,0.0,420.6907894736842,0.22578169404042114,0.9,nominal,18662.589095874537,nan,fixed_pitch,26.0,12.000000000000002,0.0
2.375,267.6944206203261,-0.16315066460526292,1023.1654748978629,131.70675810486046,1.972431761350792,-0.30649060255208366,131.72188335289948,17.47128672106481,-149.91312421953242,-4.228726393768374,15.47664749116678,-515.9696909189618,-95.76500750118575,39.87767336076123,10.922434852509285,10.589621509556006,9621.939141821904,0.3916284299124056,131.72188335289948,2.6379085822236217,1.1091154067826614,89622.31187858658,281.49942441316387,0.0,0.0,0.0,420.66118421052636,0.2257658051105098,0.9,nominal,18709.15298142456,nan,fixed_pitch,26.0,12.000000000000002,0.0
2.4000000000000004,270.9956254878842,-0.10265344661879572,1023.1437223294536,132.04819470232238,2.4198887194586884,-0.8701027363712681,132.073232202172,17.465642575937046,-162.85480033703107,-6.935429251226431,15.507277405363292,-520.0,-100.34738311861211,42.53439314412893,10.54465132935056,11.889188954223647,9673.35850735419,0.3926729428270918,132.073232202172,2.648535278337965,1.109117777680479,89622.54847514401,281.49956580485855,0.0,0.0,0.0,420.63157894736844,0.22574991618059845,0.9,nominal,18755.281716746555,nan,fixed_pitch,26.0,12.000000000000002,0.0
2.4250000000000003,274.3053799487103,-0.03259335886152781,1023.1058939307419,132.39017843304447,2.8024035102907163,-1.5131359484663114,132.42848028791386,17.459998828032532,-175.89029047675024,-9.735957369280607,14.880912481889192,-520.0,-106.22534072597585,45.324388722761064,10.022657451820661,12.985753458431736,9725.503081217052,0.3937289751355824,132.42848028791386,2.655196398278561,1.1091219007553768,89622.95992518235,281.49981168945015,0.0,0.0,0.0,420.6019736842105,0.22573402725068706,0.9,nominal,18801.892610399103,nan,fixed_pitch,26.0,12.000000000000002,0.0
2.45,277.6238215615233,0.044967990636496286,1023.050400963966,132.73766451252035,3.1024539799209636,-2.219718671036512,132.79246948496169,17.454355477351264,170.90718255438813,-12.503986635650513,13.544301712733446,-520.0,-113.64339420282148,47.91982120531428,9.44999179134189,13.862297527859587,9779.092371074206,0.3948109145764752,132.79246948496169,2.614839022617202,1.1091279491864168,89623.56351108033,281.5001723937342,0.0,0.0,0.0,420.5723684210526,0.2257181383207757,0.9,nominal,18849.617190570516,nan,fixed_pitch,26.0,12.000000000000002,0.0
2.475,280.95106543503334,0.12769376309121072,1022.9764233912368,133.08975494040152,3.3090308981885768,-2.9591029091666115,133.16376701493667,17.448712523893246,157.4632584445005,-15.129455404675163,11.454480567506382,-520.0,-123.98076970768098,49.822068496110184,8.96118116968549,14.541882516499594,9833.926440678668,0.395914496839353,133.16376701493667,2.580323593732342,1.1091360123780398,89624.36815545817,281.50065324795696,0.0,0.0,0.0,420.54276315789474,0.22570224939086436,0.9,nominal,18898.26616525384,nan,fixed_pitch,26.0,12.000000000000002,0.0
2.5,284.2872108863672,0.2131180190647461,1022.8835279794902,133.44581805335426,3.416970238941415,-3.7158164698680323,133.54126453490127,17.443069967658474,143.7136077413789,-17.46609042718438,8.587096627422103,-520.0,-136.38000416865472,50.35227239917962,8.65238881483081,15.091423431664639,9889.850900923288,0.3970364239215538,133.54126453490127,2.5615696854185686,1.109146137584594,89625.37857498006,281.50125706813327,0.0,0.0,0.0,420.5131578947369,0.225686360460953,0.9,nominal,18947.695416450308,nan,fixed_pitch,26.0,12.000000000000002,0.0
2.5250000000000004,287.63229509640604,0.29862522588385343,1022.771598412447,133.8033684015548,3.4202882727642927,-4.477182681727449,133.92193596359246,17.43742780864695,129.62744437834317,-19.328805525383668,4.971790144238569,-520.0,-149.35219250522772,49.042102698675976,8.56096573362054,15.605407507059564,9946.424493426259,0.3981676975531094,133.92193596359246,2.5618145579561085,1.1091583375274163,89626.5960404686,281.5019846103191,0.0,0.0,0.0,420.48355263157896,0.22567047153104164,0.9,nominal,18997.505561689704,nan,fixed_pitch,26.0,12.000000000000002,0.0
2.5500000000000003,290.9862668634697,0.38142585302196214,1022.6408834194998,134.15887068254668,3.3120250855243474,-5.228599717887517,134.30156494990413,17.431786046858676,115.23617590567335,-20.5178640104194,0.7285123792247324,-520.0,-161.27648578273667,45.76437481760703,8.658676830175022,16.182849123027257,10003.02323938177,0.39929578234623053,134.30156494990413,2.5801146447912866,1.109172585147838,89628.01785325928,281.5028342577732,0.0,0.0,0.0,420.4539473684211,0.2256545826011303,0.9,nominal,19047.136393382498,nan,fixed_pitch,26.0,12.000000000000002,0.0
2.575,294.34898609803975,0.45861516263436986,1022.4921217126446,134.5087693827998,3.087572384496308,-5.950468274209762,134.67572244761527,17.426144682293646,100.64872242685438,-20.86209508775157,-3.918951938588186,-520.0,-170.85620209526303,40.760365125842235,8.86220607737092,16.904132528447736,10058.983779831884,0.4004075128967656,134.67572244761527,2.611389827738777,1.1091887999870953,89629.63598594112,281.5038012088678,0.0,0.0,0.0,420.4243421052631,0.2256386936712189,0.9,nominal,19095.997473786858,nan,fixed_pitch,26.0,12.000000000000002,0.0
2.6,297.72024768567127,0.5273547352475252,1022.3266588007081,134.8504635052607,2.7495829045262123,-6.618516477460216,135.04078078156584,17.420503714951867,86.03430557575852,-20.26173778737207,-8.670678656563858,-520.0,-177.47483714503954,34.5693003233324,9.057152929050849,17.813818569619798,10113.754843806595,0.40149210932695784,135.04078078156584,2.646565264025291,1.1092068354497606,89631.435811211,281.50487671779536,0.0,0.0,0.0,420.39473684210526,0.22562280474130755,0.9,nominal,19143.605965575425,nan,fixed_pitch,26.0,12.000000000000002,0.0
