time_s,x_m,y_m,altitude_m,speed_mps,mass_kg,roll_deg,pitch_deg,yaw_deg,p_dps,q_dps,r_dps,elevator_deg,aileron_deg,rudder_deg,throttle,load_factor_g,alpha_deg,beta_deg,qbar_pa,mach,imu_ax_mps2,imu_ay_mps2,imu_az_mps2,gyro_p_rps,gyro_q_rps,gyro_r_rps,gps_x_m,gps_y_m,gps_z_m,baro_alt_m
0.0,0.0,0.0,15.0,82.24354077980836,19.0,0.0,4.0,2.0,0.0,0.0,0.0,-3.5999999999999996,0.0,-3.5999999999999996,0.84,1.958495805070618,7.800027317402871,-7.257580680886093,4503.373997341855,0.25237701264272355,0.07229813664471399,0.005115256982014089,0.01633763888820438,-0.0009479264593018258,-0.00254718387709966,0.0009404222404831703,2.272924789284928,1.648487871535938,16.157913020889676,14.539236441406034
0.03,2.46,0.06,15.18,82.79222466355665,18.993818866155493,-0.007915555287291766,3.780555913429797,1.8833308089062,0.0,-7.314543775289976,-3.880525802327233,-7.199999999999999,-0.021108147432778043,-7.199999999999999,0.84,1.9402319769495147,7.420039059838149,-7.189403778999662,4557.153102447997,0.2538816725974315,19.18145542571851,1.4027517038331236,-4.828806126156259,-0.0019564227448676985,-0.12700704966088358,-0.06683544769740157,2.9954505256823203,1.4783609496089247,15.53504023256273,15.921858638378797
0.06,4.936853958912028,0.1218072458691154,15.354561017545853,83.33884755603819,18.987637732310986,-0.02001987810101882,3.906510344979352,1.7067901016241427,-0.009014279442402632,4.199913956016804,-5.870439017250136,-10.31275094536503,-0.04019374945723058,-7.577372902530149,0.84,1.930854040242377,7.375681058077575,-7.059086603162927,4611.412421320283,0.25539075025327534,19.171977196230674,1.0771722949465352,-5.367731294020764,-0.002255953576802259,0.07224788772324246,-0.09885013955293218,6.148280214818694,-3.273549958299404,16.909018639510588,15.296526418501651
0.09,7.430525045867661,0.18512470131813782,15.523150965907808,83.88472698176855,18.98145659846648,-0.03737587295729115,4.68344918452206,1.486276312546753,-0.028033961897399897,25.902026038090227,-7.317022091718888,-6.712750945365031,-0.06630253105107836,-7.195494804183066,0.84,1.9513511654987605,7.976317501071217,-6.878111749128655,4666.217353519898,0.256905959862572,19.200377274335484,1.1051664062422621,-5.50514205027122,0.0018097919018536424,0.45317040163602473,-0.12706291642628095,6.1787070038789444,0.6848397920576427,19.796810633767947,16.241161128708935
0.12,9.940997008010555,0.24985716228797972,15.685394346409014,84.43539751893408,18.975275464621973,-0.06190255977106633,5.379634572404799,1.2287918876769648,-0.0647927060991612,23.213863325362855,-8.52980433691963,-3.2109896951202934,-0.1027803711273583,-6.787925132226257,0.84,1.9752544657449502,8.512195954385287,-6.652275156548106,4722.130913359865,0.2584425944173097,19.33344047612837,1.067741536195105,-4.536487886375565,0.0019985584416725355,0.4022691350326142,-0.1480908885428237,10.045472850990022,3.6815705263744727,15.263242280709088,15.045097651822866
0.15,12.468354212201799,0.31594712055354895,15.841920378114441,84.99106526543542,18.969094330777466,-0.09219340960537739,5.502365429359587,0.941720487418912,-0.10234890444522003,4.1038362580015315,-9.520447203835145,-6.810989695120293,-0.14267815932922914,-6.36454085088122,0.84,1.9618879029523606,8.490489369697885,-6.388209816020342,4779.203898781669,0.26000166230314714,19.302707001947304,1.1595034301396687,-3.8766923514535097,-0.001092278691216671,0.06621350194566733,-0.16440993080203192,12.19213497553522,-1.0880208518406578,16.633762113197733,15.29347100133036
0.18,15.012693864815986,0.38331903435647935,15.993346316525942,85.54542925273392,18.96291319693296,-0.12645490208164567,5.722966207201601,0.6307779959978377,-0.128342800201388,7.373036595288166,-10.301053661568833,-6.631328964136179,-0.1835573895420928,-5.92775361807454,0.84,1.9650925046183387,8.560579374484682,-6.092585922820673,4836.811036496841,0.2615658627565255,19.46915051721576,1.1621952880955868,-4.166046794717279,-0.0054908363021668755,0.12951434839788678,-0.17654056466275758,10.307587246334375,3.890744624290047,16.127512535016074,14.605263840794517
0.21,17.573988100132038,0.4518754839436939,16.139258183033824,86.10113945858241,18.956732063088452,-0.16496891991914683,5.978774373165672,0.30186799510977275,-0.16616334659277512,8.554662239953835,-10.884888581627095,-5.931653732952632,-0.22915894964831549,-5.485148258430221,0.84,1.971411098144566,8.67032034343473,-5.771295888379738,4895.243550095523,0.2631429248163132,19.45179614199186,1.0930558298719788,-4.079370888513885,-0.002232128810547309,0.15190896904146736,-0.18649933906968194,16.794148780497625,-1.1203855412027246,16.577924191327718,15.875993246368594
0.24,20.152260217483892,0.521507879962612,16.279721034956633,86.65866050969962,18.950550929243946,-0.20730915401506292,6.150743507595554,-0.03917095976784039,-0.2102827780890316,5.7690031936764115,-11.28570314864179,-6.358071267878497,-0.27787621084158975,-5.043557635271623,0.84,1.9716212469624528,8.702572511356463,-5.429888662223742,4954.569055550794,0.26473442434451055,19.477460547316383,1.0343409132295227,-3.7950330628722804,-0.005424580944314899,0.10192834170011138,-0.20047901729133066,18.048336331621552,-0.5382224143976153,17.498227734255956,15.671324857857979
0.27,22.747544317389867,0.592097246762569,16.414882713223253,87.2169253389421,18.94436979539944,-0.2528022495049926,6.323138388833563,-0.38744303902263477,-0.2552184415667048,5.792791001852543,-11.517238194235187,-6.081497684796661,-0.32862407532154203,-4.606342808493385,0.84,1.974981125835145,8.738279081854964,-5.073562028230187,5014.693080573106,0.2663375941373052,19.471010043387228,1.1388357560783624,-3.8398005851760915,-0.00516318910376492,0.09990081530862412,-0.20019928429495404,25.839688903805953,1.1285290028072925,20.837641631849014,15.47891173606167
0.3,25.359852227063325,0.6635150156175804,16.544727799268138,87.77635973655649,18.938188661554932,-0.30093862727136234,6.452925901901349,-0.7380584708027514,-0.30420950650535494,4.382326851547654,-11.593619247691617,-6.231627309765593,-0.3811659235486453,-4.179355350289719,0.84,1.975711991695132,8.736412468537875,-4.70703136143642,5075.675530122978,0.26795380416852643,19.468117345849166,1.0311831238898765,-3.5898411896966715,-0.007616400687003794,0.07149829494150062,-0.2075461645195527,26.04157722592005,-1.7550509968842296,14.014893874754623,18.403131662595406
0.32999999999999996,27.98920467964511,0.7356264380376527,16.66933124464566,88.33646777420131,18.932007527710425,-0.3511503840590394,6.576160573459118,-1.0868769154382192,-0.3545425020881826,4.173495516559035,-11.528684200527753,-6.091713151512556,-0.43483664537183453,-3.765565182446225,0.84,1.9777230999101099,8.731711106175549,-4.334646777101488,5137.477458150353,0.26958179744329713,19.4352475984265,1.0599395977972579,-3.636757072954454,-0.0071243978519654055,0.07693863316981008,-0.20290522879155767,27.21437858185863,-2.5803128149975505,19.154375726666185,17.809888873544324
0.36,30.635611428114185,0.8082917456539209,16.78870234527986,88.89737251628581,18.92582639386592,-0.4029477386357586,6.675083317541063,-1.4299134911886924,-0.40723985528377105,3.372099095255094,-11.336276451219014,-6.1386311066227925,-0.4892766629302906,-3.369339608572307,0.84,1.9784450427252012,8.707216218427817,-3.9603357035683517,5200.123786956631,0.27122201016382147,19.560104247034523,0.8819232202500844,-3.4910264794099595,-0.005100912003333786,0.06218196172045697,-0.19868029564196085,28.633393720895995,-1.4401426441910323,17.0377225875609,17.669328359938074
0.39,33.29908472267432,0.8813685212404749,16.902887941149984,89.4587985696585,18.91964526002141,-0.45584934721909237,6.767410022546343,-1.7638018247883107,-0.46078410765109984,3.1603071093091044,-11.029780442385698,-6.048414924906347,-0.544018694857982,-2.993068920655045,0.84,1.9797660710630567,8.680003216058102,-3.587655474608368,5263.595158731375,0.27287371912759206,19.523662493032962,0.9083639039636103,-3.509105105243914,-0.008463412762617705,0.05295446557585062,-0.1891209980808723,33.381811291701574,7.808081604022762,15.064500222829896,18.50317680103444
0.42,35.97963035532752,0.9547129977606164,17.011904804074472,90.02076631217975,18.913464126176905,-0.5094238885288429,6.844706370476302,-2.085399054289602,-0.5154093695926605,2.666116829010364,-10.622312985483811,-6.052486920023815,-0.5987147907117606,-2.6399285228490337,0.84,1.98038178205751,8.641963230254792,-3.219781296163338,5327.902290040494,0.27453699141628746,19.568976338400912,0.9564689387926861,-3.400360726043567,-0.0053318452077760065,0.04497320658859256,-0.18307844194508202,39.28007912242466,-0.6842548632870131,20.071517949720743,16.044102371634285
0.44999999999999996,38.677254332291454,1.0281818487202605,17.11578809212807,90.58310181887889,18.907282992332398,-0.5632713989100842,6.916803490970129,-2.3920873186071803,-0.5701709212403451,2.4981391739178034,-10.126397513219624,-5.982908340440199,-0.6530172495454863,-2.311659846157841,0.84,1.9813310441280003,8.60253200777479,-2.8595397994954745,5393.0331771819165,0.27621130942795674,19.4385390854459,0.736425064645486,-3.404467859093936,-0.010620569925568292,0.041454686081734894,-0.17509037518703355,36.39293099763842,0.7818499938065594,20.544014911735864,16.87897757725334
0.48,41.39195835918619,1.1016333632868471,17.214557636957498,91.14579395241142,18.90110185848789,-0.617030748296664,6.979031796101734,-2.68149125312493,-0.6250309294729574,2.1727985330540505,-9.554105420210401,-5.96799576117049,-0.7066296639409639,-2.0104666708694166,0.84,1.9818582131356297,8.5571497365245,-2.5094146388774616,5458.991894837557,0.2778965756638947,19.515887159220096,0.7689856327736857,-3.2729472386065233,-0.011893532251436422,0.037272997682723186,-0.16603903570582854,39.989231487772805,0.5720565369684768,19.031024156183097,17.57394686630582
0.51,44.123743640169394,1.1749288301747816,17.308243990451995,91.70872515348867,18.894920724643384,-0.670378798947767,7.037472781856124,-2.9516876481943917,-0.6793567756511388,2.0483385745603324,-8.916822999127378,-5.908428695104477,-0.7592922166996052,-1.7374511019814993,0.84,1.982610708604226,8.511596481035534,-2.171574095293849,5525.769195635369,0.27959235674739935,19.497880714518008,0.7195880800448753,-3.2506270547507863,-0.004260078232570322,0.03642728854014617,-0.1563738342163626,41.46986066069251,2.4281332881846946,15.533358489608716,18.057434750347895
0.54,46.87260834011646,1.2479335071100612,17.396869161147524,92.27188032881686,18.888739590798878,-0.7230250176994718,7.089090097920195,-3.2009863018770788,-0.733034441268047,1.820727845404602,-8.225373179111545,-5.885051449429203,-0.8107687156189797,-1.4940200279270062,0.84,1.9830897528127491,8.462837525376871,-1.8478841657217826,5593.365537689528,0.2812984724268029,19.588226362242864,0.7082967149495689,-3.1847001992280757,-0.016598649368187494,0.03180906811103368,-0.15000356340303436,48.98492173137708,2.630506538554402,17.55453044287054,16.590837616745077
0.57,49.63855005964379,1.3205176827032536,17.480462528740883,92.83517869740625,18.88255845695437,-0.7747173298548887,7.138049044985774,-3.428088544786208,-0.7856242941401219,1.7300042381258411,-7.48984437207432,-5.831187379684721,-0.8608711834472504,-1.2806877651655397,0.84,1.9837500267089634,8.414775438690091,-1.5399338526752706,5661.772454284636,0.28301452264437676,19.583546654881022,0.581622833489775,-3.1586441998851575,-0.0172140441170144,0.024491284721030307,-0.12817329486646334,47.87406732297247,-0.40769436807175485,16.091297959684002,18.958163850837146
0.6,52.42156423827098,1.3925574242613654,17.559048281887893,93.39861218070085,18.876377323109864,-0.8252314312100419,7.1820455825369125,-3.631902960680643,-0.8370120084299049,1.560522220877551,-6.7197096970284695,-5.80443710487371,-0.9094216001352972,-1.0982113381313994,0.84,1.9842175858431126,8.36505207219342,-1.2490511979411791,5730.988029050569,0.284740278525803,19.482570730048796,0.5500100554555032,-3.1705005009141343,-0.014510154147176584,0.024012994539443534,-0.11594511873967692,53.096306154452016,-1.404519427477635,19.35196335105491,19.03192631426396
0.63,55.22164597169887,1.4639353726629762,17.632656407514784,93.96212642061897,18.870196189265357,-0.8743797012651994,7.224236884481057,-3.811677862388984,-0.8868900891759863,1.4943976489638908,-5.923695837017858,-5.754240109690679,-0.9562934846904618,-0.9465868272443095,0.84,1.9848509431234864,8.316580390820627,-0.976326990182829,5801.0035075239375,0.2864753469008362,19.512691015222835,0.44831821646309866,-3.0654956037659686,-0.020791020196673164,0.029065177213548194,-0.10393524579440869,55.44243270047873,3.9341158283411586,20.185177109429798,19.119299317682515
0.6599999999999999,58.038788869418,1.534541278691181,17.70131338968377,94.52572423766381,18.86401505542085,-0.9219977522437094,7.2626191102437225,-3.9668338571356783,-0.9351722265892517,1.3596761097563903,-5.109909467639895,-5.726813278516586,-1.001361170541226,-0.8260500521126677,0.84,1.9853332787666134,8.267276210673579,-0.7226312829453907,5871.815027809707,0.28821946312322755,19.532651971334182,0.4374612016060692,-3.0446667762083393,-0.014519864458891609,0.025649564281122535,-0.08865974182387344,55.327604266453996,1.9836298781803186,19.599688783514285,18.334205401270893
0.69,60.872986530688586,1.6042725756168563,17.765050752876654,95.08937070153272,18.857833921576344,-0.9679555312804028,7.299850304792195,-4.097087614526675,-0.9816481475406341,1.3118994361051988,-4.285728672523159,-5.679055383841105,-1.0445518296748917,-0.7361515095253324,0.84,1.9859812698839625,8.219564508192784,-0.4886354232919762,5943.4127605913745,0.2899722225081539,19.464686694450744,0.3215067139872594,-3.053469258954373,-0.014566807420531225,0.023010615965150652,-0.0821155390325378,60.729633483762214,0.947636395963558,17.836314459206157,18.984335864567967
0.72,63.72423159733935,1.6730347245599124,17.82389729181141,95.65308015183525,18.851652787731837,-1.0121415832120617,7.33397241487442,-4.202287691658189,-1.0262681092068133,1.1973314096592644,-3.45794314056166,-5.652568661479344,-1.0857850030981602,-0.6767212309928048,0.84,1.9864934832846868,8.171399359806543,-0.27482755121513897,6015.790913969867,0.29173332712266614,19.50931615890835,0.30780859581981324,-2.9676709056395385,-0.014878463629227867,0.01851018251336916,-0.06232580552699099,65.34541564855566,4.708889466469046,14.548292024350825,17.808982013556335
0.75,66.59251706232355,1.740741605255672,17.87788653098841,96.2168312293759,18.84547165388733,-1.054476715548717,7.367482832171707,-4.282544078439302,-1.0688969514936184,1.164679758520676,-2.6326521161971566,-5.606228943978867,-1.125035269443142,-0.6469300744565338,0.84,1.9871828412645505,8.125052711949017,-0.08153274638554628,6088.937847441237,0.29350234452629137,19.6011985595973,0.11971708224388967,-2.9157002152062184,-0.017625190884810325,0.01768748957384736,-0.04405690759823235,66.63964320410572,3.010235202990275,17.61366999989512,18.813172972774037
0.78,69.47783535482357,1.8073156934955807,17.927049447702288,96.78064900677259,18.839290520042823,-1.0948953397301266,7.398262881128902,-4.33805400801185,-1.1095215080175522,1.060237784946835,-1.8154251471707747,-5.581894977419439,-1.1622597133658097,-0.6463087115256511,0.84,1.9877292865646212,8.078323800813253,0.09107346528714551,6162.845654317154,0.29527894135914967,19.43586744569316,0.113585879271723,-2.81513646102712,-0.02039208256023477,0.01723296447514408,-0.028314459294139196,70.11157378880755,2.8355515241998344,15.441530967535222,17.828140047539
0.8099999999999999,72.38017960353001,1.8726883084093546,17.97142177212758,97.34452006536115,18.833109386198316,-1.1333629574491082,7.428938882543189,-4.36925280138147,-1.1480669043708331,1.0423920785245118,-1.0111893067267022,-5.5358230746846235,-1.1974756536474105,-0.6736998560232504,0.84,1.9884781783498835,8.033617427106154,0.24294687729642783,6237.500117371637,0.2970626414025974,19.459787928087607,0.052122134240067036,-2.789599364910319,-0.018791179813463944,0.023168794424179046,-0.01596942208391723,74.7514392557911,-1.2813369918613673,18.174823845953956,19.18644969042207
0.84,75.29954262429095,1.9367996426439555,18.011036389582923,97.90847919428325,18.82692825235381,-1.169852932804101,7.456992102873674,-4.376612732174914,-1.1845525629528562,0.9398076485218008,-0.22442103876670644,-5.514920235925815,-1.2306695583957559,-0.7284382392742518,0.84,1.9890522295263295,7.988349725966829,0.3741637624403093,6312.890988719276,0.29885307316042614,19.48082351944527,-0.025899217330226064,-2.811245412870913,-0.021889229908510714,0.02092611404468067,-0.009992133337494153,73.82106331509306,2.180690919733356,17.401785051765934,17.04489245243818
0.87,78.23591825839169,1.999598903906419,18.045931325719724,98.47251496351925,18.820747118509303,-1.204370172411441,7.4855131476686605,-4.360836340734825,-1.2189541699274593,0.9396950806061787,0.5409994303180109,-5.467496719161045,-1.2618989050903413,-0.8090667682917796,0.84,1.9898760757045495,7.945387328250824,0.4849042731973127,6389.000645682566,0.30064970004250735,19.59204934339335,0.008125021613892603,-2.7274669889491925,-0.019270063831728565,0.013091713319064585,0.009741951422932413,75.93865696011116,3.5924996609742506,19.424721058044444,17.831164804227587
0.8999999999999999,81.1893001226763,2.061044211772592,18.07614093962831,99.03667168319474,18.814565984664796,-1.2369201940266346,7.511222408522599,-4.322602090918689,-1.251317147300787,0.8298634005584635,1.281545688173153,-5.451886701191707,-1.291170230051957,-0.9148354904072669,0.84,1.9904578099631047,7.901414555922314,0.575444844994035,6465.816393045952,0.30245211297220254,19.486182241305986,-0.13812675870473431,-2.6118635531286403,-0.017651677369484683,0.016686920895948747,0.022214659178228475,84.25517607352548,-0.7361022924465868,19.811390246760403,18.184312316563737
0.9299999999999999,84.15968318399217,2.1211026736681524,18.101705651223472,99.60093292387675,18.80838485082029,-1.2675433141224253,7.53817703854319,-4.262834617691657,-1.2816629083499667,0.8551098070981916,1.9942568929047668,-5.400458310546857,-1.3185818476154094,-1.0439783873754334,0.84,1.991377025441927,7.860250254101586,0.6461425115732138,6543.31625646194,0.30425969654756846,19.429382283711814,-0.09169599747728979,-2.647780123805612,-0.018594472864928387,0.010219951983458028,0.03930856967306351,84.25268356675366,0.4048375570272851,15.152463462495309,16.112460613901934
0.96,87.14706207146699,2.1797501495763987,18.122660641445442,100.16535451976063,18.802203716975782,-1.296270137061964,7.561703852840577,-4.182351056611072,-1.3100528840605137,0.7245329526077771,2.6764069979281975,-5.393443516386032,-1.3441481752945292,-1.1958015616149396,0.84,1.9919262903980688,7.81723164090527,0.6974313180021537,6621.485323377878,0.3060720127357284,19.495599424619513,-0.13688812753011473,-2.622845235551166,-0.02064248383293286,0.009657530431602812,0.041829904998785056,86.11112009489683,0.10683145497547608,16.185118941083037,19.136241651223525
0.99,90.15143315073607,2.2369713120386514,18.139048993418587,100.72990556034738,18.796022583131275,-1.323174404519994,7.587716072167168,-4.082271198436118,-1.3365561860532844,0.7912621038141925,3.3258406369361073,-5.333159627243495,-1.3680148502833773,-1.3681541836765367,0.84,1.9929801840284735,7.7779967869464075,0.7298061235272733,6700.296050521311,0.3078883434823564,19.459420159134947,-0.18720630394622956,-2.5095870687691653,-0.02483156904316691,0.016535168387232405,0.061728642600191196,91.55597906698935,2.9843861523868607,17.90111210717055,18.566528254248816
1.02,93.17279205211676,2.2927592564497212,18.15090568279273,101.29466005309249,18.78984144928677,-1.3483034551626183,7.608928731269902,-3.9634763079767596,-1.3612331280640646,0.6153996995889185,3.940478047684536,-5.341250350639156,-1.3901852062336588,-1.5606148049861754,0.84,1.993419011391425,7.735348490545474,0.7438245049048846,6779.732237752328,0.30970824635308564,19.58280982565238,-0.2135563584357653,-2.428637763088213,-0.02466136440334047,0.011959632338326458,0.06450663977464276,96.25609546267671,2.891890389617052,18.68348586968321,17.48505845169284
1.05,96.21113673079262,2.3471156202563543,18.158277183333865,101.85955733185683,18.783660315442262,-1.371766009505768,7.634861768597367,-3.827283986102458,-1.3842152150865374,0.757392872254464,4.51888719687845,-5.262440088647969,-1.410870266744351,-1.7704387416751894,0.84,1.9946957675039807,7.69845033697265,0.7400872669371631,6859.758878098334,0.31153086222662085,19.367005611920547,-0.37066856723076874,-2.3391901985486854,-0.027319813125202604,0.015499181711317827,0.0824452187508417,95.53920058652875,0.5584777965018486,18.92912136312514,16.850950943679003
1.08,99.26646353988494,2.4000499683874668,18.16119647902918,102.4247060794715,18.777479181597755,-1.393614076554302,7.653098494607122,-3.6745387594478043,-1.4055274789254157,0.48594672990205706,5.059465507052998,-5.299405395583174,-1.4300275216351919,-1.9978740930750443,0.84,1.9948645028871241,7.655112779600743,0.7192491600823591,6940.360851186152,0.31335580061214763,19.472867157364593,-0.2806608044748948,-2.2750545618087297,-0.027350170284020047,0.007210121031711663,0.09098578876276908,99.67208956314768,0.6866704631284801,14.922454128277101,18.743939892371536
1.1099999999999999,102.33877225227769,2.451580111202383,18.159715244232967,102.98998701278083,18.77129804775325,-1.4140000849433194,7.680488743555262,-3.506816184986557,-1.4254067323961905,0.7769929732370088,5.5614838315647885,-5.181293346200148,-1.4479767655916818,-2.2390807765794576,0.84,1.9965731430279243,7.621655520599486,0.6819903410069179,7021.492084383224,0.31518198558271854,19.41828428070508,-0.24448194066818463,-2.388155397336888,-0.029096023296420543,0.012086698421373904,0.10054397629935363,99.95860070661237,0.1340840657971092,18.303426383117422,19.076289730252295
1.14,105.42805927193301,2.5017310862109174,18.153860989507837,103.55558210433887,18.76511691390874,-1.432959027122826,7.693920544563238,-3.32475028014716,-1.443766249032067,0.298181507958127,6.023594902432383,-5.278106511762014,-1.4645572640886704,-2.4958087433951333,0.84,1.9961177177046108,7.575467936869519,0.6290437769932988,7103.1440458394645,0.31700920332749444,19.471984038403324,-0.3718973318431918,-2.2756523245617055,-0.025521084908751653,0.006582256028609611,0.1088037709523509,105.98817548363805,0.6417215826453111,17.987744107295548,19.429425022683223
1.17,108.53432672040152,2.5505359763304565,18.143694979626666,104.12125172738739,18.758935780064235,-1.45071217134102,7.72604646069696,-3.1303641587758424,-1.4610597283964522,0.9089597122864415,6.445880254397266,-5.072885125357092,-1.4803007450380101,-2.7619259997925028,0.84,1.9987742329486164,7.548292585369476,0.5611446867958731,7185.251656231716,0.31883599082551184,19.431039026429286,-0.37413177088247346,-2.164613078500838,-0.026920199719118035,0.01717513859180123,0.11428091432251322,107.79008211747855,0.7264849740956743,15.08236139295439,18.19797316943013
1.2,111.65756963481401,2.598034043537662,18.129231704272115,104.6873428146631,18.752754646219728,-1.467231004284892,7.729966415337822,-2.92371490268611,-1.476903575958871,-0.04316844121357857,6.826867857145366,-5.303624897189673,-1.4947623925246785,-3.042606799682622,0.84,1.996842798158898,7.494317770460065,0.4790940711569161,7267.825921276212,0.3206625961644819,19.403596220644467,-0.40889581015534887,-2.0222351159947753,-0.02610738532333875,0.00016140731324092953,0.12297965300957388,112.00613828503349,1.9933945004365936,19.523889456378992,17.418221803993426
1.23,114.79779396616003,2.6442727712730507,18.11055284148016,105.25335054758935,18.74657351237522,-1.4828718500248952,7.774712292788133,-2.7077868274356334,-1.4922573857328336,1.3074500320703524,7.167859690492604,-4.893750642481429,-1.5089399262582337,-3.326464007745176,0.84,2.0017836194251935,7.480795218985194,0.3836544204584518,7350.763488513304,0.3224867543297802,19.349878049315606,-0.4021507033709554,-2.1090417966956263,-0.03239752084794524,0.024218548749220414,0.12595262122314352,118.71691687649562,4.567178666887794,20.849052754063496,18.657372649863184
1.26,117.9549902380646,2.689304007019639,18.0876419309057,105.820014488866,18.740392378530714,-1.4974300345123148,7.756747207912424,-2.481172871637807,-1.5059657800400603,-0.7932697269153093,7.466427590712706,-5.447032082674648,-1.5216936753246808,-3.626896436162167,0.84,1.9961671271084442,7.406636230286202,0.27569983544647353,7434.126906852032,0.32430986845430737,19.356929459112912,-0.43415219788903964,-1.9359137664354247,-0.02664257894034222,-0.012351498151296061,0.13253376327166158,117.68719140880249,2.8067962384204614,17.005923771138647,18.111570102608148
1.29,121.12917238642989,2.7331891104448345,18.060628851149506,106.38619817212594,18.734211244686207,-1.5115739568739188,7.834786999511573,-2.2492102141274057,-1.5202646878189983,2.3992962226014645,7.726298365941141,-4.524026906625821,-1.5351471608099254,-3.919514829741517,0.84,2.007058175990223,7.42666031220348,0.15597443173070433,7517.7244545312,0.32612779728367675,19.34844170286375,-0.41707153427559784,-2.0079404498719806,-0.02747130356142433,0.04275919675041366,0.1391477919078093,120.37050942816312,2.2591080382323834,18.393505728104184,18.1058131081081
1.3199999999999998,124.3203187231345,2.7759900006380924,18.029420087919917,106.95363319612532,18.7280301108417,-1.5246242923063265,7.760761745611973,-2.0066638281540157,-1.5319460053887628,-2.6788531112282996,7.941950949840713,-5.911619568307398,-1.5463748513603395,-4.238793768810887,0.84,1.991632131046255,7.298639150956022,0.02546789244052585,7601.7546623825465,0.32794490581484165,19.40980613202098,-0.36035707977038106,-1.7851911449961742,-0.024770489665729534,-0.0434325679558397,0.1369386180101195,125.85964636003912,5.835183158715051,16.462875642998828,19.319549386719935
1.3499999999999999,127.52846296278412,2.817782652066676,17.994268980458063,107.51955984501383,18.721848976997194,-1.5380579414862197,7.930374741730147,-1.765160537677315,-1.5466592326677595,5.438635607944633,8.123020115888758,-3.611761799525152,-1.5604473567860413,-4.525816129391757,0.84,2.0192202964046264,7.408882196391401,-0.11519949462082205,7685.799011741257,0.32975223139868765,19.356217649897857,-0.4466278108576692,-2.0503585451940527,-0.026175371193966446,0.09412479365706534,0.13999938781747506,124.8250813419303,0.5005250993341477,15.094684121327044,17.56078483130944
1.38,130.75355050483296,2.8586340848462948,17.954877599419703,108.08838445031749,18.715667843152687,-1.5498693048109187,7.70015869443443,-1.5088411920613376,-1.5555228106918542,-7.899164236847085,8.254812148606986,-7.211761799525152,-1.5695549103520838,-4.872908824502335,0.84,1.9769075614905773,7.128862470473454,-0.26476917790927285,7770.430790424237,0.3315621584803341,19.312315961997186,-0.4156091926589406,-1.5122663979465556,-0.024138450850090573,-0.13689996056473733,0.13961205452601735,131.15380290106634,1.014704961396814,16.938083503080723,19.392575571603345
1.41,133.9956695956928,2.8986398017057007,17.911839115798372,108.65294797912136,18.70948670930818,-1.56378607956398,8.114450241781764,-1.2668080735007459,-1.5737912896122268,13.58757508436425,8.363366355471154,-3.6117617995251527,-1.5869807041524155,-5.1252519612940155,0.84,2.0277525351054533,7.478561182535453,-0.42304259727507487,7854.610621467601,0.3333525968070494,19.255059275873684,-0.31001683059848767,-2.310835830213715,-0.02902838847988298,0.23578527354820525,0.14404261080259612,136.0163327873639,-0.6056215157403084,16.40970665288207,17.354095633208445
1.44,137.25467529214762,2.9378596430478403,17.864294730028515,109.22292792891655,18.703305575463673,-1.5748884910345071,7.977517028958373,-1.0082024986011022,-1.576631885798389,-4.7964855899819785,8.40714366393713,-6.096410605560596,-1.593392510152052,-5.479771868077726,0.84,1.997616148787256,7.294138847778156,-0.5880958950081665,7939.661119210973,0.3351517596661894,19.30736552755155,-0.4035341332858678,-1.185462840513826,-0.02993939478868028,-0.08395159913492649,0.14826490570206693,137.93723228702297,-0.6032240723729649,17.401459886075266,16.606036157549724
1.47,140.53073939251811,2.9764141759305356,17.813297229240995,109.78994046276425,18.697124441619167,-1.5876065977237186,8.171855068616512,-0.7579440482817846,-1.5956823748095599,6.2475641242035636,8.434880287856226,-3.0265728583869964,-1.6088034422057378,-5.757823009580038,0.84,2.036594678528417,7.4308507825595385,-0.759985386066584,8024.363534141577,0.3369339357902091,19.272452410851766,-0.31521581438151314,-1.7112629677344553,-0.027704244828307637,0.10779281557072912,0.1479041637494364,139.48015169345143,4.768210618660559,18.40990386581517,18.426883629943976
1.5,143.82375911384352,3.0143753136866978,17.7582700439798,110.36069045879701,18.69094330777466,-1.5988470043516354,7.798718504561251,-0.4925217041043304,-1.6037607845140982,-12.676726799906847,8.412482615637048,-6.626572858386996,-1.6175810153981633,-6.11676687288135,0.84,1.9832793462853224,7.012569495517785,-0.9371673662939022,8109.638318749664,0.33871860529775494,19.25615869847575,-0.3121959515743725,-1.0510780991233515,-0.03000589980484866,-0.2203783629426765,0.1485969348419571,141.47198382731742,4.11458234624975,17.323616991973882,17.804805839471296
1.53,147.13385492110464,3.0518626336679953,17.700009883654758,110.92602880142202,18.684762173930153,-1.6136142550026575,8.061664750878963,-0.2460340484717107,-1.625814204736746,8.533343730045342,8.380202018585008,-3.026572858386996,-1.6382263394210275,-6.362059556854267,0.84,2.0304252169188173,7.213009320761278,-1.1198486077348033,8194.136377566689,0.3404777125281623,19.320354472374284,-0.35152005577843126,-2.087705849155384,-0.03237952572251633,0.14646867584377493,0.14583237244252698,148.97455583257624,1.057182601155021,19.125812965298305,17.33749981104449
1.56,150.46084199482752,3.0889397218565637,17.637497645646093,111.49583380100296,18.678581040085646,-1.6267991176416392,7.740970759977443,0.014190410827274753,-1.6319142282391481,-10.928481711384634,8.286166658473848,-6.626572858386996,-1.6487738887066088,-6.710960384456688,0.84,1.9785937698626037,6.845019806610513,-1.3059731933395116,8279.249834192124,0.3422404079850803,19.325712020601497,-0.3279695892910793,-1.0706547045151305,-0.029892239455540384,-0.19201790220629167,0.14217411208039943,150.77472760158372,2.880592115081279,19.89879415774646,18.42445611626585
1.5899999999999999,153.80486740547022,3.125741367173287,17.571705918501944,112.0605313353892,18.67239990624114,-1.6436610103801252,8.066575068375577,0.2528245111151902,-1.6558865079062934,10.624250861033886,8.185459424897683,-3.026572858386996,-1.671764164944269,-6.939747014106002,0.84,2.029772869854643,7.106331166669239,-1.4958930198806961,8363.554764413057,0.34397736978233945,19.22885230380036,-0.24120747776909437,-2.0822402351381637,-0.02533851706705894,0.18649184886665343,0.1409376558161692,151.6056082508411,4.122249111906253,18.214127460628998,17.306294894860578
1.6199999999999999,157.16575370390703,3.162333947331622,17.501629625008505,112.63001632027365,18.666218772396633,-1.6589268674418371,7.777622464504823,0.5043390720086698,-1.6643804889679976,-9.867062466993852,8.02284411842699,-6.626572858386996,-1.6843699625446904,-7.275912382126347,0.84,1.977953098786233,6.769269317388309,-1.6874458336689178,8448.469776017573,0.3457179943167143,19.313507501652122,-0.2688405720378352,-1.0800697283590368,-0.03191279461137224,-0.16677349552146248,0.1381704984424754,157.65630124617283,6.037757534444809,17.664635769461984,18.243719918269715
1.65,160.543661210917,3.1988610937626474,17.4283141400558,113.1944975424564,18.660037638552126,-1.6781578550776366,8.142003038130525,0.7317746191072116,-1.690870751489587,11.922291489403827,7.858670527277406,-3.026572858386996,-1.7102095011373022,-7.484624335191432,0.84,2.0327562947412607,7.068688529906898,-1.8811284920607774,8532.526420067685,0.3474323463115219,19.266305120365107,-0.17268765620389714,-1.9919738041560655,-0.026556990197073648,0.21122322615791433,0.1361650575564095,163.4917468319337,0.6881632147385162,19.009018260421794,17.843724275006217
1.68,163.93841380351017,3.2353899363195384,17.350755612196345,113.76400392455245,18.65385650470762,-1.6958725146122684,7.862750563792149,0.9714311318147714,-1.7026131538799942,-9.537291672704866,7.633329203517916,-6.626572858386996,-1.725396947169988,-7.804801392064552,0.84,1.979546147606926,6.741342082599899,-2.0746918133777537,8617.186362192777,0.3491504078260659,19.17905004243512,-0.15426760534902054,-0.9210412174088448,-0.035562135873704895,-0.16862251023163874,0.1340739458674725,165.20440679003607,3.650884587581397,19.620792952901578,18.907833317705812
1.71,167.35018250682273,3.2720712194136627,17.270055372924297,114.32843459920164,18.647675370863112,-1.717967520827026,8.248618074912578,1.184506264026708,-1.7318197557201576,12.64711658884697,7.412476177634267,-3.026572858386996,-1.7547925311849553,-7.989607869397213,0.84,2.0375467219267103,7.0621371905161245,-2.2688077355816563,8700.923924154895,0.3508413824792809,19.14280651126263,-0.17406121605826919,-1.9230334848960433,-0.02837540169785102,0.2205925836966114,0.13463777052512968,167.24996899105463,4.9414384897988155,19.567718719673557,16.69144284985608
1.74,170.7787870079701,3.3089705951996233,17.185193880525482,114.89806180920732,18.641494237018605,-1.7386936078974409,7.96622372903896,1.4093109098284595,-1.7476768057194716,-9.632631567097143,7.1313457479018565,-6.626572858386996,-1.7732370863481322,-8.290652147265488,0.84,1.9821090476799386,6.731999895415327,-2.461141918830706,8785.259622758209,0.3525361508103988,19.194623204907284,0.003399207007974879,-0.7238925235212664,-0.030841535404099757,-0.16837812795442875,0.1301954939605124,170.41651612020428,4.66956619996175,15.496599144723081,17.96603501637889
1.77,174.22440685203978,3.346244296776636,17.09731494058434,115.46244442042384,18.6353131031741,-1.7642908678403018,8.365185164104878,1.6050272023886814,-1.7798769215875998,13.095176941708901,6.861233284112544,-3.026572858386996,-1.8069529677450702,-8.44794275636034,0.84,2.0430855513074806,7.065951856440823,-2.652559092253493,8868.60676719674,0.3542029915383581,19.130791172688152,0.055219350655089004,-1.7949829399792032,-0.031267450019508945,0.22548515529630012,0.1209848084431948,175.2027368090993,0.2556410382292156,18.68462823617177,17.92018321492131
1.7999999999999998,177.68685439418138,3.3839544227630802,17.005372411245638,116.03216576136252,18.629131969329592,-1.7886926062100976,8.07414244180331,1.8122223361175906,-1.800809025458126,-9.908690504622292,6.531548832083447,-6.626572858386996,-1.829362170159757,-8.727187159951535,0.84,1.9850205085183554,6.727584541703297,-2.8406336203680818,8952.554695671242,0.35587386867356274,19.20265981827178,0.09386086692288365,-0.5738059637086592,-0.026369877448445263,-0.17612726973906775,0.10983773351167617,179.44602759155796,-0.7015010741096082,16.05757375427867,16.258155513313373
1.8299999999999998,181.16631665415355,3.422261317717904,16.91054569890488,116.59643412593613,18.622950835485085,-1.8184938851186971,8.483240689089603,1.9878550699483324,-1.8363500703703526,13.44757153596314,6.219782586362462,-3.026572858386996,-1.868162683299696,-8.853780040819975,0.84,2.048920369325669,7.071740503020737,-3.0264372715418113,9035.454918850934,0.35751613128149395,19.168175241969635,0.12761734898639115,-1.539781897348642,-0.03326331807330856,0.23650587985162957,0.1121238321880051,181.40289023589116,1.5054662354725474,18.86052916428354,17.41850978853754
1.8599999999999999,184.66259731370587,3.4612216543658745,16.811756794649057,117.1661810029354,18.616769701640578,-1.847269996648053,8.181768735401208,2.175032346481231,-1.8633835250242365,-10.241400319929769,5.848834585152414,-6.626572858386996,-1.8952301825303128,-9.109178219865212,0.84,1.9880556623672232,6.723335185245476,-3.2074445228044803,9118.970988040679,0.35916291462912053,19.233088580417363,0.1443311333675718,-0.3416528079273495,-0.029302005147066313,-0.1773816415676288,0.10376427686975091,185.1750945040256,1.3164663375968817,19.568168207681687,16.778276564602375
1.89,188.1758906814255,3.5009987394250053,16.71021828189244,117.73025635487,18.61058856779607,-1.8819939055775203,8.600406484343848,2.328222847484701,-1.902634489678592,13.782891954854893,5.503108781366665,-3.026572858386996,-1.9398670871266324,-9.20237541965756,0.84,2.0549161226771435,7.077062709750743,-3.3849493558650847,9201.39218900234,0.36078063917618425,19.082409120717518,0.22488275178961856,-1.4466241289623185,-0.03619773039955976,0.23895504397959766,0.09669922876973938,188.81000746190355,3.4247850258372936,17.443927467191692,17.642192166452073
1.92,191.70599136908305,3.541642103174647,16.604818152728022,118.29996160935725,18.604407433951565,-1.9158432408052188,8.28811510827893,2.4933967496968985,-1.9368256950119334,-10.584487623689713,5.09820282607011,-6.626572858386996,-1.9722587995180494,-9.432539838868804,0.84,1.9911681494949274,6.7181975139401855,-3.5563167251079033,9284.45915779547,0.36240364713741996,19.07771629706226,0.34883085747245046,-0.09614792913275713,-0.03365074588580589,-0.18539696699483904,0.08555843925981331,191.77704090752772,3.8971757876118054,16.01946649178288,17.883118917729718
1.95,195.25310124894406,3.583317049186318,16.49680183838087,118.86377809585758,18.598226300107058,-1.9562035202308914,8.716437567501005,2.6222027477101824,-1.98014085089402,14.125875767704494,4.726299427106468,-3.026572858386996,-2.0234706526070125,-9.490125958620977,0.84,2.06106243779859,7.081626479117748,-3.723080344943618,9366.398083101,0.3639974221034034,19.134065910033225,0.36023545728274287,-1.217734176417963,-0.03575820262764745,0.24943159587730346,0.08633047419690339,194.92032629267925,5.037037252273603,13.450102878498775,18.239060634113688
1.98,198.81700585134612,3.626064356334196,16.385022494993688,119.4333935259367,18.59204516626255,-1.9958096204147164,8.393280383151245,2.763846562051072,-2.0225536435217375,-10.926520549946435,4.294747163676221,-6.626572858386996,-2.061819787387758,-9.694332712703655,0.84,1.994371103397678,6.712255361423232,-3.8824845848439664,9449.028423228388,0.36559752630123804,19.213546207692595,0.5556136974155564,0.021661741057624723,-0.03561374648816601,-0.18667377211952024,0.07467947389822276,196.29256403727186,-0.8558660162345109,16.810059867124345,17.92631094796605
2.01,202.3979150895019,3.6700505201709595,16.270758827580796,119.99690736991856,18.585864032418044,-2.042505362520427,8.831553792850857,2.866763275395616,-2.0702534637061514,14.480607060091453,3.9045291571562513,-3.026572858386996,-2.120331599363278,-9.714560499393526,0.84,2.067383926240388,7.085678573710999,-4.036323007277017,9530.511859346383,0.36716848794603396,19.02528053087568,0.6096277423097868,-1.13553072295928,-0.03359426130261076,0.251558197465886,0.07067103732632146,205.3360890634598,5.858316605342599,14.806959521679385,16.911229585605014
2.04,205.99560551930068,3.715306041708051,16.15282872279396,120.56640910343239,18.579682898573537,-2.088528773996117,8.497479003100624,2.9838232206487856,-2.121947238796963,-11.267656596903878,3.4536164717960176,-6.626572858386996,-2.1652344597889335,-9.89274771878699,0.84,1.9976892568751636,6.705794890016098,-4.181706069321472,9612.747957320944,0.3687470938977458,19.15202135728808,0.6011110980529832,0.22964979939335112,-0.03689082361415682,-0.1957817239213892,0.05831070719062022,206.38752176191744,-0.7775438172039917,18.36392258850738,16.54444774619721
2.07,209.61029565071,3.761997962722336,16.032544799966477,121.12960074839792,18.57350176472903,-2.142238861498673,8.94592171885717,3.0597890168021893,-2.1743090887070813,14.845593990871134,3.0529936812539336,-3.026572858386996,-2.2317556740029336,-9.874322276571707,0.84,2.073909358668331,7.089506852148201,-4.320709925769734,9693.832009694945,0.3702968902097972,19.063608826828965,0.742799656493023,-1.0531530646364162,-0.03826102339322566,0.2570134445516498,0.04848242276515694,212.3484636986435,2.432731202848521,17.014691720853918,16.808042958870015
2.1,213.24175318707438,3.8101450550062794,15.90868932448628,121.69898979383649,18.567320630884524,-2.1953118406226793,8.60079399632233,3.151687350636579,-2.236332205639742,-11.610621941436365,2.58992224889688,-6.626572858386996,-2.283766805829356,-10.027087044322263,0.84,2.001145072033041,6.699069844353157,-4.450294717993593,9775.744805586584,0.37185589026160953,19.03099531230425,0.7289760327977632,0.4909111972277041,-0.03906978823203858,-0.20218265509377106,0.043477820515384326,216.14567048860818,4.62141934880616,12.911867188730966,17.210128013141453
2.13,216.8902058181922,3.859914431500707,15.782609537013826,122.26186325132798,18.561139497040017,-2.2566905207072208,9.05955782494501,3.2000814065911474,-2.293584667685681,15.218758314120652,2.1867951192702972,-3.026572858386996,-2.358988320848123,-9.96914850378823,0.84,2.0806648703385635,7.09335134247099,-4.5728446941330665,9856.512952507343,0.3733866244077985,19.08018022370613,0.8218045678658621,-0.8426946730433409,-0.03673937219576216,0.2659783681196023,0.03955822684383268,214.38716289154772,2.2160016392834905,14.04319757551443,16.2483693276968
2.16,220.5554124936757,3.9113117590533997,15.65305172818192,122.83116410472586,18.55495836319551,-2.3174423318669546,8.708460769897696,3.2664993522675245,-2.3669700573135173,-11.781241685879348,1.7186058561078872,-6.626572858386996,-2.4186953504665114,-10.096913744524697,0.84,2.0051157762515963,6.697595221512503,-4.685152480375832,9938.199534304982,0.3749283340847262,19.121710381945793,0.9801186835876621,0.6538566037702074,-0.04553358281437189,-0.20200851685913343,0.028966684815791743,221.36782502128864,4.426621166311748,18.777671956084646,16.19019612484406
2.19,224.23761067061977,3.9645039341770696,15.521398524631067,123.39378278194803,18.548777229351003,-2.3870460332916097,9.166261974825304,3.287592803864683,-2.429356725929221,15.218758314120652,1.3203181647285323,-3.026572858386996,-2.5030522023327015,-10.001360568896706,0.84,2.0872003145001425,7.091427457172276,-4.789914806376876,10018.765734369514,0.3764426062282889,19.03816162684608,0.9517188527310663,-0.6983372713355959,-0.045533506687533545,0.26110601710376674,0.024491114053869768,217.20762886330363,1.890604860636253,14.051428478057675,14.647516997588735
2.2199999999999998,227.9365519492524,4.019482708521703,15.386365869639915,123.96299123166642,18.542596095506497,-2.456076671741885,8.814225069627833,3.328652416156858,-2.5148970876050236,-11.781241685879348,0.854833126154014,-6.591270210625327,-2.571127735825677,-10.103875198834029,0.84,2.00970107852612,6.69548353363993,-4.8837898962075785,10100.338349214018,0.37796954325509186,19.089130997509713,1.098701958098852,0.733351349570432,-0.04474008039770836,-0.21085669829123724,0.018355495746027326,227.66237239828132,6.373966016417309,14.84370843018351,15.184469234122743
2.25,231.65248105436237,4.076413512507522,15.24935986631879,124.52543008892489,18.53641496166199,-2.534489549485029,9.270964322207202,3.3227437331620595,-2.582807407602874,15.218758314120652,0.4685155843389649,-2.9912702106253266,-2.6651776790569346,-9.97153599180834,0.84,2.0944632479434775,7.089127611964777,-4.969760767835105,10180.836548323643,0.3794702383052085,18.963046261160216,1.1304799544104183,-0.5515593791666026,-0.04339925668324673,0.26445793392135947,0.008230820104944704,231.5213287522067,2.77501655386341,16.724812306226717,16.643102591890585
2.28,235.38514520829466,4.135274221932151,15.109080873652477,125.09463713254208,18.530233827817483,-2.6123277243045746,8.91790138947571,3.3391905796915697,-2.68126079635026,-11.781241685879348,0.012381583460483065,-6.436225008891881,-2.7420580156704846,-10.050886953041912,0.84,2.0161502130290296,6.693282811353234,-5.044350693187555,10262.438808692688,0.38098541699516403,19.074211310644735,1.1571076379584668,1.0440740310061745,-0.048988128720248506,-0.20701077002427562,0.0015969036353625475,234.09079268542422,4.283927934778433,12.6918081686225,16.04266704767394
2.31,239.13479683587204,4.196228686321722,14.966958952516599,125.65707469016093,18.524052693972976,-2.6999733288120162,9.357861132248749,3.307727230296547,-2.7549620062476934,14.6976306159309,-0.3547401992659849,-2.836225008891882,-2.846049336324419,-9.885370411302462,0.84,2.102612566221217,7.071754328100374,-5.1108356857218125,10343.034101649375,0.3824759012754043,18.989721552245868,1.2650958901424845,-0.34473496135656406,-0.04845760071072443,0.25686741348496805,5.925055446228018e-05,240.5391608197898,2.6258118933515204,15.515960519473895,15.237144642050696
2.34,242.90118238999625,4.259241289611545,14.82170177633975,126.2263467097382,18.51787156012847,-2.786960406134159,8.988074984758704,3.3015344858581983,-2.8666623077176463,-12.3023693840691,-0.7935390990766815,-6.436225008891881,-2.93193886833773,-9.945327397860911,0.84,2.018436583980481,6.660786540113567,-5.165636918458485,10424.81867241884,0.38398240470360645,19.12090447863629,1.3734306494226944,1.0926729216876834,-0.051983570244355536,-0.2060612954529041,-0.013548741921343874,243.75583028546447,6.445527963310512,11.765789351118668,14.456513542180332
2.37,246.68455792626835,4.324472816756331,14.6747461955594,126.78846154824429,18.511690426283963,-2.88438441138444,9.426780676321352,3.245055259386053,-2.9462254106482084,14.6976306159309,-1.1326697219795132,-2.836225008891882,-3.046757753468243,-9.743455040670876,0.84,2.107147137528856,7.038829750784367,-5.212378701327756,10505.60740163996,0.3854646784303053,18.995288750324036,1.3215025504613542,-0.23244388515837047,-0.04705413296946368,0.2592193282463614,-0.02159851178740503,247.20875596489773,3.8297004809806814,17.583395910068155,14.2420378747871
2.4,250.48465423117787,4.391867975230571,14.524717699529786,127.35756864721463,18.505509292439456,-2.981036792508213,9.055815702361551,3.217144845166952,-3.0723389890106,-12.3023693840691,-1.5497342041619682,-6.36904866567971,-3.1421240943811677,-9.786146042949408,0.84,2.021703872098806,6.627754622148561,-5.247248848483806,10587.688433686537,0.3869647918892674,18.96602945472812,1.4746020384971728,1.2741216943323395,-0.05315606572659084,-0.2175190684246101,-0.023166380146333394,249.43970357489283,3.096270952567664,15.063684969361224,14.707917068487458
2.4299999999999997,254.30173420179594,4.461586484269629,14.373076379433101,127.91949449268841,18.49932815859495,-3.088669955546284,9.493175887635507,3.1371502116537124,-3.158026389119138,14.6976306159309,-1.856111097947454,-2.7690486656797106,-3.2680585606097363,-9.551261231282481,0.84,2.1128666737152146,7.005894841719491,-5.274224932921815,10668.84650718736,0.38844223766485586,18.90493696807808,1.5351946584249931,-0.16201310901813537,-0.04918310196478985,0.2543767571622836,-0.03154219359251846,258.0029067236244,7.211690916623887,15.527932896871674,14.168190507938329
2.46,258.1355267616139,4.533557238216435,14.218440733480099,128.48858312437818,18.493147024750442,-3.195350186924763,9.120967292127135,3.089462089348042,-3.2989274572014633,-12.3023693840691,-2.246368375859808,-6.2772011490516695,-3.3731505725555615,-9.580186181069195,0.84,2.0254631873088753,6.5952698662236395,-5.289289808989062,10751.403814699192,0.38993936134698953,18.969439946186665,1.5177280217345392,1.5013200019514426,-0.049723873705674916,-0.21456520321991335,-0.04088584859789381,257.72184677414054,2.6878528004730358,13.230011867556362,14.044383083014807
2.4899999999999998,261.98630204589614,4.607939251241851,14.06229522416741,129.05041762067256,18.486965890905935,-3.3135774689082345,9.556900892464244,2.9877796552914764,-3.3908910384294764,14.6976306159309,-2.5141782903225645,-2.67720114905167,-3.510622938880686,-9.314182428865598,0.84,2.1192107656702097,6.973938012428831,-5.296801165293346,10833.105329507223,0.3914152261428686,19.01213543725085,1.6083328890784476,-0.0010026426632715512,-0.05566757374295198,0.2560259029346322,-0.0440390853207916,261.90079774885163,3.609295950443267,13.593791673370431,11.469117149270277
2.52,265.85378539789224,4.684644469529524,13.90324148864508,129.61959368002675,18.48078475706143,-3.4306078305682735,9.183400365980177,2.92257415203811,-3.5471366192028393,-12.3023693840691,-2.873130075994039,-6.190030141595864,-3.6256584333350053,-9.333207640436749,0.84,2.0293571427857757,6.56422264771722,-5.292504299325603,10916.314560811925,0.39291258269142254,19.029486320838494,1.7624531465573445,1.5679010519243866,-0.06097864823270761,-0.22027909491035744,-0.047392785861208084,266.83570574670574,2.5386726267058406,14.568803883517567,15.099196576043266
2.55,269.7382544211863,4.76383207305007,13.742789347134508,130.18140469556965,18.47460362321692,-3.5597515969974354,9.61567089056732,2.801459891298145,-3.645450565978861,14.625110242941421,-3.0971162004893875,-2.590030141595864,-3.774991207712704,-9.038780507584534,0.84,2.1255687023100958,6.941619614666483,-5.281165311448218,10998.729514567534,0.3943899423093512,18.923682105048897,1.6706948685959613,0.13589913961275268,-0.06391815521744679,0.25780053429358035,-0.052363992294063015,269.4603621674496,6.651104710236915,13.652310716663694,13.847331112596747
2.58,273.63942958039604,4.845396113114337,13.579516568650405,130.75072087711237,18.468422489372415,-3.687384260282502,9.23868232823682,2.7214291946487212,-3.8174696264908783,-12.374889757058579,-3.4206219482284643,-6.132533355440876,-3.9001053657576126,-9.052299842513335,0.84,2.0326810523170127,6.531001039635057,-5.25826490868606,11082.757098417454,0.395890493193565,18.941016539087755,1.7729426082112545,1.7246564952509422,-0.06739890099353889,-0.21652477061595168,-0.0647537355992112,272.083916619737,4.154609706679381,16.00520383557435,14.549694403320348
2.61,277.5575953471825,4.929496710966242,13.414956481388533,131.3125090536185,18.462241355527908,-3.827760733493362,9.66942062844731,2.583155879043244,-3.9221346313546888,14.625110242941421,-3.5958178573902293,-2.5325333554408767,-4.061721522178129,-8.731058213237288,0.84,2.131531210333173,6.909550553487937,-5.229013488171079,11166.042580232084,0.39737210198212863,18.892219328889368,1.8613435424604547,0.2801301121827748,-0.07009156076065706,0.259125115679697,-0.06499872296542022,276.32935475182506,5.999697690540217,10.51665801473802,13.843522759805202
2.6399999999999997,281.4924654813447,5.016008857040735,13.247653742555862,131.88198212498293,18.4560602216834,-3.9662626503168474,9.291120625690764,2.490962869043315,-4.110565147099977,-12.374889757058579,-3.881159700117826,-6.061384424979162,-4.19709917835599,-8.743307416185504,0.84,2.036497721848594,6.50051227918174,-5.1885678023838535,11251.045837673328,0.39887855886797835,18.95731953368166,1.8719152455573425,1.9828635066634475,-0.07540999963862584,-0.21610987959275177,-0.0653482059858089,281.32187695044973,6.629165521854754,17.486692701447975,13.189242153066536
2.67,285.44433185846543,5.105095272870873,13.079168620986922,132.44382272702327,18.449879087838895,-4.118114885582436,9.717457003394255,2.338319738900694,-4.221581517931891,14.529679808892228,-4.0040506568566965,-2.4613844249791628,-4.3712019443584165,-8.398935339633837,0.84,2.1378780203058816,6.877894629263436,-5.142607549951566,11335.366267951387,0.4003672181266786,18.94768528024731,1.9526672517378996,0.39263811608688726,-0.07822203136761459,0.2543324215538742,-0.07237189288300974,286.4622422485125,3.5511572542689653,9.993756832127566,14.318075953096445
2.6999999999999997,289.41290402143466,5.196612707998563,12.90802801485919,133.01350593398448,18.443697953994388,-4.26765739813797,9.335031392052771,2.237162047246523,-4.426698063121734,-12.470320191107772,-4.248576122198811,-6.027275777303815,-4.516894919063862,-8.41484061228471,0.84,2.0395770217990474,6.468088767375054,-5.085947140896145,11421.502901726282,0.4018822176390022,18.872981811891368,1.910868956515527,1.9598453175960808,-0.08036071225583169,-0.2137430212534695,-0.07792494885637274,292.25955070711825,5.315967539533526,14.046629672915227,12.872000850094093
2.73,293.3984804083875,5.290727586979554,12.735816696754126,133.57536010727657,18.43751682014988,-4.431249829046855,9.759845538184072,2.072734423308984,-4.543988041558576,14.529679808892228,-4.3155533873695076,-2.427275777303815,-4.703903880561663,-8.048807644137343,0.84,2.143741340927655,6.8474433286450065,-5.024777797168572,11506.997987002702,0.40338021242753114,18.841297178322453,2.0518145425360004,0.4353119250695112,-0.07928699642666488,0.25542156075040295,-0.07293312861847132,292.5508311368504,4.648106717185072,12.586026112064307,12.444138922979102
2.76,297.40076297423315,5.387276698898084,12.561026316224503,134.14523508055711,18.431335686305374,-4.592063311491096,9.376233809864576,1.9655362304241868,-4.766503513953808,-12.470320191107772,-4.518529014145553,-5.972954569346194,-4.860085782231496,-8.07278162881623,0.84,2.0434051484644997,6.44007710208213,-4.95349165230661,11594.40703287321,0.40490598689837404,18.904329716290796,2.085108464767778,2.229275870478486,-0.0811072697817086,-0.2191702906795881,-0.07827684561939632,297.2160373031149,6.503043353894218,13.19344074666403,12.062720231724356
2.79,301.4200574112543,5.486432530091587,12.385270704629168,134.7071659536878,18.425154552460867,-4.767639728246536,9.799585968700493,1.792167044485115,-4.889992930226196,14.529679808892228,-4.527942899720933,-2.3729545693461946,-5.0602670895056026,-7.68828262421128,0.84,2.15060238900713,6.822048643545128,-4.878822604063827,11681.224754961597,0.40641567704694614,18.75144874050585,2.0336355552746936,0.6317110682639541,-0.08221873421447677,0.2553417569636126,-0.0772373284140214,300.4347622795908,3.5334036936494226,13.781585267822539,11.20905054565261
2.82,305.45606150155567,5.58801349342331,12.207027067138126,135.27730321574296,18.41897341861636,-4.9399181954765625,9.414916792658168,1.6821081831540443,-5.130344617900116,-12.470320191107772,-4.689169428383029,-5.921545159576543,-5.227048974193273,-7.725039522901999,0.84,2.0477539032951664,6.417787278262144,-4.794704297783435,11770.051117391347,0.4079544921040177,18.916934305099474,2.226123984877984,2.4425806508128014,-0.09030512861718505,-0.21639475235143527,-0.08067418877351404,305.6958132569779,8.002429058640534,11.780975108426736,11.681349009122881
2.85,309.5090883712825,5.692200255050999,12.027939935367495,135.83933997062732,18.412792284771854,-5.1277193231123555,9.836910438823466,1.5026812482399443,-5.2599394565127096,14.529679808892228,-4.639746857029885,-2.321545159576544,-5.440721202505344,-7.324745671450333,0.84,2.158207349459052,6.802963020088583,-4.708452046811548,11858.325032930352,0.4094779173541201,18.807072359934775,2.1803276839222865,0.7416669362203833,-0.09189680535455103,0.25441365362360446,-0.07788100584125633,309.89554036254276,6.416354412333871,14.060988383916374,11.636051984925961
2.88,313.5788302824375,5.798792341366532,11.846466634264358,136.40977584288615,18.406611150927347,-5.311662194347153,9.451362815875928,1.3929577668130326,-5.518703177157902,-12.470320191107772,-4.7600089814518824,-5.872178949352089,-5.618233646405148,-7.378953369703874,0.84,2.0527955745355726,6.402408704194727,-4.613482593897531,11948.698904526276,0.4110317170896523,18.83452451399816,2.1286907558910126,2.594538396341409,-0.0973465178779197,-0.2199814056987336,-0.08378937744176716,312.70883725335915,4.77196067723302,8.32722872204329,11.561070022195981
2.9099999999999997,317.66560793035484,5.907981055299734,11.664283945216777,136.97194172778114,18.40043001708284,-5.511938960292126,9.872147331568604,1.2103396578817953,-5.654253594029425,14.529679808892228,-4.651368952140643,-2.2721789493520896,-5.845733570200415,-6.96542596564152,0.84,2.166769270344643,6.7914044443643045,-4.517733608222548,12038.551874246446,0.41257067145210047,18.79129661599946,2.252348541985677,0.868433215714364,-0.09819255723737594,0.255882239202106,-0.08080568383720009,317.5546189959699,4.837794151804405,11.133463865508011,11.89935851826373
2.94,321.7691078446983,6.019547151595888,11.479830705203293,137.54270917542254,18.394248883238333,-5.707762731696181,9.48595290723118,1.1041051282394971,-5.932090266781027,-12.470320191107772,-4.73245709784532,-5.823809954622784,-6.034135684036272,-7.041634074841268,0.84,2.058734399549848,6.395184363512554,-4.414043243530536,12130.593107099423,0.41414116340538226,18.875231413322958,2.2508416632182473,2.735586355700226,-0.10142957486439834,-0.21699925898979547,-0.08061606892570419,321.88199654076783,6.421412666569956,8.490863087610192,11.765049638458601
2.9699999999999998,325.8896584761182,6.133695311636566,11.29481758662035,138.1050243371899,18.388067749393826,-5.920788781542123,9.905724523499535,0.9210861063325037,-6.073410401216007,14.529679808892228,-4.565111602837534,-2.223809954622785,-6.275832197952029,-6.617252602513689,0.84,2.176535910139738,6.7886372705095805,-4.311015039184005,12222.137281583575,0.41569720286023465,18.704919902955282,2.176595494659373,1.1024166456978541,-0.1017064223034187,0.2545602530512355,-0.07801401037782536,323.69265626606756,8.679105366748557,9.149230215409908,10.345715328361804
3.0,330.02694042882416,6.250187717643646,11.107666482924895,138.6761563925373,18.38188661554932,-6.128739953791121,9.519168102153332,0.821393103729091,-6.371089710149484,-12.470320191107772,-4.609819005807048,-5.775227348911775,-6.475325240872784,-6.719823717532473,0.84,2.065809053230354,6.397396044162798,-4.200842650807863,12315.95557568155,0.4172858688916212,18.804796201562805,2.261464040107004,3.04708393075453,-0.11069026884085696,-0.22033867591084855,-0.0802431287705186,334.1806890900992,10.065768531107041,6.627589279695627,10.867809819006458
3.03,334.1812901570987,6.369245457163356,10.920123670553053,139.2386416507881,18.375705481704813,-6.354824727088696,9.938168874607323,0.6406285678668459,-6.517955980759906,14.529679808892228,-4.385151492032348,-2.175227348911776,-6.731632682584653,-6.2867155191408965,0.84,2.1877917533050892,6.795956923454392,-4.092841937674958,12409.292679632603,0.41886032392784156,18.65887738697055,2.177911705179046,1.3366781762782651,-0.11596339463557238,0.25548311713222827,-0.07702590091841328,334.23284430525047,5.468966104023049,11.453070993124893,11.986273609740495
3.06,338.35238217722923,6.49061241496637,10.730595791236468,139.81017569736304,18.369524347860306,-6.575193264220859,9.551586946229536,0.550371686735942,-6.8363886772782845,-12.470320191107772,-4.3972512147632346,-5.7250759034938925,-6.942474159441132,-6.419761007734052,0.84,2.0742950456295737,6.410348564452015,-3.9784920756550313,12504.98800405481,0.42046843468970485,18.69664999722835,2.3216705468801355,3.2054584340194663,-0.11748108250294177,-0.21832627569372715,-0.07682573282552331,335.9910432901355,4.893186896556149,11.153060455419324,10.445026818322464
3.09,342.5405612658138,6.614529399288078,10.540866487715606,140.3728570896149,18.3633432140158,-6.8145267697189835,9.96234972468493,0.3752514042174627,-6.988533433927415,14.26949772574646,-4.117474274684779,-2.125075903493893,-7.213415945549192,-5.983314265011676,0.84,2.199912072163758,6.806868839418425,-3.8678557918884566,12600.209787517762,0.4220624252758393,18.682258501883727,2.34222964946983,1.5637809195426533,-0.12189807952795792,0.2519603013969658,-0.0708501441130654,345.8711243980387,6.145035510651606,11.623398609544362,12.083127717861537
3.12,346.74549572806626,6.740722339104846,10.349328980022724,140.9447512657042,18.357162080171292,-7.0474448666982195,9.568389042163757,0.29815401129531416,-7.3280500115908955,-12.73050227425354,-4.098887249729492,-5.7250759034938925,-7.435641694996946,-6.152191765761982,0.84,2.0816996925034927,6.419586611138377,-3.7516994217837896,12697.858489752149,0.4236908154712024,18.772068936983146,2.30106467305377,3.4345948418794583,-0.12736691931579208,-0.21997599887335598,-0.06817316525922384,345.8828225939009,8.500010222583526,9.65622778736421,9.517710957411863
