time_s,x_m,y_m,altitude_m,vx_mps,vy_mps,vz_mps,speed_mps,mass_kg,roll_deg,pitch_deg,yaw_deg,p_dps,q_dps,r_dps,alpha_deg,beta_deg,qbar_pa,mach,airspeed_mps,load_factor_g,density_kgpm3,pressure_pa,temperature_k,wind_x_mps,wind_y_mps,wind_z_mps,thrust_n,mass_flow_kgps,propulsion_throttle_actual,propulsion_health,energy_j_per_kg,target_distance_m,guidance_mode,pitch_command_deg,heading_command_deg,roll_command_deg,elevator_command_deg,aileron_command_deg,rudder_command_deg,elevator_deg,aileron_deg,rudder_deg,throttle,elevator_saturated,aileron_saturated,rudder_saturated,elevator_failed,aileron_failed,rudder_failed,elevator_raw_rad,aileron_raw_rad,rudder_raw_rad,elevator_effective_rad,aileron_effective_rad,rudder_effective_rad,imu_ax_mps2,imu_ay_mps2,imu_az_mps2,gyro_p_rps,gyro_q_rps,gyro_r_rps,gps_valid,gps_x_m,gps_y_m,gps_z_m,gps_vx_mps,gps_vy_mps,gps_vz_mps,baro_alt_m,pitot_airspeed_mps,pitot_qbar_pa,mag_heading_deg
0.0,0.0,0.0,1000.0,84.0,2.0,15.0,85.35221145348257,19.0,-2.5157817934715475e-17,9.0,2.0,0.0,0.0,0.0,-0.7222147929914944,-7.13853957585605,4243.671980701213,0.2597188600228231,87.37824754723981,1.6251479458370872,1.1116425003060326,89874.56291621955,281.65,-1.7826439091004773,9.86942436359809,0.3586780454497614,319.2,0.17131232378029196,0.84,nominal,13449.15,nan,heading_hold,18.0,-5.0,0.0,-20.05352282957881,-0.0,-14.32394487827058,-2.6999999999999997,0.0,-2.6999999999999997,0.84,0.0,0.0,0.0,0.0,0.0,0.0,-0.047123889803846894,0.0,-0.047123889803846894,-0.047123889803846894,0.0,-0.047123889803846894,15.863658976337863,1.058966646731392,-0.6930371942163254,-0.001279898773872129,0.002068087163747687,0.0005281361201269382,1.0,0.5354505256823202,1.4183609496089247,1000.3550402325627,83.88261463530795,2.0393493499509656,15.053550255708195,1000.7418586383787,87.66706131630349,4205.12851111079,1.5022286437970536
0.03,2.5341750666266845,0.06149453241160598,1000.4427801476453,84.47250222088948,2.049817747053533,14.759338254844302,85.77670691962489,18.994860630286592,0.0625806098799806,9.331007279175314,1.9069286083283399,1.5918500267886655,-11.035278524387659,-3.0567571876345423,-0.1796335364748719,-7.108609057614929,4281.236709253624,0.2608728406142633,87.76603739383036,1.657684587861955,1.1115941567030745,89869.73605830262,281.6471219290403,-1.7376095109045648,10.04690527549587,0.38086315943698384,324.87,0.17435537163691558,0.84,nominal,13489.813914922517,nan,heading_hold,18.0,-5.0,0.0,-2.104143326166681,0.1262042299246268,-2.6527196377068534,-2.342485995700008,0.07572253795477607,-2.671631782624112,0.84,0.0,0.0,0.0,0.0,0.0,0.0,-0.040884093306822876,0.0013216076052772155,-0.04662877100771618,-0.040884093306822876,0.0013216076052772155,-0.04662877100771618,16.211418369808747,1.0967972166871447,-0.32858744112968064,0.02754816191419884,-0.19416671667767188,-0.05272583349480048,1.0,0.5354505256823202,1.4183609496089247,1000.3550402325627,83.88261463530795,2.0393493499509656,15.053550255708195,1000.7418586383787,88.62076932740239,4320.608277901566,1.5022286437970536
0.06,5.0827587281244035,0.12447038443673039,1000.8787999615308,84.95278871659063,2.0991950675041466,14.533993796185685,86.21264354098352,18.989629969137486,0.19067211054732056,9.894443853713325,1.719295569685746,3.2252900499515014,-18.794959311341092,-6.125175208085628,0.5778448913143169,-6.977777591328825,4320.319735811621,0.262067807908967,88.16761932726394,1.6830269014919665,1.1115465527783457,89864.98310161752,281.64428780025,-1.695899461264263,10.211129355173762,0.40139116939672026,330.53999999999996,0.17739841949353916,0.84,nominal,13531.57803680509,nan,heading_hold,18.0,-5.0,0.0,0.14342861657592612,0.28022107313714223,-2.3217493695543774,-0.8509372283344477,0.1984216590641958,-2.461702334782271,0.84,0.0,0.0,0.0,0.0,0.0,0.0,-0.014851656362230896,0.003463111257939867,-0.042964810945982354,-0.014851656362230896,0.003463111257939867,-0.042964810945982354,16.466327196502725,1.204702859026425,0.31252921716654225,0.05942133519784598,-0.3309231348641954,-0.10612219295530743,1.0,0.5354505256823202,1.4183609496089247,1000.3550402325627,83.88261463530795,2.0393493499509656,15.053550255708195,1000.2385032669447,87.81666780464771,4354.248188480479,0.7361527690705953
0.09,7.645852066835786,0.18888826332798223,1001.3088324356719,85.43644462371276,2.1472626297083943,14.334415804701084,86.65721137449407,18.984308016552678,0.38798835622292044,10.455522820740015,1.435535505503022,4.906266402636398,-18.74957023014398,-9.215485137652323,1.3087874827357981,-6.74725757426572,4360.672158626469,0.263295706386034,88.58028233344871,1.707667033399041,1.11149960406916,89860.29561098694,281.64149258916814,-1.6576912320270654,10.361382077277707,0.42017275965971335,336.21,0.18044146735016278,0.84,nominal,13574.221403207153,nan,heading_hold,18.0,-5.0,0.0,0.4334594225423222,0.4646563341373498,-1.9462314078240193,-0.08029923780838583,0.3581624641080882,-2.15241977860732,0.84,0.0,0.0,0.0,0.0,0.0,0.0,-0.001401486086598248,0.006251114255742155,-0.03756681202174514,-0.001401486086598248,0.006251114255742155,-0.03756681202174514,16.653014823142094,1.2182079709110412,0.9698806261548854,0.08802213146069485,-0.33312311712302545,-0.15645627583321892,1.0,0.5354505256823202,1.4183609496089247,1000.3550402325627,83.88261463530795,2.0393493499509656,15.053550255708195,1000.2385032669447,88.60711557714673,4303.968910559874,0.7361527690705953
0.12,10.223529165574298,0.2546722977317616,1001.7335924838441,85.92256995795042,2.1928011467926454,14.158668272404752,87.10892200168855,18.978894772532172,0.6571681599372972,10.870903595210553,1.0557061379764001,6.62991013423329,-13.959011594118936,-12.315688237100794,1.8724810752459615,-6.418489817255516,4402.184603960572,0.2645528058714283,89.00277066670762,1.7340552521706858,1.1114532324652968,89855.66578583649,281.638731648855,-1.6231471851062294,10.497009704672017,0.4371262130840022,341.88,0.18348451520678638,0.84,nominal,13617.632880879819,nan,heading_hold,18.0,-5.0,0.0,-0.5523564062316516,0.6786418621686916,-1.5305182645457769,-0.3635335388623453,0.5504501029444503,-1.779278870170394,0.84,0.0,0.0,0.0,0.0,0.0,0.0,-0.006344857194574686,0.00960716666432239,-0.031054274595638098,-0.006344857194574686,0.00960716666432239,-0.031054274595638098,16.899156772744252,1.0608111749097822,1.3255911956534958,0.11638172963733924,-0.24102876608319804,-0.2114715039940985,1.0,0.5354505256823202,1.4183609496089247,1000.3550402325627,83.88261463530795,2.0393493499509656,15.053550255708195,1001.4703275471788,89.4323208801432,4353.11158461497,1.6985441046753518
0.15,12.815914042610805,0.3217039979939629,1002.1535740563116,86.41282923455022,2.234390008740042,13.99938574891786,87.56798705221959,18.973390237075968,0.9993574754299144,11.133589279575748,0.5809910664572799,8.386360198348093,-8.979846355831883,-15.404953373909889,2.269129197953865,-5.993078804648435,4444.92097323157,0.2658406139544353,89.43559094168678,1.7611729974770813,1.1114073839889818,89851.08823531267,281.63600176863395,-1.5924141057166699,10.61742213279545,0.45217776659943126,347.55,0.18652756306341,0.84,nominal,13661.845525208177,nan,heading_hold,18.0,-5.0,0.0,-1.6818313536304619,0.9200906422214887,-1.078109390527765,-1.1545122277232154,0.7722344265106734,-1.3585771823848165,0.84,0.0,0.0,0.0,0.0,0.0,0.0,-0.020150039628304663,0.013478033339861436,-0.023711644975082557,-0.020150039628304663,0.013478033339861436,-0.023711644975082557,17.135789234307495,1.0911500688449376,1.6122530887134652,0.14358976109580515,-0.15286270449946054,-0.2681966177958808,1.0,0.5354505256823202,1.4183609496089247,1000.3550402325627,83.88261463530795,2.0393493499509656,15.053550255708195,1001.4703275471788,90.32014272541194,4432.318964662098,1.6985441046753518
0.18,15.42317994223689,0.3898203176461541,1002.5690910256736,86.90886332086951,2.2705439884063736,13.850565645399332,88.03490252409202,18.967794410184066,1.4148997636709062,11.306090027517914,0.01285431891711871,10.166578841512795,-6.140111676634865,-18.450920212853816,2.5682423683686015,-5.473382106816214,4488.974434761182,0.2671614674643622,89.87952891980338,1.7887599168646082,1.1113620243276143,89846.55953214859,281.6333009083331,-1.565622499172184,10.722095457157224,0.46526193214465283,353.21999999999997,0.18957061092003358,0.84,nominal,13706.916207720114,nan,heading_hold,18.0,-5.0,0.0,-2.34078841762501,1.1877853976864454,-0.5903674871714139,-1.8662779416642923,1.0215650092161366,-0.8976513652567751,0.84,0.0,0.0,0.0,0.0,0.0,0.0,-0.03257269483938456,0.0178296729339878,-0.01566697185875296,-0.03257269483938456,0.0178296729339878,-0.01566697185875296,17.446580660229902,0.9504476457085046,1.640281795948828,0.1751333312653708,-0.11215290271399048,-0.32722864416181807,1.0,0.5354505256823202,1.4183609496089247,1000.3550402325627,83.88261463530795,2.0393493499509656,15.053550255708195,1004.4274948890009,89.55857711277048,4545.62254975295,-0.7020095825312735
0.21,18.045522920905764,0.45881170569661234,1002.9803851468921,87.4114326222958,2.299712935015274,13.709804040616191,88.50992011914671,18.962107291856466,1.9039359012143893,11.446175775834917,-0.6467471145901614,11.964337393664177,-5.291786872707547,-21.410835158670825,2.8327907636658676,-4.863149593947809,4534.413139120716,0.2685169043162401,90.33510164690233,1.8167806950449792,1.1113171270457016,89842.07703566283,281.6306274965452,-1.542885859079159,10.810574252802013,0.47632178160025157,358.89,0.1926136587766572,0.84,nominal,13752.880573749635,nan,heading_hold,18.0,-5.0,0.0,-2.536397689978527,1.4814377946641932,-0.06942905585266768,-2.268349790652833,1.2974886804849706,-0.4007179796143107,0.84,0.0,0.0,0.0,0.0,0.0,0.0,-0.03959017243381603,0.022645449481819433,-0.006993848116209239,-0.03959017243381603,0.022645449481819433,-0.006993848116209239,17.75557060005094,1.0134677684195739,1.8059645443641505,0.20995484548452545,-0.0948618763765835,-0.3765001121078746,1.0,19.65093437427636,3.1209955494835606,1002.3204278253795,87.55820362473884,2.3831859131021935,13.708666433964215,1004.4274948890009,89.96401051991145,4536.288721328473,-0.7020095825312735
0.24,20.68313914946821,0.5284202460670466,1003.3877000649711,87.92054095208158,2.320284679014478,13.577163935968441,88.99294703987775,18.956328882093167,2.466385840251328,11.576120208784578,-1.394397435405652,13.774985169790664,-5.259502370710279,-24.237986106809164,3.0891265443282294,-4.167724651197389,4581.270083254426,0.2699073835454206,90.80246319775834,1.8451543061567466,1.1112726655051637,89837.63808506232,281.62797994957765,-1.5243000609459982,10.882473555826179,0.4853091944782724,364.56,0.19565670663328083,0.84,nominal,13799.744300263392,nan,heading_hold,18.0,-5.0,0.0,-2.5519940967957013,1.8006516091495388,0.4793811117116439,-2.438536374338554,1.5993864376837115,0.12734147518126201,0.84,0.0,0.0,0.0,0.0,0.0,0.0,-0.042560488661852726,0.027914559349323874,0.002222528016259665,-0.042560488661852726,0.027914559349323874,0.002222528016259665,18.020911634817136,0.9501491013416801,2.073075427799887,0.24454440658510865,-0.09384434321165128,-0.419208145184404,1.0,19.65093437427636,3.1209955494835606,1002.3204278253795,87.55820362473884,2.3831859131021935,13.708666433964215,1004.7066483683791,90.55297354648332,4623.709023712842,-2.469733471450299
0.27,23.336216854935795,0.598338754262323,1003.7912964663981,88.43592351558614,2.330616939842544,13.453213380899708,89.48370406753904,18.950459180894168,3.1016105632622852,11.691134333576292,-2.2245990164362714,15.593731648579892,-5.145848480812802,-26.887374342898354,3.336616702968069,-3.393872160253021,4629.559105041079,0.2713327803877481,91.28157122292959,1.8737557400602953,1.11122861121146,89833.23983432383,281.62535657296837,-1.5099429207194563,10.937480538323786,0.4921850672904733,370.22999999999996,0.1986997544899044,0.84,nominal,13847.496564315652,nan,heading_hold,18.0,-5.0,0.0,-2.615790740961915,2.144271568826712,1.0482024696515835,-2.5448889943125708,1.9263175163695119,0.6798580718634549,0.84,0.0,0.0,0.0,0.0,0.0,0.0,-0.044416692048521604,0.03362058309948775,0.011865761800277508,-0.044416692048521604,0.03362058309948775,0.011865761800277508,18.204530507733175,0.7052149842907408,2.3129507879507454,0.27150415295439934,-0.0896295375770519,-0.4683356366783463,1.0,19.65093437427636,3.1209955494835606,1002.3204278253795,87.55820362473884,2.3831859131021935,13.708666433964215,1004.7066483683791,91.4476632890323,4597.089070243891,-2.469733471450299
0.3,26.004937960695145,0.6682113108290187,1004.1914342536099,88.9573701919783,2.329085218889858,13.337926240395028,89.98187943038164,18.94449818825947,3.808220498845529,11.780065247646434,-3.1299821069930607,17.415293909848053,-4.73974723469756,-29.317128112220267,3.5689123738219997,-2.5495541430533875,4679.290023820077,0.2727928422403187,91.77234036469164,1.9024859817669746,1.111184935759439,89828.87944646519,281.6227556773515,-1.499873881250864,10.975355869474885,0.49691948368436056,375.9,0.20174280234652803,0.84,nominal,13896.123241635032,nan,heading_hold,18.0,-5.0,0.0,-2.7870814792802867,2.51056040056801,1.628947393088517,-2.6902044852932003,2.276863246888611,1.2493116645984923,0.84,0.0,0.0,0.0,0.0,0.0,0.0,-0.046952925820285714,0.039738760275854795,0.021804601930814772,-0.046952925820285714,0.039738760275854795,0.021804601930814772,18.465090025341127,0.6543548272774031,2.470608504468572,0.3006368652050189,-0.08115768938525646,-0.5138990196632874,1.0,19.65093437427636,3.1209955494835606,1002.3204278253795,87.55820362473884,2.3831859131021935,13.708666433964215,1006.9263306009888,91.8806661596454,4665.328630866225,-2.297547929330959
0.32999999999999996,28.689480672604144,0.7376349379529727,1004.5883545037349,89.48475706363334,2.3141209041317987,13.230675004164189,90.48716850118713,18.938445904189074,4.584177821524226,11.838219759738948,-4.101936454816694,19.234832193062605,-4.253877948233536,-31.487016413479388,3.78658648032541,-1.6438543978056577,4730.471796962637,0.2742872834994309,92.2746741819061,1.9313343619733996,1.1111416128023823,89824.55429012174,281.6201756957257,-1.4941337790308817,10.995934756854064,0.49949184460675794,381.57,0.20478585020315163,0.84,nominal,13945.610218375166,nan,heading_hold,18.0,-5.0,0.0,-3.014682037133038,2.8977244419979638,2.2146915718860405,-2.884891016397103,2.6493799639542224,1.8285396089710213,0.84,0.0,0.0,0.0,0.0,0.0,0.0,-0.05035084679733517,0.04624040350736987,0.03191403667967396,-0.05035084679733517,0.04624040350736987,0.03191403667967396,18.670826528318056,0.49157862093035204,2.5230019734502136,0.333472176325315,-0.07086573953575992,-0.549129449026901,1.0,19.65093437427636,3.1209955494835606,1002.3204278253795,87.55820362473884,2.3831859131021935,13.708666433964215,1006.9263306009888,92.25359111314016,4688.737617852382,-2.297547929330959
0.36,31.390018277972196,0.8061618243973682,1004.9822758950753,90.0179201789351,2.2842295481465125,13.130713044682688,90.99922682655912,18.93230232868298,5.42702941501457,11.868294757194517,-5.131017916849542,21.049106615215656,-3.9280085684955313,-33.357118103256866,3.997545309539237,-0.6870274001619812,4783.10671927682,0.2758156194759835,92.78840928098757,1.9603699403792427,1.1110986184416516,89820.26197843459,281.617615206682,-1.4927446703002292,10.999127663428633,0.4998909579285791,387.24,0.20782889805977525,0.84,nominal,13995.93907742222,nan,heading_hold,18.0,-5.0,0.0,-3.235515017011416,3.3042129510723655,2.7992447571643635,-3.095265416765691,3.042279756225108,2.4109626978870264,0.84,0.0,0.0,0.0,0.0,0.0,0.0,-0.0540225727456758,0.05309779851289859,0.04207923722089395,-0.0540225727456758,0.05309779851289859,0.04207923722089395,18.97980896768364,0.37773243599641504,2.7671035630738214,0.36821964243405864,-0.07205302863146998,-0.5799503960419793,1.0,19.65093437427636,3.1209955494835606,1002.3204278253795,87.55820362473884,2.3831859131021935,13.708666433964215,1005.0177219553914,92.27268827852293,4808.666498453898,-3.494486769765034
0.39,34.10671456519581,0.8733018097977261,1005.3734023152381,90.55654290745368,2.237999513345265,13.037547338760383,91.51761440171859,18.926067461741187,6.334075259376469,11.875438782656419,-6.206901973507761,22.8570985251287,-3.832774793895502,-34.88820233835103,4.211636830133573,0.30945889499495893,4837.183763841116,0.27737698149903256,93.31325310795991,1.9896857909079817,1.1110559303959227,89816.00028610001,281.6150728849509,-1.4957097222454365,10.984920697126826,0.4981150871408533,392.90999999999997,0.21087194591639885,0.84,nominal,14047.081948705552,nan,heading_hold,18.0,-5.0,0.0,-3.4262805327637826,3.7286694147182478,3.3759229799618327,-3.2938744863645457,3.454113551320992,2.9899388671319103,0.84,0.0,0.0,0.0,0.0,0.0,0.0,-0.05748895493449839,0.06028565420830544,0.0521842776648011,-0.05748895493449839,0.06028565420830544,0.0521842776648011,19.170729039132517,0.23550701631838009,3.0043039772456903,0.4030611903555904,-0.06578134893800755,-0.6065449810489291,1.0,19.65093437427636,3.1209955494835606,1002.3204278253795,87.55820362473884,2.3831859131021935,13.708666433964215,1005.0177219553914,93.10124089251126,4771.611273129949,-3.494486769765034
0.42,36.83971855949107,0.9385252888425519,1005.7619322742175,91.10013314317533,2.1741159681608595,12.950998632648957,92.04178075488413,18.919741303363697,7.302432292456114,11.86310109562292,-7.318132449619046,24.66010985666296,-3.895360048514262,-36.04332765275977,4.436241715924975,1.3329730919174925,4892.676171300537,0.2789700598096004,93.84876473008984,1.999141303191243,1.111013526973584,89811.76704677295,281.61254744021755,-1.5030131837684102,10.953375671281055,0.49417195891013177,394.7778947368421,0.21187443146760623,0.84,nominal,14098.999955402034,nan,heading_hold,18.0,-5.0,0.0,-3.5992193809735005,4.169779690825744,3.936896898470093,-3.4770814231299183,3.883513235023843,3.55811368593482,0.84,0.0,0.0,0.0,0.0,0.0,0.0,-0.06068651919354719,0.06778009249594243,0.06210079897983406,-0.06068651919354719,0.06778009249594243,0.06210079897983406,19.29710706108703,-0.007911922986386525,3.1375843010656177,0.4302209195936176,-0.06880765362178655,-0.6289856612828656,1.0,36.93063963953744,-4.913844991063718,1008.4714547446426,91.12043163523973,2.288114409981048,12.829343840791132,1006.4914650972648,94.45593567847166,4812.5437921070825,-6.104814895759949
0.44999999999999996,39.588985063828986,1.0012894018152505,1006.148027062397,91.64221681126396,2.0921370990899546,12.869826272646788,92.56514121424009,18.913385070419668,8.329076126050547,11.832152470679567,-8.452011081101123,26.461767054994827,-4.008517659362993,-36.78945548475612,4.6755527750784855,2.3699400730027826,4948.913180169919,0.2805753075940502,94.38836813073681,1.9989795800899164,1.110971390547629,89807.56049996574,281.6100378240944,-1.5146205004856,10.904629835683219,0.4880787294604023,394.7447368421052,0.2118566358661055,0.84,nominal,14151.09423359756,nan,heading_hold,18.0,-5.0,0.0,-3.775342468708123,4.626249700108394,4.473521004681352,-3.656038050476841,4.329155114074574,4.10735807718274,0.84,0.0,0.0,0.0,0.0,0.0,0.0,-0.06380990155901552,0.07555801057015202,0.07168692200522218,-0.06380990155901552,0.07555801057015202,0.07168692200522218,19.300286723978815,-0.15365314174877368,3.428382080829516,0.46287554128870656,-0.07260183822389166,-0.6402055883358764,1.0,36.93063963953744,-4.913844991063718,1008.4714547446426,91.12043163523973,2.288114409981048,12.829343840791132,1006.4914650972648,94.80405099375264,4893.318784960627,-6.104814895759949
0.48,42.354361497516116,1.0610400131773088,1006.5318303627519,92.17921445623769,1.9916870454019453,12.793443345163585,93.08408342827356,18.907029371343686,9.410930595936964,11.782134538322202,-9.594738993336525,28.26798986555707,-4.102060172990037,-37.09834073320544,4.931322724837299,3.406053723048791,5005.517251631837,0.2821818796659682,94.92841472917091,1.999402409268393,1.1109295054147497,89803.37907730126,281.60754310264207,-1.5304784346003095,10.838895279422252,0.4798619099277814,394.7115789473684,0.2118388402646048,0.84,nominal,14203.028668067776,nan,heading_hold,18.0,-5.0,0.0,-3.965994125221921,5.096916491721948,4.977064809829058,-3.8420116953238885,4.789811940662998,4.629182116770531,0.84,0.0,0.0,0.0,0.0,0.0,0.0,-0.06705575398353109,0.08359798891590858,0.08079446961208638,-0.06705575398353109,0.08359798891590858,0.08079446961208638,19.231458134270124,-0.311116515982339,3.666088885966826,0.4920639768635385,-0.07391094768697336,-0.647522976395246,1.0,36.93063963953744,-4.913844991063718,1008.4714547446426,91.12043163523973,2.288114409981048,12.829343840791132,1007.5988972062694,94.29760966911677,5010.607914579615,-9.096191912942137
0.51,45.13567544822578,1.1172076543563279,1006.9134860805976,92.71046502365552,1.8722547059673007,12.72185726152618,93.59797708694947,18.900674206135747,10.545029308450463,11.712683786922506,-10.731704781912217,30.087556221943956,-4.149504397878199,-36.947220675552934,5.204123628535776,4.426332284225366,5062.416122067848,0.283787730670242,95.46821633175136,2.0004949509172274,1.1108878558493185,89799.22120823408,281.6050623404761,-1.550515268853586,10.75645800810207,0.46955725101275875,394.67842105263156,0.21182104466310406,0.84,nominal,14254.73879565685,nan,heading_hold,18.0,-5.0,0.0,-4.17059909441974,5.580924778813513,5.439224777938329,-4.0391641347814,5.264479643553306,5.115207713471209,0.84,0.0,0.0,0.0,0.0,0.0,0.0,-0.07049671318040343,0.09188250318422267,0.0892772165234833,-0.07049671318040343,0.09188250318422267,0.0892772165234833,19.175542806835303,-0.5707497706538112,3.911455120873163,0.5239120324297818,-0.06789913782640976,-0.6509258975495916,1.0,36.93063963953744,-4.913844991063718,1008.4714547446426,91.12043163523973,2.288114409981048,12.829343840791132,1007.5988972062694,95.0388190263537,5183.80356270336,-9.096191912942137
0.54,47.93273499375289,1.1692133619952623,1007.2931377612804,93.23531818423696,1.7335235879644841,12.655056022758355,94.10621713725979,18.894319574795855,11.728715528440041,11.62410492549951,-11.84775425049341,31.932795069649885,-4.140466017475416,-36.31942621896912,5.493904567730504,5.41531595575743,5119.533679720426,0.2853907537371495,96.00706405990499,2.00234672783135,1.1108464261669084,89795.08532639072,281.60259460455165,-1.5746411184943514,10.657676699454912,0.457209587431864,394.6452631578947,0.21180324906160333,0.84,nominal,14306.161301369204,nan,heading_hold,18.0,-5.0,0.0,-4.383429710722246,6.0778608016033076,5.852188701423783,-4.245723480345908,5.752508338383308,5.557396306242754,0.84,0.0,0.0,0.0,0.0,0.0,0.0,-0.07410185386126884,0.10040021075321681,0.09699486338210715,-0.07410185386126884,0.10040021075321681,0.09699486338210715,19.099724071452634,-0.7715782171537167,4.189052360112338,0.5584090199053826,-0.07638294425594376,-0.6324346644178541,1.0,36.93063963953744,-4.913844991063718,1008.4714547446426,91.12043163523973,2.288114409981048,12.829343840791132,1008.6727819391625,95.44763475906116,5163.952016073298,-10.172583515462637
0.57,50.74532970897119,1.2164746684788836,1007.6709284984656,93.75315717394349,1.575376882787377,12.593024572842745,94.60824784498017,18.887965477324006,12.959846248882137,11.517217189759817,-12.92737840779591,33.82013259787218,-4.057073583740662,-35.20509098300658,5.799708942039038,6.357271377676909,5176.792575794782,0.28698885442732935,96.54425322593363,2.0050368981672864,1.110805200734276,89790.96987056517,281.60013896475994,-1.602748321561236,10.542981142764262,0.4428726428455327,394.6121052631579,0.21178545346010264,0.84,nominal,14357.236391108076,nan,heading_hold,18.0,-5.0,0.0,-4.599750465061762,6.5878307211788885,6.208496684080946,-4.45813967117542,6.253701768060656,5.948056532945669,0.84,0.0,0.0,0.0,0.0,0.0,0.0,-0.07780921577578842,0.10914768629044921,0.1038131705946605,-0.07780921577578842,0.10914768629044921,0.1038131705946605,19.11944987143698,-1.0205556436342968,4.420856569482052,0.5940474320803978,-0.07551382164845942,-0.6099425303563485,1.0,36.93063963953744,-4.913844991063718,1008.4714547446426,91.12043163523973,2.288114409981048,12.829343840791132,1008.6727819391625,95.66014432045739,5225.585746503335,-10.172583515462637
0.6,53.57323257996917,1.2584116854351353,1008.0470006794889,94.26342903326604,1.3979005652083911,12.535739367439342,95.10359057673986,18.881611913720203,14.236998804064104,11.393051086201492,-13.954871377248464,35.77059652164063,-3.8697722053193626,-33.60197144073901,6.119290608038465,7.23642244121004,5234.117434599093,0.2885800385934483,97.079112889991,2.008615981362869,1.1107641639971124,89786.87328748856,281.5976944955833,-1.6347119067589393,10.41287036888731,0.4266087961109138,394.57894736842104,0.2117676578586019,0.84,nominal,14407.910589507588,nan,heading_hold,18.0,-5.0,0.0,-4.817234050891281,7.111537173392414,6.501027230317826,-4.673596299004937,6.7684030112597116,6.279838951368963,0.84,0.0,0.0,0.0,0.0,0.0,0.0,-0.08156964332665753,0.1181309176483808,0.10960386619637646,-0.08156964332665753,0.1181309176483808,0.10960386619637646,19.006556922010972,-1.271397738079898,4.862658036553624,0.6252931673958174,-0.06754334288880977,-0.5871915084258525,1.0,36.93063963953744,-4.913844991063718,1008.4714547446426,91.12043163523973,2.288114409981048,12.829343840791132,1008.6790463418029,97.22859585806064,5227.890486575868,-14.55657656070414
0.63,56.416203052891746,1.294453267508446,1008.4214949289791,94.76568243075236,1.2013860691103562,12.483141649674208,95.59187580803659,18.875258883984444,15.55969354980018,11.252754974189134,-14.914530495555447,37.810325173508204,-3.545389981633714,-31.516196722631165,6.4489985735684074,8.03720397696148,5291.4387085540075,0.29016251491016815,97.61104035166495,2.0130911930805717,1.1107233005952795,89782.79404333142,281.5952602829616,-1.6703901378532617,10.267910479013079,0.4084888098766347,394.54578947368424,0.2117498622571012,0.84,nominal,14458.140013494818,nan,heading_hold,18.0,-5.0,0.0,-5.034264957750608,7.650383985323508,6.723193790285242,-4.88999749425234,7.297591595697989,6.54585185471873,0.84,0.0,0.0,0.0,0.0,0.0,0.0,-0.08534655668897581,0.12736700081079677,0.11424666721261936,-0.08534655668897581,0.12736700081079677,0.11424666721261936,19.090851700259808,-1.3473518296673799,5.146987604807546,0.6590113010960135,-0.06065984708201376,-0.5543290767761704,1.0,54.223612960233254,-3.142181128644959,1010.6376155065749,94.71528721993258,1.0672382323287684,12.540954963158553,1008.6790463418029,97.10532834114639,5339.700489349116,-14.55657656070414
0.6599999999999999,59.27399126398523,1.324043218328231,1008.7945481063341,95.25960703644951,0.9863316939928335,12.435105911832306,96.07287568293063,18.86890638811673,16.928640408066485,11.0977083189573,-15.790921865897632,39.97112095376733,-3.0552838838308642,-28.962847189241455,6.7839248263931005,8.744527921914887,5348.696786143006,0.29173480090288395,98.13953681879622,2.0184170445494933,1.1106825955812654,89778.73064550983,281.5928354373088,-1.7096251324397307,10.108732181603072,0.38859152270038405,394.5126315789473,0.21173206665560043,0.84,nominal,14507.893776180903,nan,heading_hold,18.0,-5.0,0.0,-5.2481536531847395,8.206602239933801,6.869230837922832,-5.10489118961178,7.842997982239477,6.739879244641192,0.84,0.0,0.0,0.0,0.0,0.0,0.0,-0.0890971592147757,0.1368861380173506,0.11763308400581718,-0.0890971592147757,0.1368861380173506,0.11763308400581718,18.91706602375112,-1.6205929576050209,5.416330820201079,0.6963564169617573,-0.05064330608235864,-0.5038783125005198,1.0,54.223612960233254,-3.142181128644959,1010.6376155065749,94.71528721993258,1.0672382323287684,12.540954963158553,1009.0729374771445,98.73648479936136,5248.866135205536,-16.981007638730286
0.69,62.14634332362589,1.3466464598809267,1009.166290574321,95.74506865468881,0.7534413850898595,12.391415599562734,96.54653295780707,18.86255442611706,18.346004792476727,10.929676766209914,-16.569185977443382,42.29104996031918,-2.377954981086922,-25.966371332957046,7.118143031817544,9.344052894903962,5405.845896662123,0.2932958200844998,98.664240085076,2.0244892443056486,1.1106420347181245,89774.68167242457,281.5904191112669,-1.7522435520807487,9.936028048231078,0.36700350602888476,394.4794736842105,0.21171427105409973,0.84,nominal,14557.157116547129,nan,heading_hold,18.0,-5.0,0.0,-5.4547009959595965,8.78337565138391,6.9344290746482224,-5.31477707342047,8.407224583726137,6.85660914264541,0.84,0.0,0.0,0.0,0.0,0.0,0.0,-0.0927603589406956,0.14673374994063076,0.11967040506150795,-0.0927603589406956,0.14673374994063076,0.11967040506150795,18.984034170015917,-1.730205052313428,5.766623261707857,0.7388182111976183,-0.04382815576362328,-0.4534063206583346,1.0,54.223612960233254,-3.142181128644959,1010.6376155065749,94.71528721993258,1.0672382323287684,12.540954963158553,1009.0729374771445,98.6126224476402,5435.643069444409,-16.981007638730286
0.72,65.03300744707036,1.3617550781989318,1009.5368430017123,96.22213744814881,0.503620610600169,12.351747579711333,97.01298385825872,18.856202997985438,19.815683146311414,10.750894039079688,-17.235348819908722,44.815066483699546,-1.4976463001096498,-22.56088915830875,7.444914759543467,9.82245281202906,5462.8575157326395,0.29484498267156184,99.18495168362091,2.031140336131298,1.1106016048282146,89770.64580826987,281.58801052048887,-1.7980573604320185,9.750549500261652,0.3438186875327065,394.44631578947366,0.211696475452599,0.84,nominal,14605.933999964127,nan,heading_hold,18.0,-5.0,0.0,-5.648761906586231,9.384953024266798,6.9152807509358505,-5.515167973319927,8.993861648050533,6.891812107619675,0.84,0.0,0.0,0.0,0.0,0.0,0.0,-0.0962578399349755,0.15697249822732526,0.1202848127067731,-0.0962578399349755,0.15697249822732526,0.1202848127067731,18.804776867467567,-1.9212101726351212,6.137177373097357,0.7834812634851371,-0.02435977827323326,-0.3936110252405258,1.0,54.223612960233254,-3.142181128644959,1010.6376155065749,94.71528721993258,1.0672382323287684,12.540954963158553,1010.0841918625324,98.9634000012481,5556.2508932504525,-17.061064494798984
0.75,67.9337407114759,1.3688941856456311,1009.9063128433047,96.69110881351813,0.23797024822331064,12.315661386412122,97.47257393139571,18.84985210372186,21.343581219365447,10.56406388059993,-17.776623192520404,47.59564242523122,-0.40252266267363584,-18.79040499627433,7.756847336183582,10.167683593502023,5519.723125605331,0.296382246682123,99.70165744087677,2.038137882185193,1.1105612941770762,89766.62188134815,281.5856089665185,-1.8468646458655238,9.553103539478077,0.3191379424347595,394.4131578947368,0.21167867985109828,0.84,nominal,14654.249077250497,nan,heading_hold,18.0,-5.0,0.0,-5.824910284919331,10.016750215201274,6.809580067823079,-5.7010133602795685,9.607594788340979,6.842472883741717,0.84,0.0,0.0,0.0,0.0,0.0,0.0,-0.09950145383706419,0.1676841622539978,0.11942368079972414,-0.09950145383706419,0.1676841622539978,0.11942368079972414,18.78350028718713,-1.9718953240691728,6.511242084136322,0.8355995735601033,-0.0046217134080309965,-0.32453131007745073,1.0,54.223612960233254,-3.142181128644959,1010.6376155065749,94.71528721993258,1.0672382323287684,12.540954963158553,1010.0841918625324,98.6852228521241,5550.616814674504,-17.061064494798984
0.78,70.84831621388422,1.3676275786924674,1010.2747905457303,97.15251674694356,-0.04222023177212714,12.282590080852463,97.92586640876544,18.84350174332633,22.93789301052734,10.372328315683845,-18.18170328757084,50.69339283578497,0.9157381678121721,-14.708919163865502,8.046037539926026,10.369248332085661,5576.456225131601,0.29790815740415805,100.21454075445212,2.0451873305609767,1.110521092887167,89762.60890536329,281.58321386145275,-1.898450504960276,9.344549236884514,0.2930686546105642,394.38,0.21166088424959756,0.84,nominal,14702.148930658974,nan,heading_hold,18.0,-5.0,0.0,-5.977737191252261,10.685448872287752,6.616528967580894,-5.867047658863185,10.254307238709043,6.706906534045223,0.84,0.0,0.0,0.0,0.0,0.0,0.0,-0.10239929901858764,0.17897142382656092,0.11705760164261031,-0.10239929901858764,0.17897142382656092,0.11705760164261031,18.745953410236798,-2.084275261716224,6.828601805898891,0.8862602844311251,0.018202664566480047,-0.25665260167552645,1.0,54.223612960233254,-3.142181128644959,1010.6376155065749,94.71528721993258,1.0672382323287684,12.540954963158553,1010.4071088715077,100.15724378564613,5630.014484360466,-18.561034766704214
0.8099999999999999,73.77653038194241,1.3575632002156295,1010.6423455193199,97.60713893527301,-0.3354792825612634,12.25183245298616,98.37364238420147,18.83715191679884,24.609380466113624,10.17923723800247,-18.441058497908514,54.177695551367606,2.4612745833456637,-10.380418422370804,8.30421950405067,10.418462142528664,5633.093463069923,0.29942386268812216,100.72398773846315,2.0519409093288297,1.1104809933770485,89758.60612325245,281.5808247541244,-1.9525879829811972,9.125793994959292,0.26572424936991146,394.34684210526314,0.21164308864809683,0.84,nominal,14749.702515654419,nan,heading_hold,18.0,-5.0,0.0,-6.101856592121864,11.399095589116923,6.3368584633554255,-6.007933018818392,10.941180248953772,6.484877691631344,0.84,0.0,0.0,0.0,0.0,0.0,0.0,-0.10485821241766338,0.19095961939841619,0.11318246730809649,-0.10485821241766338,0.19095961939841619,0.11318246730809649,18.769526335906527,-2.0690707173454372,7.156196115188909,0.9475033280605801,0.046781336722629616,-0.18313065976119727,1.0,54.223612960233254,-3.142181128644959,1010.6376155065749,94.71528721993258,1.0672382323287684,12.540954963158553,1010.4071088715077,101.03870967303583,5707.951394523678,-18.561034766704214
0.84,76.71821016035823,1.3383584358854574,1011.009021950917,98.05599261386075,-0.6401588110057362,12.222547719905053,98.81689209623109,18.830802624139398,26.37165389332702,9.988723959810292,-18.547225288688136,58.12730297758593,4.233284317866916,-5.878733847255028,8.522901135944364,10.308719688709107,5689.694770066831,0.3009311015998477,101.23058340774469,2.0580120841683454,1.11044099081786,89754.61305274129,281.57844135731904,-2.0090390671681337,8.897789599621962,0.23722369995274525,394.31368421052633,0.21162529304659614,0.84,nominal,14797.000706894049,nan,heading_hold,18.0,-5.0,0.0,-6.191869131123623,12.16720124135341,5.9729460633279565,-6.11829468620153,11.676792844393557,6.177718714649312,0.84,0.0,0.0,0.0,0.0,0.0,0.0,-0.10678438688148997,0.20379848120798144,0.10782153183270254,-0.10678438688148997,0.20379848120798144,0.10782153183270254,18.58664368035182,-2.2197403898519594,7.438675940240787,1.013715517745406,0.07211069110930479,-0.10380738411955762,1.0,76.13136124364719,0.41368383379406415,1011.4092743471504,97.91769792960204,-0.7164183682311598,12.403180347086577,1011.3569488195676,100.51672795161637,5780.58435488093,-19.371927209521612
0.87,79.67321978490095,1.3097252952302492,1011.3748345528252,98.50032081809107,-0.954438021840275,12.193753396939355,99.25679712296669,18.824453865348,28.24145306399092,9.805076568115272,-18.495090429212272,62.630942060718056,6.225629551131383,-1.2872614520976289,8.693458515460517,10.03577114012969,5746.342423899079,0.30243216556092706,101.73509860746402,2.062993889723814,1.1104010835966855,89750.62953258512,281.57606357540664,-2.0675557283978425,8.66152807909168,0.20769100988646,394.2805263157895,0.2116074974450954,0.84,nominal,14844.154908822347,nan,heading_hold,18.0,-5.0,0.0,-6.242412903722188,13.000840523503344,5.528911688333528,-6.192765616713925,12.471221451859428,5.788434498859841,0.84,0.0,0.0,0.0,0.0,0.0,0.0,-0.10808414981595517,0.21766387608029453,0.10102724054113218,-0.10808414981595517,0.21766387608029453,0.10102724054113218,18.574029672996645,-2.1767392894148756,7.631652372932261,1.0928433335333383,0.10714938974998028,-0.0228160113560624,1.0,76.13136124364719,0.41368383379406415,1011.4092743471504,97.91769792960204,-0.7164183682311598,12.403180347086577,1011.3569488195676,101.8716100064391,5644.601025996575,-19.371927209521612
0.8999999999999999,82.64146687342767,1.27143555794848,1011.7397643330559,98.94156961755762,-1.2763245760589728,12.16432600768754,99.69470412228904,18.818105640424648,30.238930385096758,9.632898539179443,-18.282159946337195,67.78789792780248,8.426564180981382,3.301465309811178,8.807166449003608,9.598015294544064,5803.13907629836,0.30392983353607705,102.23846821290793,2.066479409653992,1.1103612737775166,89746.65576856794,281.5736915318351,-2.1278810065867475,8.418037387654675,0.17725467345683427,394.2473684210526,0.21158970184359466,0.84,nominal,14891.294774912141,nan,heading_hold,18.0,-5.0,0.0,-6.248274837809503,13.91275450329362,5.010692556461455,-6.226071149371272,13.336141282719943,5.32178933342081,0.84,0.0,0.0,0.0,0.0,0.0,0.0,-0.10866544101995637,0.23275957489460297,0.09288274596570743,-0.10866544101995637,0.23275957489460297,0.09288274596570743,18.60970154900605,-2.0373920613446512,7.82902824452977,1.185361757399407,0.14781704788446218,0.05776710622474111,1.0,76.13136124364719,0.41368383379406415,1011.4092743471504,97.91769792960204,-0.7164183682311598,12.403180347086577,1011.2905748276602,102.34850512727245,5842.702712060635,-18.942335413991902
0.9299999999999999,85.62290760528539,1.2233260069115324,1012.1037544518398,99.38135772859074,-1.6036517012315827,12.133003959462838,100.13209149836693,18.81175794936934,32.38793976351529,9.477060363782613,-17.908813369174947,73.70857751941355,10.818106518099714,7.7863799748285,8.85516207722245,8.996821152444802,5860.204857580695,0.30542728502196764,102.74176186258457,2.068083490106565,1.11032156755275,89742.692378554,281.57132559606305,-2.189750135042143,8.16837693312039,0.1460471166400488,394.21421052631575,0.21157190624209393,0.84,nominal,14938.565157513798,nan,heading_hold,18.0,-5.0,0.0,-6.20449253365536,14.32394487827058,4.42611074262079,-6.213123979941725,13.928823440050326,4.784382178940798,0.84,0.0,0.0,0.0,0.0,0.0,0.0,-0.10843947028459722,0.2431038299578412,0.08350322169625743,-0.10843947028459722,0.2431038299578412,0.08350322169625743,18.550382443116867,-1.965135367853363,7.9929397417515595,1.2901285158436884,0.18710889986511975,0.1342793670420187,1.0,76.13136124364719,0.41368383379406415,1011.4092743471504,97.91769792960204,-0.7164183682311598,12.403180347086577,1011.2905748276602,103.10990204487888,5801.7586895014365,-18.942335413991902
0.96,88.61755081424349,1.1653039187736127,1012.4667062275454,99.82144029860304,-1.9340696045973202,12.098392523519799,100.57053082377638,18.805410792182077,34.708862468209624,9.342612141016058,-17.378556164430833,80.26574257108764,13.374711493746256,12.058718196580612,8.827263969163031,8.238064172463949,5917.6737325877,0.3069279959277023,103.24614893705407,2.0674362331581957,1.1102819756782922,89738.74043590155,281.56896640952095,-2.2528916988021983,7.913632967425933,0.1142041209282416,394.1810526315789,0.2115541106405932,0.84,nominal,14986.122459714436,nan,heading_hold,18.0,-5.0,0.0,-6.106728365867579,14.32394487827058,3.784974376410015,-6.149286611497237,14.165896302982478,4.184737497422328,0.84,0.0,0.0,0.0,0.0,0.0,0.0,-0.10732529801943218,0.24724153198313648,0.07303744766168735,-0.10732529801943218,0.24724153198313648,0.07303744766168735,18.463661860122755,-1.8714527574528326,8.064011643502678,1.400641049915189,0.2362593727103266,0.20905437303785945,1.0,76.13136124364719,0.41368383379406415,1011.4092743471504,97.91769792960204,-0.7164183682311598,12.403180347086577,1012.0059371520332,102.85466438042276,5969.417771145744,-17.117309677386316
0.99,91.62546135325357,1.097353953013181,1012.8284751229468,100.26368463366931,-2.264998858681059,12.058963180046497,101.01165907521488,18.79906416886286,37.21665077735968,9.234766800996463,-16.698324648764427,87.26801598024659,16.05514583979563,16.005256836911204,8.712258380392456,7.332857945184506,5975.690668767514,0.3084356580673409,103.75287148156025,2.064220943160335,1.1102425139107666,89734.80151308392,281.5666149117008,-2.317028822204586,7.654913860443975,0.08186423255549694,394.1478947368421,0.2115363150390925,0.84,nominal,15034.132000128166,nan,heading_hold,18.0,-5.0,0.0,-5.950690206639866,14.32394487827058,3.0993456440372857,-6.030128768582814,14.26072544815534,3.533502385391303,0.84,0.0,0.0,0.0,0.0,0.0,0.0,-0.1052456013310013,0.2488966127932546,0.06167125075215182,-0.1052456013310013,0.2488966127932546,0.06167125075215182,18.521583707754413,-1.7374579918471884,8.024838277429703,1.5275808166653893,0.27726950081251306,0.27600515635004685,1.0,76.13136124364719,0.41368383379406415,1011.4092743471504,97.91769792960204,-0.7164183682311598,12.403180347086577,1012.0059371520332,103.85098099001341,6061.603878258845,-17.117309677386316
1.02,94.646762448957,1.0195467812092116,1013.1888674912293,100.71003652344797,-2.5935723934656467,12.013078942752783,101.45714435168763,18.792718079411685,39.925124547494946,9.158895131040383,-15.878807643721533,94.66792876540674,18.79623138283323,19.5126032131454,8.499421550039997,6.2971715274975555,6034.4079374340345,0.3099540782728354,104.26321027328423,2.058256351666922,1.1102032033617728,89730.87771702949,281.56427236130696,-2.3818803793738224,7.393345277557336,0.04916815969466701,394.11473684210523,0.21151851943759178,0.84,nominal,15082.764677382454,nan,heading_hold,18.0,-5.0,0.0,-5.732035754207501,14.32394487827058,2.3837205302486963,-5.851272959957626,14.298657106224484,2.843633272305739,0.84,0.0,0.0,0.0,0.0,0.0,0.0,-0.10212397858417491,0.24955864511730183,0.04963076332099563,-0.10212397858417491,0.24955864511730183,0.04963076332099563,18.508040913041597,-1.45976083937429,8.001276957515348,1.6491286806510181,0.3300320047475841,0.3435134433467026,1.0,76.13136124364719,0.41368383379406415,1011.4092743471504,97.91769792960204,-0.7164183682311598,12.403180347086577,1014.3192621939442,104.10407139744102,6062.260762052205,-16.432495459993664
1.05,97.68163620911218,0.9320487104112272,1013.5476393179351,101.16245867183943,-2.9166023599328135,11.959060890196314,101.90862942475975,18.786372523828557,42.848608445459405,9.120351366983199,-14.93468792524132,102.47297365619335,21.514469052005975,22.47065839389565,8.179477257626989,5.15171699458854,6093.979009452043,0.31148701847656945,104.77843103050158,2.0495660698476232,1.1101640706343963,89726.97170272557,281.5619403444334,-2.4471622205275425,7.130065281982219,0.016258160247777338,394.0815789473684,0.21150072383609106,0.84,nominal,15132.191332733732,nan,heading_hold,18.0,-5.0,0.0,-5.447882168768457,14.32394487827058,1.654916345987426,-5.609238485244124,14.313829769452143,2.1304031165147514,0.84,0.0,0.0,0.0,0.0,0.0,0.0,-0.09789968009708934,0.24982345804692074,0.03718254877793079,-0.09789968009708934,0.24982345804692074,0.03718254877793079,18.477278932490094,-1.2309462321468134,7.794656598086851,1.786767771512537,0.37117752897509826,0.39080165050312643,1.0,99.35100347949734,3.229712057160487,1015.0280833903748,101.1539841720977,-2.600663029946754,11.862625469684945,1014.3192621939442,104.79452772641595,6132.180093170967,-16.432495459993664
1.08,100.73032176359575,0.8351316888020629,1013.9044977868116,101.62285181611912,-3.2305673869721407,11.895282295881998,102.36766246125481,18.780027502113473,46.002479261564616,9.1241450433697,-13.88480134250369,110.70851491242152,24.107350754400663,24.776402601067446,7.745358691948079,3.921879680786904,6154.5509554437085,0.3130380019881093,105.29971924819695,2.038439361383593,1.1101251476517082,89723.08665607849,281.5596207643857,-2.5125884075323963,6.866219383149544,-0.016722577106306955,394.04842105263157,0.21148292823459033,0.84,nominal,15182.575702111735,nan,heading_hold,18.0,-5.0,0.0,-5.098271219268509,14.32394487827058,0.9319190098845246,-5.3026581256587555,14.319898834743205,1.4113126525366153,0.84,0.0,0.0,0.0,0.0,0.0,0.0,-0.09254884340037649,0.2499293832187683,0.024632052561818638,-0.09254884340037649,0.2499293832187683,0.024632052561818638,18.67051135740579,-0.934089744271236,7.340338459212173,1.9342492076442934,0.41832285745482584,0.43365271463463845,1.0,99.35100347949734,3.229712057160487,1015.0280833903748,101.1539841720977,-2.600663029946754,11.862625469684945,1012.5137263204653,105.61718190731443,6149.559923391572,-15.112320729608394
1.1099999999999999,103.79311070936282,0.7291829855912293,1014.2591063363552,102.09296485890223,-3.531623440361122,11.82028498478606,102.83562113843195,18.773683014266435,49.403274724012725,9.174527159465889,-12.752268999212545,119.40164065328054,26.45147195171865,26.338159002590416,7.193059958559117,2.6375609014535115,6216.255987613193,0.31461010345996465,105.82810954440588,2.025484668567251,1.1100864711045932,89719.22623877932,281.55731580881366,-2.577872452323371,6.602955552688385,-0.04963055591395179,394.0152631578947,0.2114651326330896,0.84,nominal,15234.066552616974,nan,heading_hold,18.0,-5.0,0.0,-4.687115520378417,14.32394487827058,0.23586673089286006,-4.933332562490552,14.32232646085963,0.7060450995503622,0.84,0.0,0.0,0.0,0.0,0.0,0.0,-0.08610289631130905,0.24997175328750731,0.012322811654724956,-0.08610289631130905,0.24997175328750731,0.012322811654724956,18.508177614352874,-0.7097629229607644,7.010110787311091,2.080763765810548,0.4575059786934507,0.45761199101473216,1.0,99.35100347949734,3.229712057160487,1015.0280833903748,101.1539841720977,-2.600663029946754,11.862625469684945,1012.5137263204653,106.00638934652193,6215.794478470467,-15.112320729608394
1.14,106.87033961384185,0.6147134914621987,1014.6110939075778,102.5742968159676,-3.8156498043010196,11.732919040755009,103.31363385311832,18.767339060287444,53.06863788561389,9.27450764364504,-11.564650129541732,128.57350707996625,28.398754084654996,27.080416536356037,6.5227474295201455,1.3328263788050336,6279.202551524876,0.3162057337467296,106.36441328530215,2.0116652534095367,1.1100480814425695,89715.39448755808,281.5550278896007,-2.642728551714488,6.341419229696583,-0.0823225962879272,393.9821052631579,0.2114473370315889,0.84,nominal,15286.789354036846,nan,heading_hold,18.0,-5.0,0.0,-4.223042010627042,14.32394487827058,-0.4098305980479217,-4.507158231372446,14.323297511306201,0.036519680991391815,0.84,0.0,0.0,0.0,0.0,0.0,0.0,-0.07866475104581357,0.24998870131500292,0.0006373886750777741,-0.07866475104581357,0.24998870131500292,0.0006373886750777741,18.75613526518005,-0.3538232116846146,6.384945297573339,2.2412476450012835,0.4948001188424834,0.47328305285883115,1.0,99.35100347949734,3.229712057160487,1015.0280833903748,101.1539841720977,-2.600663029946754,11.862625469684945,1013.6459540150317,106.91569556790867,6360.083015349645,-11.018844517563226
1.17,109.96237940292805,0.49236302126298653,1014.9600691073047,103.06799296954024,-4.078349006640405,11.632506657561668,103.80250149455637,18.760995640176496,57.01721386698044,9.425261867477705,-10.354134200508813,138.23521142285247,29.77265271088167,26.949169213892812,5.740200521677104,0.045248988551475765,6343.4663839612795,0.3178264307313892,106.90914821290193,1.9982924806554114,1.1100100213286932,89711.59565995341,281.5527595508025,-2.706872812081487,6.0827483370302255,-0.1146564578712218,393.94894736842105,0.21142954143008816,0.84,nominal,15340.837819974837,nan,heading_hold,18.0,-5.0,0.0,-3.7206499910478814,14.32394487827058,-0.9793061132074314,-4.035253287177707,14.32368593148483,-0.5729757955279022,0.84,0.0,0.0,0.0,0.0,0.0,0.0,-0.07042845601317527,0.24999548052600118,-0.010000314166195694,-0.07042845601317527,0.24999548052600118,-0.010000314166195694,18.777408733609356,-0.05634436824709799,5.539900001369661,2.411057780439993,0.5202826782971788,0.4729405498055206,1.0,99.35100347949734,3.229712057160487,1015.0280833903748,101.1539841720977,-2.600663029946754,11.862625469684945,1013.6459540150317,106.31183022485854,6370.30108602275,-11.018844517563226
1.2,113.0696216113441,0.36290027731668867,1015.3056398325376,103.57474028053534,-4.3154247982099285,11.519024174431667,104.30262524644571,18.754652753933595,61.26855139629145,9.625356373322752,-9.157780058520858,148.3852890584777,30.364815541616753,25.91758426689073,4.858592190848812,-1.1851766294510873,6409.082201841892,0.31947267300207455,107.46247575345066,1.986941870602384,1.1099723334991605,89707.83402067312,281.5505133410885,-2.7700244576772857,5.828068330295633,-0.14649145871304595,393.91578947368424,0.21141174582858746,0.84,nominal,15396.265869514002,nan,heading_hold,18.0,-5.0,0.0,-3.202452837180773,14.32394487827058,-1.4440100873891433,-3.5355730171795465,14.32384129955628,-1.0955963706446468,0.84,0.0,0.0,0.0,0.0,0.0,0.0,-0.06170739009445313,0.24999819221040048,-0.019121763940649236,-0.06170739009445313,0.24999819221040048,-0.019121763940649236,18.82421729822724,0.2973325627760891,4.784097344390892,2.5887887227982325,0.5334476936601511,0.45193121092499305,1.0,99.35100347949734,3.229712057160487,1015.0280833903748,101.1539841720977,-2.600663029946754,11.862625469684945,1015.9598139239268,106.85313596147424,6378.3641085186955,-8.002358457249514
1.23,116.19246175642651,0.22721432039214448,1015.6474383825056,104.09467150274695,-4.52286523081814,11.393284998930637,104.81394892011177,18.748310401558737,65.84303606691756,9.86971197927549,-8.017827504755878,159.00819836927943,29.931182625558186,23.991665136454696,3.900586026026336,-2.3176760192650865,6476.037055798329,0.3211437416700513,108.02415451301731,1.979254534979335,1.1099350580247933,89704.11356826793,281.5482916505137,-2.8319070171549052,5.578487301085346,-0.17768908736433178,393.8826315789473,0.2113939502270867,0.84,nominal,15453.080895727697,nan,heading_hold,18.0,-5.0,0.0,-2.7016493697621256,14.32394487827058,-1.7723859247091158,-3.035218828729094,14.32390344678486,-1.5016701030833282,0.84,0.0,0.0,0.0,0.0,0.0,0.0,-0.05297456207984855,0.24999927688416018,-0.02620908757756673,-0.05297456207984855,0.24999927688416018,-0.02620908757756673,18.90974998919729,0.5222643029066483,3.8215155688170324,2.779246586472071,0.5221196811830963,0.4230149064808812,1.0,99.35100347949734,3.229712057160487,1015.0280833903748,101.1539841720977,-2.600663029946754,11.862625469684945,1015.9598139239268,107.45197917178061,6596.042420630855,-8.002358457249514
1.26,119.33128052163562,0.08629359793321256,1015.9851511057227,104.62729217363703,-4.697357415297731,11.257090773904157,105.33592704754906,18.741968583051925,70.76187082441986,10.148194438090005,-6.98214827006411,170.07369749888377,28.18538186882022,21.215431751466955,2.900704872019522,-3.3130146091761343,6544.266720170045,0.3228376627504679,108.59352086633737,1.9765998322681473,1.1098982290784034,89700.43771250096,281.54609651781277,-2.8922494844005455,5.335091155763481,-0.20811360552956487,393.8494736842105,0.211376154625586,0.84,nominal,15511.239545574226,nan,heading_hold,18.0,-5.0,0.0,-2.2660198356483856,14.32394487827058,-1.9293090190844933,-2.573699432880669,14.323928305676292,-1.7582534526840272,0.84,0.0,0.0,0.0,0.0,0.0,0.0,-0.04491952906047848,0.24999971075366406,-0.030687311833894605,-0.04491952906047848,0.24999971075366406,-0.030687311833894605,19.212049935732775,0.8088730419398751,2.850450003265847,2.9682792995991294,0.49165794587747563,0.37076903159851665,1.0,121.54237438734904,0.2016074030952504,1016.6859372486371,104.50931589303723,-4.632087578063856,11.20812066958675,1017.519525081235,108.08721440925389,6633.863230321667,-7.646781650001006
1.29,122.48642396761315,-0.05881203734673954,1016.3185500653456,105.17144819925117,-4.8368545093317366,11.113298654096257,105.8675308338083,18.735627298413156,76.0471104906056,10.443649607267867,-6.104971870247374,181.53725796941126,24.785729990048676,17.67502138245415,1.9079368150572227,-4.136592461637086,6613.656611498407,0.3245512638344863,109.16950798630525,1.9796128275668752,1.1098618714825441,89696.80892981292,281.54392942457525,-2.9507874522076905,5.0989388907771644,-0.23763263865285444,393.81631578947366,0.21135835902408526,0.84,nominal,15570.647351421996,nan,heading_hold,18.0,-5.0,0.0,-1.9636594981163962,14.32394487827058,-1.8750488806740837,-2.2076754720221055,14.323938249232866,-1.828330709478061,0.84,0.0,0.0,0.0,0.0,0.0,0.0,-0.03853120580230569,0.24999988430146564,-0.03191039069571606,-0.03853120580230569,0.24999988430146564,-0.03191039069571606,19.28704300219051,1.076969702588232,1.8662861137557545,3.169436959475792,0.42884656816695665,0.30844889040898665,1.0,121.54237438734904,0.2016074030952504,1016.6859372486371,104.50931589303723,-4.632087578063856,11.20812066958675,1017.519525081235,109.2432561444796,6568.026346466664,-7.646781650001006
1.3199999999999998,125.6581845132494,-0.20705108834797262,1016.6475219559184,105.72535152120837,-4.941301700041103,10.965729685759042,106.40730070965546,18.729286547642435,81.72174383014531,10.7290407373586,-5.448134514767039,193.3417720882735,19.309134286353277,13.501089491557872,0.9886546791081002,-4.762379769885323,6684.048332959143,0.32628036735366,109.75071082025732,1.9876813714651804,1.1098259975574782,89693.2284487662,281.5417911072865,-3.0072642208034175,4.87105798505082,-0.26611775186864745,393.7831578947368,0.21134056342258453,0.84,nominal,15631.163243346527,nan,heading_hold,18.0,-5.0,0.0,-1.892070033216159,14.32394487827058,-1.5633497850786766,-2.0183122087385374,14.323942226655495,-1.6693421548384304,0.84,0.0,0.0,0.0,0.0,0.0,0.0,-0.03522619337568655,0.24999995372058625,-0.0291355169442676,-0.03522619337568655,0.24999995372058625,-0.0291355169442676,19.395029643814972,1.2736199356559021,0.808934828277849,3.3758419565268696,0.33830174620293185,0.2369086098535923,1.0,121.54237438734904,0.2016074030952504,1016.6859372486371,104.50931589303723,-4.632087578063856,11.20812066958675,1018.2427432515997,110.13191714489378,6711.199355963475,-5.190479811137871
1.3499999999999999,128.84678470385035,-0.3574562763460504,1016.9720865289269,106.28667302003173,-5.013506266602591,10.818819100283024,106.9534429248402,18.722946330739756,87.80978444573914,10.963015153963777,-5.0832836524975535,205.42086563249123,11.19936075950889,8.869101576489292,0.2302466532970529,-5.177753553501186,6755.251563522461,0.3280201079530086,110.3354928227401,1.998522735507575,1.1097906051135862,89689.69604972388,281.53968143756197,-3.061431887828975,4.652439929510539,-0.29344500881118263,393.75,0.21132276782108383,0.84,nominal,15692.608789097425,nan,heading_hold,18.0,-5.0,0.0,-2.193739163204335,14.32394487827058,-0.937956498669659,-2.123568381418016,14.323943817624546,-1.2305107611371675,0.84,0.0,0.0,0.0,0.0,0.0,0.0,-0.03706326014699115,0.2499999814882345,-0.021476464263065057,-0.03706326014699115,0.2499999814882345,-0.021476464263065057,19.556919528356833,1.376550394034225,-0.24724987301239382,3.58267808374191,0.19362825681386622,0.1516617910889587,1.0,121.54237438734904,0.2016074030952504,1016.6859372486371,104.50931589303723,-4.632087578063856,11.20812066958675,1018.2427432515997,109.61366505587608,6794.356766534124,-5.190479811137871
1.38,132.05236536972836,-0.5092596095449201,1017.2923930865264,106.85268886260064,-5.060111106628992,10.676885253318819,107.50394281277178,18.716606647705124,94.33623626616061,11.08254638585773,-5.09575708448618,217.7041692954535,-0.33396690252791095,3.997797092838723,-0.25344228363436927,-5.389392416266638,6827.057934777457,0.3297652874831136,110.92210536665809,2.0008228848256833,1.109755677835474,89686.2101032407,281.53759944493754,-3.1130524320728883,4.444035913189289,-0.3194955108513388,393.71684210526314,0.2113049722195831,0.84,nominal,15754.779306807837,nan,heading_hold,18.0,-5.0,0.0,-3.0846453514390886,14.32394487827058,0.07348046078717602,-2.7002145634306594,14.323944454012166,-0.4481160279825615,0.84,0.0,0.0,0.0,0.0,0.0,0.0,-0.04712763464216628,0.2499999925952938,-0.00782110011925474,-0.04712763464216628,0.2499999925952938,-0.00782110011925474,19.534119396866654,1.534511816597676,-0.7969013334583207,3.8030903926643314,-0.0063896460293467235,0.06646212083349619,1.0,121.54237438734904,0.2016074030952504,1016.6859372486371,104.50931589303723,-4.632087578063856,11.20812066958675,1018.0654151076395,110.75722494874502,6822.581012951976,-5.746455563808228
1.41,135.2749128339522,-0.6620582567757656,1017.608670813942,107.41824880746098,-5.0932882410281834,10.5425909138522,108.05446767785509,18.710267498538535,101.32560102401908,10.990536177764364,-5.586519174552904,230.12499069573934,-16.354030099958877,-0.8522757947574089,-0.3175271612111377,-5.43038928611086,6898.984983022387,0.33150423240385696,111.50662164591253,2.0015933609369405,1.1097211906993782,89682.76811079691,281.5355436397094,-3.1618988226085136,4.246752684682293,-0.3441559144147134,393.68368421052634,0.2112871766180824,0.84,nominal,15817.216064209857,nan,heading_hold,18.0,-5.0,0.0,-4.903222079492407,14.32394487827058,1.5550369601568161,-4.022019073067708,14.323944708567215,0.753775764901065,0.84,0.0,0.0,0.0,0.0,0.0,0.0,-0.07019747540304189,0.2499999970381175,0.013155868919262294,-0.07019747540304189,0.2499999970381175,0.013155868919262294,19.505908473586096,1.792424423685313,-1.0118912839963996,4.016624595903026,-0.2884532620958272,-0.017066318472859523,1.0,121.54237438734904,0.2016074030952504,1016.6859372486371,104.50931589303723,-4.632087578063856,11.20812066958675,1018.0654151076395,111.28433162471677,6937.089573814731,-5.746455563808228
1.44,138.5143650927871,-0.8159477270953636,1017.9211380399702,107.98174196116383,-5.1296490106532655,10.415574200940428,108.60411632104541,18.703928883239993,108.80121680230175,10.5313410731202,-6.692295455531315,242.63042767618558,-39.024567793149544,-5.380270039797627,0.2430747072962461,-5.370427401817104,6970.972119274541,0.33323559436737976,112.08858794640426,2.0009798402533128,1.1096871198680733,89679.36769237972,281.5335126027402,-3.2077561412002797,4.061448606959062,-0.36731892413011724,393.6505263157895,0.21126938101658166,0.84,nominal,15879.823369297254,nan,heading_hold,18.0,-5.0,0.0,-8.224726671372567,14.32394487827058,3.659500840598931,-6.543643632050624,14.323944810389234,2.4972108103197845,0.84,0.0,0.0,0.0,0.0,0.0,0.0,-0.11420812645644372,0.249999998815247,0.04358455075647583,-0.11420812645644372,0.249999998815247,0.04358455075647583,19.526124216312805,1.9219413624355355,-0.7690649858220311,4.240950463492247,-0.6803566813539356,-0.0903619742615914,1.0,121.54237438734904,0.2016074030952504,1016.6859372486371,104.50931589303723,-4.632087578063856,11.20812066958675,1018.9016419980402,111.48511160862698,7000.760752530069,-5.599152118681826
1.47,141.77063761948574,-0.9717086693512202,1018.2298292459433,108.54241755662127,-5.192031408528558,10.289706865770867,109.1526072366875,18.697590801809493,116.77696364911303,9.442140320646525,-8.601831705835574,255.19701689336173,-72.02456779314954,-9.209497595269985,1.7303632952112227,-5.332750019573705,7043.045591836989,0.3349601136189109,112.66825331901757,1.976953068960469,1.1096534615526208,89676.00846894186,281.53150610990133,-3.250422775456758,3.8889299226973084,-0.38888375966283645,393.6173684210526,0.21125158541508093,0.84,nominal,15942.569388258009,nan,heading_hold,18.0,-5.0,0.0,-14.089860873811537,14.32394487827058,6.604865983928986,-9.243643632050624,14.323944851118043,4.961803914485306,0.84,0.0,0.0,0.0,0.0,0.0,0.0,-0.16133201626029062,0.2499999995260988,0.08659981514611174,-0.16133201626029062,0.2499999995260988,0.08659981514611174,19.20672190681747,2.2643176603488464,0.5659535089682537,4.453409720637033,-1.2534300381731898,-0.15636885453969185,1.0,140.30688097851476,-1.9332827155118908,1015.6196787466965,108.60730892076765,-5.257478752595358,10.211335566549488,1018.9016419980402,112.40913391448498,7062.025447106643,-5.599152118681826
