time_s,x_m,y_m,altitude_m,vx_mps,vy_mps,vz_mps,speed_mps,mass_kg,roll_deg,pitch_deg,yaw_deg,p_dps,q_dps,r_dps,alpha_deg,beta_deg,qbar_pa,mach,airspeed_mps,load_factor_g,density_kgpm3,pressure_pa,temperature_k,wind_x_mps,wind_y_mps,wind_z_mps,thrust_n,mass_flow_kgps,propulsion_throttle_actual,propulsion_health,energy_j_per_kg,target_distance_m,guidance_mode,pitch_command_deg,heading_command_deg,roll_command_deg
0.0,0.0,0.0,1000.0,84.0,2.0,15.0,85.35221145348257,19.0,-2.5157817934715475e-17,9.0,2.0,0.0,0.0,0.0,-0.7222147929914944,-7.13853957585605,4243.671980701213,0.2597188600228231,87.37824754723981,1.6251479458370872,1.1116425003060326,89874.56291621955,281.65,-1.7826439091004773,9.86942436359809,0.3586780454497614,319.2,0.17131232378029196,0.84,nominal,13449.15,nan,heading_hold,18.0,-5.0,0.0
0.03,2.5341750666266845,0.06149453241160598,1000.4427801476453,84.47250222088948,2.049817747053533,14.759338254844302,85.77670691962489,18.994860630286592,0.0625806098799806,9.331007279175314,1.9069286083283399,1.5918500267886655,-11.035278524387659,-3.0567571876345423,-0.1796335364748719,-7.108609057614929,4281.236709253624,0.2608728406142633,87.76603739383036,1.657684587861955,1.1115941567030745,89869.73605830262,281.6471219290403,-1.7376095109045648,10.04690527549587,0.38086315943698384,324.87,0.17435537163691558,0.84,nominal,13489.813914922517,nan,heading_hold,18.0,-5.0,0.0
0.06,5.0827587281244035,0.12447038443673039,1000.8787999615308,84.95278871659063,2.0991950675041466,14.533993796185685,86.21264354098352,18.989629969137486,0.19067211054732056,9.894443853713325,1.719295569685746,3.2252900499515014,-18.794959311341092,-6.125175208085628,0.5778448913143169,-6.977777591328825,4320.319735811621,0.262067807908967,88.16761932726394,1.6830269014919665,1.1115465527783457,89864.98310161752,281.64428780025,-1.695899461264263,10.211129355173762,0.40139116939672026,330.53999999999996,0.17739841949353916,0.84,nominal,13531.57803680509,nan,heading_hold,18.0,-5.0,0.0
0.09,7.645852066835786,0.18888826332798223,1001.3088324356719,85.43644462371276,2.1472626297083943,14.334415804701084,86.65721137449407,18.984308016552678,0.38798835622292044,10.455522820740015,1.435535505503022,4.906266402636398,-18.74957023014398,-9.215485137652323,1.3087874827357981,-6.74725757426572,4360.672158626469,0.263295706386034,88.58028233344871,1.707667033399041,1.11149960406916,89860.29561098694,281.64149258916814,-1.6576912320270654,10.361382077277707,0.42017275965971335,336.21,0.18044146735016278,0.84,nominal,13574.221403207153,nan,heading_hold,18.0,-5.0,0.0
0.12,10.223529165574298,0.2546722977317616,1001.7335924838441,85.92256995795042,2.1928011467926454,14.158668272404752,87.10892200168855,18.978894772532172,0.6571681599372972,10.870903595210553,1.0557061379764001,6.62991013423329,-13.959011594118936,-12.315688237100794,1.8724810752459615,-6.418489817255516,4402.184603960572,0.2645528058714283,89.00277066670762,1.7340552521706858,1.1114532324652968,89855.66578583649,281.638731648855,-1.6231471851062294,10.497009704672017,0.4371262130840022,341.88,0.18348451520678638,0.84,nominal,13617.632880879819,nan,heading_hold,18.0,-5.0,0.0
0.15,12.815914042610805,0.3217039979939629,1002.1535740563116,86.41282923455022,2.234390008740042,13.99938574891786,87.56798705221959,18.973390237075968,0.9993574754299144,11.133589279575748,0.5809910664572799,8.386360198348093,-8.979846355831883,-15.404953373909889,2.269129197953865,-5.993078804648435,4444.92097323157,0.2658406139544353,89.43559094168678,1.7611729974770813,1.1114073839889818,89851.08823531267,281.63600176863395,-1.5924141057166699,10.61742213279545,0.45217776659943126,347.55,0.18652756306341,0.84,nominal,13661.845525208177,nan,heading_hold,18.0,-5.0,0.0
0.18,15.42317994223689,0.3898203176461541,1002.5690910256736,86.90886332086951,2.2705439884063736,13.850565645399332,88.03490252409202,18.967794410184066,1.4148997636709062,11.306090027517914,0.01285431891711871,10.166578841512795,-6.140111676634865,-18.450920212853816,2.5682423683686015,-5.473382106816214,4488.974434761182,0.2671614674643622,89.87952891980338,1.7887599168646082,1.1113620243276143,89846.55953214859,281.6333009083331,-1.565622499172184,10.722095457157224,0.46526193214465283,353.21999999999997,0.18957061092003358,0.84,nominal,13706.916207720114,nan,heading_hold,18.0,-5.0,0.0
0.21,18.045522920905764,0.45881170569661234,1002.9803851468921,87.4114326222958,2.299712935015274,13.709804040616191,88.50992011914671,18.962107291856466,1.9039359012143893,11.446175775834917,-0.6467471145901614,11.964337393664177,-5.291786872707547,-21.410835158670825,2.8327907636658676,-4.863149593947809,4534.413139120716,0.2685169043162401,90.33510164690233,1.8167806950449792,1.1113171270457016,89842.07703566283,281.6306274965452,-1.542885859079159,10.810574252802013,0.47632178160025157,358.89,0.1926136587766572,0.84,nominal,13752.880573749635,nan,heading_hold,18.0,-5.0,0.0
0.24,20.68313914946821,0.5284202460670466,1003.3877000649711,87.92054095208158,2.320284679014478,13.577163935968441,88.99294703987775,18.956328882093167,2.466385840251328,11.576120208784578,-1.394397435405652,13.774985169790664,-5.259502370710279,-24.237986106809164,3.0891265443282294,-4.167724651197389,4581.270083254426,0.2699073835454206,90.80246319775834,1.8451543061567466,1.1112726655051637,89837.63808506232,281.62797994957765,-1.5243000609459982,10.882473555826179,0.4853091944782724,364.56,0.19565670663328083,0.84,nominal,13799.744300263392,nan,heading_hold,18.0,-5.0,0.0
0.27,23.336216854935795,0.598338754262323,1003.7912964663981,88.43592351558614,2.330616939842544,13.453213380899708,89.48370406753904,18.950459180894168,3.1016105632622852,11.691134333576292,-2.2245990164362714,15.593731648579892,-5.145848480812802,-26.887374342898354,3.336616702968069,-3.393872160253021,4629.559105041079,0.2713327803877481,91.28157122292959,1.8737557400602953,1.11122861121146,89833.23983432383,281.62535657296837,-1.5099429207194563,10.937480538323786,0.4921850672904733,370.22999999999996,0.1986997544899044,0.84,nominal,13847.496564315652,nan,heading_hold,18.0,-5.0,0.0
0.3,26.004937960695145,0.6682113108290187,1004.1914342536099,88.9573701919783,2.329085218889858,13.337926240395028,89.98187943038164,18.94449818825947,3.808220498845529,11.780065247646434,-3.1299821069930607,17.415293909848053,-4.73974723469756,-29.317128112220267,3.5689123738219997,-2.5495541430533875,4679.290023820077,0.2727928422403187,91.77234036469164,1.9024859817669746,1.111184935759439,89828.87944646519,281.6227556773515,-1.499873881250864,10.975355869474885,0.49691948368436056,375.9,0.20174280234652803,0.84,nominal,13896.123241635032,nan,heading_hold,18.0,-5.0,0.0
0.32999999999999996,28.689480672604144,0.7376349379529727,1004.5883545037349,89.48475706363334,2.3141209041317987,13.230675004164189,90.48716850118713,18.938445904189074,4.584177821524226,11.838219759738948,-4.101936454816694,19.234832193062605,-4.253877948233536,-31.487016413479388,3.78658648032541,-1.6438543978056577,4730.471796962637,0.2742872834994309,92.2746741819061,1.9313343619733996,1.1111416128023823,89824.55429012174,281.6201756957257,-1.4941337790308817,10.995934756854064,0.49949184460675794,381.57,0.20478585020315163,0.84,nominal,13945.610218375166,nan,heading_hold,18.0,-5.0,0.0
0.36,31.390018277972196,0.8061618243973682,1004.9822758950753,90.0179201789351,2.2842295481465125,13.130713044682688,90.99922682655912,18.93230232868298,5.42702941501457,11.868294757194517,-5.131017916849542,21.049106615215656,-3.9280085684955313,-33.357118103256866,3.997545309539237,-0.6870274001619812,4783.10671927682,0.2758156194759835,92.78840928098757,1.9603699403792427,1.1110986184416516,89820.26197843459,281.617615206682,-1.4927446703002292,10.999127663428633,0.4998909579285791,387.24,0.20782889805977525,0.84,nominal,13995.93907742222,nan,heading_hold,18.0,-5.0,0.0
0.39,34.10671456519581,0.8733018097977261,1005.3734023152381,90.55654290745368,2.237999513345265,13.037547338760383,91.51761440171859,18.926067461741187,6.334075259376469,11.875438782656419,-6.206901973507761,22.8570985251287,-3.832774793895502,-34.88820233835103,4.211636830133573,0.30945889499495893,4837.183763841116,0.27737698149903256,93.31325310795991,1.9896857909079817,1.1110559303959227,89816.00028610001,281.6150728849509,-1.4957097222454365,10.984920697126826,0.4981150871408533,392.90999999999997,0.21087194591639885,0.84,nominal,14047.081948705552,nan,heading_hold,18.0,-5.0,0.0
0.42,36.83971855949107,0.9385252888425519,1005.7619322742175,91.10013314317533,2.1741159681608595,12.950998632648957,92.04178075488413,18.919741303363697,7.302432292456114,11.86310109562292,-7.318132449619046,24.66010985666296,-3.895360048514262,-36.04332765275977,4.436241715924975,1.3329730919174925,4892.676171300537,0.2789700598096004,93.84876473008984,1.999141303191243,1.111013526973584,89811.76704677295,281.61254744021755,-1.5030131837684102,10.953375671281055,0.49417195891013177,394.7778947368421,0.21187443146760623,0.84,nominal,14098.999955402034,nan,heading_hold,18.0,-5.0,0.0
0.44999999999999996,39.588985063828986,1.0012894018152505,1006.148027062397,91.64221681126396,2.0921370990899546,12.869826272646788,92.56514121424009,18.913385070419668,8.329076126050547,11.832152470679567,-8.452011081101123,26.461767054994827,-4.008517659362993,-36.78945548475612,4.6755527750784855,2.3699400730027826,4948.913180169919,0.2805753075940502,94.38836813073681,1.9989795800899164,1.110971390547629,89807.56049996574,281.6100378240944,-1.5146205004856,10.904629835683219,0.4880787294604023,394.7447368421052,0.2118566358661055,0.84,nominal,14151.09423359756,nan,heading_hold,18.0,-5.0,0.0
0.48,42.354361497516116,1.0610400131773088,1006.5318303627519,92.17921445623769,1.9916870454019453,12.793443345163585,93.08408342827356,18.907029371343686,9.410930595936964,11.782134538322202,-9.594738993336525,28.26798986555707,-4.102060172990037,-37.09834073320544,4.931322724837299,3.406053723048791,5005.517251631837,0.2821818796659682,94.92841472917091,1.999402409268393,1.1109295054147497,89803.37907730126,281.60754310264207,-1.5304784346003095,10.838895279422252,0.4798619099277814,394.7115789473684,0.2118388402646048,0.84,nominal,14203.028668067776,nan,heading_hold,18.0,-5.0,0.0
0.51,45.13567544822578,1.1172076543563279,1006.9134860805976,92.71046502365552,1.8722547059673007,12.72185726152618,93.59797708694947,18.900674206135747,10.545029308450463,11.712683786922506,-10.731704781912217,30.087556221943956,-4.149504397878199,-36.947220675552934,5.204123628535776,4.426332284225366,5062.416122067848,0.283787730670242,95.46821633175136,2.0004949509172274,1.1108878558493185,89799.22120823408,281.6050623404761,-1.550515268853586,10.75645800810207,0.46955725101275875,394.67842105263156,0.21182104466310406,0.84,nominal,14254.73879565685,nan,heading_hold,18.0,-5.0,0.0
0.54,47.93273499375289,1.1692133619952623,1007.2931377612804,93.23531818423696,1.7335235879644841,12.655056022758355,94.10621713725979,18.894319574795855,11.728715528440041,11.62410492549951,-11.84775425049341,31.932795069649885,-4.140466017475416,-36.31942621896912,5.493904567730504,5.41531595575743,5119.533679720426,0.2853907537371495,96.00706405990499,2.00234672783135,1.1108464261669084,89795.08532639072,281.60259460455165,-1.5746411184943514,10.657676699454912,0.457209587431864,394.6452631578947,0.21180324906160333,0.84,nominal,14306.161301369204,nan,heading_hold,18.0,-5.0,0.0
0.57,50.74532970897119,1.2164746684788836,1007.6709284984656,93.75315717394349,1.575376882787377,12.593024572842745,94.60824784498017,18.887965477324006,12.959846248882137,11.517217189759817,-12.92737840779591,33.82013259787218,-4.057073583740662,-35.20509098300658,5.799708942039038,6.357271377676909,5176.792575794782,0.28698885442732935,96.54425322593363,2.0050368981672864,1.110805200734276,89790.96987056517,281.60013896475994,-1.602748321561236,10.542981142764262,0.4428726428455327,394.6121052631579,0.21178545346010264,0.84,nominal,14357.236391108076,nan,heading_hold,18.0,-5.0,0.0
0.6,53.57323257996917,1.2584116854351353,1008.0470006794889,94.26342903326604,1.3979005652083911,12.535739367439342,95.10359057673986,18.881611913720203,14.236998804064104,11.393051086201492,-13.954871377248464,35.77059652164063,-3.8697722053193626,-33.60197144073901,6.119290608038465,7.23642244121004,5234.117434599093,0.2885800385934483,97.079112889991,2.008615981362869,1.1107641639971124,89786.87328748856,281.5976944955833,-1.6347119067589393,10.41287036888731,0.4266087961109138,394.57894736842104,0.2117676578586019,0.84,nominal,14407.910589507588,nan,heading_hold,18.0,-5.0,0.0
0.63,56.416203052891746,1.294453267508446,1008.4214949289791,94.76568243075236,1.2013860691103562,12.483141649674208,95.59187580803659,18.875258883984444,15.55969354980018,11.252754974189134,-14.914530495555447,37.810325173508204,-3.545389981633714,-31.516196722631165,6.4489985735684074,8.03720397696148,5291.4387085540075,0.29016251491016815,97.61104035166495,2.0130911930805717,1.1107233005952795,89782.79404333142,281.5952602829616,-1.6703901378532617,10.267910479013079,0.4084888098766347,394.54578947368424,0.2117498622571012,0.84,nominal,14458.140013494818,nan,heading_hold,18.0,-5.0,0.0
0.6599999999999999,59.27399126398523,1.324043218328231,1008.7945481063341,95.25960703644951,0.9863316939928335,12.435105911832306,96.07287568293063,18.86890638811673,16.928640408066485,11.0977083189573,-15.790921865897632,39.97112095376733,-3.0552838838308642,-28.962847189241455,6.7839248263931005,8.744527921914887,5348.696786143006,0.29173480090288395,98.13953681879622,2.0184170445494933,1.1106825955812654,89778.73064550983,281.5928354373088,-1.7096251324397307,10.108732181603072,0.38859152270038405,394.5126315789473,0.21173206665560043,0.84,nominal,14507.893776180903,nan,heading_hold,18.0,-5.0,0.0
0.69,62.14634332362589,1.3466464598809267,1009.166290574321,95.74506865468881,0.7534413850898595,12.391415599562734,96.54653295780707,18.86255442611706,18.346004792476727,10.929676766209914,-16.569185977443382,42.29104996031918,-2.377954981086922,-25.966371332957046,7.118143031817544,9.344052894903962,5405.845896662123,0.2932958200844998,98.664240085076,2.0244892443056486,1.1106420347181245,89774.68167242457,281.5904191112669,-1.7522435520807487,9.936028048231078,0.36700350602888476,394.4794736842105,0.21171427105409973,0.84,nominal,14557.157116547129,nan,heading_hold,18.0,-5.0,0.0
0.72,65.03300744707036,1.3617550781989318,1009.5368430017123,96.22213744814881,0.503620610600169,12.351747579711333,97.01298385825872,18.856202997985438,19.815683146311414,10.750894039079688,-17.235348819908722,44.815066483699546,-1.4976463001096498,-22.56088915830875,7.444914759543467,9.82245281202906,5462.8575157326395,0.29484498267156184,99.18495168362091,2.031140336131298,1.1106016048282146,89770.64580826987,281.58801052048887,-1.7980573604320185,9.750549500261652,0.3438186875327065,394.44631578947366,0.211696475452599,0.84,nominal,14605.933999964127,nan,heading_hold,18.0,-5.0,0.0
0.75,67.9337407114759,1.3688941856456311,1009.9063128433047,96.69110881351813,0.23797024822331064,12.315661386412122,97.47257393139571,18.84985210372186,21.343581219365447,10.56406388059993,-17.776623192520404,47.59564242523122,-0.40252266267363584,-18.79040499627433,7.756847336183582,10.167683593502023,5519.723125605331,0.296382246682123,99.70165744087677,2.038137882185193,1.1105612941770762,89766.62188134815,281.5856089665185,-1.8468646458655238,9.553103539478077,0.3191379424347595,394.4131578947368,0.21167867985109828,0.84,nominal,14654.249077250497,nan,heading_hold,18.0,-5.0,0.0
0.78,70.84831621388422,1.3676275786924674,1010.2747905457303,97.15251674694356,-0.04222023177212714,12.282590080852463,97.92586640876544,18.84350174332633,22.93789301052734,10.372328315683845,-18.18170328757084,50.69339283578497,0.9157381678121721,-14.708919163865502,8.046037539926026,10.369248332085661,5576.456225131601,0.29790815740415805,100.21454075445212,2.0451873305609767,1.110521092887167,89762.60890536329,281.58321386145275,-1.898450504960276,9.344549236884514,0.2930686546105642,394.38,0.21166088424959756,0.84,nominal,14702.148930658974,nan,heading_hold,18.0,-5.0,0.0
0.8099999999999999,73.77653038194241,1.3575632002156295,1010.6423455193199,97.60713893527301,-0.3354792825612634,12.25183245298616,98.37364238420147,18.83715191679884,24.609380466113624,10.17923723800247,-18.441058497908514,54.177695551367606,2.4612745833456637,-10.380418422370804,8.30421950405067,10.418462142528664,5633.093463069923,0.29942386268812216,100.72398773846315,2.0519409093288297,1.1104809933770485,89758.60612325245,281.5808247541244,-1.9525879829811972,9.125793994959292,0.26572424936991146,394.34684210526314,0.21164308864809683,0.84,nominal,14749.702515654419,nan,heading_hold,18.0,-5.0,0.0
0.84,76.71821016035823,1.3383584358854574,1011.009021950917,98.05599261386075,-0.6401588110057362,12.222547719905053,98.81689209623109,18.830802624139398,26.37165389332702,9.988723959810292,-18.547225288688136,58.12730297758593,4.233284317866916,-5.878733847255028,8.522901135944364,10.308719688709107,5689.694770066831,0.3009311015998477,101.23058340774469,2.0580120841683454,1.11044099081786,89754.61305274129,281.57844135731904,-2.0090390671681337,8.897789599621962,0.23722369995274525,394.31368421052633,0.21162529304659614,0.84,nominal,14797.000706894049,nan,heading_hold,18.0,-5.0,0.0
0.87,79.67321978490095,1.3097252952302492,1011.3748345528252,98.50032081809107,-0.954438021840275,12.193753396939355,99.25679712296669,18.824453865348,28.24145306399092,9.805076568115272,-18.495090429212272,62.630942060718056,6.225629551131383,-1.2872614520976289,8.693458515460517,10.03577114012969,5746.342423899079,0.30243216556092706,101.73509860746402,2.062993889723814,1.1104010835966855,89750.62953258512,281.57606357540664,-2.0675557283978425,8.66152807909168,0.20769100988646,394.2805263157895,0.2116074974450954,0.84,nominal,14844.154908822347,nan,heading_hold,18.0,-5.0,0.0
0.8999999999999999,82.64146687342767,1.27143555794848,1011.7397643330559,98.94156961755762,-1.2763245760589728,12.16432600768754,99.69470412228904,18.818105640424648,30.238930385096758,9.632898539179443,-18.282159946337195,67.78789792780248,8.426564180981382,3.301465309811178,8.807166449003608,9.598015294544064,5803.13907629836,0.30392983353607705,102.23846821290793,2.066479409653992,1.1103612737775166,89746.65576856794,281.5736915318351,-2.1278810065867475,8.418037387654675,0.17725467345683427,394.2473684210526,0.21158970184359466,0.84,nominal,14891.294774912141,nan,heading_hold,18.0,-5.0,0.0
0.9299999999999999,85.62290760528539,1.2233260069115324,1012.1037544518398,99.38135772859074,-1.6036517012315827,12.133003959462838,100.13209149836693,18.81175794936934,32.38793976351529,9.477060363782613,-17.908813369174947,73.70857751941355,10.818106518099714,7.7863799748285,8.85516207722245,8.996821152444802,5860.204857580695,0.30542728502196764,102.74176186258457,2.068083490106565,1.11032156755275,89742.692378554,281.57132559606305,-2.189750135042143,8.16837693312039,0.1460471166400488,394.21421052631575,0.21157190624209393,0.84,nominal,14938.565157513798,nan,heading_hold,18.0,-5.0,0.0
0.96,88.61755081424349,1.1653039187736127,1012.4667062275454,99.82144029860304,-1.9340696045973202,12.098392523519799,100.57053082377638,18.805410792182077,34.708862468209624,9.342612141016058,-17.378556164430833,80.26574257108764,13.374711493746256,12.058718196580612,8.827263969163031,8.238064172463949,5917.6737325877,0.3069279959277023,103.24614893705407,2.0674362331581957,1.1102819756782922,89738.74043590155,281.56896640952095,-2.2528916988021983,7.913632967425933,0.1142041209282416,394.1810526315789,0.2115541106405932,0.84,nominal,14986.122459714436,nan,heading_hold,18.0,-5.0,0.0
0.99,91.62546135325357,1.097353953013181,1012.8284751229468,100.26368463366931,-2.264998858681059,12.058963180046497,101.01165907521488,18.79906416886286,37.21665077735968,9.234766800996463,-16.698324648764427,87.26801598024659,16.05514583979563,16.005256836911204,8.712258380392456,7.332857945184506,5975.690668767514,0.3084356580673409,103.75287148156025,2.064220943160335,1.1102425139107666,89734.80151308392,281.5666149117008,-2.317028822204586,7.654913860443975,0.08186423255549694,394.1478947368421,0.2115363150390925,0.84,nominal,15034.132000128166,nan,heading_hold,18.0,-5.0,0.0
1.02,94.646762448957,1.0195467812092116,1013.1888674912293,100.71003652344797,-2.5935723934656467,12.013078942752783,101.45714435168763,18.792718079411685,39.925124547494946,9.158895131040383,-15.878807643721533,94.66792876540674,18.79623138283323,19.5126032131454,8.499421550039997,6.2971715274975555,6034.4079374340345,0.3099540782728354,104.26321027328423,2.058256351666922,1.1102032033617728,89730.87771702949,281.56427236130696,-2.3818803793738224,7.393345277557336,0.04916815969466701,394.11473684210523,0.21151851943759178,0.84,nominal,15082.764677382454,nan,heading_hold,18.0,-5.0,0.0
1.05,97.68163620911218,0.9320487104112272,1013.5476393179351,101.16245867183943,-2.9166023599328135,11.959060890196314,101.90862942475975,18.786372523828557,42.848608445459405,9.120351366983199,-14.93468792524132,102.47297365619335,21.514469052005975,22.47065839389565,8.179477257626989,5.15171699458854,6093.979009452043,0.31148701847656945,104.77843103050158,2.0495660698476232,1.1101640706343963,89726.97170272557,281.5619403444334,-2.4471622205275425,7.130065281982219,0.016258160247777338,394.0815789473684,0.21150072383609106,0.84,nominal,15132.191332733732,nan,heading_hold,18.0,-5.0,0.0
1.08,100.73032176359575,0.8351316888020629,1013.9044977868116,101.62285181611912,-3.2305673869721407,11.895282295881998,102.36766246125481,18.780027502113473,46.002479261564616,9.1241450433697,-13.88480134250369,110.70851491242152,24.107350754400663,24.776402601067446,7.745358691948079,3.921879680786904,6154.5509554437085,0.3130380019881093,105.29971924819695,2.038439361383593,1.1101251476517082,89723.08665607849,281.5596207643857,-2.5125884075323963,6.866219383149544,-0.016722577106306955,394.04842105263157,0.21148292823459033,0.84,nominal,15182.575702111735,nan,heading_hold,18.0,-5.0,0.0
1.1099999999999999,103.79311070936282,0.7291829855912293,1014.2591063363552,102.09296485890223,-3.531623440361122,11.82028498478606,102.83562113843195,18.773683014266435,49.403274724012725,9.174527159465889,-12.752268999212545,119.40164065328054,26.45147195171865,26.338159002590416,7.193059958559117,2.6375609014535115,6216.255987613193,0.31461010345996465,105.82810954440588,2.025484668567251,1.1100864711045932,89719.22623877932,281.55731580881366,-2.577872452323371,6.602955552688385,-0.04963055591395179,394.0152631578947,0.2114651326330896,0.84,nominal,15234.066552616974,nan,heading_hold,18.0,-5.0,0.0
1.14,106.87033961384185,0.6147134914621987,1014.6110939075778,102.5742968159676,-3.8156498043010196,11.732919040755009,103.31363385311832,18.767339060287444,53.06863788561389,9.27450764364504,-11.564650129541732,128.57350707996625,28.398754084654996,27.080416536356037,6.5227474295201455,1.3328263788050336,6279.202551524876,0.3162057337467296,106.36441328530215,2.0116652534095367,1.1100480814425695,89715.39448755808,281.5550278896007,-2.642728551714488,6.341419229696583,-0.0823225962879272,393.9821052631579,0.2114473370315889,0.84,nominal,15286.789354036846,nan,heading_hold,18.0,-5.0,0.0
1.17,109.96237940292805,0.49236302126298653,1014.9600691073047,103.06799296954024,-4.078349006640405,11.632506657561668,103.80250149455637,18.760995640176496,57.01721386698044,9.425261867477705,-10.354134200508813,138.23521142285247,29.77265271088167,26.949169213892812,5.740200521677104,0.045248988551475765,6343.4663839612795,0.3178264307313892,106.90914821290193,1.9982924806554114,1.1100100213286932,89711.59565995341,281.5527595508025,-2.706872812081487,6.0827483370302255,-0.1146564578712218,393.94894736842105,0.21142954143008816,0.84,nominal,15340.837819974837,nan,heading_hold,18.0,-5.0,0.0
1.2,113.0696216113441,0.36290027731668867,1015.3056398325376,103.57474028053534,-4.3154247982099285,11.519024174431667,104.30262524644571,18.754652753933595,61.26855139629145,9.625356373322752,-9.157780058520858,148.3852890584777,30.364815541616753,25.91758426689073,4.858592190848812,-1.1851766294510873,6409.082201841892,0.31947267300207455,107.46247575345066,1.986941870602384,1.1099723334991605,89707.83402067312,281.5505133410885,-2.7700244576772857,5.828068330295633,-0.14649145871304595,393.91578947368424,0.21141174582858746,0.84,nominal,15396.265869514002,nan,heading_hold,18.0,-5.0,0.0
1.23,116.19246175642651,0.22721432039214448,1015.6474383825056,104.09467150274695,-4.52286523081814,11.393284998930637,104.81394892011177,18.748310401558737,65.84303606691756,9.86971197927549,-8.017827504755878,159.00819836927943,29.931182625558186,23.991665136454696,3.900586026026336,-2.3176760192650865,6476.037055798329,0.3211437416700513,108.02415451301731,1.979254534979335,1.1099350580247933,89704.11356826793,281.5482916505137,-2.8319070171549052,5.578487301085346,-0.17768908736433178,393.8826315789473,0.2113939502270867,0.84,nominal,15453.080895727697,nan,heading_hold,18.0,-5.0,0.0
1.26,119.33128052163562,0.08629359793321256,1015.9851511057227,104.62729217363703,-4.697357415297731,11.257090773904157,105.33592704754906,18.741968583051925,70.76187082441986,10.148194438090005,-6.98214827006411,170.07369749888377,28.18538186882022,21.215431751466955,2.900704872019522,-3.3130146091761343,6544.266720170045,0.3228376627504679,108.59352086633737,1.9765998322681473,1.1098982290784034,89700.43771250096,281.54609651781277,-2.8922494844005455,5.335091155763481,-0.20811360552956487,393.8494736842105,0.211376154625586,0.84,nominal,15511.239545574226,nan,heading_hold,18.0,-5.0,0.0
1.29,122.48642396761315,-0.05881203734673954,1016.3185500653456,105.17144819925117,-4.8368545093317366,11.113298654096257,105.8675308338083,18.735627298413156,76.0471104906056,10.443649607267867,-6.104971870247374,181.53725796941126,24.785729990048676,17.67502138245415,1.9079368150572227,-4.136592461637086,6613.656611498407,0.3245512638344863,109.16950798630525,1.9796128275668752,1.1098618714825441,89696.80892981292,281.54392942457525,-2.9507874522076905,5.0989388907771644,-0.23763263865285444,393.81631578947366,0.21135835902408526,0.84,nominal,15570.647351421996,nan,heading_hold,18.0,-5.0,0.0
1.3199999999999998,125.6581845132494,-0.20705108834797262,1016.6475219559184,105.72535152120837,-4.941301700041103,10.965729685759042,106.40730070965546,18.729286547642435,81.72174383014531,10.7290407373586,-5.448134514767039,193.3417720882735,19.309134286353277,13.501089491557872,0.9886546791081002,-4.762379769885323,6684.048332959143,0.32628036735366,109.75071082025732,1.9876813714651804,1.1098259975574782,89693.2284487662,281.5417911072865,-3.0072642208034175,4.87105798505082,-0.26611775186864745,393.7831578947368,0.21134056342258453,0.84,nominal,15631.163243346527,nan,heading_hold,18.0,-5.0,0.0
1.3499999999999999,128.84678470385035,-0.3574562763460504,1016.9720865289269,106.28667302003173,-5.013506266602591,10.818819100283024,106.9534429248402,18.722946330739756,87.80978444573914,10.963015153963777,-5.0832836524975535,205.42086563249123,11.19936075950889,8.869101576489292,0.2302466532970529,-5.177753553501186,6755.251563522461,0.3280201079530086,110.3354928227401,1.998522735507575,1.1097906051135862,89689.69604972388,281.53968143756197,-3.061431887828975,4.652439929510539,-0.29344500881118263,393.75,0.21132276782108383,0.84,nominal,15692.608789097425,nan,heading_hold,18.0,-5.0,0.0
1.38,132.05236536972836,-0.5092596095449201,1017.2923930865264,106.85268886260064,-5.060111106628992,10.676885253318819,107.50394281277178,18.716606647705124,94.33623626616061,11.08254638585773,-5.09575708448618,217.7041692954535,-0.33396690252791095,3.997797092838723,-0.25344228363436927,-5.389392416266638,6827.057934777457,0.3297652874831136,110.92210536665809,2.0008228848256833,1.109755677835474,89686.2101032407,281.53759944493754,-3.1130524320728883,4.444035913189289,-0.3194955108513388,393.71684210526314,0.2113049722195831,0.84,nominal,15754.779306807837,nan,heading_hold,18.0,-5.0,0.0
1.41,135.2749128339522,-0.6620582567757656,1017.608670813942,107.41824880746098,-5.0932882410281834,10.5425909138522,108.05446767785509,18.710267498538535,101.32560102401908,10.990536177764364,-5.586519174552904,230.12499069573934,-16.354030099958877,-0.8522757947574089,-0.3175271612111377,-5.43038928611086,6898.984983022387,0.33150423240385696,111.50662164591253,2.0015933609369405,1.1097211906993782,89682.76811079691,281.5355436397094,-3.1618988226085136,4.246752684682293,-0.3441559144147134,393.68368421052634,0.2112871766180824,0.84,nominal,15817.216064209857,nan,heading_hold,18.0,-5.0,0.0
1.44,138.5143650927871,-0.8159477270953636,1017.9211380399702,107.98174196116383,-5.1296490106532655,10.415574200940428,108.60411632104541,18.703928883239993,108.80121680230175,10.5313410731202,-6.692295455531315,242.63042767618558,-39.024567793149544,-5.380270039797627,0.2430747072962461,-5.370427401817104,6970.972119274541,0.33323559436737976,112.08858794640426,2.0009798402533128,1.1096871198680733,89679.36769237972,281.5335126027402,-3.2077561412002797,4.061448606959062,-0.36731892413011724,393.6505263157895,0.21126938101658166,0.84,nominal,15879.823369297254,nan,heading_hold,18.0,-5.0,0.0
1.47,141.77063761948574,-0.9717086693512202,1018.2298292459433,108.54241755662127,-5.192031408528558,10.289706865770867,109.1526072366875,18.697590801809493,116.77696364911303,9.442140320646525,-8.601831705835574,255.19701689336173,-72.02456779314954,-9.209497595269985,1.7303632952112227,-5.332750019573705,7043.045591836989,0.3349601136189109,112.66825331901757,1.976953068960469,1.1096534615526208,89676.00846894186,281.53150610990133,-3.250422775456758,3.8889299226973084,-0.38888375966283645,393.6173684210526,0.21125158541508093,0.84,nominal,15942.569388258009,nan,heading_hold,18.0,-5.0,0.0
1.5,145.04334486708905,-1.131330526278879,1018.5341069952678,109.09024158677707,-5.3207285642552975,10.142591644152436,109.68984969985097,18.69125325424704,125.17412937672201,7.5213696602107385,-11.141567378014951,267.8529544429196,-105.02456779314954,-11.821215971426557,4.106442355457614,-5.48724703775964,7114.052863192413,0.33665061113232064,113.23647670567829,1.9636671363800082,1.1096202852252006,89672.69737310872,281.52952830453074,-3.289712027910126,3.7299472463878893,-0.40875659420151383,393.58421052631576,0.2112337898135802,0.84,nominal,16004.339063953092,nan,heading_hold,18.0,-5.0,0.0
1.53,148.3317847342238,-1.297730891252029,1018.8321903429219,109.61466223782512,-5.546678832438327,9.936111588469222,110.2037482896168,18.684916240552635,133.89033541033808,4.586908037106057,-14.088441635976544,280.6780426008839,-138.02456779314954,-13.284473116839422,7.308226947689872,-6.01145543233461,7182.501450479351,0.33827241117886003,113.78159709572944,2.0085033368674003,1.1095877850280402,89669.45377963506,281.527590762771,-3.325453639867269,3.5851922984733933,-0.42685096269082584,393.5510526315789,0.21121599421207948,0.84,nominal,16063.763767967022,nan,heading_hold,18.0,-5.0,0.0
1.56,151.63474624583057,-1.4742746579488584,1019.1207573581507,110.0987170535598,-5.884792223227645,9.618900507629489,110.67466522798274,18.678579760726272,142.82470129826552,0.49564153495022345,-17.184266861617512,293.8100341193181,-171.02456779314954,-13.587790074524435,11.24404053399126,-7.086978597677616,7245.842689071127,0.33976666890257273,114.28382618818867,2.1026296148246106,1.1095563230957686,89666.31382861991,281.525715077172,-3.3574951400303084,3.4552948957298595,-0.44308813803376756,393.5178947368421,0.21119819861057876,0.84,nominal,16118.601336809335,nan,heading_hold,18.0,-5.0,0.0
1.5899999999999999,154.95005186571126,-1.6636461231564654,1019.3952605836107,110.51018732935643,-6.312382173586901,9.150107515330424,111.06787177134967,18.672243814767956,151.9154950564581,-4.843308925707245,-20.152494861153727,307.44570795218016,-204.02456779314952,-12.696668457290013,15.804219090912431,-8.894223786329912,7299.442168488041,0.34102670688858455,114.7072887281267,2.1674340432922445,1.109526395146095,89663.32699092955,281.5239308062065,-3.3857020563780345,3.3408202109861977,-0.4573974736267253,393.48473684210524,0.21118040300907803,0.84,nominal,16164.888602110752,nan,heading_hold,18.0,-5.0,0.0
1.6199999999999999,158.2741039118633,-1.866851846754829,1019.6510381146402,110.80173487173519,-6.77352411994545,8.525917700981372,111.33551253860419,18.665908402677683,161.191289297404,-11.393787340335745,-22.67272896938736,321.836519497664,-234.51654983892064,-10.575853790625958,20.792966363987553,-11.599956424820316,7336.8629098380325,0.3419050358089705,115.00238269573235,2.2801738351234104,1.1094985093371366,89660.5439778514,281.52226825225483,-3.4099568643020217,3.242266314104071,-0.4697167107369911,393.45157894736843,0.21116260740757734,0.84,nominal,16197.15902904378,nan,heading_hold,18.0,-5.0,0.0
1.65,161.6030157888645,-2.083478397689482,1019.8838055181704,110.96372923337331,-7.220885031155104,7.758913451008091,111.4687899097805,18.659573524455457,170.8460584293149,-18.80782633413531,-24.34770949981961,337.27498289031325,-254.18354143329094,-7.400026436314154,25.737778083437583,-15.31586265590993,7356.697357923829,0.3423717117101683,115.15904326505445,2.2685775472996745,1.1094731326430658,89658.01138956351,281.5207552641319,-3.4301587904934374,3.160062004917228,-0.4799922493853465,393.4184210526316,0.2111448118060766,0.84,nominal,16214.289083360156,nan,heading_hold,18.0,-5.0,0.0
1.68,164.9349828434843,-2.3120540347421867,1020.0919769119995,111.06556848732677,-7.619187901756823,6.939046460969153,111.54265055790471,18.653239180101274,-178.74690864193454,-26.942564683593442,-24.822837854547117,354.0821637317397,-273.1425448644478,-4.135848380443498,30.47397857158725,-20.074840909590282,7368.35853916408,0.3426472808112274,115.25145582204216,2.2961586460640055,1.1094504378235068,89655.7464632704,281.519402150072,-3.4462207977422556,3.0945649475589807,-0.4881793815551274,393.3852631578947,0.21112701620457588,0.84,nominal,16224.566432125479,nan,heading_hold,18.0,-5.0,0.0
1.71,168.26782021772752,-2.550981715159753,1020.2739244949256,111.09457914144075,-7.964256013918874,6.064919430872046,111.54469120568695,18.646905369615137,-167.0115699989592,-35.530303140236924,-23.54838619444119,370.238480924066,-290.44859409676195,-0.597494892567893,34.7566619599852,-25.84566570960862,7370.258146278253,0.3426952295511292,115.26734154753433,2.3805657117387704,1.1094306022114258,89653.76689269526,281.51821949078294,-3.4580740846838074,3.046060114295215,-0.49424248571309815,393.3521052631579,0.21110922060307516,0.84,nominal,16226.578349734189,nan,heading_hold,18.0,-5.0,0.0
1.74,171.59893858587338,-2.798431567589599,1020.4279211213765,111.03727893819556,-8.24832841432821,5.133220881696196,111.46148299861052,18.640572092997044,-152.92039264137392,-44.1179591078956,-19.58318336815515,386.10652168752205,-305.8008030515506,2.586058487329776,35.0,-29.999999999999996,7360.6802470254415,0.3424756852405762,115.19329187121743,2.5340625979027975,1.1094138139764675,89652.09145324292,281.51721851271105,-3.4656684819095136,3.014758545633688,-0.498155181795789,393.31894736842105,0.21109142500157443,0.84,nominal,16218.810568789717,nan,heading_hold,18.0,-5.0,0.0
1.77,174.92585634091407,-3.050972818597705,1020.5517251665265,110.8972585013559,-8.418041700270189,4.1268015049988005,111.29283831336905,18.634239350246997,-134.88155297181146,-51.936428868347875,-11.46779015302771,401.02315193980576,-319.22485426056863,7.05352617478698,35.0,-29.999999999999996,7339.476993376609,0.3419846289523721,115.02795839553224,2.606880675312784,1.1094003173840812,89650.74451886347,281.51641378641756,-3.46897330422414,3.00079643210428,-0.499900445986965,393.28578947368425,0.21107362940007374,0.84,nominal,16201.241505527169,nan,heading_hold,18.0,-5.0,0.0
1.7999999999999998,178.24690288595374,-3.3035826994190676,1020.6444595865212,110.7015515013229,-8.420329360712081,3.091147333155422,111.06435361167051,18.627907141364993,-111.16088278397888,-57.758991540506464,2.397901855456992,413.29564216768125,-330.65889345416724,16.975002100631894,35.0,-29.999999999999996,7309.824169492028,0.3412950100793219,114.79587930830208,2.6607323176912416,1.1093902079528566,89649.7356192803,281.5158110126876,-3.4679746801938953,3.0042345217052913,-0.4994706847868386,393.25263157894733,0.21105583379857298,0.84,nominal,16176.748311193252,nan,heading_hold,18.0,-5.0,0.0
1.8299999999999998,181.5607768681887,-3.550988607568056,1020.7066234021678,110.46246607449879,-8.246863604966292,2.0721271882193664,110.78926338622742,18.621575466351036,-82.00217853172613,-59.88705004118722,21.63329507690977,423.6325483436682,-339.6010462887612,31.925991360759898,35.0,-29.999999999999996,7273.447181073593,0.34044601595322976,114.51023471410956,2.6917300680681993,1.109383431211706,89649.05931623772,281.5154069478859,-3.4626756009982644,3.025057855593936,-0.496867768050758,393.21947368421047,0.21103803819707223,0.84,nominal,16146.843049218303,nan,heading_hold,18.0,-5.0,0.0
1.8599999999999999,184.86665571632676,-3.7880960184850516,1020.7401040092559,110.1959616046022,-7.903580363899856,1.116020236269847,110.48466879028669,18.615244325205122,-52.40484174234215,-57.28162100020909,41.00610516073854,435.79103235538895,-345.6341510297297,51.42334524139506,31.082025771572262,-29.999999999999996,7232.581554763234,0.33948896604621526,114.18828341966,2.730011133983629,1.1093797813618738,89648.6950700955,281.5151893239398,-3.4530958856933593,3.063175833171029,-0.4921030208536214,393.18631578947367,0.21102024259557153,0.84,nominal,16113.471959832044,nan,heading_hold,18.0,-5.0,0.0
1.89,188.16464993513839,-4.0093077305413,1020.7484602320054,109.93314062705454,-7.373723735208297,0.2785407583158336,110.18051004966789,18.608913717927255,-27.420927700734577,-50.73348660732214,55.24280813904779,449.5879956263967,-348.38237426052933,75.30499714453302,10.92136391734047,-29.999999999999996,7190.978471957954,0.338511329364166,113.85944096925776,2.5402650076204076,1.109378870419305,89648.60416028512,281.51513500849194,-3.4392716580828218,3.11842260627668,-0.485197174215415,393.1531578947368,0.2110024469940708,0.84,nominal,16079.995284936678,nan,heading_hold,18.0,-5.0,0.0
1.92,191.45984046509963,-4.211738594267624,1020.7360731211519,109.83968433204164,-6.747695457544136,-0.4129036951176275,110.04752672192028,18.602583644517434,-7.203837743094313,-41.53831937316727,63.99920807424823,464.8612332410464,-355.81470931460683,103.28939461784053,-23.95687254903672,-29.999999999999996,7170.375655228221,0.33802579436082053,113.69614587288314,2.8368670613115152,1.1093802207840135,89648.73892334211,281.5152155247125,-3.4212564401228005,3.190557800781887,-0.4761802749022641,393.12,0.2109846513925701,0.84,nominal,16065.230480279422,nan,heading_hold,18.0,-5.0,0.0
1.95,194.74827304188156,-4.4071659623277935,1020.6917936181068,109.61441922606403,-6.514245602005646,-1.4759834348380594,109.81773456564511,18.596254104975657,9.88429313783023,-29.910560730725788,68.63335341957254,481.4369720935706,-388.8147093146068,136.21583254336986,-35.0,-29.999999999999996,7138.338421244077,0.33726889328644727,113.44161756723724,2.66776541214453,1.109385047866476,89649.22065454442,281.51550334148226,-3.3991454189637302,3.279267562436437,-0.4650915546954454,393.08684210526314,0.21096685579106939,0.84,nominal,16039.534590450248,nan,heading_hold,18.0,-5.0,0.0
1.98,198.02844653486517,-4.5874693270606555,1020.6226457137717,109.33911643278672,-6.010112157762071,-2.3049301445022863,109.52842796928296,18.589925099301926,25.16129020381642,-16.490295850303333,69.73786366532043,497.41221162739254,-421.8147093146068,169.21583254336986,-35.0,-29.999999999999996,7097.734352471535,0.33630689321524654,113.11813564914605,2.665776387498453,1.1093925859831326,89649.97294141412,281.51595280286045,-3.373024550823659,3.3841659224227327,-0.4519792596971584,393.0536842105263,0.21094906018956863,0.84,nominal,16007.127335300162,nan,heading_hold,18.0,-5.0,0.0
2.01,201.30012900323683,-4.748352195371778,1020.5344610188441,109.05608227905576,-5.362762277037409,-2.939489830920876,109.2274182692344,18.583596627496238,40.070198498768065,-1.937230495080575,67.5025405053464,512.0267111824983,-454.8147093146068,202.21583254336983,-35.0,-29.999999999999996,7054.938238814265,0.33528967730456855,112.7761059215949,2.632983167177124,1.1094021994407672,89650.93234432818,281.51652600337746,-3.3429991893032076,3.504796476674106,-0.4369004404157367,393.0205263157895,0.21093126458806793,0.84,nominal,15973.33872303159,nan,heading_hold,18.0,-5.0,0.0
2.04,204.56420926350128,-4.887469367944924,1020.4345382619375,108.80267534214833,-4.637239085771514,-3.3307585635532777,108.95237537821846,18.577268689558597,56.145136738086116,12.769507379791083,61.51610620253752,520.0,-482.79741033427615,235.2158325433698,-35.0,-29.999999999999996,7014.855831873925,0.3343338247024131,112.45473056640319,2.5733864191333855,1.1094130926006656,89652.01946120562,281.5171755012974,-3.3091895996943235,3.640634371651082,-0.41992070354361477,392.9873684210526,0.2109134689865672,0.84,nominal,15942.354414924539,nan,heading_hold,18.0,-5.0,0.0
2.07,207.82261247061848,-5.005180242709693,1020.330832874498,108.61344023723947,-3.9236958254923096,-3.4568462479823094,108.73925038863182,18.570941285489,75.11937144686141,25.942668483367857,51.142290857870485,520.0,-486.17562693976623,268.2158325433698,-35.0,-28.42918186123184,6982.244035254887,0.33355366787287793,112.19245552372809,2.476531843552826,1.1094243982136114,89653.14774277409,281.5178495863157,-3.2717316037043545,3.791088587935594,-0.4011139265080508,392.95421052631576,0.21089567338506648,0.84,nominal,15918.139649749479,nan,heading_hold,18.0,-5.0,0.0
2.1,211.07810368240138,-5.104841349250511,1020.2302831079987,108.51637372609673,-3.3220368846938984,-3.3516588833099936,108.61893441290627,18.564614415287448,98.62179985269286,35.64347626306749,35.64562625493004,520.0,-468.2359908846495,301.2158325433698,-35.0,-21.807198199076574,6961.272009498928,0.3330503245326945,112.0232834938146,2.318560577070401,1.1094353598955224,89654.24170317086,281.518503159798,-3.23077844741113,3.9555045117074887,-0.3805619360365639,392.9210526315789,0.21087787778356573,0.84,nominal,15904.077762338673,nan,heading_hold,18.0,-5.0,0.0
2.13,214.33400886096686,-5.1916495917344525,1020.1368284381259,108.53017261884914,-2.89360808279807,-3.11515566242802,108.61342242658218,18.55828807895394,126.35648846903322,39.8962491999064,15.815967448668044,520.0,-435.23599088464954,334.21583254336974,-35.0,-17.772853375941743,6954.887340068335,0.33289566992857794,111.9713853833843,2.198038590826798,1.1094455481621899,89655.2584800942,281.51911061515216,-3.186503061614073,4.1331667829149525,-0.35835415213563093,392.8878947368421,0.21086008218206503,0.84,nominal,15902.56259421034,nan,heading_hold,18.0,-5.0,0.0
2.16,217.59287213567114,-5.272091785656349,1020.0526358992054,108.62877582347642,-2.681406464063239,-2.8064179640182325,108.69809961228107,18.551962276488478,154.7463912583506,37.584714974203415,-4.637235061882986,520.0,-402.23599088464954,367.21583254336974,-35.0,-16.508253264759666,6960.293447237636,0.33302332519413497,112.01443184438635,2.146698671522912,1.1094547267486292,89656.17449400757,281.51965786665517,-3.139095444214488,4.323302407746816,-0.334587199031648,392.85473684210524,0.2108422865805643,0.84,nominal,15910.937611501631,nan,heading_hold,18.0,-5.0,0.0
2.19,220.85607548948497,-5.353362649865516,1019.978044528238,108.77344512712759,-2.709028806972222,-2.486379032245066,108.83557912095304,18.54563700789106,179.57072810714538,29.514138631024984,-21.37591863261703,520.0,-369.23599088464954,400.21583254336974,-30.56338057593691,-17.89098280366295,6973.098961107461,0.3333280231383805,112.11701540712005,2.2498642282821795,1.1094628586738682,89656.9860536486,281.5201427105664,-3.0887619027415174,4.525084121864502,-0.30936448476693723,392.8215789473684,0.21082449097906358,0.84,nominal,15925.15933166946,nan,heading_hold,18.0,-5.0,0.0
2.2199999999999998,224.12388207409373,-5.4429137332523245,1019.9120816321293,108.92688615362519,-2.985036112893626,-2.198763203620281,108.98996067228255,18.539312273161688,-160.17427367861956,17.299123965437825,-33.23025973808377,520.0,-344.07013388506823,433.2158325433697,-27.191954879100614,-21.506611194352697,6989.071353183448,0.33370822522924165,112.24498429059928,2.3864248532007974,1.1094700499637815,89657.70373980026,281.52057146939114,-3.0357233801116568,4.737633989760596,-0.2827957512799255,392.7884210526316,0.21080669537756289,0.84,nominal,15941.326579010569,nan,heading_hold,18.0,-5.0,0.0
2.25,227.3953117485463,-5.548370336544434,1019.8506191956575,109.04765581508555,-3.515220109736994,-2.048747882395643,109.12353265483519,18.532988072300363,-143.38025881524652,2.120885515284742,-40.79707563598733,520.0,-332.6566718124648,466.21583254336974,-25.976985108542777,-26.727995117845705,7003.733810018321,0.33405684127701646,112.3623233469003,2.5266049314761654,1.1094767506446552,89658.37246446608,281.5209709752282,-2.9802172650606558,4.960027224583431,-0.25499659692707105,392.7552631578947,0.21078889977606213,0.84,nominal,15955.290764270536,nan,heading_hold,18.0,-5.0,0.0
2.28,230.66815137278076,-5.675418704261678,1019.7857269175643,109.09465414114845,-4.234945590574775,-2.1630759364423016,109.19824734783404,18.52666440530708,-128.28364311690547,-15.06802962951473,-44.37470089488188,520.0,-333.6169025972503,492.7317004082968,-27.27533018067699,-29.999999999999996,7012.186403664417,0.3342570459116881,112.42974778309815,2.616464185115749,1.1094838252830326,89659.07851093734,281.5213927750358,-2.922497356671653,5.191296211808001,-0.2260879735239999,392.7221052631579,0.21077110417456144,0.84,nominal,15962.810310795503,nan,heading_hold,18.0,-5.0,0.0
2.31,233.93965252416865,-5.825039613843098,1019.7073243054692,109.05003837959693,-4.987363652714018,-2.6134204031682606,109.19530499522254,18.520341272181845,-112.24147183779651,-33.304750133755874,-43.07944645143827,520.0,-346.58609481735164,514.1181846538359,-31.32449324674743,-29.999999999999996,7011.361428545138,0.3342357928517848,112.42270091944837,2.6197241401058,1.1094923728811792,89659.93155969694,281.52190239201445,-2.8628303337301633,5.430434719246531,-0.19619566009418363,392.68894736842105,0.2107533085730607,0.84,nominal,15961.720148400065,nan,heading_hold,18.0,-5.0,0.0
2.34,237.20733002261238,-5.9926564053331886,1019.6060935964333,108.92258328145758,-5.587226383002993,-3.3743569678620506,109.11797529420872,18.514018672924653,-89.76937139730693,-50.48789777398485,-32.629317133765014,516.5756292787529,-370.93870587220965,520.0,-35.0,-29.999999999999996,7000.653095756218,0.3339784076190487,112.33625875863855,2.6109303886249946,1.1095034093152996,89661.03299612371,281.5225603916232,-2.8014902908350265,5.676402275081294,-0.16544971561483818,392.6557894736842,0.21073551297155999,0.84,nominal,15952.286363921234,nan,heading_hold,18.0,-5.0,0.0
2.37,240.46930230306813,-6.170205193673733,1019.476043899532,108.73240934852477,-5.91829294468483,-4.334989896711561,108.97960897121466,18.507696607535507,-49.8579449495621,-61.06835446194153,-3.1984535003043417,513.232313557412,-403.9387058722096,520.0,-35.0,-29.999999999999996,6980.977239901655,0.33350611015024495,112.17756621446188,2.6617790114826163,1.1095175877933807,89662.44801240176,281.523405714653,-2.738753760432894,5.928128694871233,-0.13398391314109595,392.62263157894733,0.21071771737005923,0.84,nominal,15935.92233166677,nan,heading_hold,18.0,-5.0,0.0
2.4,243.72420956416363,-6.348797278003915,1019.3147900358031,108.49690870318337,-5.95306947767274,-5.375128790965045,108.79296964359584,18.501375076014405,-2.1890693383042237,-55.97768602652042,34.4318212985017,510.75784245167983,-436.9387058722096,520.0,-35.0,-29.999999999999996,6953.622362036012,0.33284879222554675,111.95668025377232,2.66735999905455,1.1095351684526271,89664.20257326003,281.5244538647673,-2.674898130487371,6.184518737835698,-0.1019351577705377,392.5894736842105,0.2106999217685585,0.84,nominal,15914.01850764079,nan,heading_hold,18.0,-5.0,0.0
2.4299999999999997,246.97186098557947,-6.518837359701103,1019.1240140908187,108.25504738052837,-5.6680027232395975,-6.359198166143926,108.58969076089765,18.49505407836135,26.381379655930164,-39.16065830627249,52.3090552808378,509.1154160674147,-467.14221276614256,520.0,-35.0,-29.999999999999996,6922.173349136362,0.3320914107644622,111.70217420706207,2.6512749830864135,1.1095559680240754,89666.27839201807,281.52569390840966,-2.6101997608246936,6.444456872156311,-0.06944289098046108,392.5563157894737,0.2106821261670578,0.84,nominal,15890.05298255742,nan,heading_hold,18.0,-5.0,0.0
2.46,250.2129917660362,-6.672260595698564,1018.9092846570378,108.03769268189058,-5.114107866582038,-7.157647792697611,108.3952446430284,18.488733614576336,43.99836067680705,-18.839861020222937,57.30807539310589,508.0848802701595,-478.13076879647645,520.0,-35.0,-29.999999999999996,6889.910905797446,0.33131229463125744,111.44038716923077,2.616085113784951,1.109579379509597,89668.61489344164,281.52708964972925,-2.544933040873599,6.706812128563379,-0.036648483929577653,392.5231578947368,0.21066433056555708,0.84,nominal,15866.85126699293,nan,heading_hold,18.0,-5.0,0.0
2.4899999999999998,253.44897924342882,-6.804208159673846,1018.6789890522973,107.86624924642082,-4.398252132509382,-7.676520158015522,108.22846811282382,18.48241368465937,58.92681625938854,1.7755953545509917,55.97086305788865,507.2884386606967,-471.96554815782974,520.0,-35.0,-29.999999999999996,6859.727705343449,0.33058117528362796,111.19476307835296,2.5665346996052434,1.1096044885610477,89671.1208273691,281.52858657116,-2.4793707611491977,6.970443021089426,-0.0036946223638218215,392.49,0.2106465349640564,0.84,nominal,15846.52896301397,nan,heading_hold,18.0,-5.0,0.0
2.52,256.681472940126,-6.913940969621216,1018.4425942983377,107.74978988990712,-3.65776033157901,-7.8798251319876025,108.09943605807159,18.476094288610447,75.32695794858796,21.049702380907796,49.60524978957275,506.988180686914,-450.57419805186663,520.0,-35.0,-28.000627312384616,6833.770082511736,0.3299503803737021,110.98289085622199,2.496883755487762,1.1096302630527748,89673.69318743558,281.5301231370608,-2.413785480157493,7.234202513580002,0.02927531419750026,392.45684210526315,0.21062873936255563,0.84,nominal,15830.254105412347,nan,heading_hold,18.0,-5.0,0.0
2.55,259.91213248358525,-7.004745188573256,1018.2085116418469,107.6886514486409,-3.0268072984013323,-7.802755216358945,108.01337973702582,18.46977542642957,96.76405383243659,37.24970722617676,36.80435889333201,506.91547188303605,-417.57419805186663,520.0,-35.0,-24.88286989596486,6813.71350448746,0.32946115608906645,110.81863367792273,2.4295677404862976,1.1096557859042049,89676.24044699279,281.531644674328,-2.3484514799490137,7.4969430103528625,0.062117876294107824,392.4236842105263,0.2106109437610549,0.84,nominal,15818.659601799987,nan,heading_hold,18.0,-5.0,0.0
2.58,263.1422143049504,-7.08287469835531,1017.98289265213,107.66939404550602,-2.604316992735109,-7.520632990564753,107.9631455715508,18.463457098116738,126.83759713978974,47.420440715433244,14.841216683397635,507.09848990509477,-384.5741980518667,520.0,-35.0,-22.466943199957786,6799.5841598186535,0.32911487780450477,110.70244670815397,2.3719476221841407,1.1096803863574702,89678.6956613879,281.5331111977611,-2.283645323698892,7.757521349291653,0.0946901686614566,392.3905263157895,0.2105931481595542,0.84,nominal,15811.022335078944,nan,heading_hold,18.0,-5.0,0.0
2.61,266.37245839010944,-7.156373865579536,1017.768866143787,107.67480283863469,-2.4499722408075555,-7.1342169447668065,107.93869825847716,18.45713930367195,162.54932873449997,47.83222851135154,-12.75492729085964,507.7857461278481,-351.5741980518667,520.0,-35.0,-20.756974129890445,6790.845510946898,0.32889905385124396,110.6301246009208,2.3259248603576244,1.1097037232056963,89681.02477524123,281.53450237006535,-2.2196457568719525,8.014803775649469,0.12685047195618362,392.3573684210526,0.21057535255805349,0.84,nominal,15806.284342036259,nan,heading_hold,18.0,-5.0,0.0
2.6399999999999997,269.603093061286,-7.233752019012427,1017.5661714609859,107.68782237255301,-2.579271781096355,-6.756489426705514,107.93039367868754,18.45082204309521,-167.24898973503892,38.94231719887866,-34.410124971441725,509.2387486427835,-318.5741980518667,520.0,-35.0,-19.65875593589268,6786.694199542588,0.3287944652748359,110.5952034451112,2.320041236623302,1.10972582480972,89683.23061723188,281.53581988550354,-2.1567330240780795,8.267670874921768,0.1584588593652209,392.32421052631577,0.21055755695655273,0.84,nominal,15803.400235176112,nan,heading_hold,18.0,-5.0,0.0
2.67,272.83362519748255,-7.322560957968933,1017.3716424318211,107.68440453988379,-2.9602979652168484,-6.48430097215815,107.92006534583707,18.444505316386515,-145.34525872868963,24.99584571908441,-46.953569306021684,509.4487827509898,-285.5741980518667,520.0,-35.0,-19.049544974931067,6784.871124566913,0.3287464210270763,110.57929132173022,2.3266031360069293,1.1097470363565831,89685.3476371215,281.53708432419313,-2.095186925520752,8.515022443326066,0.18937780541575827,392.2910526315789,0.210539761355052,0.84,nominal,15800.377869378888,nan,heading_hold,18.0,-5.0,0.0
2.6999999999999997,276.06324525334907,-7.428561637430654,1017.1794831193904,107.65400186221781,-3.533355982057379,-6.405310414356332,107.90225541178738,18.438189123545865,-128.2978639436337,9.039192594881818,-53.30367463668687,508.6085209713856,-252.57419805186672,520.0,-35.0,-18.739932722048213,6784.372601185154,0.328730510739187,110.5741849131119,2.3443901105178364,1.1097679898128272,89687.43890759423,281.53833335972394,-2.035285206646575,8.755782274697358,0.21947278433716985,392.2578947368421,0.2105219657535513,0.84,nominal,15796.571539608069,nan,heading_hold,18.0,-5.0,0.0
2.73,279.29098125145805,-7.554842040022757,1016.9821507798642,107.59119993696676,-4.209346753070095,-6.57774465087168,107.8742398752177,18.431873464573258,-113.16045503477471,-7.7443824772937,-55.11070840562896,506.83577174751423,-237.65760761381682,520.0,-35.0,-18.599093163735862,6784.170650275546,0.32872168235307947,110.57146720832324,2.3653895362896953,1.1097895076618416,89689.58651723359,281.53961601993086,-1.9773010630872214,8.988902842971928,0.24861285537149103,392.22473684210524,0.21050417015205058,0.84,nominal,15791.61382327336,nan,heading_hold,18.0,-5.0,0.0
2.76,282.5160318728099,-7.701323966592736,1016.7714640731317,107.50168737839505,-4.8827308856659535,-7.022890224419389,107.84143376832608,18.425558339468697,-97.33074333113437,-24.425268405588067,-52.2062519085548,503.4262258070652,-240.03566344935044,520.0,-35.0,-18.67777844220082,6783.96056098066,0.3287123905720655,110.56861066283858,2.376217728654639,1.1098124820728237,89691.87951124263,281.5409854835246,-1.9215003389187093,9.213369859886374,0.2766712324857966,392.1915789473684,0.21048637455054983,0.84,nominal,15786.009296756907,nan,heading_hold,18.0,-5.0,0.0
2.79,285.738095558198,-7.864787034707992,1016.5400142205484,107.40212284626917,-5.448768937175202,-7.714995086111323,107.81663240889384,18.41924374823218,-77.24308154788967,-39.442849749255906,-42.40296980618123,497.7318138147502,-258.154386114841,520.0,-35.0,-19.18077591788779,6784.222155152496,0.3287141122144505,110.56948518447722,2.3787008038301503,1.1098377210282404,89694.39853421066,281.5424899075664,-1.8681383066537385,9.428206688061755,0.3035258360077193,392.1584210526316,0.21046857894904913,0.84,nominal,15781.065242453209,nan,heading_hold,18.0,-5.0,0.0
2.82,288.9574633629996,-8.039449055985514,1016.2821890095835,107.31226016005374,-5.82206737591741,-8.594173698832035,107.8131600072759,18.41292969086371,-48.01098997236879,-49.259468947920354,-21.846159845905024,493.7244059227252,-290.7248176351745,520.0,-35.0,-20.310835152221166,6785.587801129885,0.32874205276984886,110.57921264865045,2.3839631889980355,1.1098658366593197,89697.20468522968,281.5441657714377,-1.8174570689176623,9.63247859027185,0.32905982378398124,392.1252631578947,0.2104507833475484,0.84,nominal,15778.16246422807,nan,heading_hold,18.0,-5.0,0.0
2.85,292.17496969469414,-8.217588758221298,1015.9948728605988,107.25021105648423,-5.93799007452611,-9.577204966157252,107.84057841438616,18.406616167363282,-12.302801305900113,-48.69420545355681,5.832946587712018,491.01301237541276,-323.7248176351745,520.0,-35.0,-22.235803534451,6788.370162536647,0.32880371286104076,110.60032011848804,2.398148676997224,1.109897168895327,89700.33189724345,281.5460333264061,-1.7696834916072692,9.82529679640733,0.35316209955091615,392.0921052631579,0.2104329877460477,0.84,nominal,15778.301296313075,nan,heading_hold,18.0,-5.0,0.0
2.88,295.3918006462328,-8.390543062735517,1015.6782236448753,107.22769838462281,-5.76514348380732,-10.55497385744786,107.90006326867439,18.4003031777309,16.45265988524548,-37.47654087554056,26.316873986341825,489.87079552274287,-356.7248176351745,520.0,-35.0,-24.977618649561407,6792.171538821006,0.3288894438810707,110.62956199420005,2.3974161698744054,1.1099317007279603,89703.77847905527,281.5480915463083,-1.7250270719224896,10.005822370440791,0.37572779630509884,392.05894736842106,0.210415192144547,0.84,nominal,15781.612678598984,nan,heading_hold,18.0,-5.0,0.0
2.9099999999999997,298.6095069446007,-8.550075190791329,1015.336417069983,107.25687661226361,-5.317737601860368,-11.39355249640965,107.9913373947606,18.393990721966563,35.93368014947793,-20.354333089307918,36.20323672576929,490.5971815106987,-389.7248176351745,520.0,-35.0,-28.398499988929686,6796.908801147753,0.3289972947403258,110.66627676252841,2.4164804656544554,1.1099689769912526,89707.49900755889,281.5503132890451,-1.6836779092530572,10.173269860567874,0.3966587325709843,392.0257894736842,0.21039739654304623,0.84,nominal,15788.113350613858,nan,heading_hold,18.0,-5.0,0.0
2.94,301.82928420652974,-8.690260291779069,1014.9770535110381,107.32590873096818,-4.672836699591304,-11.978785298161446,108.09337345540015,18.387678800070272,51.15998520192005,-1.0392893382674941,39.0229789094623,492.54638434501163,-409.93326951617024,520.0,-35.0,-29.999999999999996,6800.717309236062,0.3290822803933633,110.69532294821231,2.4279451947423256,1.1100081689923382,89711.41077672431,281.5526491521782,-1.6458067405727106,10.32691071664293,0.41586383958036627,391.99263157894734,0.2103796009415455,0.84,nominal,15795.613414298325,nan,heading_hold,18.0,-5.0,0.0
2.9699999999999998,305.05173295189525,-8.809190750675953,1014.6094197262169,107.41495817885009,-3.9643486298961057,-12.254459494040185,108.18438463158417,18.381367412042025,66.29477951960182,18.363798633520844,36.57739343561423,494.77521265988213,-412.2951682251289,520.0,-35.0,-29.999999999999996,6802.374941819857,0.329115043166696,110.70681335060635,2.432610180321276,1.11004826403541,89715.4127124518,281.55503877177955,-1.6115667554006046,10.46607646004028,0.43325955750503514,391.9594736842105,0.21036180534004478,0.84,nominal,15801.850005015378,nan,heading_hold,18.0,-5.0,0.0
3.0,308.2766483135599,-8.909009970932772,1014.2424308792218,107.49717872215626,-3.3273073418939645,-12.23296156649903,108.24213484617748,18.375056557881823,85.07448824304433,36.15127302430662,28.069922065283787,497.120238016879,-398.58380626177933,520.0,-35.0,-29.999999999999996,6800.729598913845,0.32906791128811186,110.6914281631067,2.47751677088815,1.110088289845042,89719.40777178129,281.55742419928504,-1.5810959556438369,10.590161592149322,0.4487701990186653,391.9263157894737,0.21034400973854409,0.84,nominal,15804.500412810754,nan,heading_hold,18.0,-5.0,0.0
