time_s,x_m,y_m,altitude_m,vx_mps,vy_mps,vz_mps,speed_mps,mass_kg,roll_deg,pitch_deg,yaw_deg,p_dps,q_dps,r_dps,alpha_deg,beta_deg,qbar_pa,mach,airspeed_mps,load_factor_g,density_kgpm3,pressure_pa,temperature_k,wind_x_mps,wind_y_mps,wind_z_mps,thrust_n,mass_flow_kgps,propulsion_throttle_actual,propulsion_health,energy_j_per_kg,target_distance_m,guidance_mode,pitch_command_deg,heading_command_deg,roll_command_deg,elevator_command_deg,aileron_command_deg,rudder_command_deg,elevator_deg,aileron_deg,rudder_deg,throttle,elevator_saturated,aileron_saturated,rudder_saturated,elevator_failed,aileron_failed,rudder_failed,elevator_raw_rad,aileron_raw_rad,rudder_raw_rad,elevator_effective_rad,aileron_effective_rad,rudder_effective_rad,sensor_time_s,imu_valid,imu_ax_mps2,imu_ay_mps2,imu_az_mps2,gyro_p_rps,gyro_q_rps,gyro_r_rps,imu_accel_norm_mps2,imu_gyro_norm_rps,gps_valid,gps_latency_s,gps_x_m,gps_y_m,gps_z_m,gps_vx_mps,gps_vy_mps,gps_vz_mps,baro_valid,baro_alt_m,baro_bias_m,pitot_valid,pitot_airspeed_mps,pitot_qbar_pa,pitot_compressibility_factor,mag_valid,mag_heading_deg,mag_x_ut,mag_y_ut,mag_z_ut,radar_valid,radar_agl_m,optical_flow_valid,horizon_valid,horizon_roll_deg,horizon_pitch_deg
0.0,0.0,0.0,1000.0,83.0,1.5,14.0,84.18580640464282,18.0,1.0000000000000002,8.000000000000004,1.0000000000000002,0.0,0.0,0.0,-1.0827684347795592,-6.349201456408931,4114.848473868095,0.2557463875601956,86.0417728600201,1.7167595994472478,1.1116425003060326,89874.56291621955,281.65,-1.6186018662344348,9.566354501788709,0.6653526424403756,319.2,0.17131232378029196,0.84,nominal,13350.275,nan,altitude_hold,20.0,2.0,0.0,-20.05352282957881,7.04999999999992,-0.766821237947644,-2.6999999999999997,2.6999999999999997,-0.4600927427685864,0.84,0.0,0.0,0.0,0.0,0.0,0.0,-0.047123889803846894,0.047123889803846894,-0.008030133225843164,-0.047123889803846894,0.047123889803846894,-0.008030133225843164,0.0,1.0,16.864680307905445,1.2586655602157644,-0.8404404528891691,-0.005526002259025985,-0.0024404616361534746,-0.0006126780109707863,16.932454666562066,0.006071896599039241,1.0,0.0,-5.12475906770303,4.333339046228245,1006.1844569493729,82.72589914784164,1.4631960598078957,14.027873835128696,1.0,1002.0904441399286,0.0,1.0,85.79311618127807,4168.7033634385725,1.0,1.0,-0.10896602917947859,17.95460209662717,-1.1729541591912578,-44.39431660708244,1.0,999.6310945825524,0.0,1.0,0.49971564607647456,7.729319069471869
0.03,2.5050417172623867,0.04631630535948966,1000.4124417216282,83.5013905754129,1.543876845316322,13.748057387604675,84.63967666333579,17.994860630286592,1.1073330838511335,8.374059019546674,0.8788029603204228,3.002465195386334,-12.540106365730965,-3.7687909584433728,-0.5973703728779359,-6.240746044345915,4172.830242485442,0.25754837048192725,86.64760875255695,1.7482863433851124,1.1115974690604664,89870.06677842751,281.6473191288094,-1.7402188133972638,9.672186407043261,0.4963890016830311,324.87,0.17435537163691558,0.84,nominal,13392.632104446418,nan,altitude_hold,19.907233145759406,2.0,0.0,-1.3248711636879251,-1.4960134737744915,-6.18632687112134,-1.8749226982127554,0.18239191573530517,-3.1600927427685863,0.84,0.0,0.0,0.0,0.0,0.0,0.0,-0.03272357430418858,0.0031833394586011296,-0.05515402302969006,-0.03272357430418858,0.0031833394586011296,-0.05515402302969006,0.03,1.0,17.243667003371595,0.8338617973801589,-0.6524316165463249,0.04763640876432344,-0.22117795663459747,-0.07532162878648896,17.27614089530893,0.23845809632735734,1.0,0.0,-5.12475906770303,4.333339046228245,1006.1844569493729,82.72589914784164,1.4631960598078957,14.027873835128696,1.0,1002.0904441399286,0.0,1.0,86.6659353729813,4176.25516314426,1.0,1.0,-0.10896602917947859,17.95460209662717,-1.1729541591912578,-44.39431660708244,1.0,999.6310945825524,0.0,1.0,0.49971564607647456,7.729319069471869
0.06,5.02537523583638,0.09372987611701357,1000.8178073741036,84.01111728579977,1.5804523585841304,13.51218841584783,85.10549273138326,17.989629969137486,1.2765587890683108,8.96798991530581,0.6760339440326194,4.621856381151316,-19.932598003179116,-6.268536198073063,0.25327322811314285,-6.493692052817444,4177.619937487225,0.25770247438342603,86.69904874559809,1.78093793171188,1.1115532117547007,89865.64795623602,281.6446842520683,-1.2808454398473872,10.368936306524299,0.6759624247237332,330.53999999999996,0.17739841949353916,0.84,nominal,13436.142397211019,nan,altitude_hold,19.907233145759406,2.0,0.0,0.7996242721760481,-2.728301059441563,-7.322158473424385,-0.27019451597947336,-1.5640238693708155,-5.657332181162066,0.84,0.0,0.0,0.0,0.0,0.0,0.0,-0.004715783924674241,-0.027297366100302423,-0.09873907344031037,-0.004715783924674241,-0.027297366100302423,-0.09873907344031037,0.06,1.0,17.530494353491804,0.6071576157760405,0.19948921419260196,0.0657757495017558,-0.35804866773441174,-0.11751790249241209,17.542139795212616,0.3825385668074802,1.0,0.0,-5.12475906770303,4.333339046228245,1006.1844569493729,82.72589914784164,1.4631960598078957,14.027873835128696,1.0,999.5810538014432,0.0,1.0,87.27448161596587,4173.220907720413,1.0,1.0,-1.2039612753365119,17.18985781978314,-1.2880922111875726,-44.80681156187436,1.0,1000.8660096672413,0.0,1.0,1.1036945440501185,8.368754158557099
0.09,7.561183935191822,0.1420523710600826,1001.2169507561001,84.52695664518141,1.6107498314356343,13.304779399883234,85.58281410187098,17.984308016552678,1.4768344821930073,9.518091245145222,0.4265294892868237,5.339973334509303,-18.52880021774912,-7.766020332638221,0.955265845705634,-6.586502419864628,4219.338057229747,0.2589922686003486,87.13257391825094,1.806362240186126,1.1115096351056717,89861.2971338616,281.64208982008535,-1.179927535131458,10.926849743585647,0.6704719733268328,336.21,0.18044146735016278,0.84,nominal,13480.793244930011,nan,altitude_hold,19.907233145759406,2.0,0.0,0.5958213705383226,-3.121640302909364,-7.8805339991034815,0.24941501593120421,-2.4985937294939444,-6.991253271926915,0.84,0.0,0.0,0.0,0.0,0.0,0.0,0.004353113231913624,-0.04360868724935388,-0.12202038843595112,0.004353113231913624,-0.04360868724935388,-0.12202038843595112,0.09,1.0,17.561257020160582,0.8601353070013779,0.6297644588991768,0.08898551301100244,-0.3213490614640877,-0.14339824996948292,17.59358360733203,0.3629692809646453,1.0,0.0,-5.12475906770303,4.333339046228245,1006.1844569493729,82.72589914784164,1.4631960598078957,14.027873835128696,1.0,999.5810538014432,0.0,1.0,87.9876626956436,4196.828041033478,1.0,1.0,-1.2039612753365119,17.18985781978314,-1.2880922111875726,-44.80681156187436,1.0,1000.8660096672413,0.0,1.0,1.1036945440501185,8.368754158557099
0.12,10.112573846122862,0.19114507734860203,1001.6105587147657,85.046330364368,1.636423542950648,13.12026528885403,86.06798215194227,17.978894772532172,1.6904125844495919,9.908249315557638,0.150178781025457,5.565102968274272,-13.25129106118427,-8.71683482595241,1.375354302745902,-6.513519709002031,4239.811496735588,0.25962605846302184,87.3454026366954,1.8349242059997548,1.1114666640687392,89857.00681684959,281.639531368354,-0.8503092112660503,11.25381303304954,0.5308852097639679,341.88,0.18348451520678638,0.84,nominal,13526.292961473686,nan,altitude_hold,19.907233145759406,2.0,0.0,-1.052300911210333,-3.0652114378901745,-8.059960705926136,-0.531614540353718,-2.838564354531682,-7.632477732326446,0.84,0.0,0.0,0.0,0.0,0.0,0.0,-0.00927842408064864,-0.049542294016325476,-0.13321186651424693,-0.00927842408064864,-0.049542294016325476,-0.13321186651424693,0.12,1.0,18.09031439496547,0.8504180126570888,0.9027150009262598,0.10168664295078104,-0.22387914379646656,-0.1514258947387034,18.132776402907634,0.28877646368611043,1.0,0.0,-5.12475906770303,4.333339046228245,1006.1844569493729,82.72589914784164,1.4631960598078957,14.027873835128696,1.0,997.8181830803326,0.0,1.0,87.65186576020321,4252.218387938243,1.0,1.0,0.5754682874801935,16.505494518287403,-1.3415524826432548,-45.13962758525823,1.0,1001.4976368236065,0.0,1.0,2.1826337349020433,10.021489306254335
0.15,12.679730928104858,0.24087674374111634,1001.9989857911722,85.57190273273322,1.6577222130838107,12.947569213552287,86.56175904390942,17.973390237075968,1.9091057563336769,10.203633672694165,-0.14378994204172246,5.578774757629034,-10.144345094926644,-9.334491661111063,1.8506110693067173,-5.826072423573705,4294.678758232389,0.26130672050531883,87.9104298919149,1.862170607704062,1.1114242598859365,89852.77313393023,281.63700659235735,-0.986646213276139,10.699637434693228,0.533663411275068,347.55,0.18652756306341,0.84,nominal,13572.722418396916,nan,altitude_hold,19.907233145759406,2.0,0.0,-1.9931833714889835,-2.819932157937107,-7.559669417893769,-1.4085558390348771,-2.8273850365749373,-7.588792743666841,0.84,0.0,0.0,0.0,0.0,0.0,0.0,-0.024583937089349875,-0.04934717810985295,-0.13244941962844042,-0.024583937089349875,-0.04934717810985295,-0.13244941962844042,0.15,1.0,18.04374156113483,0.5803341519631879,1.2211741880278928,0.09830460926964679,-0.1767281244514284,-0.15963474837498146,18.09432683606839,0.2576429293897295,1.0,0.0,-5.12475906770303,4.333339046228245,1006.1844569493729,82.72589914784164,1.4631960598078957,14.027873835128696,1.0,997.8181830803326,0.0,1.0,87.64992557180818,4318.10219528126,1.0,1.0,0.5754682874801935,16.505494518287403,-1.3415524826432548,-45.13962758525823,1.0,1001.4976368236065,0.0,1.0,2.1826337349020433,10.021489306254335
0.18,15.262821367285033,0.29104877429828024,1002.3825970992465,86.1030146393392,1.6724010185721299,12.787043602473846,87.06339379578966,17.967794410184066,2.125739069297753,10.470512514101348,-0.4443356871277459,5.423452970365722,-9.237423561348743,-9.53636812511515,2.1196837298675173,-5.71147970348624,4300.168147296768,0.2614797498581153,87.96825208538327,1.8928777459651822,1.111382382650336,89848.59209928157,281.6345131188549,-0.48955293109264586,10.972619275301097,0.39161876526319644,353.21999999999997,0.18957061092003358,0.84,nominal,13620.032565463698,nan,altitude_hold,19.907233145759406,2.0,0.0,-2.177631370449205,-2.4339723668550843,-7.357645753542058,-1.870001157883474,-2.591337434743026,-7.450104549591971,0.84,0.0,0.0,0.0,0.0,0.0,0.0,-0.03263767722117294,-0.0452273702664495,-0.13002885400818906,-0.03263767722117294,-0.0452273702664495,-0.13002885400818906,0.18,1.0,18.45868546331794,0.6984577376782742,1.3267998703782353,0.08947658552979672,-0.15757209110093728,-0.16657943223064578,18.519484607868097,0.2461376251089569,1.0,0.0,-5.12475906770303,4.333339046228245,1006.1844569493729,82.72589914784164,1.4631960598078957,14.027873835128696,1.0,1004.6063379977566,0.0,1.0,88.05342617875351,4375.737307501982,1.0,1.0,-0.8490077355359309,16.08886042049869,-1.5469159065233653,-45.17663920553556,1.0,1002.4399543198505,0.0,1.0,1.9028314069510799,10.811689114636028
0.21,17.862060418663525,0.34155899020819064,1002.7616531614508,86.64130171261645,1.6836738636636803,12.6352020734769,87.5739587524363,17.962107291856466,2.3436178376029937,10.740564910805611,-0.7522795001842021,5.373421494310406,-9.388341379166542,-9.730831503378369,2.6433319434310016,-5.073032191383755,4443.0570319308345,0.26579467168119897,89.41950731557914,1.9192439682680664,1.1113410038775244,89844.46086765318,281.6320492544505,-1.4904419863887342,10.57392812004861,0.4037908551995014,358.89,0.1926136587766572,0.84,nominal,13668.331691762447,nan,altitude_hold,19.907233145759406,2.0,0.0,-1.9903639533116,-2.14269230442686,-6.698323352192435,-1.9422188351403498,-2.322150356553326,-6.999035831152249,0.84,0.0,0.0,0.0,0.0,0.0,0.0,-0.033898113467448046,-0.04052916944821582,-0.12215621971866465,-0.033898113467448046,-0.04052916944821582,-0.12215621971866465,0.21,1.0,18.70854664463683,0.31540383644376563,1.9474616244156975,0.09532315733558357,-0.171120228764723,-0.17157348076281162,18.81227800967143,0.26039603744677536,1.0,0.0,-5.12475906770303,4.333339046228245,1006.1844569493729,82.72589914784164,1.4631960598078957,14.027873835128696,1.0,1004.6063379977566,0.0,1.0,89.87697906080133,4487.610745435421,1.0,1.0,-0.8490077355359309,16.08886042049869,-1.5469159065233653,-45.17663920553556,1.0,1002.4399543198505,0.0,1.0,1.9028314069510799,10.811689114636028
0.24,20.47755080747296,0.3922340316926725,1003.136661374551,87.1830129603145,1.6891680494827297,12.500273770004219,88.09079340012107,17.956328882093167,2.5609347141530785,10.97440539575597,-1.0596552953081646,5.31391147050692,-8.218108348990079,-9.719770947819994,3.028865256375434,-4.649874733715787,4484.563073208702,0.26703935656247185,89.83785946840476,1.9493430620705243,1.1113000681385503,89840.37390381908,281.6296117010654,-1.4147806325057066,10.393301770532656,0.43752033163243265,364.56,0.19565670663328083,0.84,nominal,13717.404081200148,nan,altitude_hold,19.907233145759406,2.0,0.0,-2.2835622126894437,-1.852419908396495,-6.141181528419385,-2.147024861669806,-2.0403120876592276,-6.484323249512531,0.84,0.0,0.0,0.0,0.0,0.0,0.0,-0.037472652958313916,-0.03561016369789268,-0.11317279046761146,-0.037472652958313916,-0.03561016369789268,-0.11317279046761146,0.24,1.0,18.9283402720273,0.3115121013943783,2.0325800955427984,0.08640149570571755,-0.15204460837986694,-0.1691159905983355,19.039708167084978,0.24327556324799363,1.0,0.0,-5.12475906770303,4.333339046228245,1006.1844569493729,82.72589914784164,1.4631960598078957,14.027873835128696,1.0,997.0705012515608,0.0,1.0,90.16087181040267,4507.086230685041,1.0,1.0,-2.645742997227752,15.609116393118999,-1.6235389876204729,-45.38418225178571,1.0,1003.0546773875197,0.0,1.0,2.1817269898234573,11.072586807297247
0.27,23.10945689312681,0.4429303880401681,1003.5079973180653,87.73020285512845,1.689878544916519,12.3778647838133,88.6152115559452,17.950459180894168,2.778771861870959,11.163795224892208,-1.3647344715483345,5.3088018083997905,-6.771037465088774,-9.67526667762965,3.242273748048598,-4.414741382136837,4568.256222110853,0.2695257190213375,90.6739374286635,1.978971866517886,1.111259534399652,89836.32710993434,281.62719801743253,-1.6908356476192008,10.54570501827241,0.24464017610424385,370.22999999999996,0.1986997544899044,0.84,nominal,13767.379561451668,nan,altitude_hold,19.907233145759406,2.0,0.0,-2.697879191300416,-1.6149486479678972,-5.733827425476481,-2.4775374594481723,-1.7850940238444293,-6.034025755090901,0.84,0.0,0.0,0.0,0.0,0.0,0.0,-0.043241186008866096,-0.031155768173759455,-0.10531361657647322,-0.043241186008866096,-0.031155768173759455,-0.10531361657647322,0.27,1.0,19.271166750731375,0.3903976344965289,2.3014262732644255,0.08404695156347067,-0.11079536879934915,-0.18340821546151417,19.412028259272308,0.23016967070679267,1.0,0.0,-5.12475906770303,4.333339046228245,1006.1844569493729,82.72589914784164,1.4631960598078957,14.027873835128696,1.0,997.0705012515608,0.0,1.0,90.58735406181258,4588.8090676777665,1.0,1.0,-2.645742997227752,15.609116393118999,-1.6235389876204729,-45.38418225178571,1.0,1003.0546773875197,0.0,1.0,2.1817269898234573,11.072586807297247
0.3,25.757970329815763,0.4935383298628107,1003.8759195325114,88.2837812229651,1.6869313940880866,12.264073814865787,89.14751410493285,17.94449818825947,3.000184197188342,11.331960856449594,-1.6703155058176569,5.393581340442661,-6.10201607122751,-9.695155662253422,3.6417762487877163,-3.9804019592975806,4599.870386447168,0.2704627595964445,90.98879062201125,2.0099169303168254,1.111219374407046,89832.31766421214,281.62480652303867,-1.519265687382065,10.313801284187694,0.43403153372900694,375.9,0.20174280234652803,0.84,nominal,13818.299421828104,nan,altitude_hold,19.907233145759406,2.0,0.0,-2.852622053544718,-1.4542720555348971,-5.181054373899922,-2.7025882159060997,-1.58660084285871,-5.522242926376314,0.84,0.0,0.0,0.0,0.0,0.0,0.0,-0.047169062693160825,-0.02769140862280165,-0.09638132116023349,-0.047169062693160825,-0.02769140862280165,-0.09638132116023349,0.3,1.0,19.67438250079349,0.2901370917843053,2.5682383997874094,0.1014718860004534,-0.10479256729532298,-0.16617124831988625,19.843420944930358,0.2211128887627836,1.0,0.0,-5.12475906770303,4.333339046228245,1006.1844569493729,82.72589914784164,1.4631960598078957,14.027873835128696,1.0,993.7513825544306,0.0,1.0,91.23433972996457,4573.603916755064,1.0,1.0,-2.206351361117521,15.3980488820921,-1.6435454760380312,-45.326913308817645,1.0,1003.5427194612129,0.0,1.0,2.658637377423321,11.849926515049864
0.32999999999999996,28.423252549381743,0.5439010366781296,1004.2408010676819,88.84274065219935,1.6787568938439636,12.162717839017805,89.68713673952439,17.938445904189074,3.224728516499383,11.470356214311574,-1.9743724615409595,5.481304560291388,-5.14582465103472,-9.670141908691646,3.912553225060035,-3.7415138310585845,4660.018168879177,0.2722313233264288,91.58338328794393,2.040613430485853,1.1111795474117927,89828.34149751016,281.62243479306005,-1.5691044537544874,10.414919691448603,0.46255465309578264,381.57,0.20478585020315163,0.84,nominal,13870.129300057455,nan,altitude_hold,19.907233145759406,2.0,0.0,-3.1238875354488025,-1.2962041581299462,-4.77878233251614,-2.9553678076317214,-1.4123628320214516,-5.0761665700602085,0.84,0.0,0.0,0.0,0.0,0.0,0.0,-0.051580898850619936,-0.024650381651565932,-0.08859582002721805,-0.051580898850619936,-0.024650381651565932,-0.08859582002721805,0.32999999999999996,1.0,19.47289822785292,0.30509514671738847,3.008419347613564,0.09820496024898567,-0.0865475375115739,-0.15920346336404512,19.70627908591481,0.20610781939055345,1.0,0.0,-5.12475906770303,4.333339046228245,1006.1844569493729,82.72589914784164,1.4631960598078957,14.027873835128696,1.0,993.7513825544306,0.0,1.0,91.60127475114014,4748.981182752152,1.0,1.0,-2.206351361117521,15.3980488820921,-1.6435454760380312,-45.326913308817645,1.0,1003.5427194612129,0.0,1.0,2.658637377423321,11.849926515049864
0.36,31.105485584537025,0.5938951972212603,1004.6029347149066,89.40776783850941,1.6664720181043544,12.071121574156228,90.2343507479828,17.93230232868298,3.453927299426919,11.58643458046828,-2.278940622395637,5.610990193738593,-4.442148477907911,-9.705222563093207,4.1407908790215915,-3.683428322013125,4692.761345474842,0.2731920536077785,91.90620568508311,2.072264960513957,1.1111400214295664,89824.39541584328,281.6200809243531,-1.3138030599530843,10.775860040951066,0.5226902091065713,387.24,0.20782889805977525,0.84,nominal,13922.90839717693,nan,altitude_hold,19.907233145759406,2.0,0.0,-3.3202186777301206,-1.1702728511488831,-4.554781247884473,-3.1742783296907606,-1.2671088434979105,-4.7633353767547675,0.84,0.0,0.0,0.0,0.0,0.0,0.0,-0.05540160822780985,-0.022115221300176083,-0.08313588570109526,-0.05540160822780985,-0.022115221300176083,-0.08313588570109526,0.36,1.0,20.091651102535653,0.3425595946170258,3.048106513330233,0.09287030457936997,-0.06801747956262166,-0.16785418574301766,20.324437124272162,0.2035345146901824,1.0,0.0,-5.12475906770303,4.333339046228245,1006.1844569493729,82.72589914784164,1.4631960598078957,14.027873835128696,1.0,1007.4871675436741,0.0,1.0,91.70999624913178,4657.647357868727,1.0,1.0,-3.362592804930315,15.172098576111912,-1.7888423391798474,-45.48703363010244,1.0,1005.0428749317587,0.0,1.0,3.1862764541194997,11.582931236786603
0.39,33.8048727367498,0.6434181709910569,1004.9625721151276,89.97957174042585,1.6507657923265566,11.987913340701478,90.78963831052377,17.926067461741187,3.690703524837875,11.687004355982117,-2.5879897798821263,5.81464083701014,-3.9745030964090757,-9.861455972110978,4.326094276658564,-3.2872919641751928,4764.788196080695,0.27528661925241416,92.61046692583886,2.102990285918433,1.111100768970995,89820.476674088,281.61774328125165,-1.4702468670050648,10.639788773844737,0.46286554350710696,392.90999999999997,0.21087194591639885,0.84,nominal,13976.695420110678,nan,altitude_hold,19.907233145759406,2.0,0.0,-3.4448345342233635,-1.1002088671657997,-4.0913687629383215,-3.3366120524103224,-1.1669688576986441,-4.3601554084649,0.84,0.0,0.0,0.0,0.0,0.0,0.0,-0.058234866176285725,-0.020367448835078517,-0.07609906777635074,-0.058234866176285725,-0.020367448835078517,-0.07609906777635074,0.39,1.0,20.22121767456503,0.38101346371278955,3.196038532098577,0.09528118785232756,-0.06617838875976294,-0.18016347263774035,20.47577783138727,0.21428243224837323,1.0,0.0,-5.12475906770303,4.333339046228245,1006.1844569493729,82.72589914784164,1.4631960598078957,14.027873835128696,1.0,1007.4871675436741,0.0,1.0,92.90592614693578,4666.357305760246,1.0,1.0,-3.362592804930315,15.172098576111912,-1.7888423391798474,-45.48703363010244,1.0,1005.0428749317587,0.0,1.0,3.1862764541194997,11.582931236786603
0.42,36.521607286855996,0.6923040505206153,1005.3199567967414,90.5578183368732,1.6295293176519436,11.912822720459369,91.35255427682527,17.919741303363697,3.933178101526873,11.775434116456701,-2.899358781206887,5.972225099187421,-3.616743709841976,-9.943762966561165,4.527579020371806,-2.796006903778121,4824.409536103437,0.2770095872724817,93.18971435207244,2.1128993483196727,1.1110617634352482,89816.58261592282,281.6154202808212,-1.5151553991401396,10.328991313644192,0.45814117060635084,394.7778947368421,0.21187443146760623,0.84,nominal,14031.465540770918,nan,altitude_hold,19.907233145759406,2.0,0.0,-3.5371356784256682,-0.984763142368878,-3.5136034623606522,-3.4569262280195296,-1.0576454285007844,-3.8522242408023515,0.84,0.0,0.0,0.0,0.0,0.0,0.0,-0.06033474467748905,-0.01845939504600496,-0.06723399652713992,-0.06033474467748905,-0.01845939504600496,-0.06723399652713992,0.42,1.0,20.414305296090365,0.3884911623776155,3.6486167692434464,0.10016344053233775,-0.0607016132741773,-0.16606600926552872,20.74143655666196,0.20321249987818568,1.0,0.0,-5.12475906770303,4.333339046228245,1006.1844569493729,82.72589914784164,1.4631960598078957,14.027873835128696,1.0,1000.4578441361793,0.0,1.0,92.92006600917897,4820.760423937399,1.0,1.0,-2.3867003130031024,14.994828782796462,-1.946716612025209,-45.64102933302219,1.0,1004.9606716256283,0.0,1.0,3.960712064738828,12.188906381888692
0.44999999999999996,39.2556936708783,0.7403771321000151,1005.6753018462011,91.1362128007435,1.6024360526466617,11.844834981989688,91.91668619307264,17.913385070419668,4.178572554961344,11.847932131946527,-3.2098780811334735,6.061083170776654,-3.1271458251287867,-9.935214923126939,4.570043381370633,-2.9068120073490076,4855.6266812889635,0.2779103504576712,93.4923596804411,2.112708043787256,1.111022981546831,89812.71091709369,281.61311053799966,-1.1706326161882856,10.97219029301153,0.335042921887453,394.7447368421052,0.2118566358661055,0.84,nominal,14086.644299207943,nan,altitude_hold,19.907233145759406,2.0,0.0,-3.6830967003707658,-0.8073235845380821,-3.410858023146057,-3.592628511430271,-0.9074523221231628,-3.5874045102085743,0.84,0.0,0.0,0.0,0.0,0.0,0.0,-0.06270319632548096,-0.015838030825917372,-0.06261202030403415,-0.06270319632548096,-0.015838030825917372,-0.06261202030403415,0.44999999999999996,1.0,20.348277105909546,0.37644938513805254,3.6227127092883546,0.11419801036721158,-0.05299685852099614,-0.17463261708300953,20.671674888419002,0.2152821486658503,1.0,0.0,-5.12475906770303,4.333339046228245,1006.1844569493729,82.72589914784164,1.4631960598078957,14.027873835128696,1.0,1000.4578441361793,0.0,1.0,93.62578875377478,4856.588583112384,1.0,1.0,-2.3867003130031024,14.994828782796462,-1.946716612025209,-45.64102933302219,1.0,1004.9606716256283,0.0,1.0,3.960712064738828,12.188906381888692
0.48,42.007102189004094,0.7875741112957496,1006.0286703540742,91.7136172708597,1.5732326398578167,11.77895026243434,92.48030235206711,17.907029371343686,4.432296977041642,11.918499013213015,-3.527391493243287,6.278094730241278,-3.1231291115894964,-10.151186699263352,4.717604104750723,-2.523637255982595,4967.5419291627095,0.28110084866445745,94.56529571693326,2.1110973524152197,1.1109844164025473,89808.86088789614,281.6108136426985,-1.680323556976234,10.8879408872548,0.22892078439436003,394.7115789473684,0.2118388402646048,0.84,nominal,14142.074221692656,nan,altitude_hold,19.907233145759406,2.0,0.0,-3.664866943889392,-0.729645844889917,-2.975934062997444,-3.635971570905744,-0.8007684357832153,-3.2205222418818957,0.84,0.0,0.0,0.0,0.0,0.0,0.0,-0.0634596754212157,-0.013976045750461885,-0.056208716754548305,-0.0634596754212157,-0.013976045750461885,-0.056208716754548305,0.48,1.0,20.51349022019529,0.23407715562213924,3.7265509839873134,0.10923140754722917,-0.04416191884580199,-0.18256591385064175,20.850545685067544,0.2172834286617643,1.0,0.0,-5.12475906770303,4.333339046228245,1006.1844569493729,82.72589914784164,1.4631960598078957,14.027873835128696,1.0,1005.6139192653309,0.0,1.0,95.24147449264338,4922.844300143445,1.0,1.0,-4.595030811533576,14.852463960714081,-2.0150298183397815,-45.65938714031957,1.0,1005.8425168476039,0.0,1.0,4.888668161542665,11.818089872648924
0.51,44.77573079981416,0.8337327585415122,1006.3802556156774,92.28762036033571,1.5386215748587517,11.719508720108196,93.04149135071279,17.900674206135747,4.692489723658361,11.977318120293173,-3.848468878851064,6.457419177116813,-2.7873201885803875,-10.281626120737274,4.775109183714137,-2.3182348861427817,5041.336327525321,0.2831871115457131,95.26675004181273,2.1101100355030424,1.1109460468905967,89805.03042019738,281.60852833849805,-1.7826662113436866,11.06627108826367,0.06795334749575282,394.67842105263156,0.21182104466310406,0.84,nominal,14197.578490115862,nan,altitude_hold,19.907233145759406,2.0,0.0,-3.7681652034599113,-0.6148904052869089,-2.6565490835196255,-3.715287750438244,-0.6892416174854314,-2.8821383468645334,0.84,0.0,0.0,0.0,0.0,0.0,0.0,-0.06484400390416076,-0.012029535566892098,-0.0503028036507725,-0.06484400390416076,-0.012029535566892098,-0.0503028036507725,0.51,1.0,20.10888401468091,0.3978586859834408,3.932850220973193,0.11004078033729008,-0.041432210932571746,-0.17228152498546012,20.49372632564685,0.20858217874812932,1.0,0.0,28.654922783117257,16.571821708741084,1000.340531979286,92.38969325837958,1.5723895646916428,11.83754207722436,1.0,1005.6139192653309,0.0,1.0,96.00051479312657,5027.544778220582,1.0,1.0,-4.595030811533576,14.852463960714081,-2.0150298183397815,-45.65938714031957,1.0,1005.8425168476039,0.0,1.0,4.888668161542665,11.818089872648924
0.54,47.56152072444317,0.8787251712449091,1006.7301573720345,92.85966415430038,1.499747090113233,11.663391878569005,93.60128833673622,17.894319574795855,4.9598367054783274,12.029402234523033,-4.174428189559186,6.651918392862278,-2.6241305279914022,-10.444042026852193,4.954555304650607,-2.1261969944031187,5097.809707312094,0.2847748785764022,95.80050262037423,2.109081048827097,1.110907862110939,89801.21842537385,281.60625397708174,-1.7456442165411854,11.23829923301913,0.14243130515287228,394.6452631578947,0.21180324906160333,0.84,nominal,14253.250886940878,nan,altitude_hold,19.994892020310708,2.0,0.0,-4.595800890850474,-0.5051998004763958,-2.357763557756625,-4.243595634685582,-0.57881652728001,-2.5675134733997886,0.84,0.0,0.0,0.0,0.0,0.0,0.0,-0.07406471594852189,-0.010102254165995753,-0.04481156370014216,-0.07406471594852189,-0.010102254165995753,-0.04481156370014216,0.54,1.0,20.18363116377463,0.14354939254293975,3.9171281552567296,0.13210332621296,-0.04061687996367042,-0.18434844030712214,20.56072630935247,0.23040261972941956,1.0,0.0,28.654922783117257,16.571821708741084,1000.340531979286,92.38969325837958,1.5723895646916428,11.83754207722436,1.0,1009.8382892779023,0.0,1.0,95.66942714539499,5101.188649029868,1.0,1.0,-3.522244629912623,14.747243001740223,-2.177691656759758,-45.5944172987492,1.0,1006.8786546920617,0.0,1.0,5.113698983538534,12.253278374363456
0.57,50.364396521244494,0.9224192416693191,1007.0785088328028,93.42919322671085,1.4564690141469987,11.611715358944728,94.15926604726907,17.887965477324006,5.236201712408784,12.127944444753316,-4.510993918973725,6.864569423714697,-4.24659222105829,-10.635256780450627,5.441440319595265,-1.8645463824311468,5164.301786180696,0.2866321153257928,96.42490396943984,2.1130567172006924,1.1108698475124645,89797.42345035663,281.60398969258677,-1.86447616848803,11.271978026016452,0.6328965904185345,394.6121052631579,0.21178545346010264,0.84,nominal,14309.050149925402,nan,altitude_hold,19.994892020310708,2.0,0.0,-3.265449831095663,-0.3948245264743149,-1.986066567702657,-3.6567081525316305,-0.468421326796593,-2.2186453299815097,0.84,0.0,0.0,0.0,0.0,0.0,0.0,-0.06382159704619597,-0.00817549443916089,-0.038722665942173405,-0.06382159704619597,-0.00817549443916089,-0.038722665942173405,0.57,1.0,20.168826065454695,0.37947046662796363,4.571290815922546,0.12316459126809176,-0.07486842305147641,-0.18038933428308696,20.683864300883076,0.23090064797558763,1.0,0.0,28.654922783117257,16.571821708741084,1000.340531979286,92.38969325837958,1.5723895646916428,11.83754207722436,1.0,1009.8382892779023,0.0,1.0,95.44916882759306,5158.992605000921,1.0,1.0,-3.522244629912623,14.747243001740223,-2.177691656759758,-45.5944172987492,1.0,1006.8786546920617,0.0,1.0,5.113698983538534,12.253278374363456
0.6,53.18415245566589,0.9646416433742369,1007.4258287950253,93.99186448071319,1.4074133901639267,11.577332074083527,94.71264973046193,17.881611913720203,5.5187039915267375,12.134978729126546,-4.845046403124731,7.076646165317838,-1.253685954568323,-10.816574980204589,5.528285358015316,-1.2803633453722356,5257.829419762787,0.28922207520249693,97.29579327626963,2.111488048397029,1.1108319464692482,89793.63984187189,281.60173211283234,-2.216464523601388,10.829725028645214,0.5478777429074744,394.57894736842104,0.2117676578586019,0.84,nominal,14364.71551343532,nan,altitude_hold,19.994892020310708,2.0,0.0,-4.328083255279328,-0.294657916038859,-1.3888359121063354,-4.05953321418025,-0.36416328034195256,-1.720759679256405,0.84,0.0,0.0,0.0,0.0,0.0,0.0,-0.0708522206815135,-0.006355848256830214,-0.03003292203858584,-0.0708522206815135,-0.006355848256830214,-0.03003292203858584,0.6,1.0,20.105871732427932,0.028029786046830818,4.6133590575005075,0.1270407645896211,-0.03203777693243997,-0.1926269657168133,20.628377192187767,0.23296120479503593,1.0,0.0,28.654922783117257,16.571821708741084,1000.340531979286,92.38969325837958,1.5723895646916428,11.83754207722436,1.0,1009.5558250409597,0.0,1.0,97.40483160078077,5223.536837458677,1.0,1.0,-4.181695205030442,14.642015899462015,-2.4516954376807405,-45.59820751479285,1.0,1007.5328534970582,0.0,1.0,5.359989389236543,12.074881916623223
0.63,56.02071260356387,1.005183598812197,1007.7722055172793,94.55200492993279,1.3513985145986722,11.54589074180229,95.26392552922083,17.875258883984444,5.803561765821353,12.104789813756268,-5.175820931170007,7.180304018725878,-0.06200959549296321,-10.826792685261639,5.653953470981372,-0.82068422925723,5318.822997441167,0.29090091392714107,97.86017204999001,2.1108598259122315,1.110794149341679,89789.86663735037,281.5994806641377,-2.263570953437232,10.54251385824945,0.6426371556119959,394.54578947368424,0.2117498622571012,0.84,nominal,14420.477052854492,nan,altitude_hold,19.994892020310708,2.0,0.0,-4.779084076313984,-0.09544792071819287,-0.8084522729443789,-4.4912637314604895,-0.20293406456769678,-1.1733752354691893,0.84,0.0,0.0,0.0,0.0,0.0,0.0,-0.07838733968939197,-0.0035418675911610717,-0.020479261220301106,-0.07838733968939197,-0.0035418675911610717,-0.020479261220301106,0.63,1.0,19.96357194612571,-0.04328688890916872,4.883774262325525,0.12713918418050146,-0.001467763298558401,-0.18072617987395934,20.552307161198282,0.22097166916828676,1.0,0.0,28.654922783117257,16.571821708741084,1000.340531979286,92.38969325837958,1.5723895646916428,11.83754207722436,1.0,1009.5558250409597,0.0,1.0,98.77421508747535,5238.8539025166365,1.0,1.0,-4.181695205030442,14.642015899462015,-2.4516954376807405,-45.59820751479285,1.0,1007.5328534970582,0.0,1.0,5.359989389236543,12.074881916623223
0.6599999999999999,58.874011843137126,1.043864408117478,1008.1177234348252,95.10997465244182,1.2893603101760247,11.517263918196653,95.81344945548604,17.86890638811673,6.090507192758979,12.087826603592742,-5.506756508146517,7.253203773280736,-0.5551608338936114,-10.786839210474108,5.747276370967959,-0.3454371309093939,5369.374634076578,0.29228617403175566,98.32578671354283,2.111258642792502,1.110756446908364,89786.10291600355,281.5972347976736,-2.2067911502945563,10.214149399444844,0.6657402351121645,394.5126315789473,0.21173206665560043,0.84,nominal,14476.366220801618,nan,altitude_hold,19.994892020310708,2.0,0.0,-4.633798379359189,0.1381809634138741,-0.17338421899533923,-4.576784520199709,0.0017349522212457614,-0.5733806255848793,0.84,0.0,0.0,0.0,0.0,0.0,0.0,-0.07987995903179385,3.028062862552765e-05,-0.010007379783600981,-0.07987995903179385,3.028062862552765e-05,-0.010007379783600981,0.6599999999999999,1.0,20.263494777527693,0.26819009776589475,4.844379748686883,0.12104989384273608,-0.009856097078313543,-0.19331913787879967,20.836246343257688,0.22830354469249306,1.0,0.0,28.654922783117257,16.571821708741084,1000.340531979286,92.38969325837958,1.5723895646916428,11.83754207722436,1.0,1014.4258661913922,0.0,1.0,97.9710309081026,5384.295089049819,1.0,1.0,-7.995789900587062,14.683518890865905,-2.5607839761516415,-45.58633563608198,1.0,1007.7742072068608,0.0,1.0,5.749427979410507,12.186498917073289
0.69,61.743987531142515,1.0805010533903112,1008.4624767685738,95.66585626684625,1.2212215090944396,11.491777791620205,96.36134284065959,17.86255442611706,6.379307321888567,12.084416248858806,-5.836909739778983,7.322405554023257,-1.0557157878083798,-10.709909196360972,5.6723684859048245,-0.03469988410103286,5420.096947590337,0.29366962503989014,98.79078994862478,2.11046687275918,1.1107188288811318,89782.34765058092,281.5949939010043,-2.0910193754788104,10.18381691676783,0.4064123541325766,394.4794736842105,0.21171427105409973,0.84,nominal,14532.3927448301,nan,altitude_hold,19.994892020310708,2.0,0.0,-4.477458506168296,0.3764273533348508,0.3379211031062264,-4.5171889117808615,0.22655039288940879,-0.0265995883702158,0.84,0.0,0.0,0.0,0.0,0.0,0.0,-0.07883981944515571,0.003954050277606933,-0.0004642503967354581,-0.07883981944515571,0.003954050277606933,-0.0004642503967354581,0.69,1.0,20.04288576457008,0.028756836170426917,4.8430899406589925,0.12221829575774988,-0.0251600495798604,-0.18536932228248962,20.619738526483424,0.2234549743376937,1.0,0.0,28.654922783117257,16.571821708741084,1000.340531979286,92.38969325837958,1.5723895646916428,11.83754207722436,1.0,1014.4258661913922,0.0,1.0,98.58855944136275,5385.068596885204,1.0,1.0,-7.995789900587062,14.683518890865905,-2.5607839761516415,-45.58633563608198,1.0,1007.7742072068608,0.0,1.0,5.749427979410507,12.186498917073289
0.72,64.63062356982049,1.114952227150357,1008.8064455523269,96.22120128926551,1.1483724586681907,11.465626125103153,96.9087143619903,17.856202997985438,6.672350729809522,12.092442674354404,-6.1682675336543324,7.4550064238816685,-1.4932902660627174,-10.700000111565078,5.823926730438971,-0.038733415993976894,5428.959423721702,0.293915751202134,98.873194547444,2.1128703607325896,1.1106812974320202,89778.6010577058,281.59275810390983,-1.597414023740067,10.614320177931326,0.6109989072242794,394.44631578947366,0.211696475452599,0.84,nominal,14588.661188922639,nan,altitude_hold,19.994892020310708,2.0,0.0,-4.338641227760368,0.5637216475558567,0.5535162567478703,-4.410060301368566,0.4288531456892775,0.32146991870063585,0.84,0.0,0.0,0.0,0.0,0.0,0.0,-0.07697007247037486,0.00748489939981282,0.005610708527444587,-0.07697007247037486,0.00748489939981282,0.005610708527444587,0.72,1.0,20.07488434027973,0.11454995352559902,5.163936247763848,0.1356933506770094,-0.02575150896678406,-0.17839375912840455,20.72873224629115,0.22561063567124542,1.0,0.0,28.654922783117257,16.571821708741084,1000.340531979286,92.38969325837958,1.5723895646916428,11.83754207722436,1.0,1002.8513274587107,0.0,1.0,99.19562116759741,5371.247567981927,1.0,1.0,-6.095596049803179,14.675764977881153,-2.7607813233428717,-45.7043379279327,1.0,1008.5072098978603,0.0,1.0,6.449757726367414,12.113028333717573
0.75,67.53385675335348,1.1471177755335649,1009.1497804526575,96.77443945109971,1.0721849461069328,11.44449667768723,97.4546982748334,17.84985210372186,6.974516031922595,12.077093931414405,-6.503200327412296,7.73481202525898,-0.7890550744293661,-10.900523049050108,5.803707502470207,0.2779782172713678,5466.11732227707,0.2949260149002242,99.212653892924,2.112274303620994,1.110643836115338,89774.86149549448,281.5905264270577,-1.3729022392780097,10.553247307115036,0.4736503978395931,394.4131578947368,0.21167867985109828,0.84,nominal,14645.087802395461,nan,altitude_hold,19.994892020310708,2.0,0.0,-4.617203792119861,0.6279404184122566,0.9377411890047226,-4.534346395819343,0.548305509323065,0.6912326808830879,0.84,0.0,0.0,0.0,0.0,0.0,0.0,-0.07913927403298558,0.009569736444511949,0.012064286178797148,-0.07913927403298558,0.009569736444511949,0.012064286178797148,0.75,1.0,20.188433573081863,-0.015302132008581772,5.162853585374337,0.12728509450871456,-0.009917881803695204,-0.200329345313992,20.83814150623792,0.23755358607585175,1.0,0.0,28.654922783117257,16.571821708741084,1000.340531979286,92.38969325837958,1.5723895646916428,11.83754207722436,1.0,1002.8513274587107,0.0,1.0,99.56679005298493,5544.831594002461,1.0,1.0,-6.095596049803179,14.675764977881153,-2.7607813233428717,-45.7043379279327,1.0,1008.5072098978603,0.0,1.0,6.449757726367414,12.113028333717573
0.78,70.45366396945123,1.1768354738058104,1009.4924694089947,97.32690720325829,0.9905899424081844,11.422965211239426,97.99996055306775,17.84350174332633,7.285549913895519,12.06061546828986,-6.843086378700789,7.998942362904824,-0.8301293004672714,-11.061676343885129,5.926472340259094,1.0610012078595594,5524.7805223845335,0.29651055052630826,99.74529470725656,2.1133590428999165,1.1106064462415912,89771.12909460059,281.5882989488415,-1.4319525390919696,9.681796678467002,0.4559982604668554,394.38,0.21166088424959756,0.84,nominal,14701.735459331134,nan,altitude_hold,19.994892020310708,2.0,0.0,-4.636499209668137,0.7171941022326822,1.7486176612792628,-4.595638084128619,0.6496386650688353,1.3256636691207928,0.84,0.0,0.0,0.0,0.0,0.0,0.0,-0.08020901579808856,0.011338333653711851,0.023137195800226516,-0.08020901579808856,0.011338333653711851,0.023137195800226516,0.78,1.0,20.093755641307265,-0.1941749072893163,5.152503347616383,0.13895582174896995,-0.012380603236008023,-0.18306023694347304,20.744758625117488,0.23015874974508235,1.0,0.0,28.654922783117257,16.571821708741084,1000.340531979286,92.38969325837958,1.5723895646916428,11.83754207722436,1.0,1007.0293423651532,0.0,1.0,99.89827943154873,5528.248451061068,1.0,1.0,-9.150261117687602,14.57839830340643,-2.985899035998569,-45.627750306833775,1.0,1009.9882886891743,0.0,1.0,6.528035417313302,12.698330657903263
0.8099999999999999,73.38995478164004,1.2038402555370795,1009.8346325303879,97.87636040629401,0.9001593910422989,11.4054373797765,98.54276338288898,17.83715191679884,7.59814147738489,12.03843260714043,-7.178822056476876,8.083484396094414,-0.6843503218604524,-10.948255703704486,5.995529076047365,1.2272920266899194,5607.238888119638,0.29872129272521725,100.48858516669294,2.113514762771687,1.1105691147010472,89767.40254620719,281.58607488855245,-1.6097869554490718,9.88205106793099,0.46067361686769365,394.34684210526314,0.21164308864809683,0.84,nominal,14758.432906672151,nan,altitude_hold,19.994892020310708,2.0,0.0,-4.71581003562792,0.9617650964863927,2.147258192333732,-4.667741255028199,0.8369145239193698,1.8186203830485563,0.84,0.0,0.0,0.0,0.0,0.0,0.0,-0.0814674535314144,0.01460691400015384,0.03174091352807778,-0.0814674535314144,0.01460691400015384,0.03174091352807778,0.8099999999999999,1.0,20.06876531393017,0.033425776952474257,5.215965198020594,0.14005950745278908,-0.020304297742736562,-0.18952677217220618,20.73554319170669,0.23653610190573218,1.0,0.0,28.654922783117257,16.571821708741084,1000.340531979286,92.38969325837958,1.5723895646916428,11.83754207722436,1.0,1007.0293423651532,0.0,1.0,100.28791460454288,5615.588051471009,1.0,1.0,-9.150261117687602,14.57839830340643,-2.985899035998569,-45.627750306833775,1.0,1009.9882886891743,0.0,1.0,6.528035417313302,12.698330657903263
0.84,76.34265385390705,1.228001928932596,1010.1763779352416,98.42330240890048,0.8053891131838824,11.391513495120886,99.0836095850723,17.830802624139398,7.915912183026605,12.012423199618924,-7.515591557932199,8.253546463238733,-0.6228626114781327,-10.99591166762057,6.105278251263215,1.311400488855142,5650.503054488646,0.29987772742503244,100.87720703393494,2.1148384287888145,1.1105318296935118,89763.68067225956,281.5838535434209,-1.4357938334998432,10.183229214675734,0.6013368677780881,394.31368421052633,0.21162529304659614,0.84,nominal,14815.227020882154,nan,altitude_hold,19.994892020310708,2.0,0.0,-4.773201442604643,1.1394309164656553,2.408839685654192,-4.731017367574066,1.0184243594471412,2.1727519646119378,0.84,0.0,0.0,0.0,0.0,0.0,0.0,-0.08257183003320226,0.01777485825486683,0.03792167561165363,-0.08257183003320226,0.01777485825486683,0.03792167561165363,0.84,1.0,20.16096098371734,-0.10783563450732064,5.437162288839176,0.14354700229059666,-0.0016606185603634856,-0.1865636536130792,20.88153993522071,0.23540283849197866,1.0,0.0,28.654922783117257,16.571821708741084,1000.340531979286,92.38969325837958,1.5723895646916428,11.83754207722436,1.0,1021.5123885680549,0.0,1.0,100.73088566377982,5660.436296981279,1.0,1.0,-8.034569157789642,14.651277941866901,-3.1590250062838843,-45.61339265370554,1.0,1009.8560291754804,0.0,1.0,8.017044369419386,12.556770867448677
0.87,79.31169337709761,1.2491956576675742,1010.517819728936,98.96798410635179,0.7064576244992692,11.38139312314727,99.62277385153425,17.824453865348,8.242913434504636,11.978407889621952,-7.8573497735532305,8.532423073036622,-0.443541276464412,-11.191999536055613,6.176669998010862,1.5426347903107303,5740.093323280732,0.30225196017951933,101.67548509362389,2.115189688289729,1.1104945787668434,89759.9622296623,281.5816341717619,-1.6814314231417975,10.279057447483343,0.6126998308267604,394.2805263157895,0.2116074974450954,0.84,nominal,14872.143111781737,nan,altitude_hold,19.994892020310708,2.0,0.0,-4.881707894144978,1.2314012347578371,2.7328030467562,-4.8214316835166136,1.1462104846335588,2.5087826138984948,0.84,0.0,0.0,0.0,0.0,0.0,0.0,-0.08414985753733811,0.02000514687773547,0.04378651682931839,-0.08414985753733811,0.02000514687773547,0.04378651682931839,0.87,1.0,19.908077785896634,-0.27569121257033397,5.797676512410712,0.1594535225869605,0.0014677244440149135,-0.2003594650460941,20.736938532882775,0.25606931740056416,1.0,0.0,28.654922783117257,16.571821708741084,1000.340531979286,92.38969325837958,1.5723895646916428,11.83754207722436,1.0,1021.5123885680549,0.0,1.0,101.88663019490171,5773.160367891975,1.0,1.0,-8.034569157789642,14.651277941866901,-3.1590250062838843,-45.61339265370554,1.0,1009.8560291754804,0.0,1.0,8.017044369419386,12.556770867448677
0.8999999999999999,82.29698853635473,1.2672558646361438,1010.8590669683939,99.50983864190421,0.6020068989523166,11.374907981930058,100.15966718415939,17.818105640424648,8.579992755036653,11.941342655398353,-8.205164636623836,8.83343579216432,-0.43692875408675025,-11.400949066246037,6.097427317773856,2.0830859532815076,5803.756691619695,0.3039297679750572,102.23948543283102,2.113804616586672,1.110457350020942,89756.24603046411,281.5794160647054,-1.7077346952512125,9.848456015087608,0.310622733873961,394.2473684210526,0.21158970184359466,0.84,nominal,14929.120534306387,nan,altitude_hold,19.994892020310708,2.0,0.0,-4.933373842388717,1.314688944599776,3.3206142472093654,-4.8885969788398755,1.247297560613289,2.995881593885017,0.84,0.0,0.0,0.0,0.0,0.0,0.0,-0.08532211308380339,0.021769449184795436,0.052287997813189165,-0.08532211308380339,0.021769449184795436,0.052287997813189165,0.8999999999999999,1.0,19.880975844769704,-0.22801456459562872,5.609624467203265,0.14373847390949013,-0.01695297095009588,-0.19747037912865104,20.658486823701047,0.2448319887985987,1.0,0.0,28.654922783117257,16.571821708741084,1000.340531979286,92.38969325837958,1.5723895646916428,11.83754207722436,1.0,1003.8978626273727,0.0,1.0,102.74210033518177,5747.205387182889,1.0,1.0,-7.427201266475825,14.703795316416008,-3.4101180641858155,-45.58639366315954,1.0,1011.5031626881123,0.0,1.0,8.480047465794133,11.671267874517293
0.9299999999999999,85.2985100952548,1.28196643798129,1011.2000668943423,100.05071863000212,0.4903524448382047,11.366664198278079,100.69552025237483,17.81175794936934,8.923604165284642,11.921416454132686,-8.557036573240975,9.028855638475571,-1.089608761322687,-11.443181941165616,6.196579833363248,2.4638593143079124,5846.823135445716,0.305061641048121,102.61983437007895,2.1159924984806464,1.1104201492097665,89752.53264897084,281.57719956518673,-1.564046290282586,9.637064953824554,0.33908030081152607,394.21421052631575,0.21157190624209393,0.84,nominal,14986.279035457617,nan,altitude_hold,19.994892020310708,2.0,0.0,-4.741283325064147,1.499711632713582,3.8589511371310294,-4.800208786574438,1.3987460038734647,3.5137233198326245,0.84,0.0,0.0,0.0,0.0,0.0,0.0,-0.08377944810888573,0.024412723166705317,0.06132604093518507,-0.08377944810888573,0.024412723166705317,0.06132604093518507,0.9299999999999999,1.0,20.019313192777513,-0.3657482073777303,5.650650038227118,0.15953142029080525,-0.020814604454387736,-0.1989470175069032,20.804723461662064,0.2558582372984818,1.0,0.0,28.654922783117257,16.571821708741084,1000.340531979286,92.38969325837958,1.5723895646916428,11.83754207722436,1.0,1003.8978626273727,0.0,1.0,101.88047324167343,5899.787046615259,1.0,1.0,-7.427201266475825,14.703795316416008,-3.4101180641858155,-45.58639366315954,1.0,1011.5031626881123,0.0,1.0,8.480047465794133,11.671267874517293
0.96,88.31617588850591,1.2931330183614302,1011.5409376782478,100.58885977503729,0.37221934600467055,11.362359463518562,101.2292471110097,17.805410792182077,9.272428103419326,11.89056870950399,-8.90833618227644,9.211628388163552,-0.7964811747166894,-11.476583149971116,6.314809154496948,3.0691951709556253,5936.312525803838,0.3073937144806883,103.40391485854273,2.117905516491452,1.1103829634400055,89748.82079812344,281.57498390509136,-1.8562653994649083,9.04682989734555,0.31170030508391494,394.1810526315789,0.2115541106405932,0.84,nominal,15043.508171813322,nan,altitude_hold,19.994892020310708,2.0,0.0,-4.883746276061956,1.6962019104186585,4.574145393804161,-4.850331280266949,1.577219547800581,4.149976564215547,0.84,0.0,0.0,0.0,0.0,0.0,0.0,-0.08465425065313012,0.027527674135936226,0.07243075492616317,-0.08465425065313012,0.027527674135936226,0.07243075492616317,0.96,1.0,19.947031133322305,-0.5648318484604266,5.858003338612373,0.1605544675388733,-0.010160451181574241,-0.1986320554536012,20.79709809482944,0.2556084217482413,1.0,0.0,28.654922783117257,16.571821708741084,1000.340531979286,92.38969325837958,1.5723895646916428,11.83754207722436,1.0,1010.1670799768048,0.0,1.0,103.66549146425949,6104.106036003628,1.0,1.0,-9.036290878937747,14.60506974889356,-3.7231261382645946,-45.53175415641862,1.0,1011.397966160111,0.0,1.0,8.961102024765669,12.552319283716052
0.99,91.34986877373503,1.3005071083913524,1011.8818262537485,101.1230961743037,0.2458030009974046,11.362952516688933,101.75980389569008,17.79906416886286,9.623204051145779,11.842822052214576,-9.25378990098137,9.324626291228533,-0.27984272186787695,-11.377490937119141,6.291198319793764,3.4537282373375597,5943.631531223413,0.3075895130792187,103.46937227148364,2.117535322599005,1.1103457766821083,89745.10887785042,281.5727681293506,-1.3852469239994143,8.803824963621915,0.19555113666008989,394.1478947368421,0.2115363150390925,0.84,nominal,15100.699755875972,nan,altitude_hold,19.994892020310708,2.0,0.0,-5.107863763582241,1.951931019710263,5.149751498759439,-5.004850770256124,1.80204643094639,4.749841524941882,0.84,0.0,0.0,0.0,0.0,0.0,0.0,-0.08735112451194364,0.03145164349382714,0.0829003735581842,-0.08735112451194364,0.03145164349382714,0.0829003735581842,0.99,1.0,19.819931575453026,-0.4844069184353402,6.144606131295211,0.17008461967408522,-0.0017002089283147388,-0.19624101599378047,20.756216471867376,0.2596963706299134,1.0,0.0,28.654922783117257,16.571821708741084,1000.340531979286,92.38969325837958,1.5723895646916428,11.83754207722436,1.0,1010.1670799768048,0.0,1.0,102.96286895497671,5950.174337438616,1.0,1.0,-9.036290878937747,14.60506974889356,-3.7231261382645946,-45.53175415641862,1.0,1011.397966160111,0.0,1.0,8.961102024765669,12.552319283716052
1.02,94.39957740066549,1.3039204866181582,1012.2226723152887,101.65695423101558,0.11377927422685563,11.36153538467384,102.28994953340839,17.792718079411685,9.97845584773949,11.806883719484897,-9.599648939416237,9.479283948227833,-0.7403488655731753,-11.323281597357886,6.229850426542319,3.9469482497240636,5957.6490210542215,0.3079583775315978,103.59304623524471,2.1172784576829256,1.1103085955145504,89741.39754479956,281.5705526299506,-0.9725725177243114,8.378245272640843,-0.05766202093617709,394.11473684210523,0.21151851943759178,0.84,nominal,15158.130357234342,nan,altitude_hold,19.994892020310708,2.0,0.0,-4.988448715856439,2.1816770766381244,5.818316119290273,-4.995009537616313,2.0298248183614307,5.390926281550916,0.84,0.0,0.0,0.0,0.0,0.0,0.0,-0.08717936259992422,0.03542712631910282,0.09408941334535834,-0.08717936259992422,0.03542712631910282,0.09408941334535834,1.02,1.0,19.86837027474313,-0.6287194741727367,5.677890674804122,0.15768762636608483,-0.012347663317835857,-0.1906616047109972,20.673312943660676,0.24772908551349626,1.0,0.0,99.49216330313611,3.147462110272797,1004.3737150067753,101.7617070622614,0.24417218910582095,11.531651154300745,1.0,1015.8875118015977,0.0,1.0,103.25656638567874,5919.679194745547,1.0,1.0,-10.18558816769295,14.641618475040323,-3.9695621797063523,-45.576455438852086,1.0,1011.8537452599234,0.0,1.0,10.637090826822874,12.16368724748241
1.05,97.46528892901391,1.3031819898979295,1012.5634058614039,102.19038427828038,-0.02461655734095375,11.357784870508148,102.8196212893349,17.786372523828557,10.33849002893843,11.787442631006758,-9.946007789920815,9.640745227447892,-1.3553812543470933,-11.23862777097806,6.420320539626966,4.293011162981638,6039.994875243647,0.3100857638153658,104.30826006459078,2.122908761772572,1.1102714275727679,89737.68756110001,281.56833786190083,-1.180107430281599,8.18410181662859,0.07188639988205739,394.0815789473684,0.21150072383609106,0.84,nominal,15215.79218513186,nan,altitude_hold,19.93439427489837,2.0,0.0,-4.267217006216786,2.410799867386252,6.379234524164871,-4.558334018776597,2.2584098477763237,5.983911227119289,0.84,0.0,0.0,0.0,0.0,0.0,0.0,-0.07955793703331664,0.039416687703160785,0.10443895306028579,-0.07955793703331664,0.039416687703160785,0.10443895306028579,1.05,1.0,19.785529238896622,-0.6602786657849604,6.210663726903315,0.1667789798880408,-0.022607011104529534,-0.19353657644909583,20.74790300508455,0.2564814057728407,1.0,0.0,99.49216330313611,3.147462110272797,1004.3737150067753,101.7617070622614,0.24417218910582095,11.531651154300745,1.0,1015.8875118015977,0.0,1.0,104.42101367910139,6028.714107239497,1.0,1.0,-10.18558816769295,14.641618475040323,-3.9695621797063523,-45.576455438852086,1.0,1011.8537452599234,0.0,1.0,10.637090826822874,12.16368724748241
1.08,100.54684925834219,1.2980823809084805,1012.9043085868007,102.71867764427607,-0.16998696631496732,11.363424179890107,103.34545486691482,17.780027502113473,10.701752796518962,11.687708831030454,-10.276943666520365,9.864703954219207,1.2966078717450105,-11.22603334953824,6.308801229334464,4.656196463851983,6047.005182034826,0.31027207856493494,104.37052290140602,2.118343444591608,1.1102342421291247,89733.97585962433,281.5661219941858,-0.6984901173372844,7.962965239129051,-0.12354893330208047,394.04842105263157,0.21148292823459033,0.84,nominal,15273.339558627511,nan,altitude_hold,19.93439427489837,2.0,0.0,-5.766468665666388,2.5652426921870055,6.841666668334219,-5.283214806910472,2.442509554422733,6.4985644918482475,0.84,0.0,0.0,0.0,0.0,0.0,0.0,-0.0922094934707042,0.042629833736096315,0.11342134703594411,-0.0922094934707042,0.042629833736096315,0.11342134703594411,1.08,1.0,19.907971849051986,-0.5512145043315743,5.99963019426649,0.17790809858872042,0.020132997615228857,-0.20197962856777385,20.79968132064494,0.26991183651852796,1.0,0.0,99.49216330313611,3.147462110272797,1004.3737150067753,101.7617070622614,0.24417218910582095,11.531651154300745,1.0,1018.3912359857648,0.0,1.0,104.73407877687896,5986.107800783106,1.0,1.0,-11.618741885089259,14.702703933042075,-4.196324237142709,-45.55057789764524,1.0,1012.5712946744814,0.0,1.0,10.830027720123185,12.156403913615868
1.1099999999999999,103.64430056723711,1.2884746733953183,1013.2451466614792,103.2483769631639,-0.32025691710540727,11.36126915595149,103.87207683903564,17.773683014266435,11.074036869308394,11.646242328593727,-10.619085987236188,10.103186061153382,-0.7523857083850664,-11.229212078730512,6.381818728087502,4.988761171798648,6088.91084793773,0.31135175101129353,104.73329525943207,2.1207311418670303,1.1101970646900625,89730.26498633489,281.56390654670037,-0.5363816996951476,7.778113814645946,-0.13670443432065119,394.0152631578947,0.2114651326330896,0.84,nominal,15331.244690935056,nan,altitude_hold,19.93439427489837,2.0,0.0,-5.104202627355883,2.7479384822417163,7.382973807549111,-5.1758074991777185,2.625766911114123,7.029210081268766,0.84,0.0,0.0,0.0,0.0,0.0,0.0,-0.09033488231006488,0.04582827798886273,0.12268285973251815,-0.09033488231006488,0.04582827798886273,0.12268285973251815,1.1099999999999999,1.0,20.02322211757777,-0.6326550085562895,6.059705788678747,0.17767169075959502,-0.011863381114035749,-0.19264053207931364,20.929637134337845,0.2623325067707605,1.0,0.0,99.49216330313611,3.147462110272797,1004.3737150067753,101.7617070622614,0.24417218910582095,11.531651154300745,1.0,1018.3912359857648,0.0,1.0,104.7716481237469,6131.910444193809,1.0,1.0,-11.618741885089259,14.702703933042075,-4.196324237142709,-45.55057789764524,1.0,1012.5712946744814,0.0,1.0,10.830027720123185,12.156403913615868
1.14,106.75756356210726,1.274172196368962,1013.586010071147,103.77543316233835,-0.47674923421187365,11.36211365559525,104.39667353218654,17.767339060287444,11.455564947296814,11.629768254113042,-10.967764324421443,10.373019124838919,-1.6851840160171387,-11.271705724826143,6.57976337839473,5.471051857083479,6149.577391034053,0.3129054456124728,105.25551688022351,2.1265085388488916,1.110159885440069,89726.55396148788,281.5616909345375,-0.5706504450878866,7.297888995383699,-0.047253983057683205,393.9821052631579,0.2114473370315889,0.84,nominal,15389.215967957181,nan,altitude_hold,19.93439427489837,2.0,0.0,-4.816860820947313,2.9071906252692896,8.015360802993081,-4.960439492239475,2.794621139607223,7.620900514303355,0.84,0.0,0.0,0.0,0.0,0.0,0.0,-0.08657600148553454,0.04877534023198215,0.13300980594152276,-0.08657600148553454,0.04877534023198215,0.13300980594152276,1.14,1.0,19.645434835222154,-0.8178075242972599,6.502972570918412,0.17791161460607172,-0.028986916367802863,-0.20214369401429566,20.709914805954046,0.2708410178721063,1.0,0.0,99.49216330313611,3.147462110272797,1004.3737150067753,101.7617070622614,0.24417218910582095,11.531651154300745,1.0,1012.4921785434241,0.0,1.0,105.56305381520271,6260.915696399915,1.0,1.0,-11.068306677717977,14.649413678711475,-4.47607712468273,-45.38585536781797,1.0,1013.5537283480728,0.0,1.0,11.264914990746952,11.444337304257932
1.17,109.88648762402761,1.2549271292124182,1013.9271365406819,104.29746873067816,-0.6415022385514624,11.370882317826672,104.91744599176401,17.760995640176496,11.842284544894559,11.575013936513828,-11.308278432668528,10.6078808428621,-0.4574498128196029,-11.258135367377104,6.63046404633374,5.892729841738657,6230.241517960313,0.31495747123178913,105.94536260351624,2.127399619578625,1.110122678450793,89722.84019709585,281.55947361248553,-0.7445472839692822,6.960857829659862,-0.15295602546648002,393.94894736842105,0.21142954143008816,0.84,nominal,15447.063790274036,nan,altitude_hold,19.93439427489837,2.0,0.0,-5.294314313313463,3.0860474305775174,8.56311775899003,-5.160764384883868,2.9694769141893995,8.18623086111536,0.84,0.0,0.0,0.0,0.0,0.0,0.0,-0.09007233043588338,0.051827149214566146,0.14287668185483368,-0.09007233043588338,0.051827149214566146,0.14287668185483368,1.17,1.0,19.57280595800973,-1.0585023898534833,6.784945890270502,0.1923110381444548,-0.002053092903142606,-0.19669252624700007,20.742484207855274,0.2750921672169051,1.0,0.0,99.49216330313611,3.147462110272797,1004.3737150067753,101.7617070622614,0.24417218910582095,11.531651154300745,1.0,1012.4921785434241,0.0,1.0,105.83985467142325,6217.006811231367,1.0,1.0,-11.068306677717977,14.649413678711475,-4.47607712468273,-45.38585536781797,1.0,1013.5537283480728,0.0,1.0,11.264914990746952,11.444337304257932
1.2,113.03098206883726,1.2305286779481037,1014.268580895733,104.8164814936551,-0.8132817088104844,11.381478501701393,105.43573527382603,17.754652753933595,12.23488750811154,11.511302621762757,-11.646151414961098,10.833107388155184,-0.22450258114307145,-11.234980037319062,6.681539832703439,6.366443097273683,6293.446556138008,0.316557599648902,106.48319396151051,2.1287367271419297,1.1100854377447702,89719.12309659964,281.5572542241777,-0.7757862259051578,6.5041737937532575,-0.2546049911832673,393.91578947368424,0.21141174582858746,0.84,nominal,15504.924115207301,nan,altitude_hold,19.93439427489837,2.0,0.0,-5.432982870665893,3.285831535848261,9.180804932752924,-5.324095476353083,3.159289687184716,8.7829753040979,0.84,0.0,0.0,0.0,0.0,0.0,0.0,-0.0929229957528972,0.055140007065675,0.15329183717785855,-0.0929229957528972,0.055140007065675,0.15329183717785855,1.2,1.0,19.70624433311119,-1.0226829667866284,6.719091400335198,0.17638473263279267,-0.001879196744880992,-0.19202340012418154,20.845338457623825,0.2607452616666298,1.0,0.0,99.49216330313611,3.147462110272797,1004.3737150067753,101.7617070622614,0.24417218910582095,11.531651154300745,1.0,1020.2353339216569,0.0,1.0,107.23816085096162,6333.616032401866,1.0,1.0,-11.267200631967725,14.717961989105767,-4.902600353392958,-45.41697285552426,1.0,1014.2570856549368,0.0,1.0,11.462892762686227,12.17222061074847
1.23,116.19096335654488,1.2007560813550051,1014.6103820957185,105.332709590254,-0.9924198864366194,11.39337333284955,105.95175110755588,17.748310401558737,12.633548985534642,11.459538887811465,-11.984662944797412,11.041942323382933,-0.6959670249718242,-11.169993656275885,6.793565241930853,6.843998444714574,6393.621430709827,0.3190736457605743,107.32911450669755,2.132565330361413,1.110048159075584,89715.4022362377,281.5550325163778,-1.1244608667991731,6.029008855015122,-0.31599118869645065,393.8826315789473,0.2113939502270867,0.84,nominal,15562.815684957712,nan,altitude_hold,19.93439427489837,2.0,0.0,-5.32034585719627,3.5110587436288307,9.838285941623258,-5.321845704858995,3.370351121051185,9.416161686613115,0.84,0.0,0.0,0.0,0.0,0.0,0.0,-0.09288372983290785,0.05882372401062515,0.16434302433154133,-0.09288372983290785,0.05882372401062515,0.16434302433154133,1.23,1.0,19.72871186004562,-1.003777956362312,6.94759232039826,0.1909845807791057,-0.00823502909957034,-0.19702658323624392,20.94036009463162,0.2745221308044036,1.0,0.0,99.49216330313611,3.147462110272797,1004.3737150067753,101.7617070622614,0.24417218910582095,11.531651154300745,1.0,1020.2353339216569,0.0,1.0,107.07185166493936,6350.744664929701,1.0,1.0,-11.267200631967725,14.717961989105767,-4.902600353392958,-45.41697285552426,1.0,1014.2570856549368,0.0,1.0,11.462892762686227,12.17222061074847
