time_s,sensor_time_s,imu_valid,imu_ax_mps2,imu_ay_mps2,imu_az_mps2,gyro_p_rps,gyro_q_rps,gyro_r_rps,imu_accel_norm_mps2,imu_gyro_norm_rps,gps_valid,gps_latency_s,gps_x_m,gps_y_m,gps_z_m,gps_vx_mps,gps_vy_mps,gps_vz_mps,baro_valid,baro_alt_m,baro_bias_m,pitot_valid,pitot_airspeed_mps,pitot_qbar_pa,pitot_compressibility_factor,mag_valid,mag_heading_deg,mag_x_ut,mag_y_ut,mag_z_ut,radar_valid,radar_agl_m,optical_flow_valid,horizon_valid,horizon_roll_deg,horizon_pitch_deg
0.0,0.0,1.0,16.864680307905445,1.2586655602157644,-0.8404404528891691,-0.005526002259025985,-0.0024404616361534746,-0.0006126780109707863,16.932454666562066,0.006071896599039241,1.0,0.0,-5.12475906770303,4.333339046228245,1006.1844569493729,82.72589914784164,1.4631960598078957,14.027873835128696,1.0,1002.0904441399286,0.0,1.0,85.79311618127807,4168.7033634385725,1.0,1.0,-0.10896602917947859,17.95460209662717,-1.1729541591912578,-44.39431660708244,1.0,999.6310945825524,0.0,1.0,0.49971564607647456,7.729319069471869
0.03,0.03,1.0,17.243667003371595,0.8338617973801589,-0.6524316165463249,0.04763640876432344,-0.22117795663459747,-0.07532162878648896,17.27614089530893,0.23845809632735734,1.0,0.0,-5.12475906770303,4.333339046228245,1006.1844569493729,82.72589914784164,1.4631960598078957,14.027873835128696,1.0,1002.0904441399286,0.0,1.0,86.6659353729813,4176.25516314426,1.0,1.0,-0.10896602917947859,17.95460209662717,-1.1729541591912578,-44.39431660708244,1.0,999.6310945825524,0.0,1.0,0.49971564607647456,7.729319069471869
0.06,0.06,1.0,17.530494353491804,0.6071576157760405,0.19948921419260196,0.0657757495017558,-0.35804866773441174,-0.11751790249241209,17.542139795212616,0.3825385668074802,1.0,0.0,-5.12475906770303,4.333339046228245,1006.1844569493729,82.72589914784164,1.4631960598078957,14.027873835128696,1.0,999.5810538014432,0.0,1.0,87.27448161596587,4173.220907720413,1.0,1.0,-1.2039612753365119,17.18985781978314,-1.2880922111875726,-44.80681156187436,1.0,1000.8660096672413,0.0,1.0,1.1036945440501185,8.368754158557099
0.09,0.09,1.0,17.561257020160582,0.8601353070013779,0.6297644588991768,0.08898551301100244,-0.3213490614640877,-0.14339824996948292,17.59358360733203,0.3629692809646453,1.0,0.0,-5.12475906770303,4.333339046228245,1006.1844569493729,82.72589914784164,1.4631960598078957,14.027873835128696,1.0,999.5810538014432,0.0,1.0,87.9876626956436,4196.828041033478,1.0,1.0,-1.2039612753365119,17.18985781978314,-1.2880922111875726,-44.80681156187436,1.0,1000.8660096672413,0.0,1.0,1.1036945440501185,8.368754158557099
0.12,0.12,1.0,18.09031439496547,0.8504180126570888,0.9027150009262598,0.10168664295078104,-0.22387914379646656,-0.1514258947387034,18.132776402907634,0.28877646368611043,1.0,0.0,-5.12475906770303,4.333339046228245,1006.1844569493729,82.72589914784164,1.4631960598078957,14.027873835128696,1.0,997.8181830803326,0.0,1.0,87.65186576020321,4252.218387938243,1.0,1.0,0.5754682874801935,16.505494518287403,-1.3415524826432548,-45.13962758525823,1.0,1001.4976368236065,0.0,1.0,2.1826337349020433,10.021489306254335
0.15,0.15,1.0,18.04374156113483,0.5803341519631879,1.2211741880278928,0.09830460926964679,-0.1767281244514284,-0.15963474837498146,18.09432683606839,0.2576429293897295,1.0,0.0,-5.12475906770303,4.333339046228245,1006.1844569493729,82.72589914784164,1.4631960598078957,14.027873835128696,1.0,997.8181830803326,0.0,1.0,87.64992557180818,4318.10219528126,1.0,1.0,0.5754682874801935,16.505494518287403,-1.3415524826432548,-45.13962758525823,1.0,1001.4976368236065,0.0,1.0,2.1826337349020433,10.021489306254335
0.18,0.18,1.0,18.45868546331794,0.6984577376782742,1.3267998703782353,0.08947658552979672,-0.15757209110093728,-0.16657943223064578,18.519484607868097,0.2461376251089569,1.0,0.0,-5.12475906770303,4.333339046228245,1006.1844569493729,82.72589914784164,1.4631960598078957,14.027873835128696,1.0,1004.6063379977566,0.0,1.0,88.05342617875351,4375.737307501982,1.0,1.0,-0.8490077355359309,16.08886042049869,-1.5469159065233653,-45.17663920553556,1.0,1002.4399543198505,0.0,1.0,1.9028314069510799,10.811689114636028
0.21,0.21,1.0,18.70854664463683,0.31540383644376563,1.9474616244156975,0.09532315733558357,-0.171120228764723,-0.17157348076281162,18.81227800967143,0.26039603744677536,1.0,0.0,-5.12475906770303,4.333339046228245,1006.1844569493729,82.72589914784164,1.4631960598078957,14.027873835128696,1.0,1004.6063379977566,0.0,1.0,89.87697906080133,4487.610745435421,1.0,1.0,-0.8490077355359309,16.08886042049869,-1.5469159065233653,-45.17663920553556,1.0,1002.4399543198505,0.0,1.0,1.9028314069510799,10.811689114636028
0.24,0.24,1.0,18.9283402720273,0.3115121013943783,2.0325800955427984,0.08640149570571755,-0.15204460837986694,-0.1691159905983355,19.039708167084978,0.24327556324799363,1.0,0.0,-5.12475906770303,4.333339046228245,1006.1844569493729,82.72589914784164,1.4631960598078957,14.027873835128696,1.0,997.0705012515608,0.0,1.0,90.16087181040267,4507.086230685041,1.0,1.0,-2.645742997227752,15.609116393118999,-1.6235389876204729,-45.38418225178571,1.0,1003.0546773875197,0.0,1.0,2.1817269898234573,11.072586807297247
0.27,0.27,1.0,19.271166750731375,0.3903976344965289,2.3014262732644255,0.08404695156347067,-0.11079536879934915,-0.18340821546151417,19.412028259272308,0.23016967070679267,1.0,0.0,-5.12475906770303,4.333339046228245,1006.1844569493729,82.72589914784164,1.4631960598078957,14.027873835128696,1.0,997.0705012515608,0.0,1.0,90.58735406181258,4588.8090676777665,1.0,1.0,-2.645742997227752,15.609116393118999,-1.6235389876204729,-45.38418225178571,1.0,1003.0546773875197,0.0,1.0,2.1817269898234573,11.072586807297247
0.3,0.3,1.0,19.67438250079349,0.2901370917843053,2.5682383997874094,0.1014718860004534,-0.10479256729532298,-0.16617124831988625,19.843420944930358,0.2211128887627836,1.0,0.0,-5.12475906770303,4.333339046228245,1006.1844569493729,82.72589914784164,1.4631960598078957,14.027873835128696,1.0,993.7513825544306,0.0,1.0,91.23433972996457,4573.603916755064,1.0,1.0,-2.206351361117521,15.3980488820921,-1.6435454760380312,-45.326913308817645,1.0,1003.5427194612129,0.0,1.0,2.658637377423321,11.849926515049864
0.32999999999999996,0.32999999999999996,1.0,19.47289822785292,0.30509514671738847,3.008419347613564,0.09820496024898567,-0.0865475375115739,-0.15920346336404512,19.70627908591481,0.20610781939055345,1.0,0.0,-5.12475906770303,4.333339046228245,1006.1844569493729,82.72589914784164,1.4631960598078957,14.027873835128696,1.0,993.7513825544306,0.0,1.0,91.60127475114014,4748.981182752152,1.0,1.0,-2.206351361117521,15.3980488820921,-1.6435454760380312,-45.326913308817645,1.0,1003.5427194612129,0.0,1.0,2.658637377423321,11.849926515049864
0.36,0.36,1.0,20.091651102535653,0.3425595946170258,3.048106513330233,0.09287030457936997,-0.06801747956262166,-0.16785418574301766,20.324437124272162,0.2035345146901824,1.0,0.0,-5.12475906770303,4.333339046228245,1006.1844569493729,82.72589914784164,1.4631960598078957,14.027873835128696,1.0,1007.4871675436741,0.0,1.0,91.70999624913178,4657.647357868727,1.0,1.0,-3.362592804930315,15.172098576111912,-1.7888423391798474,-45.48703363010244,1.0,1005.0428749317587,0.0,1.0,3.1862764541194997,11.582931236786603
0.39,0.39,1.0,20.22121767456503,0.38101346371278955,3.196038532098577,0.09528118785232756,-0.06617838875976294,-0.18016347263774035,20.47577783138727,0.21428243224837323,1.0,0.0,-5.12475906770303,4.333339046228245,1006.1844569493729,82.72589914784164,1.4631960598078957,14.027873835128696,1.0,1007.4871675436741,0.0,1.0,92.90592614693578,4666.357305760246,1.0,1.0,-3.362592804930315,15.172098576111912,-1.7888423391798474,-45.48703363010244,1.0,1005.0428749317587,0.0,1.0,3.1862764541194997,11.582931236786603
0.42,0.42,1.0,20.414305296090365,0.3884911623776155,3.6486167692434464,0.10016344053233775,-0.0607016132741773,-0.16606600926552872,20.74143655666196,0.20321249987818568,1.0,0.0,-5.12475906770303,4.333339046228245,1006.1844569493729,82.72589914784164,1.4631960598078957,14.027873835128696,1.0,1000.4578441361793,0.0,1.0,92.92006600917897,4820.760423937399,1.0,1.0,-2.3867003130031024,14.994828782796462,-1.946716612025209,-45.64102933302219,1.0,1004.9606716256283,0.0,1.0,3.960712064738828,12.188906381888692
0.44999999999999996,0.44999999999999996,1.0,20.348277105909546,0.37644938513805254,3.6227127092883546,0.11419801036721158,-0.05299685852099614,-0.17463261708300953,20.671674888419002,0.2152821486658503,1.0,0.0,-5.12475906770303,4.333339046228245,1006.1844569493729,82.72589914784164,1.4631960598078957,14.027873835128696,1.0,1000.4578441361793,0.0,1.0,93.62578875377478,4856.588583112384,1.0,1.0,-2.3867003130031024,14.994828782796462,-1.946716612025209,-45.64102933302219,1.0,1004.9606716256283,0.0,1.0,3.960712064738828,12.188906381888692
0.48,0.48,1.0,20.51349022019529,0.23407715562213924,3.7265509839873134,0.10923140754722917,-0.04416191884580199,-0.18256591385064175,20.850545685067544,0.2172834286617643,1.0,0.0,-5.12475906770303,4.333339046228245,1006.1844569493729,82.72589914784164,1.4631960598078957,14.027873835128696,1.0,1005.6139192653309,0.0,1.0,95.24147449264338,4922.844300143445,1.0,1.0,-4.595030811533576,14.852463960714081,-2.0150298183397815,-45.65938714031957,1.0,1005.8425168476039,0.0,1.0,4.888668161542665,11.818089872648924
0.51,0.51,1.0,20.10888401468091,0.3978586859834408,3.932850220973193,0.11004078033729008,-0.041432210932571746,-0.17228152498546012,20.49372632564685,0.20858217874812932,1.0,0.0,28.654922783117257,16.571821708741084,1000.340531979286,92.38969325837958,1.5723895646916428,11.83754207722436,1.0,1005.6139192653309,0.0,1.0,96.00051479312657,5027.544778220582,1.0,1.0,-4.595030811533576,14.852463960714081,-2.0150298183397815,-45.65938714031957,1.0,1005.8425168476039,0.0,1.0,4.888668161542665,11.818089872648924
0.54,0.54,1.0,20.18363116377463,0.14354939254293975,3.9171281552567296,0.13210332621296,-0.04061687996367042,-0.18434844030712214,20.56072630935247,0.23040261972941956,1.0,0.0,28.654922783117257,16.571821708741084,1000.340531979286,92.38969325837958,1.5723895646916428,11.83754207722436,1.0,1009.8382892779023,0.0,1.0,95.66942714539499,5101.188649029868,1.0,1.0,-3.522244629912623,14.747243001740223,-2.177691656759758,-45.5944172987492,1.0,1006.8786546920617,0.0,1.0,5.113698983538534,12.253278374363456
0.57,0.57,1.0,20.168826065454695,0.37947046662796363,4.571290815922546,0.12316459126809176,-0.07486842305147641,-0.18038933428308696,20.683864300883076,0.23090064797558763,1.0,0.0,28.654922783117257,16.571821708741084,1000.340531979286,92.38969325837958,1.5723895646916428,11.83754207722436,1.0,1009.8382892779023,0.0,1.0,95.44916882759306,5158.992605000921,1.0,1.0,-3.522244629912623,14.747243001740223,-2.177691656759758,-45.5944172987492,1.0,1006.8786546920617,0.0,1.0,5.113698983538534,12.253278374363456
0.6,0.6,1.0,20.105871732427932,0.028029786046830818,4.6133590575005075,0.1270407645896211,-0.03203777693243997,-0.1926269657168133,20.628377192187767,0.23296120479503593,1.0,0.0,28.654922783117257,16.571821708741084,1000.340531979286,92.38969325837958,1.5723895646916428,11.83754207722436,1.0,1009.5558250409597,0.0,1.0,97.40483160078077,5223.536837458677,1.0,1.0,-4.181695205030442,14.642015899462015,-2.4516954376807405,-45.59820751479285,1.0,1007.5328534970582,0.0,1.0,5.359989389236543,12.074881916623223
0.63,0.63,1.0,19.96357194612571,-0.04328688890916872,4.883774262325525,0.12713918418050146,-0.001467763298558401,-0.18072617987395934,20.552307161198282,0.22097166916828676,1.0,0.0,28.654922783117257,16.571821708741084,1000.340531979286,92.38969325837958,1.5723895646916428,11.83754207722436,1.0,1009.5558250409597,0.0,1.0,98.77421508747535,5238.8539025166365,1.0,1.0,-4.181695205030442,14.642015899462015,-2.4516954376807405,-45.59820751479285,1.0,1007.5328534970582,0.0,1.0,5.359989389236543,12.074881916623223
0.6599999999999999,0.6599999999999999,1.0,20.263494777527693,0.26819009776589475,4.844379748686883,0.12104989384273608,-0.009856097078313543,-0.19331913787879967,20.836246343257688,0.22830354469249306,1.0,0.0,28.654922783117257,16.571821708741084,1000.340531979286,92.38969325837958,1.5723895646916428,11.83754207722436,1.0,1014.4258661913922,0.0,1.0,97.9710309081026,5384.295089049819,1.0,1.0,-7.995789900587062,14.683518890865905,-2.5607839761516415,-45.58633563608198,1.0,1007.7742072068608,0.0,1.0,5.749427979410507,12.186498917073289
0.69,0.69,1.0,20.04288576457008,0.028756836170426917,4.8430899406589925,0.12221829575774988,-0.0251600495798604,-0.18536932228248962,20.619738526483424,0.2234549743376937,1.0,0.0,28.654922783117257,16.571821708741084,1000.340531979286,92.38969325837958,1.5723895646916428,11.83754207722436,1.0,1014.4258661913922,0.0,1.0,98.58855944136275,5385.068596885204,1.0,1.0,-7.995789900587062,14.683518890865905,-2.5607839761516415,-45.58633563608198,1.0,1007.7742072068608,0.0,1.0,5.749427979410507,12.186498917073289
0.72,0.72,1.0,20.07488434027973,0.11454995352559902,5.163936247763848,0.1356933506770094,-0.02575150896678406,-0.17839375912840455,20.72873224629115,0.22561063567124542,1.0,0.0,28.654922783117257,16.571821708741084,1000.340531979286,92.38969325837958,1.5723895646916428,11.83754207722436,1.0,1002.8513274587107,0.0,1.0,99.19562116759741,5371.247567981927,1.0,1.0,-6.095596049803179,14.675764977881153,-2.7607813233428717,-45.7043379279327,1.0,1008.5072098978603,0.0,1.0,6.449757726367414,12.113028333717573
0.75,0.75,1.0,20.188433573081863,-0.015302132008581772,5.162853585374337,0.12728509450871456,-0.009917881803695204,-0.200329345313992,20.83814150623792,0.23755358607585175,1.0,0.0,28.654922783117257,16.571821708741084,1000.340531979286,92.38969325837958,1.5723895646916428,11.83754207722436,1.0,1002.8513274587107,0.0,1.0,99.56679005298493,5544.831594002461,1.0,1.0,-6.095596049803179,14.675764977881153,-2.7607813233428717,-45.7043379279327,1.0,1008.5072098978603,0.0,1.0,6.449757726367414,12.113028333717573
0.78,0.78,1.0,20.093755641307265,-0.1941749072893163,5.152503347616383,0.13895582174896995,-0.012380603236008023,-0.18306023694347304,20.744758625117488,0.23015874974508235,1.0,0.0,28.654922783117257,16.571821708741084,1000.340531979286,92.38969325837958,1.5723895646916428,11.83754207722436,1.0,1007.0293423651532,0.0,1.0,99.89827943154873,5528.248451061068,1.0,1.0,-9.150261117687602,14.57839830340643,-2.985899035998569,-45.627750306833775,1.0,1009.9882886891743,0.0,1.0,6.528035417313302,12.698330657903263
0.8099999999999999,0.8099999999999999,1.0,20.06876531393017,0.033425776952474257,5.215965198020594,0.14005950745278908,-0.020304297742736562,-0.18952677217220618,20.73554319170669,0.23653610190573218,1.0,0.0,28.654922783117257,16.571821708741084,1000.340531979286,92.38969325837958,1.5723895646916428,11.83754207722436,1.0,1007.0293423651532,0.0,1.0,100.28791460454288,5615.588051471009,1.0,1.0,-9.150261117687602,14.57839830340643,-2.985899035998569,-45.627750306833775,1.0,1009.9882886891743,0.0,1.0,6.528035417313302,12.698330657903263
0.84,0.84,1.0,20.16096098371734,-0.10783563450732064,5.437162288839176,0.14354700229059666,-0.0016606185603634856,-0.1865636536130792,20.88153993522071,0.23540283849197866,1.0,0.0,28.654922783117257,16.571821708741084,1000.340531979286,92.38969325837958,1.5723895646916428,11.83754207722436,1.0,1021.5123885680549,0.0,1.0,100.73088566377982,5660.436296981279,1.0,1.0,-8.034569157789642,14.651277941866901,-3.1590250062838843,-45.61339265370554,1.0,1009.8560291754804,0.0,1.0,8.017044369419386,12.556770867448677
0.87,0.87,1.0,19.908077785896634,-0.27569121257033397,5.797676512410712,0.1594535225869605,0.0014677244440149135,-0.2003594650460941,20.736938532882775,0.25606931740056416,1.0,0.0,28.654922783117257,16.571821708741084,1000.340531979286,92.38969325837958,1.5723895646916428,11.83754207722436,1.0,1021.5123885680549,0.0,1.0,101.88663019490171,5773.160367891975,1.0,1.0,-8.034569157789642,14.651277941866901,-3.1590250062838843,-45.61339265370554,1.0,1009.8560291754804,0.0,1.0,8.017044369419386,12.556770867448677
0.8999999999999999,0.8999999999999999,1.0,19.880975844769704,-0.22801456459562872,5.609624467203265,0.14373847390949013,-0.01695297095009588,-0.19747037912865104,20.658486823701047,0.2448319887985987,1.0,0.0,28.654922783117257,16.571821708741084,1000.340531979286,92.38969325837958,1.5723895646916428,11.83754207722436,1.0,1003.8978626273727,0.0,1.0,102.74210033518177,5747.205387182889,1.0,1.0,-7.427201266475825,14.703795316416008,-3.4101180641858155,-45.58639366315954,1.0,1011.5031626881123,0.0,1.0,8.480047465794133,11.671267874517293
0.9299999999999999,0.9299999999999999,1.0,20.019313192777513,-0.3657482073777303,5.650650038227118,0.15953142029080525,-0.020814604454387736,-0.1989470175069032,20.804723461662064,0.2558582372984818,1.0,0.0,28.654922783117257,16.571821708741084,1000.340531979286,92.38969325837958,1.5723895646916428,11.83754207722436,1.0,1003.8978626273727,0.0,1.0,101.88047324167343,5899.787046615259,1.0,1.0,-7.427201266475825,14.703795316416008,-3.4101180641858155,-45.58639366315954,1.0,1011.5031626881123,0.0,1.0,8.480047465794133,11.671267874517293
0.96,0.96,1.0,19.947031133322305,-0.5648318484604266,5.858003338612373,0.1605544675388733,-0.010160451181574241,-0.1986320554536012,20.79709809482944,0.2556084217482413,1.0,0.0,28.654922783117257,16.571821708741084,1000.340531979286,92.38969325837958,1.5723895646916428,11.83754207722436,1.0,1010.1670799768048,0.0,1.0,103.66549146425949,6104.106036003628,1.0,1.0,-9.036290878937747,14.60506974889356,-3.7231261382645946,-45.53175415641862,1.0,1011.397966160111,0.0,1.0,8.961102024765669,12.552319283716052
0.99,0.99,1.0,19.819931575453026,-0.4844069184353402,6.144606131295211,0.17008461967408522,-0.0017002089283147388,-0.19624101599378047,20.756216471867376,0.2596963706299134,1.0,0.0,28.654922783117257,16.571821708741084,1000.340531979286,92.38969325837958,1.5723895646916428,11.83754207722436,1.0,1010.1670799768048,0.0,1.0,102.96286895497671,5950.174337438616,1.0,1.0,-9.036290878937747,14.60506974889356,-3.7231261382645946,-45.53175415641862,1.0,1011.397966160111,0.0,1.0,8.961102024765669,12.552319283716052
1.02,1.02,1.0,19.86837027474313,-0.6287194741727367,5.677890674804122,0.15768762636608483,-0.012347663317835857,-0.1906616047109972,20.673312943660676,0.24772908551349626,1.0,0.0,99.49216330313611,3.147462110272797,1004.3737150067753,101.7617070622614,0.24417218910582095,11.531651154300745,1.0,1015.8875118015977,0.0,1.0,103.25656638567874,5919.679194745547,1.0,1.0,-10.18558816769295,14.641618475040323,-3.9695621797063523,-45.576455438852086,1.0,1011.8537452599234,0.0,1.0,10.637090826822874,12.16368724748241
1.05,1.05,1.0,19.785529238896622,-0.6602786657849604,6.210663726903315,0.1667789798880408,-0.022607011104529534,-0.19353657644909583,20.74790300508455,0.2564814057728407,1.0,0.0,99.49216330313611,3.147462110272797,1004.3737150067753,101.7617070622614,0.24417218910582095,11.531651154300745,1.0,1015.8875118015977,0.0,1.0,104.42101367910139,6028.714107239497,1.0,1.0,-10.18558816769295,14.641618475040323,-3.9695621797063523,-45.576455438852086,1.0,1011.8537452599234,0.0,1.0,10.637090826822874,12.16368724748241
1.08,1.08,1.0,19.907971849051986,-0.5512145043315743,5.99963019426649,0.17790809858872042,0.020132997615228857,-0.20197962856777385,20.79968132064494,0.26991183651852796,1.0,0.0,99.49216330313611,3.147462110272797,1004.3737150067753,101.7617070622614,0.24417218910582095,11.531651154300745,1.0,1018.3912359857648,0.0,1.0,104.73407877687896,5986.107800783106,1.0,1.0,-11.618741885089259,14.702703933042075,-4.196324237142709,-45.55057789764524,1.0,1012.5712946744814,0.0,1.0,10.830027720123185,12.156403913615868
1.1099999999999999,1.1099999999999999,1.0,20.02322211757777,-0.6326550085562895,6.059705788678747,0.17767169075959502,-0.011863381114035749,-0.19264053207931364,20.929637134337845,0.2623325067707605,1.0,0.0,99.49216330313611,3.147462110272797,1004.3737150067753,101.7617070622614,0.24417218910582095,11.531651154300745,1.0,1018.3912359857648,0.0,1.0,104.7716481237469,6131.910444193809,1.0,1.0,-11.618741885089259,14.702703933042075,-4.196324237142709,-45.55057789764524,1.0,1012.5712946744814,0.0,1.0,10.830027720123185,12.156403913615868
1.14,1.14,1.0,19.645434835222154,-0.8178075242972599,6.502972570918412,0.17791161460607172,-0.028986916367802863,-0.20214369401429566,20.709914805954046,0.2708410178721063,1.0,0.0,99.49216330313611,3.147462110272797,1004.3737150067753,101.7617070622614,0.24417218910582095,11.531651154300745,1.0,1012.4921785434241,0.0,1.0,105.56305381520271,6260.915696399915,1.0,1.0,-11.068306677717977,14.649413678711475,-4.47607712468273,-45.38585536781797,1.0,1013.5537283480728,0.0,1.0,11.264914990746952,11.444337304257932
1.17,1.17,1.0,19.57280595800973,-1.0585023898534833,6.784945890270502,0.1923110381444548,-0.002053092903142606,-0.19669252624700007,20.742484207855274,0.2750921672169051,1.0,0.0,99.49216330313611,3.147462110272797,1004.3737150067753,101.7617070622614,0.24417218910582095,11.531651154300745,1.0,1012.4921785434241,0.0,1.0,105.83985467142325,6217.006811231367,1.0,1.0,-11.068306677717977,14.649413678711475,-4.47607712468273,-45.38585536781797,1.0,1013.5537283480728,0.0,1.0,11.264914990746952,11.444337304257932
1.2,1.2,1.0,19.70624433311119,-1.0226829667866284,6.719091400335198,0.17638473263279267,-0.001879196744880992,-0.19202340012418154,20.845338457623825,0.2607452616666298,1.0,0.0,99.49216330313611,3.147462110272797,1004.3737150067753,101.7617070622614,0.24417218910582095,11.531651154300745,1.0,1020.2353339216569,0.0,1.0,107.23816085096162,6333.616032401866,1.0,1.0,-11.267200631967725,14.717961989105767,-4.902600353392958,-45.41697285552426,1.0,1014.2570856549368,0.0,1.0,11.462892762686227,12.17222061074847
1.23,1.23,1.0,19.72871186004562,-1.003777956362312,6.94759232039826,0.1909845807791057,-0.00823502909957034,-0.19702658323624392,20.94036009463162,0.2745221308044036,1.0,0.0,99.49216330313611,3.147462110272797,1004.3737150067753,101.7617070622614,0.24417218910582095,11.531651154300745,1.0,1020.2353339216569,0.0,1.0,107.07185166493936,6350.744664929701,1.0,1.0,-11.267200631967725,14.717961989105767,-4.902600353392958,-45.41697285552426,1.0,1014.2570856549368,0.0,1.0,11.462892762686227,12.17222061074847
1.26,1.26,1.0,19.676219139435545,-1.2265577272794572,7.240809544728604,0.19373206085233183,-0.015922345801730946,-0.19592955967023423,21.00208004804456,0.27599642180740924,1.0,0.0,99.49216330313611,3.147462110272797,1004.3737150067753,101.7617070622614,0.24417218910582095,11.531651154300745,1.0,1013.2463481650063,0.0,1.0,107.72911227478936,6470.64482250093,1.0,1.0,-12.830801246897964,14.80145227176059,-5.226912054341591,-45.4290651785049,1.0,1014.9385570101867,0.0,1.0,12.929602378007205,12.036682618181297
1.29,1.29,1.0,19.375442680628083,-1.2672293406307966,7.479823245909848,0.20858360021892255,-0.008045306130058445,-0.18456259214169948,20.807724648844076,0.27863093089080576,1.0,0.0,99.49216330313611,3.147462110272797,1004.3737150067753,101.7617070622614,0.24417218910582095,11.531651154300745,1.0,1013.2463481650063,0.0,1.0,108.16362011334043,6468.387592356167,1.0,1.0,-12.830801246897964,14.80145227176059,-5.226912054341591,-45.4290651785049,1.0,1014.9385570101867,0.0,1.0,12.929602378007205,12.036682618181297
1.3199999999999998,1.3199999999999998,1.0,19.55248261040423,-1.3064300520085943,7.683039185101635,0.2127047462430786,-0.0016067641385033226,-0.18462020970859322,21.048406752786732,0.28165672830268795,1.0,0.0,99.49216330313611,3.147462110272797,1004.3737150067753,101.7617070622614,0.24417218910582095,11.531651154300745,1.0,1024.4116248712824,0.0,1.0,109.54189682659263,6654.325001006582,1.0,1.0,-10.826216772969733,14.839043835908596,-5.686653873440154,-45.260566515239184,1.0,1015.9272718355461,0.0,1.0,14.150131166559241,11.739592562490204
1.3499999999999999,1.3499999999999999,1.0,19.394573598987815,-1.38380448629988,7.838470536824919,0.2050187969898403,0.008025487926718089,-0.18393950799541903,20.9643988776099,0.2755555446316043,1.0,0.0,99.49216330313611,3.147462110272797,1004.3737150067753,101.7617070622614,0.24417218910582095,11.531651154300745,1.0,1024.4116248712824,0.0,1.0,110.61670820476795,6855.745320746378,1.0,1.0,-10.826216772969733,14.839043835908596,-5.686653873440154,-45.260566515239184,1.0,1015.9272718355461,0.0,1.0,14.150131166559241,11.739592562490204
1.38,1.38,1.0,19.446702477859983,-1.488121509742463,7.914049426294596,0.21341573999958904,-0.016548551662398187,-0.18064106670531135,21.04806217237106,0.2800916414713727,1.0,0.0,99.49216330313611,3.147462110272797,1004.3737150067753,101.7617070622614,0.24417218910582095,11.531651154300745,1.0,1015.578536546593,0.0,1.0,110.83977264125096,6792.935582506254,1.0,1.0,-14.386833477102124,14.824043812479893,-6.024575691795299,-45.25386760037409,1.0,1016.41234426251,0.0,1.0,14.26448341154105,11.179775466937352
1.41,1.41,1.0,19.40282658909949,-1.474587081102111,7.750742279321535,0.24069558149809944,-0.010701013161552727,-0.19456638485428643,20.945598406034662,0.3096852478738021,1.0,0.0,99.49216330313611,3.147462110272797,1004.3737150067753,101.7617070622614,0.24417218910582095,11.531651154300745,1.0,1015.578536546593,0.0,1.0,111.32886379414543,6771.836121976688,1.0,1.0,-14.386833477102124,14.824043812479893,-6.024575691795299,-45.25386760037409,1.0,1016.41234426251,0.0,1.0,14.26448341154105,11.179775466937352
1.44,1.44,1.0,19.26107796610905,-1.5293751099099644,8.055265687726765,0.22635603586894373,-0.021151374357874196,-0.19563052941588663,20.933595437554718,0.299926223680207,1.0,0.0,99.49216330313611,3.147462110272797,1004.3737150067753,101.7617070622614,0.24417218910582095,11.531651154300745,1.0,1030.3129042527705,0.0,1.0,111.21152577157446,7024.3484123692315,1.0,1.0,-13.933639925288785,14.87724996283465,-6.474201796986031,-45.22317427100413,1.0,1017.1403000851324,0.0,1.0,15.561973987028733,10.72667455526509
1.47,1.47,1.0,19.29168351691952,-1.5421146461995157,8.443509545359728,0.2341491527658713,-0.014602412862948848,-0.20347348924709607,21.114924199285873,0.3105487353520917,1.0,0.0,99.49216330313611,3.147462110272797,1004.3737150067753,101.7617070622614,0.24417218910582095,11.531651154300745,1.0,1030.3129042527705,0.0,1.0,112.70553409840171,7007.807862464683,1.0,1.0,-13.933639925288785,14.87724996283465,-6.474201796986031,-45.22317427100413,1.0,1017.1403000851324,0.0,1.0,15.561973987028733,10.72667455526509
1.5,1.5,1.0,19.25776272417528,-1.759632638138571,8.699016174408374,0.2362360584655079,-0.0005658782810562361,-0.2028822244908303,21.20449514995478,0.31139844661124355,1.0,0.0,99.49216330313611,3.147462110272797,1004.3737150067753,101.7617070622614,0.24417218910582095,11.531651154300745,1.0,1014.045400043306,0.0,1.0,113.6145015767922,7189.060876782167,1.0,1.0,-15.365929609440224,14.929878157389428,-6.971124778615883,-45.09344943662213,1.0,1017.7766665480758,0.0,1.0,16.742930299615455,10.553667061835325
1.53,1.53,1.0,19.177956306840645,-1.725239487034844,8.956864557384131,0.24531449010421816,0.006229512584969034,-0.198654523165408,21.236663629064644,0.3157239703541916,1.0,0.0,141.33312107089031,-10.456972057459087,1013.0157422702333,110.45744605292882,-3.241615378974429,11.660471342862893,1.0,1014.045400043306,0.0,1.0,113.38218230081995,7072.4107829909435,1.0,1.0,-15.365929609440224,14.929878157389428,-6.971124778615883,-45.09344943662213,1.0,1017.7766665480758,0.0,1.0,16.742930299615455,10.553667061835325
1.56,1.56,1.0,19.308830523706643,-1.8331582093823333,9.351961588785809,0.24601204617928588,-0.008039326756901674,-0.19421903488930817,21.532547242998827,0.31354041390761356,1.0,0.0,141.33312107089031,-10.456972057459087,1013.0157422702333,110.45744605292882,-3.241615378974429,11.660471342862893,1.0,1023.7079929653521,0.0,1.0,114.16890007284076,7072.855834075275,1.0,1.0,-15.584569167622481,15.027785199512586,-7.396354032043268,-45.00495511600609,1.0,1018.966870807318,0.0,1.0,18.440641906648153,10.027031387300013
1.5899999999999999,1.5899999999999999,1.0,19.15583982055385,-1.815857658249728,8.876901992216482,0.24182865545030935,0.06398661062659129,-0.21313264533541512,21.19063300718404,0.3286349181752531,1.0,0.0,141.33312107089031,-10.456972057459087,1013.0157422702333,110.45744605292882,-3.241615378974429,11.660471342862893,1.0,1023.7079929653521,0.0,1.0,114.06134613882504,7220.661079832048,1.0,1.0,-15.584569167622481,15.027785199512586,-7.396354032043268,-45.00495511600609,1.0,1018.966870807318,0.0,1.0,18.440641906648153,10.027031387300013
1.6199999999999999,1.6199999999999999,1.0,19.263542129939026,-2.0247385540559137,9.188792192776718,0.24029962180636807,-0.008040968723341917,-0.2073903828704578,21.438692207461038,0.3175206077177486,1.0,0.0,141.33312107089031,-10.456972057459087,1013.0157422702333,110.45744605292882,-3.241615378974429,11.660471342862893,1.0,1017.6741712264154,0.0,1.0,115.10123861066538,7273.936333176907,1.0,1.0,-18.191735259834704,15.220376818014968,-7.943019219377073,-44.88001315586208,1.0,1018.6260400253576,0.0,1.0,18.46525721144881,9.906384078484587
1.65,1.65,1.0,19.089716250698796,-2.0271624805144115,9.734304047556016,0.23880364476183497,-0.042304679012816364,-0.21103297024881038,21.52401750475186,0.3214837183279262,1.0,0.0,141.33312107089031,-10.456972057459087,1013.0157422702333,110.45744605292882,-3.241615378974429,11.660471342862893,1.0,1017.6741712264154,0.0,1.0,115.67341745111284,7245.890892696356,1.0,1.0,-18.191735259834704,15.220376818014968,-7.943019219377073,-44.88001315586208,1.0,1018.6260400253576,0.0,1.0,18.46525721144881,9.906384078484587
1.68,1.68,1.0,19.044647349502313,-2.0881957440285124,9.655310422001957,0.2405970178481136,0.024550244303891675,-0.21489790691266827,21.45423439504435,0.32352859207221873,1.0,0.0,141.33312107089031,-10.456972057459087,1013.0157422702333,110.45744605292882,-3.241615378974429,11.660471342862893,1.0,1019.7766915536623,0.0,1.0,115.43218298340548,7345.948417970459,1.0,1.0,-17.7674676670817,15.300234227215041,-8.388349696333202,-44.695827271874194,1.0,1019.1092183639232,0.0,1.0,19.543010359115005,10.506380661007375
1.71,1.71,1.0,19.23009330171714,-2.0539301908859717,9.99434631244152,0.22123788441352069,-0.003639871651114096,-0.20812987150883341,21.76929203797847,0.303772107968606,1.0,0.0,141.33312107089031,-10.456972057459087,1013.0157422702333,110.45744605292882,-3.241615378974429,11.660471342862893,1.0,1019.7766915536623,0.0,1.0,116.72761996220257,7494.129085551593,1.0,1.0,-17.7674676670817,15.300234227215041,-8.388349696333202,-44.695827271874194,1.0,1019.1092183639232,0.0,1.0,19.543010359115005,10.506380661007375
1.74,1.74,1.0,19.17198257146154,-2.067223602509941,10.21686651298533,0.22710415708682385,-0.030476734439889856,-0.21274464465587642,21.82252713338582,0.31267461255751394,1.0,0.0,141.33312107089031,-10.456972057459087,1013.0157422702333,110.45744605292882,-3.241615378974429,11.660471342862893,1.0,1014.9950317672262,0.0,1.0,116.34276260390386,7690.512472571187,1.0,1.0,-18.218826474069996,15.398539318601077,-8.771419031172618,-44.63848655844178,1.0,1020.5613625832455,0.0,1.0,20.372203105419313,9.930167042919516
1.77,1.77,1.0,19.119752675817388,-2.3470568275576293,10.682104711696608,0.22378394822964062,-0.025463751451631156,-0.22127496542755035,22.026824083554622,0.3157376576339929,1.0,0.0,141.33312107089031,-10.456972057459087,1013.0157422702333,110.45744605292882,-3.241615378974429,11.660471342862893,1.0,1014.9950317672262,0.0,1.0,118.49329568253104,7730.385695188527,1.0,1.0,-18.218826474069996,15.398539318601077,-8.771419031172618,-44.63848655844178,1.0,1020.5613625832455,0.0,1.0,20.372203105419313,9.930167042919516
1.7999999999999998,1.7999999999999998,1.0,18.821862056670664,-2.6309180263651815,11.000052565059546,0.236715126570037,-0.01874300262041602,-0.23066054518018228,21.9587198482941,0.3310432575919897,1.0,0.0,141.33312107089031,-10.456972057459087,1013.0157422702333,110.45744605292882,-3.241615378974429,11.660471342862893,1.0,1029.502444404795,0.0,1.0,118.88408858149741,7671.863488725296,1.0,1.0,-19.4168265867281,15.416644115876283,-9.201452998310193,-44.54068386270919,1.0,1021.6995798275722,0.0,1.0,21.398850492331608,9.813647451395367
1.8299999999999998,1.8299999999999998,1.0,18.945465787435314,-2.539118434010273,10.725591313817212,0.23458553899822998,-0.01448330313960928,-0.22698467400401187,21.91839650512427,0.3267448292010624,1.0,0.0,141.33312107089031,-10.456972057459087,1013.0157422702333,110.45744605292882,-3.241615378974429,11.660471342862893,1.0,1029.502444404795,0.0,1.0,119.56399708717605,7985.87998669588,1.0,1.0,-19.4168265867281,15.416644115876283,-9.201452998310193,-44.54068386270919,1.0,1021.6995798275722,0.0,1.0,21.398850492331608,9.813647451395367
1.8599999999999999,1.8599999999999999,1.0,18.674284381005673,-2.549528118605957,11.343157120145658,0.23169560839479628,-0.0325536348005139,-0.2506595607236312,21.997640878570277,0.34288891710045655,1.0,0.0,141.33312107089031,-10.456972057459087,1013.0157422702333,110.45744605292882,-3.241615378974429,11.660471342862893,1.0,1021.2259509456184,0.0,1.0,120.02791966525929,7939.482842658269,1.0,1.0,-18.601608977505887,15.532989493588314,-9.595200362293175,-44.43340798599696,1.0,1021.9193188295636,0.0,1.0,22.3090245929249,9.054268911789025
1.89,1.89,1.0,18.75801301467887,-2.4742919287688276,11.448500061156928,0.21823833907485943,-0.04041919651452568,-0.24220736081988706,22.11455010751841,0.3285210643541265,1.0,0.0,141.33312107089031,-10.456972057459087,1013.0157422702333,110.45744605292882,-3.241615378974429,11.660471342862893,1.0,1021.2259509456184,0.0,1.0,120.08989647150248,7989.415572818371,1.0,1.0,-18.601608977505887,15.532989493588314,-9.595200362293175,-44.43340798599696,1.0,1021.9193188295636,0.0,1.0,22.3090245929249,9.054268911789025
1.92,1.92,1.0,18.65859010864379,-2.680102143443423,11.729441229852561,0.22381953161548085,-0.026012225677949537,-0.26477990957901987,22.201480218810524,0.347678327098437,1.0,0.0,141.33312107089031,-10.456972057459087,1013.0157422702333,110.45744605292882,-3.241615378974429,11.660471342862893,1.0,1016.844647006455,0.0,1.0,121.01958109739834,8049.660647807375,1.0,1.0,-20.377103009404646,15.490610292953978,-9.99996616569767,-44.327995565735336,1.0,1022.7556715213788,0.0,1.0,23.478550901954446,8.869653598378516
1.95,1.95,1.0,18.684227935294366,-2.7025716353470894,11.908697726117124,0.2179966446666854,-0.02893990526149174,-0.27299014853361625,22.320872485506566,0.3505476806354352,1.0,0.0,141.33312107089031,-10.456972057459087,1013.0157422702333,110.45744605292882,-3.241615378974429,11.660471342862893,1.0,1016.844647006455,0.0,1.0,122.33434422054049,8231.212816059295,1.0,1.0,-20.377103009404646,15.490610292953978,-9.99996616569767,-44.327995565735336,1.0,1022.7556715213788,0.0,1.0,23.478550901954446,8.869653598378516
1.98,1.98,1.0,18.590567880720776,-2.5426342646854114,12.328091883940976,0.21659068089001104,-0.0539899951630072,-0.2633954284369346,22.451192677239458,0.34525873536751606,1.0,0.0,141.33312107089031,-10.456972057459087,1013.0157422702333,110.45744605292882,-3.241615378974429,11.660471342862893,1.0,1028.8911581270386,0.0,1.0,122.87274894720157,8256.755085825193,1.0,1.0,-21.568290758441012,15.585413440191312,-10.198229809438317,-44.20882361404044,1.0,1023.5489973145338,0.0,1.0,23.530056666758178,9.149290667746834
2.01,2.01,1.0,18.550764552568157,-2.6671033816611063,12.64369981128057,0.22321388034065473,-0.034147004105947155,-0.29333280890386343,22.607685658887416,0.37018183511022545,1.0,0.0,141.33312107089031,-10.456972057459087,1013.0157422702333,110.45744605292882,-3.241615378974429,11.660471342862893,1.0,1028.8911581270386,0.0,1.0,123.44580253038887,8317.136351408972,1.0,1.0,-21.568290758441012,15.585413440191312,-10.198229809438317,-44.20882361404044,1.0,1023.5489973145338,0.0,1.0,23.530056666758178,9.149290667746834
2.04,2.04,1.0,18.63516287736083,-2.7603692433672387,12.60276987776041,0.22298177286637139,-0.03382698984223641,-0.28369401624683627,22.665364378656705,0.3624188614389116,1.0,0.0,207.54325448190122,2.271369413387103,1025.5101832469684,117.60988571999192,-8.605424267545935,13.00402117932329,1.0,1033.1564253435529,0.0,1.0,123.06027004527076,8413.428513711477,1.0,1.0,-20.92241510167577,15.663009293845967,-10.619131813271427,-44.103569198416544,1.0,1024.6506178934396,0.0,1.0,24.72256123006039,8.877413171395615
2.07,2.07,1.0,18.593837612303165,-2.9518277867893636,12.929741154147383,0.22210217261823717,-0.051172442253961774,-0.3042393371658575,22.83905187937569,0.3801441413557449,1.0,0.0,207.54325448190122,2.271369413387103,1025.5101832469684,117.60988571999192,-8.605424267545935,13.00402117932329,1.0,1033.1564253435529,0.0,1.0,123.75347736438829,8519.415201875781,1.0,1.0,-20.92241510167577,15.663009293845967,-10.619131813271427,-44.103569198416544,1.0,1024.6506178934396,0.0,1.0,24.72256123006039,8.877413171395615
2.1,2.1,1.0,18.5763649080333,-3.0172237091130087,12.340520931638338,0.21474927382443632,0.07552221820708153,-0.30813643455036,22.504964540550795,0.3831043178410406,1.0,0.0,207.54325448190122,2.271369413387103,1025.5101832469684,117.60988571999192,-8.605424267545935,13.00402117932329,1.0,1017.0156005447809,0.0,1.0,124.18583315958449,8416.3582503438,1.0,1.0,-22.095897890031036,15.920636016945357,-10.950078456506805,-43.951998524115595,1.0,1024.9728764146623,0.0,1.0,26.017796148694128,8.787244178012195
2.13,2.13,1.0,18.441512208925044,-2.9236484713434363,12.546239438256862,0.21516660297884013,-0.11575357570954695,-0.2936214382090105,22.49544880588054,0.3819805051346566,1.0,0.0,207.54325448190122,2.271369413387103,1025.5101832469684,117.60988571999192,-8.605424267545935,13.00402117932329,1.0,1017.0156005447809,0.0,1.0,123.7367150138462,8566.56255352045,1.0,1.0,-22.095897890031036,15.920636016945357,-10.950078456506805,-43.951998524115595,1.0,1024.9728764146623,0.0,1.0,26.017796148694128,8.787244178012195
2.16,2.16,1.0,18.388562379767986,-3.1770198918032255,13.446423998056448,0.21705654665625052,-0.10505880542185915,-0.3019418582022809,23.000847813135938,0.3864191801368709,1.0,0.0,207.54325448190122,2.271369413387103,1025.5101832469684,117.60988571999192,-8.605424267545935,13.00402117932329,1.0,1028.0679328585643,0.0,1.0,124.75943397972104,8556.56438997195,1.0,1.0,-23.112126841025038,15.740274800411523,-11.154225152122677,-43.89705544623382,1.0,1025.6381484132098,0.0,1.0,26.599181626485194,8.704711101856727
2.19,2.19,1.0,18.450029615986022,-3.5076967787000535,13.179484554678991,0.21587792887582852,-0.038143228751998964,-0.29580769601535095,22.943546862878158,0.36818525105883165,1.0,0.0,207.54325448190122,2.271369413387103,1025.5101832469684,117.60988571999192,-8.605424267545935,13.00402117932329,1.0,1028.0679328585643,0.0,1.0,124.62098528083125,8649.732878372553,1.0,1.0,-23.112126841025038,15.740274800411523,-11.154225152122677,-43.89705544623382,1.0,1025.6381484132098,0.0,1.0,26.599181626485194,8.704711101856727
2.2199999999999998,2.2199999999999998,1.0,18.390191056444543,-3.4267921056769377,13.749031966726223,0.19914983887254453,-0.0667130422846576,-0.28324702343925817,23.215897812708477,0.35261900774211624,1.0,0.0,207.54325448190122,2.271369413387103,1025.5101832469684,117.60988571999192,-8.605424267545935,13.00402117932329,1.0,1024.919966156535,0.0,1.0,125.027502491409,8784.13864078633,1.0,1.0,-25.584247012408703,15.900699543476373,-11.360515758407631,-43.836631759281836,1.0,1026.8435016606768,0.0,1.0,27.820675111333827,8.191098678348208
2.25,2.25,1.0,18.147738870904593,-3.4497783383059017,13.888603044477152,0.2107818993499471,-0.06395359467124961,-0.27748788328796253,23.111354162771296,0.3542860380209466,1.0,0.0,207.54325448190122,2.271369413387103,1025.5101832469684,117.60988571999192,-8.605424267545935,13.00402117932329,1.0,1024.919966156535,0.0,1.0,125.93644607040606,8839.410219557323,1.0,1.0,-25.584247012408703,15.900699543476373,-11.360515758407631,-43.836631759281836,1.0,1026.8435016606768,0.0,1.0,27.820675111333827,8.191098678348208
2.28,2.28,1.0,18.267847954023747,-3.3923915887677265,13.897838275471914,0.2093943246056895,-0.04910823230576243,-0.27430170814263166,23.20285539096522,0.3485671079537412,1.0,0.0,207.54325448190122,2.271369413387103,1025.5101832469684,117.60988571999192,-8.605424267545935,13.00402117932329,1.0,1024.5558934073501,0.0,1.0,125.95881701405679,8780.574865654073,1.0,1.0,-25.50791045121272,15.860685097688494,-11.74413864905794,-43.737273241723976,1.0,1028.0067638263192,0.0,1.0,27.759806131179737,7.125314923768916
2.31,2.31,1.0,18.19108834679097,-3.2648604499340568,14.312907067098527,0.20349536404844068,-0.06966541197737353,-0.2691732909553123,23.37593458473258,0.344554630470841,1.0,0.0,207.54325448190122,2.271369413387103,1025.5101832469684,117.60988571999192,-8.605424267545935,13.00402117932329,1.0,1024.5558934073501,0.0,1.0,126.74477810360384,8857.009686023459,1.0,1.0,-25.50791045121272,15.860685097688494,-11.74413864905794,-43.737273241723976,1.0,1028.0067638263192,0.0,1.0,27.759806131179737,7.125314923768916
2.34,2.34,1.0,18.280736661959477,-3.31228570761512,14.272221243946682,0.2137940771635942,-0.07182130508338803,-0.2769040973546276,23.427609112945,0.3571303493486587,1.0,0.0,207.54325448190122,2.271369413387103,1025.5101832469684,117.60988571999192,-8.605424267545935,13.00402117932329,1.0,1025.2880424291313,0.0,1.0,127.37003331559356,8852.526608642127,1.0,1.0,-25.731280002612355,15.815606551519897,-11.960985768848099,-43.66523688545433,1.0,1028.225449614368,0.0,1.0,29.480376907125788,7.123020059438907
2.37,2.37,1.0,18.391874035318143,-3.519212402072534,14.819433361410518,0.21413669720668807,-0.09268380077959092,-0.274771629101477,23.880148483943685,0.3604778220315632,1.0,0.0,207.54325448190122,2.271369413387103,1025.5101832469684,117.60988571999192,-8.605424267545935,13.00402117932329,1.0,1025.2880424291313,0.0,1.0,128.00826120238816,9077.185920856651,1.0,1.0,-25.731280002612355,15.815606551519897,-11.960985768848099,-43.66523688545433,1.0,1028.225449614368,0.0,1.0,29.480376907125788,7.123020059438907
2.4,2.4,1.0,18.12106950415203,-3.8208678076897407,14.788463102771034,0.2135636542387097,-0.06280728868453925,-0.2758187873926393,23.699595602460576,0.35444349818051424,1.0,0.0,207.54325448190122,2.271369413387103,1025.5101832469684,117.60988571999192,-8.605424267545935,13.00402117932329,1.0,1025.1925445916165,0.0,1.0,127.44347650875187,8975.892009385263,1.0,1.0,-27.738053047771007,15.843701097519864,-12.2520706879613,-43.64036546462087,1.0,1028.9914464506817,0.0,1.0,29.901634026058364,6.967001842236549
2.4299999999999997,2.4299999999999997,1.0,18.171144889539192,-3.6439787877599565,15.189733417129316,0.2024423169544539,-0.08608183434896646,-0.27070876543731426,23.962409922328888,0.348821171351977,1.0,0.0,207.54325448190122,2.271369413387103,1025.5101832469684,117.60988571999192,-8.605424267545935,13.00402117932329,1.0,1025.1925445916165,0.0,1.0,128.86533488347402,9113.065447721036,1.0,1.0,-27.738053047771007,15.843701097519864,-12.2520706879613,-43.64036546462087,1.0,1028.9914464506817,0.0,1.0,29.901634026058364,6.967001842236549
2.46,2.46,1.0,18.10373258083135,-3.523083930703182,15.067526933383471,0.2035550489219018,-0.08367507436457282,-0.2715973686864328,23.81570115762435,0.3495730348423756,1.0,0.0,207.54325448190122,2.271369413387103,1025.5101832469684,117.60988571999192,-8.605424267545935,13.00402117932329,1.0,1029.3354138412517,0.0,1.0,128.7750711246948,9156.16693846493,1.0,1.0,-29.695278515801153,15.889022922785971,-12.546979689907431,-43.44863408458354,1.0,1029.5904844653426,0.0,1.0,30.998429076982656,6.900410150684468
2.4899999999999998,2.4899999999999998,1.0,18.115873360830733,-3.860660509450691,15.249810440091647,0.2125403839041543,-0.10392499884793845,-0.27500628701210555,23.99262981945949,0.3627702827849242,1.0,0.0,207.54325448190122,2.271369413387103,1025.5101832469684,117.60988571999192,-8.605424267545935,13.00402117932329,1.0,1029.3354138412517,0.0,1.0,128.4929894488737,9310.416941148953,1.0,1.0,-29.695278515801153,15.889022922785971,-12.546979689907431,-43.44863408458354,1.0,1029.5904844653426,0.0,1.0,30.998429076982656,6.900410150684468
2.52,2.52,1.0,18.07104722254845,-3.9190997282542415,15.65082506309257,0.20041195139799847,-0.09876744881120153,-0.27553384950721443,24.225408470345865,0.3547377361264112,1.0,0.0,207.54325448190122,2.271369413387103,1025.5101832469684,117.60988571999192,-8.605424267545935,13.00402117932329,1.0,1030.2920143252018,0.0,1.0,128.6579741292929,9292.792267388435,1.0,1.0,-29.559152587425242,15.810772439496956,-12.84374871915534,-43.51769636730341,1.0,1030.7880225352512,0.0,1.0,31.63749531480782,6.371419785516983
2.55,2.55,1.0,17.971171148447098,-3.9261390097524007,15.539549295224344,0.20867996845367234,-0.07094399168169098,-0.26425552082493853,24.080181732482508,0.34410951668911605,1.0,0.0,270.91246542026704,-17.392782677588876,1030.2113760964876,123.01509494562342,-16.811053114880426,14.7565887404562,1.0,1030.2920143252018,0.0,1.0,129.27924881719295,9128.072361149578,1.0,1.0,-29.559152587425242,15.810772439496956,-12.84374871915534,-43.51769636730341,1.0,1030.7880225352512,0.0,1.0,31.63749531480782,6.371419785516983
2.58,2.58,1.0,17.78905444376236,-4.073738940147923,15.742013292464064,0.20059854220861117,-0.09254483268881915,-0.2783781763759831,24.100970716046568,0.35538532647823184,1.0,0.0,270.91246542026704,-17.392782677588876,1030.2113760964876,123.01509494562342,-16.811053114880426,14.7565887404562,1.0,1035.340354707382,0.0,1.0,129.56191657149566,9222.181994306988,1.0,1.0,-31.785398604167305,15.856649854241228,-13.181236799122258,-43.32951272768808,1.0,1031.6212740381243,0.0,1.0,32.25678658898485,7.001360676638152
2.61,2.61,1.0,17.814202217207963,-4.041941328428378,15.836137950189569,0.19989832613198322,-0.044596885045411296,-0.2503113535377841,24.175738985922823,0.3234254112713469,1.0,0.0,270.91246542026704,-17.392782677588876,1030.2113760964876,123.01509494562342,-16.811053114880426,14.7565887404562,1.0,1035.340354707382,0.0,1.0,130.2573963157244,9084.313716127826,1.0,1.0,-31.785398604167305,15.856649854241228,-13.181236799122258,-43.32951272768808,1.0,1031.6212740381243,0.0,1.0,32.25678658898485,7.001360676638152
2.6399999999999997,2.6399999999999997,1.0,17.713693897484802,-4.311733510491732,16.251297791184328,0.20124883783940345,-0.10484235376603462,-0.24739731995147374,24.422749174837797,0.3357058947860236,1.0,0.0,270.91246542026704,-17.392782677588876,1030.2113760964876,123.01509494562342,-16.811053114880426,14.7565887404562,1.0,1035.3109401479285,0.0,1.0,129.97430142162696,9503.30449725701,1.0,1.0,-31.535850954829154,15.88832195256682,-13.431728217143412,-43.34293541040574,1.0,1032.7097555845933,0.0,1.0,33.361291766918946,6.6828562042299104
2.67,2.67,1.0,17.93362904535082,-4.234163665554801,16.459073066263258,0.21105616435487096,-0.10675146819725667,-0.2330806497603202,24.70717059647963,0.3320650083449824,1.0,0.0,270.91246542026704,-17.392782677588876,1030.2113760964876,123.01509494562342,-16.811053114880426,14.7565887404562,1.0,1035.3109401479285,0.0,1.0,130.6364825225299,9648.40885632783,1.0,1.0,-31.535850954829154,15.88832195256682,-13.431728217143412,-43.34293541040574,1.0,1032.7097555845933,0.0,1.0,33.361291766918946,6.6828562042299104
2.6999999999999997,2.6999999999999997,1.0,17.81009176737208,-4.302444581382473,16.41981711410288,0.20746410326048315,-0.07646153096409064,-0.2191507957203681,24.60326791706069,0.31131140538682406,1.0,0.0,270.91246542026704,-17.392782677588876,1030.2113760964876,123.01509494562342,-16.811053114880426,14.7565887404562,1.0,1031.0763536670502,0.0,1.0,131.00202364127827,9515.219929521543,1.0,1.0,-34.21613658879497,15.801477930415077,-13.768220562718152,-43.2227397484635,1.0,1033.5862331753265,0.0,1.0,33.65016657264112,5.821872405024653
2.73,2.73,1.0,17.769531777657015,-4.200397172326451,16.59349076663375,0.2010144491694652,-0.08552069680639401,-0.20921274117333105,24.672728503852383,0.3024740805861122,1.0,0.0,270.91246542026704,-17.392782677588876,1030.2113760964876,123.01509494562342,-16.811053114880426,14.7565887404562,1.0,1031.0763536670502,0.0,1.0,132.2945195844734,9572.25528127114,1.0,1.0,-34.21613658879497,15.801477930415077,-13.768220562718152,-43.2227397484635,1.0,1033.5862331753265,0.0,1.0,33.65016657264112,5.821872405024653
2.76,2.76,1.0,17.811433708606707,-4.300019090232292,16.515853095452357,0.19698964958366638,-0.08048367083030954,-0.19935444668513128,24.668010426522375,0.2915900182217357,1.0,0.0,270.91246542026704,-17.392782677588876,1030.2113760964876,123.01509494562342,-16.811053114880426,14.7565887404562,1.0,1028.6017873371252,0.0,1.0,131.98088796235396,9660.408987961277,1.0,1.0,-35.081442578047806,15.700143992115164,-14.046207960845855,-43.09712405175054,1.0,1034.3521910588527,0.0,1.0,34.77862254908228,5.648831492412506
2.79,2.79,1.0,17.71481331332032,-4.35599099343658,16.499954450284953,0.20051385470916697,-0.10541616732709505,-0.1813606645603909,24.59751542579392,0.2901897050449062,1.0,0.0,270.91246542026704,-17.392782677588876,1030.2113760964876,123.01509494562342,-16.811053114880426,14.7565887404562,1.0,1028.6017873371252,0.0,1.0,131.7269781196421,9480.35714193019,1.0,1.0,-35.081442578047806,15.700143992115164,-14.046207960845855,-43.09712405175054,1.0,1034.3521910588527,0.0,1.0,34.77862254908228,5.648831492412506
2.82,2.82,1.0,17.64018571697561,-4.2067288521744866,16.93524042137677,0.1980436640317045,-0.07119368980981262,-0.1644793376594303,24.812800887746253,0.26710164141899867,1.0,0.0,270.91246542026704,-17.392782677588876,1030.2113760964876,123.01509494562342,-16.811053114880426,14.7565887404562,1.0,1035.6360333857276,0.0,1.0,131.73275312202588,9749.984590539447,1.0,1.0,-35.042603803522276,15.69675196736811,-14.434274473795035,-42.97600884903986,1.0,1035.5838133176878,0.0,1.0,35.730349456409854,5.77333093449001
2.85,2.85,1.0,17.242254820098456,-4.405571255495246,16.960370595718558,0.20197879409664793,-0.07771120756798645,-0.1501095703864035,24.583705581392103,0.2633768178257179,1.0,0.0,270.91246542026704,-17.392782677588876,1030.2113760964876,123.01509494562342,-16.811053114880426,14.7565887404562,1.0,1035.6360333857276,0.0,1.0,133.18381227850756,9855.960620996968,1.0,1.0,-35.042603803522276,15.69675196736811,-14.434274473795035,-42.97600884903986,1.0,1035.5838133176878,0.0,1.0,35.730349456409854,5.77333093449001
2.88,2.88,1.0,17.421392947678047,-4.516155585542212,17.28750711852499,0.19845543466603435,-0.07094161726546232,-0.15766806785037865,24.955129650700727,0.2632042785146084,1.0,0.0,270.91246542026704,-17.392782677588876,1030.2113760964876,123.01509494562342,-16.811053114880426,14.7565887404562,1.0,1035.799506802541,0.0,1.0,133.10849625262748,9964.777737130978,1.0,1.0,-33.84884607125788,15.549894650871448,-14.799357567286979,-42.828138324390416,1.0,1036.51336184394,0.0,1.0,36.94606081578071,6.126557453174459
2.9099999999999997,2.9099999999999997,1.0,17.22763364045557,-4.475318782592419,17.497063029629526,0.20178926161999527,-0.07082544892305799,-0.13847696129328138,24.959307957521766,0.254776410072276,1.0,0.0,270.91246542026704,-17.392782677588876,1030.2113760964876,123.01509494562342,-16.811053114880426,14.7565887404562,1.0,1035.799506802541,0.0,1.0,134.7229776800229,10060.094744465929,1.0,1.0,-33.84884607125788,15.549894650871448,-14.799357567286979,-42.828138324390416,1.0,1036.51336184394,0.0,1.0,36.94606081578071,6.126557453174459
2.94,2.94,1.0,17.356112697995407,-4.230539156469911,17.31694688139297,0.21214392406262603,-0.06825597754984242,-0.12575192496746326,24.879886632236254,0.255885657317866,1.0,0.0,270.91246542026704,-17.392782677588876,1030.2113760964876,123.01509494562342,-16.811053114880426,14.7565887404562,1.0,1030.7844289938364,0.0,1.0,133.83109933242022,9898.622291027461,1.0,1.0,-33.01334141104864,15.538552571880858,-15.174203188002052,-42.77875829760535,1.0,1036.8698094897559,0.0,1.0,37.48256235088355,5.90264089453823
2.9699999999999998,2.9699999999999998,1.0,17.444100295615048,-4.404654161824992,17.489648578521283,0.20239238211040575,-0.06114762587672288,-0.11254667353789247,25.091540821737727,0.23951714387727888,1.0,0.0,270.91246542026704,-17.392782677588876,1030.2113760964876,123.01509494562342,-16.811053114880426,14.7565887404562,1.0,1030.7844289938364,0.0,1.0,134.3614349732283,9869.692122344548,1.0,1.0,-33.01334141104864,15.538552571880858,-15.174203188002052,-42.77875829760535,1.0,1036.8698094897559,0.0,1.0,37.48256235088355,5.90264089453823
3.0,3.0,1.0,17.299196660108226,-4.1319742431198625,17.47504959952376,0.21261388002566275,-0.062208446935074595,-0.12055272470938387,24.934168819848818,0.25220529789141505,1.0,0.0,270.91246542026704,-17.392782677588876,1030.2113760964876,123.01509494562342,-16.811053114880426,14.7565887404562,1.0,1035.747632619806,0.0,1.0,134.02885214907303,9766.251958919502,1.0,1.0,-34.29336643734271,15.528696237041464,-15.5353165559603,-42.67043057020401,1.0,1038.6982856190039,0.0,1.0,38.241213320243475,5.391044483502902
3.03,3.03,1.0,17.239342638628322,-4.283866239831086,17.821813608598216,0.1968603949466244,-0.07647707503203709,-0.12195581247868596,25.162740011223136,0.2438769737005386,1.0,0.0,270.91246542026704,-17.392782677588876,1030.2113760964876,123.01509494562342,-16.811053114880426,14.7565887404562,1.0,1035.747632619806,0.0,1.0,134.59508414415123,9922.023006743595,1.0,1.0,-34.29336643734271,15.528696237041464,-15.5353165559603,-42.67043057020401,1.0,1038.6982856190039,0.0,1.0,38.241213320243475,5.391044483502902
3.06,3.06,1.0,17.200072776102164,-4.04524979117537,18.036337550070357,0.20428137762872614,-0.05833430029499728,-0.13077343603251979,25.249079618795875,0.24947036579230944,1.0,0.0,334.67916906684866,-20.958306868379847,1042.5388295850098,126.19023775769645,-27.183637404793885,16.237442636792228,1.0,1046.213454904414,0.0,1.0,135.02788337313189,10082.586040397548,1.0,1.0,-38.355578962564316,15.464788802007797,-16.041344259742218,-42.50303535921413,1.0,1039.1658291962995,0.0,1.0,38.79131628140203,4.98561034402976
3.09,3.09,1.0,17.40104218535917,-4.714176898682774,18.57917230243308,0.20490816707683548,-0.06765475570281278,-0.12631099248234232,25.88832509862738,0.25003797656730054,1.0,0.0,334.67916906684866,-20.958306868379847,1042.5388295850098,126.19023775769645,-27.183637404793885,16.237442636792228,1.0,1046.213454904414,0.0,1.0,135.3399439219229,10226.215556566196,1.0,1.0,-38.355578962564316,15.464788802007797,-16.041344259742218,-42.50303535921413,1.0,1039.1658291962995,0.0,1.0,38.79131628140203,4.98561034402976
3.12,3.12,1.0,17.19364650990276,-4.624183772957423,17.84310336272919,0.19714979203266175,0.09970946249885208,-0.11579700256699997,25.20676285219131,0.2494372931496683,1.0,0.0,334.67916906684866,-20.958306868379847,1042.5388295850098,126.19023775769645,-27.183637404793885,16.237442636792228,1.0,1047.9261682136062,0.0,1.0,135.05706600917597,10121.016145164012,1.0,1.0,-35.805561874387166,15.594896044294778,-16.429422213340146,-42.27279672538739,1.0,1040.0919422270665,0.0,1.0,39.7326383035542,5.30697203597562
3.15,3.15,1.0,16.86674488462119,-4.744839754184103,18.666836758638798,0.20415100375078285,-0.15170198988078715,-0.12086049452296486,25.601784739924863,0.2815996896350886,1.0,0.0,334.67916906684866,-20.958306868379847,1042.5388295850098,126.19023775769645,-27.183637404793885,16.237442636792228,1.0,1047.9261682136062,0.0,1.0,136.9104121732936,10320.634927282954,1.0,1.0,-35.805561874387166,15.594896044294778,-16.429422213340146,-42.27279672538739,1.0,1040.0919422270665,0.0,1.0,39.7326383035542,5.30697203597562
3.1799999999999997,3.1799999999999997,1.0,16.84558701695604,-4.3457148750957275,18.97052718271453,0.20427962141912667,-0.0826456598535227,-0.10773586752523837,25.739851229398685,0.24529061533450805,1.0,0.0,334.67916906684866,-20.958306868379847,1042.5388295850098,126.19023775769645,-27.183637404793885,16.237442636792228,1.0,1036.74322337119,0.0,1.0,137.48666347139502,10319.40921827878,1.0,1.0,-37.573912360300206,15.36012249355547,-16.861966576352906,-42.187301246550255,1.0,1041.3471111174301,0.0,1.0,40.69074262304568,4.765458093457539
3.21,3.21,1.0,16.97859966531084,-4.611151389155402,18.59205854623082,0.20959021086734161,-0.024446827856394744,-0.11819389311268513,25.596878808071065,0.24185843018755776,1.0,0.0,334.67916906684866,-20.958306868379847,1042.5388295850098,126.19023775769645,-27.183637404793885,16.237442636792228,1.0,1036.74322337119,0.0,1.0,137.77895552458747,10254.160796620728,1.0,1.0,-37.573912360300206,15.36012249355547,-16.861966576352906,-42.187301246550255,1.0,1041.3471111174301,0.0,1.0,40.69074262304568,4.765458093457539
3.2399999999999998,3.2399999999999998,1.0,16.971679573358323,-4.4369727530092815,18.704712294604928,0.21268886369419487,-0.07621017384515424,-0.12026242813398853,25.643535184830494,0.25594451538901786,1.0,0.0,334.67916906684866,-20.958306868379847,1042.5388295850098,126.19023775769645,-27.183637404793885,16.237442636792228,1.0,1045.6177441979678,0.0,1.0,137.33244791322767,10319.309696785534,1.0,1.0,-37.6302927602182,15.499227262019591,-17.225616385425408,-42.05090097615582,1.0,1042.2195850783412,0.0,1.0,41.1158063769162,4.870915373082157
3.27,3.27,1.0,16.81125569452704,-4.226525713594775,19.1387147279632,0.21062421414705196,-0.09073572945141001,-0.12902876234548374,25.821933294639294,0.2631424589391647,1.0,0.0,334.67916906684866,-20.958306868379847,1042.5388295850098,126.19023775769645,-27.183637404793885,16.237442636792228,1.0,1045.6177441979678,0.0,1.0,137.33304419287447,10480.803964290648,1.0,1.0,-37.6302927602182,15.499227262019591,-17.225616385425408,-42.05090097615582,1.0,1042.2195850783412,0.0,1.0,41.1158063769162,4.870915373082157
3.3,3.3,1.0,16.613228087839808,-4.3645710992506395,19.11164799859216,0.19941230239540694,-0.06546159603804916,-0.14952052876026237,25.696379464840863,0.2576953150975671,1.0,0.0,334.67916906684866,-20.958306868379847,1042.5388295850098,126.19023775769645,-27.183637404793885,16.237442636792228,1.0,1054.486728379006,0.0,1.0,136.83045162999676,10527.871511587153,1.0,1.0,-37.90556411005785,15.350239917601428,-17.641523539467862,-41.88277233375039,1.0,1042.8791650538674,0.0,1.0,41.63503532491964,4.832182578617868
3.33,3.33,1.0,16.608672025618347,-4.451481663433806,19.245906304432104,0.20172927985846206,-0.10741315892511545,-0.16158762501310045,25.808304573013398,0.27989792714462924,1.0,0.0,334.67916906684866,-20.958306868379847,1042.5388295850098,126.19023775769645,-27.183637404793885,16.237442636792228,1.0,1054.486728379006,0.0,1.0,137.52090128784238,10416.375251297577,1.0,1.0,-37.90556411005785,15.350239917601428,-17.641523539467862,-41.88277233375039,1.0,1042.8791650538674,0.0,1.0,41.63503532491964,4.832182578617868
3.36,3.36,1.0,16.605347850361966,-4.548274260513358,19.22278034670576,0.20352305533376083,-0.09697977730683703,-0.15461581429046398,25.80580671550623,0.27337293444592503,1.0,0.0,334.67916906684866,-20.958306868379847,1042.5388295850098,126.19023775769645,-27.183637404793885,16.237442636792228,1.0,1038.491054121422,0.0,1.0,137.66994052667349,10598.823905645915,1.0,1.0,-38.26659943156567,15.368499507503866,-18.026386799056464,-41.70206211264747,1.0,1043.8926123695326,0.0,1.0,42.075254666103405,4.6161675077077895
3.3899999999999997,3.3899999999999997,1.0,16.765461026396178,-4.34004873608575,19.070062222226333,0.21067183699504052,-0.10561086102376321,-0.1757511165758001,25.7601238277069,0.2939808358493561,1.0,0.0,334.67916906684866,-20.958306868379847,1042.5388295850098,126.19023775769645,-27.183637404793885,16.237442636792228,1.0,1038.491054121422,0.0,1.0,138.2141378354678,10314.258125488257,1.0,1.0,-38.26659943156567,15.368499507503866,-18.026386799056464,-41.70206211264747,1.0,1043.8926123695326,0.0,1.0,42.075254666103405,4.6161675077077895
