time_s,x_m,y_m,altitude_m,vx_mps,vy_mps,vz_mps,speed_mps,mass_kg,roll_deg,pitch_deg,yaw_deg,p_dps,q_dps,r_dps,alpha_deg,beta_deg,qbar_pa,mach,airspeed_mps,load_factor_g,density_kgpm3,pressure_pa,temperature_k,wind_x_mps,wind_y_mps,wind_z_mps,thrust_n,mass_flow_kgps,propulsion_throttle_actual,propulsion_health,energy_j_per_kg,target_distance_m,guidance_mode,pitch_command_deg,heading_command_deg,roll_command_deg
0.0,0.0,0.0,1000.0,83.0,1.5,14.0,84.18580640464282,18.0,1.0000000000000002,8.000000000000004,1.0000000000000002,0.0,0.0,0.0,-1.0827684347795592,-6.349201456408931,4114.848473868095,0.2557463875601956,86.0417728600201,1.7167595994472478,1.1116425003060326,89874.56291621955,281.65,-1.6186018662344348,9.566354501788709,0.6653526424403756,319.2,0.17131232378029196,0.84,nominal,13350.275,nan,altitude_hold,20.0,2.0,0.0
0.03,2.5050417172623867,0.04631630535948966,1000.4124417216282,83.5013905754129,1.543876845316322,13.748057387604675,84.63967666333579,17.994860630286592,1.1073330838511335,8.374059019546674,0.8788029603204228,3.002465195386334,-12.540106365730965,-3.7687909584433728,-0.5973703728779359,-6.240746044345915,4172.830242485442,0.25754837048192725,86.64760875255695,1.7482863433851124,1.1115974690604664,89870.06677842751,281.6473191288094,-1.7402188133972638,9.672186407043261,0.4963890016830311,324.87,0.17435537163691558,0.84,nominal,13392.632104446418,nan,altitude_hold,19.907233145759406,2.0,0.0
0.06,5.02537523583638,0.09372987611701357,1000.8178073741036,84.01111728579977,1.5804523585841304,13.51218841584783,85.10549273138326,17.989629969137486,1.2765587890683108,8.96798991530581,0.6760339440326194,4.621856381151316,-19.932598003179116,-6.268536198073063,0.25327322811314285,-6.493692052817444,4177.619937487225,0.25770247438342603,86.69904874559809,1.78093793171188,1.1115532117547007,89865.64795623602,281.6446842520683,-1.2808454398473872,10.368936306524299,0.6759624247237332,330.53999999999996,0.17739841949353916,0.84,nominal,13436.142397211019,nan,altitude_hold,19.907233145759406,2.0,0.0
0.09,7.561183935191822,0.1420523710600826,1001.2169507561001,84.52695664518141,1.6107498314356343,13.304779399883234,85.58281410187098,17.984308016552678,1.4768344821930073,9.518091245145222,0.4265294892868237,5.339973334509303,-18.52880021774912,-7.766020332638221,0.955265845705634,-6.586502419864628,4219.338057229747,0.2589922686003486,87.13257391825094,1.806362240186126,1.1115096351056717,89861.2971338616,281.64208982008535,-1.179927535131458,10.926849743585647,0.6704719733268328,336.21,0.18044146735016278,0.84,nominal,13480.793244930011,nan,altitude_hold,19.907233145759406,2.0,0.0
0.12,10.112573846122862,0.19114507734860203,1001.6105587147657,85.046330364368,1.636423542950648,13.12026528885403,86.06798215194227,17.978894772532172,1.6904125844495919,9.908249315557638,0.150178781025457,5.565102968274272,-13.25129106118427,-8.71683482595241,1.375354302745902,-6.513519709002031,4239.811496735588,0.25962605846302184,87.3454026366954,1.8349242059997548,1.1114666640687392,89857.00681684959,281.639531368354,-0.8503092112660503,11.25381303304954,0.5308852097639679,341.88,0.18348451520678638,0.84,nominal,13526.292961473686,nan,altitude_hold,19.907233145759406,2.0,0.0
0.15,12.679730928104858,0.24087674374111634,1001.9989857911722,85.57190273273322,1.6577222130838107,12.947569213552287,86.56175904390942,17.973390237075968,1.9091057563336769,10.203633672694165,-0.14378994204172246,5.578774757629034,-10.144345094926644,-9.334491661111063,1.8506110693067173,-5.826072423573705,4294.678758232389,0.26130672050531883,87.9104298919149,1.862170607704062,1.1114242598859365,89852.77313393023,281.63700659235735,-0.986646213276139,10.699637434693228,0.533663411275068,347.55,0.18652756306341,0.84,nominal,13572.722418396916,nan,altitude_hold,19.907233145759406,2.0,0.0
0.18,15.262821367285033,0.29104877429828024,1002.3825970992465,86.1030146393392,1.6724010185721299,12.787043602473846,87.06339379578966,17.967794410184066,2.125739069297753,10.470512514101348,-0.4443356871277459,5.423452970365722,-9.237423561348743,-9.53636812511515,2.1196837298675173,-5.71147970348624,4300.168147296768,0.2614797498581153,87.96825208538327,1.8928777459651822,1.111382382650336,89848.59209928157,281.6345131188549,-0.48955293109264586,10.972619275301097,0.39161876526319644,353.21999999999997,0.18957061092003358,0.84,nominal,13620.032565463698,nan,altitude_hold,19.907233145759406,2.0,0.0
0.21,17.862060418663525,0.34155899020819064,1002.7616531614508,86.64130171261645,1.6836738636636803,12.6352020734769,87.5739587524363,17.962107291856466,2.3436178376029937,10.740564910805611,-0.7522795001842021,5.373421494310406,-9.388341379166542,-9.730831503378369,2.6433319434310016,-5.073032191383755,4443.0570319308345,0.26579467168119897,89.41950731557914,1.9192439682680664,1.1113410038775244,89844.46086765318,281.6320492544505,-1.4904419863887342,10.57392812004861,0.4037908551995014,358.89,0.1926136587766572,0.84,nominal,13668.331691762447,nan,altitude_hold,19.907233145759406,2.0,0.0
0.24,20.47755080747296,0.3922340316926725,1003.136661374551,87.1830129603145,1.6891680494827297,12.500273770004219,88.09079340012107,17.956328882093167,2.5609347141530785,10.97440539575597,-1.0596552953081646,5.31391147050692,-8.218108348990079,-9.719770947819994,3.028865256375434,-4.649874733715787,4484.563073208702,0.26703935656247185,89.83785946840476,1.9493430620705243,1.1113000681385503,89840.37390381908,281.6296117010654,-1.4147806325057066,10.393301770532656,0.43752033163243265,364.56,0.19565670663328083,0.84,nominal,13717.404081200148,nan,altitude_hold,19.907233145759406,2.0,0.0
0.27,23.10945689312681,0.4429303880401681,1003.5079973180653,87.73020285512845,1.689878544916519,12.3778647838133,88.6152115559452,17.950459180894168,2.778771861870959,11.163795224892208,-1.3647344715483345,5.3088018083997905,-6.771037465088774,-9.67526667762965,3.242273748048598,-4.414741382136837,4568.256222110853,0.2695257190213375,90.6739374286635,1.978971866517886,1.111259534399652,89836.32710993434,281.62719801743253,-1.6908356476192008,10.54570501827241,0.24464017610424385,370.22999999999996,0.1986997544899044,0.84,nominal,13767.379561451668,nan,altitude_hold,19.907233145759406,2.0,0.0
0.3,25.757970329815763,0.4935383298628107,1003.8759195325114,88.2837812229651,1.6869313940880866,12.264073814865787,89.14751410493285,17.94449818825947,3.000184197188342,11.331960856449594,-1.6703155058176569,5.393581340442661,-6.10201607122751,-9.695155662253422,3.6417762487877163,-3.9804019592975806,4599.870386447168,0.2704627595964445,90.98879062201125,2.0099169303168254,1.111219374407046,89832.31766421214,281.62480652303867,-1.519265687382065,10.313801284187694,0.43403153372900694,375.9,0.20174280234652803,0.84,nominal,13818.299421828104,nan,altitude_hold,19.907233145759406,2.0,0.0
0.32999999999999996,28.423252549381743,0.5439010366781296,1004.2408010676819,88.84274065219935,1.6787568938439636,12.162717839017805,89.68713673952439,17.938445904189074,3.224728516499383,11.470356214311574,-1.9743724615409595,5.481304560291388,-5.14582465103472,-9.670141908691646,3.912553225060035,-3.7415138310585845,4660.018168879177,0.2722313233264288,91.58338328794393,2.040613430485853,1.1111795474117927,89828.34149751016,281.62243479306005,-1.5691044537544874,10.414919691448603,0.46255465309578264,381.57,0.20478585020315163,0.84,nominal,13870.129300057455,nan,altitude_hold,19.907233145759406,2.0,0.0
0.36,31.105485584537025,0.5938951972212603,1004.6029347149066,89.40776783850941,1.6664720181043544,12.071121574156228,90.2343507479828,17.93230232868298,3.453927299426919,11.58643458046828,-2.278940622395637,5.610990193738593,-4.442148477907911,-9.705222563093207,4.1407908790215915,-3.683428322013125,4692.761345474842,0.2731920536077785,91.90620568508311,2.072264960513957,1.1111400214295664,89824.39541584328,281.6200809243531,-1.3138030599530843,10.775860040951066,0.5226902091065713,387.24,0.20782889805977525,0.84,nominal,13922.90839717693,nan,altitude_hold,19.907233145759406,2.0,0.0
0.39,33.8048727367498,0.6434181709910569,1004.9625721151276,89.97957174042585,1.6507657923265566,11.987913340701478,90.78963831052377,17.926067461741187,3.690703524837875,11.687004355982117,-2.5879897798821263,5.81464083701014,-3.9745030964090757,-9.861455972110978,4.326094276658564,-3.2872919641751928,4764.788196080695,0.27528661925241416,92.61046692583886,2.102990285918433,1.111100768970995,89820.476674088,281.61774328125165,-1.4702468670050648,10.639788773844737,0.46286554350710696,392.90999999999997,0.21087194591639885,0.84,nominal,13976.695420110678,nan,altitude_hold,19.907233145759406,2.0,0.0
0.42,36.521607286855996,0.6923040505206153,1005.3199567967414,90.5578183368732,1.6295293176519436,11.912822720459369,91.35255427682527,17.919741303363697,3.933178101526873,11.775434116456701,-2.899358781206887,5.972225099187421,-3.616743709841976,-9.943762966561165,4.527579020371806,-2.796006903778121,4824.409536103437,0.2770095872724817,93.18971435207244,2.1128993483196727,1.1110617634352482,89816.58261592282,281.6154202808212,-1.5151553991401396,10.328991313644192,0.45814117060635084,394.7778947368421,0.21187443146760623,0.84,nominal,14031.465540770918,nan,altitude_hold,19.907233145759406,2.0,0.0
0.44999999999999996,39.2556936708783,0.7403771321000151,1005.6753018462011,91.1362128007435,1.6024360526466617,11.844834981989688,91.91668619307264,17.913385070419668,4.178572554961344,11.847932131946527,-3.2098780811334735,6.061083170776654,-3.1271458251287867,-9.935214923126939,4.570043381370633,-2.9068120073490076,4855.6266812889635,0.2779103504576712,93.4923596804411,2.112708043787256,1.111022981546831,89812.71091709369,281.61311053799966,-1.1706326161882856,10.97219029301153,0.335042921887453,394.7447368421052,0.2118566358661055,0.84,nominal,14086.644299207943,nan,altitude_hold,19.907233145759406,2.0,0.0
0.48,42.007102189004094,0.7875741112957496,1006.0286703540742,91.7136172708597,1.5732326398578167,11.77895026243434,92.48030235206711,17.907029371343686,4.432296977041642,11.918499013213015,-3.527391493243287,6.278094730241278,-3.1231291115894964,-10.151186699263352,4.717604104750723,-2.523637255982595,4967.5419291627095,0.28110084866445745,94.56529571693326,2.1110973524152197,1.1109844164025473,89808.86088789614,281.6108136426985,-1.680323556976234,10.8879408872548,0.22892078439436003,394.7115789473684,0.2118388402646048,0.84,nominal,14142.074221692656,nan,altitude_hold,19.907233145759406,2.0,0.0
0.51,44.77573079981416,0.8337327585415122,1006.3802556156774,92.28762036033571,1.5386215748587517,11.719508720108196,93.04149135071279,17.900674206135747,4.692489723658361,11.977318120293173,-3.848468878851064,6.457419177116813,-2.7873201885803875,-10.281626120737274,4.775109183714137,-2.3182348861427817,5041.336327525321,0.2831871115457131,95.26675004181273,2.1101100355030424,1.1109460468905967,89805.03042019738,281.60852833849805,-1.7826662113436866,11.06627108826367,0.06795334749575282,394.67842105263156,0.21182104466310406,0.84,nominal,14197.578490115862,nan,altitude_hold,19.907233145759406,2.0,0.0
0.54,47.56152072444317,0.8787251712449091,1006.7301573720345,92.85966415430038,1.499747090113233,11.663391878569005,93.60128833673622,17.894319574795855,4.9598367054783274,12.029402234523033,-4.174428189559186,6.651918392862278,-2.6241305279914022,-10.444042026852193,4.954555304650607,-2.1261969944031187,5097.809707312094,0.2847748785764022,95.80050262037423,2.109081048827097,1.110907862110939,89801.21842537385,281.60625397708174,-1.7456442165411854,11.23829923301913,0.14243130515287228,394.6452631578947,0.21180324906160333,0.84,nominal,14253.250886940878,nan,altitude_hold,19.994892020310708,2.0,0.0
0.57,50.364396521244494,0.9224192416693191,1007.0785088328028,93.42919322671085,1.4564690141469987,11.611715358944728,94.15926604726907,17.887965477324006,5.236201712408784,12.127944444753316,-4.510993918973725,6.864569423714697,-4.24659222105829,-10.635256780450627,5.441440319595265,-1.8645463824311468,5164.301786180696,0.2866321153257928,96.42490396943984,2.1130567172006924,1.1108698475124645,89797.42345035663,281.60398969258677,-1.86447616848803,11.271978026016452,0.6328965904185345,394.6121052631579,0.21178545346010264,0.84,nominal,14309.050149925402,nan,altitude_hold,19.994892020310708,2.0,0.0
0.6,53.18415245566589,0.9646416433742369,1007.4258287950253,93.99186448071319,1.4074133901639267,11.577332074083527,94.71264973046193,17.881611913720203,5.5187039915267375,12.134978729126546,-4.845046403124731,7.076646165317838,-1.253685954568323,-10.816574980204589,5.528285358015316,-1.2803633453722356,5257.829419762787,0.28922207520249693,97.29579327626963,2.111488048397029,1.1108319464692482,89793.63984187189,281.60173211283234,-2.216464523601388,10.829725028645214,0.5478777429074744,394.57894736842104,0.2117676578586019,0.84,nominal,14364.71551343532,nan,altitude_hold,19.994892020310708,2.0,0.0
0.63,56.02071260356387,1.005183598812197,1007.7722055172793,94.55200492993279,1.3513985145986722,11.54589074180229,95.26392552922083,17.875258883984444,5.803561765821353,12.104789813756268,-5.175820931170007,7.180304018725878,-0.06200959549296321,-10.826792685261639,5.653953470981372,-0.82068422925723,5318.822997441167,0.29090091392714107,97.86017204999001,2.1108598259122315,1.110794149341679,89789.86663735037,281.5994806641377,-2.263570953437232,10.54251385824945,0.6426371556119959,394.54578947368424,0.2117498622571012,0.84,nominal,14420.477052854492,nan,altitude_hold,19.994892020310708,2.0,0.0
0.6599999999999999,58.874011843137126,1.043864408117478,1008.1177234348252,95.10997465244182,1.2893603101760247,11.517263918196653,95.81344945548604,17.86890638811673,6.090507192758979,12.087826603592742,-5.506756508146517,7.253203773280736,-0.5551608338936114,-10.786839210474108,5.747276370967959,-0.3454371309093939,5369.374634076578,0.29228617403175566,98.32578671354283,2.111258642792502,1.110756446908364,89786.10291600355,281.5972347976736,-2.2067911502945563,10.214149399444844,0.6657402351121645,394.5126315789473,0.21173206665560043,0.84,nominal,14476.366220801618,nan,altitude_hold,19.994892020310708,2.0,0.0
0.69,61.743987531142515,1.0805010533903112,1008.4624767685738,95.66585626684625,1.2212215090944396,11.491777791620205,96.36134284065959,17.86255442611706,6.379307321888567,12.084416248858806,-5.836909739778983,7.322405554023257,-1.0557157878083798,-10.709909196360972,5.6723684859048245,-0.03469988410103286,5420.096947590337,0.29366962503989014,98.79078994862478,2.11046687275918,1.1107188288811318,89782.34765058092,281.5949939010043,-2.0910193754788104,10.18381691676783,0.4064123541325766,394.4794736842105,0.21171427105409973,0.84,nominal,14532.3927448301,nan,altitude_hold,19.994892020310708,2.0,0.0
0.72,64.63062356982049,1.114952227150357,1008.8064455523269,96.22120128926551,1.1483724586681907,11.465626125103153,96.9087143619903,17.856202997985438,6.672350729809522,12.092442674354404,-6.1682675336543324,7.4550064238816685,-1.4932902660627174,-10.700000111565078,5.823926730438971,-0.038733415993976894,5428.959423721702,0.293915751202134,98.873194547444,2.1128703607325896,1.1106812974320202,89778.6010577058,281.59275810390983,-1.597414023740067,10.614320177931326,0.6109989072242794,394.44631578947366,0.211696475452599,0.84,nominal,14588.661188922639,nan,altitude_hold,19.994892020310708,2.0,0.0
0.75,67.53385675335348,1.1471177755335649,1009.1497804526575,96.77443945109971,1.0721849461069328,11.44449667768723,97.4546982748334,17.84985210372186,6.974516031922595,12.077093931414405,-6.503200327412296,7.73481202525898,-0.7890550744293661,-10.900523049050108,5.803707502470207,0.2779782172713678,5466.11732227707,0.2949260149002242,99.212653892924,2.112274303620994,1.110643836115338,89774.86149549448,281.5905264270577,-1.3729022392780097,10.553247307115036,0.4736503978395931,394.4131578947368,0.21167867985109828,0.84,nominal,14645.087802395461,nan,altitude_hold,19.994892020310708,2.0,0.0
0.78,70.45366396945123,1.1768354738058104,1009.4924694089947,97.32690720325829,0.9905899424081844,11.422965211239426,97.99996055306775,17.84350174332633,7.285549913895519,12.06061546828986,-6.843086378700789,7.998942362904824,-0.8301293004672714,-11.061676343885129,5.926472340259094,1.0610012078595594,5524.7805223845335,0.29651055052630826,99.74529470725656,2.1133590428999165,1.1106064462415912,89771.12909460059,281.5882989488415,-1.4319525390919696,9.681796678467002,0.4559982604668554,394.38,0.21166088424959756,0.84,nominal,14701.735459331134,nan,altitude_hold,19.994892020310708,2.0,0.0
0.8099999999999999,73.38995478164004,1.2038402555370795,1009.8346325303879,97.87636040629401,0.9001593910422989,11.4054373797765,98.54276338288898,17.83715191679884,7.59814147738489,12.03843260714043,-7.178822056476876,8.083484396094414,-0.6843503218604524,-10.948255703704486,5.995529076047365,1.2272920266899194,5607.238888119638,0.29872129272521725,100.48858516669294,2.113514762771687,1.1105691147010472,89767.40254620719,281.58607488855245,-1.6097869554490718,9.88205106793099,0.46067361686769365,394.34684210526314,0.21164308864809683,0.84,nominal,14758.432906672151,nan,altitude_hold,19.994892020310708,2.0,0.0
0.84,76.34265385390705,1.228001928932596,1010.1763779352416,98.42330240890048,0.8053891131838824,11.391513495120886,99.0836095850723,17.830802624139398,7.915912183026605,12.012423199618924,-7.515591557932199,8.253546463238733,-0.6228626114781327,-10.99591166762057,6.105278251263215,1.311400488855142,5650.503054488646,0.29987772742503244,100.87720703393494,2.1148384287888145,1.1105318296935118,89763.68067225956,281.5838535434209,-1.4357938334998432,10.183229214675734,0.6013368677780881,394.31368421052633,0.21162529304659614,0.84,nominal,14815.227020882154,nan,altitude_hold,19.994892020310708,2.0,0.0
0.87,79.31169337709761,1.2491956576675742,1010.517819728936,98.96798410635179,0.7064576244992692,11.38139312314727,99.62277385153425,17.824453865348,8.242913434504636,11.978407889621952,-7.8573497735532305,8.532423073036622,-0.443541276464412,-11.191999536055613,6.176669998010862,1.5426347903107303,5740.093323280732,0.30225196017951933,101.67548509362389,2.115189688289729,1.1104945787668434,89759.9622296623,281.5816341717619,-1.6814314231417975,10.279057447483343,0.6126998308267604,394.2805263157895,0.2116074974450954,0.84,nominal,14872.143111781737,nan,altitude_hold,19.994892020310708,2.0,0.0
0.8999999999999999,82.29698853635473,1.2672558646361438,1010.8590669683939,99.50983864190421,0.6020068989523166,11.374907981930058,100.15966718415939,17.818105640424648,8.579992755036653,11.941342655398353,-8.205164636623836,8.83343579216432,-0.43692875408675025,-11.400949066246037,6.097427317773856,2.0830859532815076,5803.756691619695,0.3039297679750572,102.23948543283102,2.113804616586672,1.110457350020942,89756.24603046411,281.5794160647054,-1.7077346952512125,9.848456015087608,0.310622733873961,394.2473684210526,0.21158970184359466,0.84,nominal,14929.120534306387,nan,altitude_hold,19.994892020310708,2.0,0.0
0.9299999999999999,85.2985100952548,1.28196643798129,1011.2000668943423,100.05071863000212,0.4903524448382047,11.366664198278079,100.69552025237483,17.81175794936934,8.923604165284642,11.921416454132686,-8.557036573240975,9.028855638475571,-1.089608761322687,-11.443181941165616,6.196579833363248,2.4638593143079124,5846.823135445716,0.305061641048121,102.61983437007895,2.1159924984806464,1.1104201492097665,89752.53264897084,281.57719956518673,-1.564046290282586,9.637064953824554,0.33908030081152607,394.21421052631575,0.21157190624209393,0.84,nominal,14986.279035457617,nan,altitude_hold,19.994892020310708,2.0,0.0
0.96,88.31617588850591,1.2931330183614302,1011.5409376782478,100.58885977503729,0.37221934600467055,11.362359463518562,101.2292471110097,17.805410792182077,9.272428103419326,11.89056870950399,-8.90833618227644,9.211628388163552,-0.7964811747166894,-11.476583149971116,6.314809154496948,3.0691951709556253,5936.312525803838,0.3073937144806883,103.40391485854273,2.117905516491452,1.1103829634400055,89748.82079812344,281.57498390509136,-1.8562653994649083,9.04682989734555,0.31170030508391494,394.1810526315789,0.2115541106405932,0.84,nominal,15043.508171813322,nan,altitude_hold,19.994892020310708,2.0,0.0
0.99,91.34986877373503,1.3005071083913524,1011.8818262537485,101.1230961743037,0.2458030009974046,11.362952516688933,101.75980389569008,17.79906416886286,9.623204051145779,11.842822052214576,-9.25378990098137,9.324626291228533,-0.27984272186787695,-11.377490937119141,6.291198319793764,3.4537282373375597,5943.631531223413,0.3075895130792187,103.46937227148364,2.117535322599005,1.1103457766821083,89745.10887785042,281.5727681293506,-1.3852469239994143,8.803824963621915,0.19555113666008989,394.1478947368421,0.2115363150390925,0.84,nominal,15100.699755875972,nan,altitude_hold,19.994892020310708,2.0,0.0
1.02,94.39957740066549,1.3039204866181582,1012.2226723152887,101.65695423101558,0.11377927422685563,11.36153538467384,102.28994953340839,17.792718079411685,9.97845584773949,11.806883719484897,-9.599648939416237,9.479283948227833,-0.7403488655731753,-11.323281597357886,6.229850426542319,3.9469482497240636,5957.6490210542215,0.3079583775315978,103.59304623524471,2.1172784576829256,1.1103085955145504,89741.39754479956,281.5705526299506,-0.9725725177243114,8.378245272640843,-0.05766202093617709,394.11473684210523,0.21151851943759178,0.84,nominal,15158.130357234342,nan,altitude_hold,19.994892020310708,2.0,0.0
1.05,97.46528892901391,1.3031819898979295,1012.5634058614039,102.19038427828038,-0.02461655734095375,11.357784870508148,102.8196212893349,17.786372523828557,10.33849002893843,11.787442631006758,-9.946007789920815,9.640745227447892,-1.3553812543470933,-11.23862777097806,6.420320539626966,4.293011162981638,6039.994875243647,0.3100857638153658,104.30826006459078,2.122908761772572,1.1102714275727679,89737.68756110001,281.56833786190083,-1.180107430281599,8.18410181662859,0.07188639988205739,394.0815789473684,0.21150072383609106,0.84,nominal,15215.79218513186,nan,altitude_hold,19.93439427489837,2.0,0.0
1.08,100.54684925834219,1.2980823809084805,1012.9043085868007,102.71867764427607,-0.16998696631496732,11.363424179890107,103.34545486691482,17.780027502113473,10.701752796518962,11.687708831030454,-10.276943666520365,9.864703954219207,1.2966078717450105,-11.22603334953824,6.308801229334464,4.656196463851983,6047.005182034826,0.31027207856493494,104.37052290140602,2.118343444591608,1.1102342421291247,89733.97585962433,281.5661219941858,-0.6984901173372844,7.962965239129051,-0.12354893330208047,394.04842105263157,0.21148292823459033,0.84,nominal,15273.339558627511,nan,altitude_hold,19.93439427489837,2.0,0.0
1.1099999999999999,103.64430056723711,1.2884746733953183,1013.2451466614792,103.2483769631639,-0.32025691710540727,11.36126915595149,103.87207683903564,17.773683014266435,11.074036869308394,11.646242328593727,-10.619085987236188,10.103186061153382,-0.7523857083850664,-11.229212078730512,6.381818728087502,4.988761171798648,6088.91084793773,0.31135175101129353,104.73329525943207,2.1207311418670303,1.1101970646900625,89730.26498633489,281.56390654670037,-0.5363816996951476,7.778113814645946,-0.13670443432065119,394.0152631578947,0.2114651326330896,0.84,nominal,15331.244690935056,nan,altitude_hold,19.93439427489837,2.0,0.0
1.14,106.75756356210726,1.274172196368962,1013.586010071147,103.77543316233835,-0.47674923421187365,11.36211365559525,104.39667353218654,17.767339060287444,11.455564947296814,11.629768254113042,-10.967764324421443,10.373019124838919,-1.6851840160171387,-11.271705724826143,6.57976337839473,5.471051857083479,6149.577391034053,0.3129054456124728,105.25551688022351,2.1265085388488916,1.110159885440069,89726.55396148788,281.5616909345375,-0.5706504450878866,7.297888995383699,-0.047253983057683205,393.9821052631579,0.2114473370315889,0.84,nominal,15389.215967957181,nan,altitude_hold,19.93439427489837,2.0,0.0
1.17,109.88648762402761,1.2549271292124182,1013.9271365406819,104.29746873067816,-0.6415022385514624,11.370882317826672,104.91744599176401,17.760995640176496,11.842284544894559,11.575013936513828,-11.308278432668528,10.6078808428621,-0.4574498128196029,-11.258135367377104,6.63046404633374,5.892729841738657,6230.241517960313,0.31495747123178913,105.94536260351624,2.127399619578625,1.110122678450793,89722.84019709585,281.55947361248553,-0.7445472839692822,6.960857829659862,-0.15295602546648002,393.94894736842105,0.21142954143008816,0.84,nominal,15447.063790274036,nan,altitude_hold,19.93439427489837,2.0,0.0
1.2,113.03098206883726,1.2305286779481037,1014.268580895733,104.8164814936551,-0.8132817088104844,11.381478501701393,105.43573527382603,17.754652753933595,12.23488750811154,11.511302621762757,-11.646151414961098,10.833107388155184,-0.22450258114307145,-11.234980037319062,6.681539832703439,6.366443097273683,6293.446556138008,0.316557599648902,106.48319396151051,2.1287367271419297,1.1100854377447702,89719.12309659964,281.5572542241777,-0.7757862259051578,6.5041737937532575,-0.2546049911832673,393.91578947368424,0.21141174582858746,0.84,nominal,15504.924115207301,nan,altitude_hold,19.93439427489837,2.0,0.0
1.23,116.19096335654488,1.2007560813550051,1014.6103820957185,105.332709590254,-0.9924198864366194,11.39337333284955,105.95175110755588,17.748310401558737,12.633548985534642,11.459538887811465,-11.984662944797412,11.041942323382933,-0.6959670249718242,-11.169993656275885,6.793565241930853,6.843998444714574,6393.621430709827,0.3190736457605743,107.32911450669755,2.132565330361413,1.110048159075584,89715.4022362377,281.5550325163778,-1.1244608667991731,6.029008855015122,-0.31599118869645065,393.8826315789473,0.2113939502270867,0.84,nominal,15562.815684957712,nan,altitude_hold,19.93439427489837,2.0,0.0
1.26,119.3662922010528,1.1653651728138419,1014.9526957776591,105.84429481693046,-1.1796969513721096,11.410456064686606,106.46410163897741,17.741968583051925,13.037443348652657,11.402447142332846,-12.319244698505937,11.252840194697702,-0.5729662230117296,-11.0811907880476,6.85810197605273,7.258233847216871,6463.004687243099,0.32080692205498307,107.91172281630037,2.1351028822334097,1.110010825472264,89711.67592221324,281.5528074774452,-1.2005131324843292,5.650617662578715,-0.4088423294396729,393.8494736842105,0.211376154625586,0.84,nominal,15620.588322945236,nan,altitude_hold,19.93439427489837,2.0,0.0
1.29,122.55686894079791,1.1241410465249824,1015.2955983136661,106.35255799150389,-1.374137542961987,11.430084533569458,106.9738364169843,17.735627298413156,13.4476362757177,11.340400184352701,-12.650704472477981,11.494679615951759,-0.46804643375135,-11.017599862413537,7.062933574122183,7.670266565096575,6546.4047838325,0.322876887303749,108.60757938692659,2.141724699015282,1.109973428610093,89707.94332376636,281.55057861096117,-1.4230313780994635,5.212890747332429,-0.25921376124116763,393.81631578947366,0.21135835902408526,0.84,nominal,15678.349418086571,nan,altitude_hold,19.93439427489837,2.0,0.0
1.3199999999999998,125.7625282759482,1.0768355893043304,1015.6393135390217,106.85531117167629,-1.5768485740217315,11.457174178518851,107.47935065480291,17.729286547642435,13.864147359750554,11.258364954131107,-12.975715945748936,11.761023599127709,0.14904368234367574,-10.96907406654186,7.148439420072282,8.086867419954501,6613.844742985049,0.32454250528054174,109.1674178117187,2.144653167258321,1.109935944083547,89704.20200514981,281.54834446199635,-1.4926529217774587,4.781261513480021,-0.282426521556957,393.7831578947368,0.21134056342258453,0.84,nominal,15735.924682706489,nan,altitude_hold,19.93439427489837,2.0,0.0
1.3499999999999999,128.9831665903392,1.023224150399704,1015.983909184786,107.35461047970078,-1.787047963487552,11.486521525473945,107.98215643534473,17.722946330739756,14.288305309081398,11.180388905462445,-13.300062546957838,12.035070571952536,-0.0581061476596737,-10.918744873982748,7.071298556384055,8.488361736799524,6761.197861187696,0.3281447715183957,110.37868475543979,2.143979508179684,1.1098983645132214,89700.45123004551,281.54610459029885,-2.171844188731606,4.471814845303818,-0.6887161496315447,393.75,0.21132276782108383,0.84,nominal,15793.471657220613,nan,altitude_hold,19.93439427489837,2.0,0.0
1.38,132.21868733424463,0.963088844635894,1016.329378170698,107.85069146351391,-2.004510192127,11.515632863734027,108.48225435766314,17.716606647705124,14.721906541559832,11.128678738782105,-13.629976464943558,12.325951874672095,-1.0336588832381695,-10.877282125928113,7.123642079530407,8.386328005919628,6756.227864250405,0.3280310190479244,110.3399815931924,2.146502402407424,1.1098606906786632,89696.69107648535,281.5438590418904,-1.6041457243787032,4.980730259611757,-0.5573357020061803,393.71684210526314,0.2113049722195831,0.84,nominal,15850.986251698036,nan,altitude_hold,19.93439427489837,2.0,0.0
1.41,135.46904549353067,0.8963411551926007,1016.6757728616221,108.34527197620167,-2.224922981443107,11.546489697470628,108.98151066214976,17.710267498538535,15.171592624067818,11.065382943559337,-13.966630328857208,12.829706541263302,-0.8017605725515551,-11.183668937885857,7.178965680773072,8.65674714663657,6839.333341907892,0.33004927402689077,111.01841925392175,2.1497847558718703,1.1098229168770415,89692.92097551342,281.5416074763994,-1.774049875551207,4.845070607687255,-0.6534922369117222,393.68368421052634,0.2112871766180824,0.84,nominal,15908.668301035555,nan,altitude_hold,19.93439427489837,2.0,0.0
1.44,138.7341241675388,0.8227570441142122,1017.0231719659274,108.8359558002706,-2.4528037026129494,11.579970143509934,109.47774764529359,17.703928883239993,15.6361061072564,10.990088524315356,-14.308360325102516,13.304912057063971,-0.550174297726577,-11.44578599294886,7.272816014932821,9.126617005276268,6940.91641034655,0.33249832134705626,111.84175489441522,2.1548254318042868,1.109785034533535,89689.14007155041,281.5393493822215,-2.113722916531727,4.32638405970464,-0.7808366175404555,393.6505263157895,0.21126938101658166,0.84,nominal,15966.278904102954,nan,altitude_hold,19.93439427489837,2.0,0.0
1.47,142.01377076868604,0.7420472259352973,1017.3716827716394,109.32155337157451,-2.6903272726304985,11.617026857065033,109.96997410841581,17.697590801809493,16.11099029823128,10.912160288196757,-14.652162001819269,13.65243968719873,-0.5788768542671773,-11.532915154497658,7.415243810020777,9.42461287996173,7037.754479248585,0.3348168367865142,112.62117592497161,2.1617151302962725,1.1097470319578773,89685.34719810734,281.53708406198433,-2.413931532947021,4.097574223497473,-0.7375299198376449,393.6173684210526,0.21125158541508093,0.84,nominal,16023.705615555318,nan,altitude_hold,19.93439427489837,2.0,0.0
1.5,145.30781837442402,0.6539559207488033,1017.7214770028255,109.80158685793252,-2.936376839549799,11.659807706204395,110.4579644082291,17.69125325424704,16.596089737107235,10.826049451235999,-14.99669466760835,14.004466480980028,-0.4213637060120738,-11.630404192288909,7.535921808007862,9.809961826004054,7106.978655504714,0.3364665969742776,113.17564302674316,2.167984335742823,1.1097088904350507,89681.54048763195,281.5348103994816,-2.496392851888981,3.69083029582778,-0.7486592899284085,393.58421052631576,0.2112337898135802,0.84,nominal,16080.919273054562,nan,altitude_hold,19.93439427489837,2.0,0.0
1.53,148.61612315331737,0.558216236915942,1018.0726641465033,110.27682596311156,-3.1913227944287064,11.706238122589799,110.94232238717292,17.684916240552635,17.086266096308012,10.736143027194686,-15.341522604255207,14.18918519211332,-0.4029993750565239,-11.675479841631816,7.658783171122336,10.144056109857894,7119.710417520189,0.3367750186673745,113.27892609896287,2.1736898073077597,1.1096705980380974,89677.71875010677,281.5325276830477,-2.1326050746270484,3.345110914055526,-0.6836749634965242,393.5510526315789,0.21121599421207948,0.84,nominal,16137.981740182011,nan,altitude_hold,19.93439427489837,2.0,0.0
1.56,151.93857975545524,0.45459366006369034,1018.4253066695189,110.74855340459499,-3.4540858950750555,11.754750767188,111.42417581557285,17.678579760726272,17.573740812666063,10.642977998719152,-15.687011911086817,14.113081998401277,-0.40637605956826717,-11.727916939707612,7.805254842891642,10.33345063339258,7125.6192910503305,0.33692194859167185,113.32788665882464,2.1852995661346957,1.1096321479680995,89673.88130734737,281.5302355066481,-1.7159071696464552,3.252914389390009,-0.49152007272419107,393.5178947368421,0.21119819861057876,0.84,nominal,16195.01401174048,nan,altitude_hold,19.804763865946498,2.0,0.0
1.5899999999999999,155.2750538975247,0.3428567424924722,1018.7795984111895,111.21580473564906,-3.7245639190406035,11.809724722348948,111.90307054501542,17.672243814767956,18.048386901835276,10.413456732621658,-15.993051879432814,13.95760559693628,4.216193450290319,-11.88919362969907,7.8152328472106305,10.683796165521958,7187.285123823412,0.3383839603565911,113.8191869753623,2.177504362548272,1.1095935191033999,89670.02605175429,281.52793261032724,-1.750786670549618,2.8812562800971353,-0.42627500362804616,393.48473684210524,0.21118040300907803,0.84,nominal,16251.96354746044,nan,altitude_hold,19.804763865946498,2.0,0.0
1.6199999999999999,158.62552996390912,0.22281406961657696,1019.1352805132972,111.68253554614701,-4.001422429196508,11.856070070258031,112.38134420349374,17.665908402677683,18.524698438859843,10.329717402351816,-16.348128146735476,13.746274505192074,-1.0027279251335344,-11.930474731217208,7.8774517685791166,10.94955684627958,7262.815120188368,0.34016466521336697,114.41767693807112,2.1861761660672965,1.1095547396808454,89666.15580183835,281.52562067666355,-1.8634498923525822,2.73245641124603,-0.5281482121809058,393.45157894736843,0.21116260740757734,0.84,nominal,16309.086261137794,nan,altitude_hold,19.804763865946498,2.0,0.0
1.65,161.98985817116858,0.09421899517364948,1019.4924969567711,112.14427357531503,-4.286502481430916,11.907214782464585,112.85607632349335,17.659573524455457,18.99931811353381,10.28376409218707,-16.720299190322688,13.60110269847766,-2.475405767673973,-12.049748464246148,8.171719195867738,11.333598751201245,7362.737748547902,0.342504106897488,115.20409570663493,2.2074250028896163,1.1095157940152098,89662.26899257854,281.523298769781,-2.216809528606089,2.2581117794414802,-0.3685484548226969,393.4184210526316,0.2111448118060766,0.84,nominal,16366.053076848199,nan,altitude_hold,19.804763865946498,2.0,0.0
1.68,165.36774168323535,-0.043294935588159,1019.8516737195681,112.59611706889274,-4.5837976920602825,11.972558759898462,113.32360276452897,17.653239180101274,19.463847951137378,10.144430974873435,-17.063702367030245,13.454555546968459,0.6745802213132418,-12.16663215560146,8.111011326648187,11.503223885572561,7395.536607457971,0.3432736183686548,115.462448506047,2.2018449540349385,1.109476635679408,89658.36099098276,281.5209641208228,-1.9841573036687714,2.312376681020375,-0.4926134706060253,393.3852631578947,0.21112701620457588,0.84,nominal,16422.44788784838,nan,altitude_hold,19.804763865946498,2.0,0.0
1.71,168.7591669385689,-0.18987017839836856,1020.2126184954333,113.04750851111898,-4.885841427006985,12.031492528838113,113.790893482268,17.646905369615137,19.928546792622083,10.03118668609729,-17.422899511146017,13.392809195387525,-0.4190484759532174,-12.370798877942361,8.0583223848792,11.70483940545569,7536.152681798288,0.3465292814243645,116.55702753869198,2.2036409980706564,1.1094372856555825,89654.43389157145,281.51861797977966,-2.575207147906384,2.384407392607507,-0.7775579585503589,393.3521052631579,0.21110922060307516,0.84,nominal,16479.05179491467,nan,altitude_hold,19.804763865946498,2.0,0.0
1.74,172.16400471129168,-0.3457313474032475,1020.5753302704458,113.49459242409253,-5.195372300162632,12.09039250041761,114.25494297255736,17.640572092997044,20.395378436477625,9.957995724524483,-17.80521946731542,13.349313393277342,-2.035707874760218,-12.622547105546314,8.14491334578712,11.94033142521014,7555.217488995398,0.34697496217812696,116.70644601639546,2.2119396294426235,1.1093977440699363,89650.48770741856,281.5162603532421,-2.2551629430575955,2.2876119685442657,-0.8089726257043186,393.31894736842105,0.21109142500157443,0.84,nominal,16535.521059427832,nan,altitude_hold,19.804763865946498,2.0,0.0
1.77,175.58212278950776,-0.5111183122170517,1020.9398970257503,113.93726927386943,-5.51289882712681,12.152225176815469,114.71604055149565,17.634239350246997,20.85929796309329,9.858219934753441,-18.187026604871686,13.27412958406751,-1.3040477299433102,-12.905134930248675,8.248578069863022,12.132421245383874,7738.995079650941,0.35117738777862423,118.11945189243983,2.223276121457924,1.109358001347199,89646.52148342137,281.5138906693326,-3.198992080225505,2.3424234617189503,-0.8706432896144267,393.28578947368425,0.21107362940007374,0.84,nominal,16591.88522107377,nan,altitude_hold,19.804763865946498,2.0,0.0
1.7999999999999998,179.01326992563867,-0.686337554680543,1021.3065317489592,114.37157120436332,-5.840641415449709,12.221157440296274,115.17085604040254,17.627907141364993,21.320426544755428,9.737960230588765,-18.571444563792348,13.190363978683852,-0.8034803352519078,-13.223799168492283,8.38105689460486,12.403473137169158,7825.751075334131,0.3531481496995291,118.78182015515539,2.233181874553741,1.1093180342863938,89642.53290471777,281.51150754363175,-3.4208365070626625,2.176765236449567,-0.8092176692296164,393.25263157894733,0.21105583379857298,0.84,nominal,16647.758740115492,nan,altitude_hold,19.804763865946498,2.0,0.0
1.8299999999999998,182.45725355792587,-0.8716830051020577,1021.6753510266798,114.79945440957358,-6.178181680717154,12.293975924020097,115.62104698382599,17.621575466351036,21.778891550417185,9.621631810765775,-18.966050836690656,13.070548139112875,-1.1560688075318035,-13.484332732654128,8.441787579947396,12.463394384889874,7851.123380968806,0.3537280832521482,118.97637492914566,2.237323824067999,1.109277830197496,89638.52070547147,281.50911021832655,-3.15080796198376,2.453222598677623,-0.6911023555694704,393.21947368421047,0.21103803819707223,0.84,nominal,16703.325833963838,nan,altitude_hold,19.804763865946498,2.0,0.0
1.8599999999999999,185.91396852145144,-1.0673408779160465,1022.0463696250255,115.22383211751917,-6.521929093799626,12.367286611523605,116.06901750718131,17.615244325205122,22.238607150142,9.514563087348233,-19.37762974672362,13.043475870638467,-1.7609172930291739,-13.880179657650462,8.524932864277275,12.641433511499018,8013.997235276844,0.3573863911017341,120.20633120040587,2.249913976865444,1.1092373874907415,89634.48472763802,281.5066985974373,-3.916080631180923,2.5934974835356037,-0.7533935997690282,393.18631578947367,0.21102024259557153,0.84,nominal,16758.859443224435,nan,altitude_hold,19.804763865946498,2.0,0.0
1.89,189.3831651106345,-1.2736234377671467,1022.4197746062868,115.63988630610207,-6.876085328370004,12.446832708709971,116.5108900438489,17.608913717927255,22.69785041326979,9.39807235258157,-19.798947001819574,13.000795091127392,-1.7060064302759195,-14.285628160030406,8.577561105902506,12.662051244269133,8048.449081489105,0.35816187714687503,120.4666453388846,2.2541793260797562,1.1091966857963884,89630.42293905922,281.5042714650591,-3.7065129844113907,3.007580449046527,-0.6284403819088812,393.1531578947368,0.2110024469940708,0.84,nominal,16813.906632047667,nan,altitude_hold,19.804763865946498,2.0,0.0
1.92,192.86472452431525,-1.4907224425604197,1022.7955809747106,116.05198045602471,-7.236633493109101,12.52687894745852,116.95021901750935,17.602583644517434,23.159179488406068,9.280242306472815,-20.23733293447523,13.006323893004817,-2.000145588856056,-14.810241899717456,8.799746448938768,13.018990668203175,8128.020266403946,0.3599362185168747,121.0629143365829,2.2736284796633277,1.109155723500905,89626.33517938579,281.50182872366435,-3.899203949043188,2.697699885670291,-0.48279467671348364,393.12,0.2109846513925701,0.84,nominal,16868.87514828735,nan,altitude_hold,19.804763865946498,2.0,0.0
1.95,196.35836645073385,-1.719025940327991,1023.1740165837497,116.45473088062008,-7.610116592252378,12.614520301302974,117.38289629012101,17.596254104975657,23.615305346268144,9.13918633855394,-20.676926717651444,12.859019248075818,-1.4259479990761428,-15.142431309666335,8.745951366380323,13.148260622747726,8241.359840368377,0.3624453833288572,121.90632791182304,2.2737828187521885,1.1091144757918483,89622.2189732143,281.4993688922056,-4.255915019323837,3.0611150848548436,-0.6601761493425754,393.08684210526314,0.21096685579106939,0.84,nominal,16923.28164045968,nan,altitude_hold,19.804763865946498,2.0,0.0
1.98,199.86395902349375,-1.9587497837747712,1023.5550087387303,116.85308575866306,-7.990794781559336,12.699738499353552,117.81247731252586,17.589925099301926,24.071969104139345,9.030483377073653,-21.144263177099184,12.76246201497108,-2.9041120442556005,-15.53451715170292,8.95333342501432,13.083441026768359,8329.922868586751,0.36439605301744626,122.56188483269538,2.2939179606884257,1.109072950616694,89618.07511437938,281.49689244319825,-4.467799898532608,3.6455470179010323,-0.23292814842932608,393.0536842105263,0.21094906018956863,0.84,nominal,16977.53563170488,nan,altitude_hold,19.804763865946498,2.0,0.0
2.01,203.38122488802415,-2.2101764567136213,1023.938868858887,117.2421954843471,-8.38088909796168,12.79533733855677,118.23574908490941,17.583596627496238,24.530152095447516,8.886140631356515,-21.617118248342685,12.81843227605181,-2.0223031742869995,-16.170271801033387,9.099826286144912,13.376159789448243,8386.753927300768,0.3656455065444263,122.98158413734069,2.307022207999772,1.1090311140585574,89613.9002190414,281.4943973524172,-4.475340994921552,3.5608959606252366,-0.1160963526419303,393.0205263157895,0.21093126458806793,0.84,nominal,17031.256289129833,nan,altitude_hold,19.804763865946498,2.0,0.0
2.04,206.909936132062,-2.4736450685603417,1024.325678499522,117.62370813459522,-8.782287061557348,12.893654687834376,118.65374672791901,17.577268689558597,24.98646933485327,8.735328651781083,-22.102414065274907,12.732830619810475,-2.129713468601498,-16.621760101896324,9.16974492151928,13.436521917310056,8428.297618615936,0.36655860220843184,123.2881450694695,2.3132104038694594,1.108988957256228,89609.69340377403,281.49188308975306,-4.327649489523888,4.0043387626234255,0.0743220867528015,392.9873684210526,0.2109134689865672,0.84,nominal,17084.559221343912,nan,altitude_hold,19.804763865946498,2.0,0.0
2.07,210.44993385191398,-2.749384001247384,1024.715449839124,117.9999239950665,-9.191297756234743,12.992377986733471,119.06831611740964,17.570941285489,25.444064865082304,8.600644979977183,-22.61386774431823,12.683865455029343,-3.1184293301300547,-17.160603656984502,9.16954983529324,13.591138136981398,8500.757268408133,0.3681396237490814,123.81934788889141,2.3314910572988032,1.1089464789105006,89605.45453978909,281.4893495760457,-4.382485258879463,4.397654610498833,-0.012128555409856412,392.95421052631576,0.21089567338506648,0.84,nominal,17137.65771768254,nan,altitude_hold,19.617347251295474,2.0,0.0
2.1,214.00097932129094,-3.0377405075884014,1025.1083222162008,118.36818231256564,-9.611883544700577,13.09574590256308,119.47766925246809,17.564614415287448,25.88532319391107,8.266828897759979,-23.040676474490407,12.62203464407214,3.934316945528295,-17.504166103381003,8.988608603319339,13.788332011055456,8496.210483743354,0.368049931982648,123.78861962999845,2.2946065202825383,1.1089036638649028,89601.18211552812,281.48679590559465,-3.8984655857243116,4.634501279727714,-0.0011881298861060041,392.9210526315789,0.21087787778356573,0.84,nominal,17190.335253062585,nan,altitude_hold,19.617347251295474,2.0,0.0
2.13,217.56322951621922,-3.33873810895673,1025.5035431567035,118.74167316427604,-10.033253378944291,13.174031350092601,119.89080957784492,17.55828807895394,26.343072889249093,8.22257197417876,-23.61323520095193,12.521494122817334,-6.989259083344073,-17.609491757241912,9.033128606807157,14.12279028175859,8492.979458018903,0.3679887679891204,123.76748317338637,2.315522516706648,1.1088605941499743,89596.8843174515,281.4842269694814,-3.4016759553147917,4.7006855636579985,-0.32793888242887353,392.8878947368421,0.21086008218206503,0.84,nominal,17243.65743211322,nan,altitude_hold,19.617347251295474,2.0,0.0
2.16,221.13642417783657,-3.6527630465570797,1025.9012621166214,119.1064887205788,-10.46749792001166,13.257298663931577,120.2982964796904,17.551962276488478,26.79392442901412,8.164620222511633,-24.17199285533566,12.37396717557846,-6.517797073220311,-17.352604297854686,9.276552997508741,14.60021437690811,8594.852728362153,0.3701981360925153,124.50999912097589,2.348710030801997,1.1088172535020695,89592.55952337796,281.48164179624195,-3.7514295245540756,4.36956872910174,-0.473442715448826,392.85473684210524,0.2108422865805643,0.84,nominal,17296.49468009371,nan,altitude_hold,19.617347251295474,2.0,0.0
2.19,224.72012637419795,-3.980322392475061,1026.3018254636975,119.45673987871226,-10.918644863932705,13.35211156920506,120.69551935126468,17.54563700789106,27.224693283566467,7.976299575170332,-24.647272790576952,12.13482303372225,-1.5308091027670425,-16.82591044554123,9.25921538304998,14.88380415927642,8646.561005853566,0.3713190835752549,124.88643360898254,2.341420896957307,1.108773604202534,89588.20397030833,281.47903813448596,-3.6942551697555936,4.428342463061679,-0.6093961619864373,392.8215789473684,0.21082449097906358,0.84,nominal,17348.286992419322,nan,altitude_hold,19.617347251295474,2.0,0.0
2.2199999999999998,228.31424148667313,-4.321593796599632,1026.70499402358,119.80383708250618,-11.375713470819022,13.438951996084404,121.09075797687831,17.539312273161688,27.652801084545533,7.85749543099111,-25.144452894831872,11.987619907532377,-4.049332749036139,-16.3931335296379,9.44109901348583,15.197043554141349,8695.118039759627,0.37236935425956236,125.23909009145414,2.3628486435800253,1.108729672340937,89583.82026241452,281.4764175388467,-3.6609999481761575,4.287857898231405,-0.5580561088317059,392.7884210526316,0.21080669537756289,0.84,nominal,17400.0223633488,nan,altitude_hold,19.617347251295474,2.0,0.0
2.25,231.91847075139617,-4.676926876745758,1027.110953318641,120.14097549076772,-11.844436004870857,13.53197650203267,121.47945935094664,17.532988072300363,28.075880013684888,7.744967270997541,-25.63252330982367,11.894350314210516,-4.217458287720683,-16.0028982598151,9.604193213701745,15.285375491955985,8758.682037786166,0.3737371506386021,125.69853224159677,2.382164130824112,1.1086854377282687,89579.40638596828,281.4737788034288,-3.7035337590905915,4.588618618341912,-0.34654114590105334,392.7552631578947,0.21078889977606213,0.84,nominal,17451.147152461395,nan,altitude_hold,19.617347251295474,2.0,0.0
2.28,235.53253063541416,-5.04660508492073,1027.5199057627353,120.46866280060001,-12.32260693916573,13.631748136483873,121.86209384381337,17.52666440530708,28.495333902129122,7.597461889167003,-26.097355938635275,11.913498170183358,-2.9468847092665924,-15.85231275825041,9.60694736301079,15.19832068944977,8793.457190993382,0.3744876457615767,125.9503505639876,2.3806547429160325,1.1086408783377057,89574.96014394202,281.4711206125422,-3.4779407159516786,5.301400061663897,-0.15682180883007024,392.7221052631579,0.21077110417456144,0.84,nominal,17501.713041847317,nan,altitude_hold,19.617347251295474,2.0,0.0
2.31,239.1563089712286,-5.430749392716319,1027.931772704508,120.7926111938147,-12.804810259852974,13.728898059086152,122.24279417097641,17.520341272181845,28.91953732171225,7.47533056137452,-26.58109157586999,12.025313019044763,-4.107725566637817,-15.976033157574916,9.71358818834335,15.423255122365847,8912.254006279274,0.3770181875286447,126.80083736312758,2.401418527583283,1.108596002768742,89570.48239532093,281.4684434774207,-3.912453353279545,5.433543454151521,-0.21605393431449627,392.68894736842105,0.2107533085730607,0.84,nominal,17552.217482156513,nan,altitude_hold,19.617347251295474,2.0,0.0
2.34,242.78947032031488,-5.829725072782611,1028.346699804229,121.10537830287578,-13.299189335543064,13.830903324036793,122.61596542711773,17.514018672924653,29.34011080626454,7.349892743094594,-27.061967532927838,11.951152952971809,-4.0853032633432615,-15.920355336525677,9.56334195148326,15.268611740377647,8952.471941871463,0.37787742186988543,127.08921091058963,2.3895433821341716,1.1085507951809614,89565.97156044975,281.4657464512725,-3.641359737679047,6.462598081297863,-0.28967160084197036,392.6557894736842,0.21073551297155999,0.84,nominal,17601.97365244721,nan,altitude_hold,19.617347251295474,2.0,0.0
2.37,246.43197340358682,-6.243584377150624,1028.7644657185172,121.41676944239863,-13.795310145600448,13.925530476272176,122.98887300437985,17.507696607535507,29.763920024875123,7.254014765723707,-27.565998202337102,11.99161546815131,-5.439201424328914,-16.073272523267853,9.808936576180429,15.408790746816958,9026.873570519301,0.3794540130108455,127.61884058857028,2.421997246985682,1.108505279720451,89561.43004955557,281.46303097282964,-3.7829487028103013,6.620316258572698,-0.03159129207174036,392.62263157894733,0.21071771737005923,0.84,nominal,17651.864489182233,nan,altitude_hold,19.617347251295474,2.0,0.0
2.4,250.0834063732722,-6.672736094284498,1029.185381576942,121.71443232284572,-14.305057237795793,14.030528614166084,123.3527195948356,17.501375076014405,30.181299715713276,7.105669992415818,-28.039784920561623,11.938820980857223,-3.544578698727508,-16.044074619593303,9.845789300247521,15.69221354685603,9059.853862754188,0.3801562723950154,127.85440466208304,2.425632547160408,1.1084594225204627,89556.85448437005,281.4602950197499,-3.619219538959167,6.590570309527457,-0.16796609066495874,392.5894736842105,0.2106999217685585,0.84,nominal,17700.807537962588,nan,altitude_hold,19.617347251295474,2.0,0.0
2.4299999999999997,253.74358091181028,-7.117432192599849,1029.6093185125414,122.00581795126993,-14.823203277178356,14.131231186649059,123.71272636315754,17.49505407836135,30.593385536022097,6.985592602498275,-28.522073556722308,11.764304647901687,-4.618019010987751,-15.787936002123887,9.859701815815692,15.71472237266216,9168.551259212043,0.38243981262154825,128.6217767658923,2.436378898784864,1.1084132376524498,89552.2462698977,281.4575394296685,-3.9059831817658592,7.193460985766523,-0.1882062528118607,392.5563157894737,0.2106821261670578,0.84,nominal,17749.43755549376,nan,altitude_hold,19.617347251295474,2.0,0.0
2.46,257.4122429770357,-7.5779035976982145,1030.0363276850949,122.28873550751437,-15.349046836612198,14.233639085112598,124.06741938327148,17.488733614576336,31.00435049297285,6.880959918247765,-29.0101357108923,11.735001685825347,-5.273300174819048,-15.658153069088078,9.849516868409571,15.752566598502407,9167.652946317789,0.38243098755262617,128.6181745464965,2.4372734413260506,1.1083667195746332,89547.60485416303,281.45476387004686,-3.4252200036321385,7.669367263938213,-0.21588774832037255,392.5231578947368,0.21066433056555708,0.84,nominal,17797.568029105318,nan,altitude_hold,19.617347251295474,2.0,0.0
2.4899999999999998,261.0892554815347,-8.054302182794958,1030.466317663774,122.56708348329973,-15.879952836558122,14.332999289301583,124.41984457601848,17.48241368465937,31.415147071905874,6.772174153214982,-29.494911150722746,11.772493404901295,-5.2125629186356885,-15.601734756812787,9.71582940545083,15.641176282619519,9253.314864951033,0.38422356437395067,129.2204076199901,2.4302608544928703,1.1083198782791452,89542.93123511731,281.45196893518545,-3.446339587428744,8.665075132573168,-0.36640727928330935,392.49,0.2106465349640564,0.84,nominal,17845.571376277745,nan,altitude_hold,19.617347251295474,2.0,0.0
2.52,264.7745027647505,-8.546719218622826,1030.8991325387922,122.84157610719404,-16.413901194262262,14.427162500607214,124.77023679841871,17.476094288610447,31.830493726563382,6.685812170139912,-29.998976307633097,11.876147872584326,-6.297908804803618,-15.718359882015122,10.067757184410409,15.83517025561372,9285.260241310776,0.3848963340806156,129.44602366466052,2.4669274705009956,1.108272730780775,89538.22711135841,281.4491556384978,-3.3577898930525842,8.534288424952017,0.019494457118195276,392.45684210526315,0.21062873936255563,0.84,nominal,17893.472973478285,nan,altitude_hold,19.617347251295474,2.0,0.0
2.55,268.46749495938485,-9.05558118898412,1031.3351095662752,123.09973982114649,-16.962065678709784,14.532567582766287,125.10976435382848,17.46977542642957,32.237410041814236,6.536830304055905,-30.461474501060234,11.788936792009165,-3.9130912184639257,-15.616533613914934,10.154523555338653,16.10389863603986,9276.772861374075,0.38473056267197503,129.3896210170371,2.4641406933801933,1.108225240373268,89533.48882150653,281.4463217878192,-2.9469925762413456,8.389212378783782,-0.00042865770078948096,392.4236842105263,0.2106109437610549,0.84,nominal,17940.169020563357,nan,altitude_hold,19.617347251295474,2.0,0.0
2.58,272.168032304215,-9.581096220431004,1031.7740423581513,123.35124482767208,-17.517167714896186,14.631093062538147,125.44500647492012,17.463457098116738,32.638555945073335,6.4296383736978004,-30.935387462981375,11.587865338902724,-5.403668366148541,-15.163749461995021,10.173599989098763,16.154796567076385,9308.454084644154,0.38539721864889015,129.61316866402842,2.4754346601037,1.1081774295709337,89528.7186128968,281.443468724672,-2.712700203446747,8.805149038711644,-0.01782823029686291,392.3905263157895,0.2105931481595542,0.84,nominal,17986.47173723794,nan,altitude_hold,19.54682935855269,2.0,0.0
2.61,275.87587613265407,-10.123488460377821,1032.2159468059572,123.59479428130322,-18.079741331560584,14.730148260196849,125.77570309014848,17.45713930367195,33.030920559186406,6.261399443449849,-31.35214215692891,11.543468335230404,-2.7742708254439585,-14.641795526187154,10.240986113355989,16.097632659295567,9382.761263169808,0.3869428060669622,130.13230202866723,2.472855578256351,1.1081292966747147,89523.91631698614,281.44059634576126,-2.7986171220751506,9.314862432499268,0.28517440398071303,392.3573684210526,0.21057535255805349,0.84,nominal,18032.344258655234,nan,altitude_hold,19.54682935855269,2.0,0.0
2.6399999999999997,279.59082582475634,-10.68288428246788,1032.660721396586,123.83165640340815,-18.64652740300195,14.825819687629062,126.1022483590706,17.45082204309521,33.429979018099395,6.18194962130716,-31.81263046989926,11.63845480841476,-6.146982014451856,-14.215354095750456,10.34691989146297,16.39582515804938,9439.822963638191,0.38812810535555475,130.5302582793506,2.48942546142733,1.1080808527732489,89519.08304107419,281.4377053109222,-2.841126112588456,9.16634797888408,0.04074413419765907,392.32421052631577,0.21055755695655273,0.84,nominal,18077.83078409019,nan,altitude_hold,19.54682935855269,2.0,0.0
2.67,283.3125029039416,-11.259609801456866,1033.108385105066,124.05590263950837,-19.224183966299535,14.922123615999833,126.42035438205546,17.444505316386515,33.82208418981051,6.103551253397651,-32.243505941956386,11.533325237282538,-5.73192922246394,-13.337840737545292,10.347868838014806,16.377978467769395,9525.17196487414,0.3898893569120247,131.121901929946,2.4992298588538207,1.1080320958312475,89514.2185830601,281.43479549681706,-2.956956641917024,9.707424148555157,-0.03276838533822796,392.2910526315789,0.210539761355052,0.84,nominal,18122.38534583284,nan,altitude_hold,19.54682935855269,2.0,0.0
2.6999999999999997,287.0406571007864,-11.853856509989868,1033.5589567459688,124.27180656149409,-19.808223617766732,15.019054696760382,126.73365627540751,17.438189123545865,34.2085645948568,6.008141396093688,-32.633111171792144,11.512626489035398,-4.588400640173984,-12.48378833645963,10.4235762865791,16.41497277235407,9580.676979872595,0.3910343807333596,131.50629538404675,2.504949696930909,1.1079830238313815,89509.32274264935,281.4318667811512,-2.9485151729580554,9.925491591392055,0.025668045330136946,392.2578947368421,0.2105219657535513,0.84,nominal,18166.460759639423,nan,altitude_hold,19.54682935855269,2.0,0.0
2.73,290.7750319325979,-12.465800439400972,1034.012405887041,124.479161060384,-20.39813098037015,15.114971369077532,127.04175551871673,17.431873464573258,34.59223896531106,5.926641177039967,-33.000205339574045,11.517042507953455,-4.634304477733157,-11.57665566677993,10.404372410928548,16.16359767884979,9666.93875996491,0.39280162966728865,132.0999359346354,2.5103771133917983,1.1079336401200246,89504.39585468257,281.4289193617342,-3.0190137427268304,10.793246046270415,0.22515958409751233,392.22473684210524,0.21050417015205058,0.84,nominal,18210.001582830846,nan,altitude_hold,19.54682935855269,2.0,0.0
2.76,294.515454581487,-13.095530550501714,1034.4687787597215,124.68075496296935,-20.99100370335807,15.212429089353215,127.34728459377921,17.425558339468697,34.979470383415915,5.858478154070183,-33.35807922257072,11.683061637807766,-4.903729059330554,-11.041851160944193,10.353577288886346,16.205449837311438,9621.65781981029,0.391891443427422,131.79314397571846,2.5067303794310076,1.107883939694538,89499.43742104576,281.4259529380618,-2.2938982392208187,10.907541253908375,0.06802177849269025,392.1915789473684,0.21048637455054983,0.84,nominal,18253.33869592852,nan,altitude_hold,19.54682935855269,2.0,0.0
2.79,298.2618838103566,-13.743133389519226,1034.927903237796,124.88097429565332,-21.586761300583735,15.304149269152916,127.65368380635365,17.41924374823218,35.36495908443192,5.799563729091776,-33.701735015959855,11.686264494826291,-4.959258491333908,-10.44664267677426,10.528530555522876,16.232590536488548,9566.350251751754,0.3907743674566566,131.41677438657808,2.5079168779898766,1.1078339413317704,89494.44931600924,281.4229686289543,-1.6155067176106683,10.732107884760598,0.3208393539737927,392.1584210526316,0.21046857894904913,0.84,nominal,18296.907216953194,nan,altitude_hold,19.54682935855269,2.0,0.0
2.82,302.0140962362501,-14.40872488357799,1035.389733433978,125.07374752978328,-22.186383135292182,15.39433987273919,127.95570959471623,17.41292969086371,35.74458287074589,5.724840463384265,-34.01183427294358,11.616360916697502,-3.9538280519867044,-9.815392869203627,10.530025529170919,16.173008933923896,9701.342956966333,0.3935328882781997,132.34375453192658,2.5184909136851683,1.1077836500595555,89489.43204211607,281.41996673267914,-2.100684353121315,11.168052583907745,0.2611030503980282,392.1252631578947,0.2104507833475484,0.84,nominal,18340.036538324,nan,altitude_hold,19.54682935855269,2.0,0.0
2.85,305.77183349568185,-15.092475485312745,1035.8543083307397,125.25790864772426,-22.79168672449181,15.48582989205435,128.2529359897646,17.406616167363282,36.123196540341056,5.667068256502028,-34.31496864411252,11.617624652725816,-4.34132217171487,-9.271333083838758,10.692721791955709,16.21896479589379,9802.157928994824,0.3955835271402417,133.03266356662982,2.534812750230988,1.1077330616637528,89484.38517988918,281.4169469958502,-2.4804236206867687,11.139504100059149,0.3437582324347853,392.0921052631579,0.2104329877460477,0.84,nominal,18382.66844778898,nan,altitude_hold,19.54682935855269,2.0,0.0
2.88,309.5346969372305,-15.794611764774272,1036.3217308212334,125.42878138495493,-23.404542648717566,15.580749683119414,128.5414780411307,17.4003031777309,36.49859126352514,5.6039296411984525,-34.59199532380353,11.606395246689562,-3.745859429598131,-8.651457958854948,10.769462489186614,16.255201920947172,9874.904542687656,0.3970599884488805,133.52846894521946,2.544319913413708,1.1076821649720137,89479.30761571301,281.41390874966197,-2.6531173580593563,11.121148191313083,0.3211328708501686,392.05894736842106,0.210415192144547,0.84,nominal,18424.30029005729,nan,altitude_hold,19.54682935855269,2.0,0.0
2.9099999999999997,313.30241645562484,-16.51530541285398,1036.792005833719,125.59065061314479,-24.02312160265698,15.67583374952553,128.82489532971417,17.393990721966563,36.87126144197185,5.547299365933543,-34.84937585944162,11.588809464246134,-3.5874131993787057,-7.975286111903744,10.755876931001557,16.16270702160338,9964.15386227323,0.398861650686383,134.13362672494046,2.5521593513048555,1.1076309594803933,89474.19930031181,281.4108519620808,-2.8528103150520256,11.434835776389942,0.28621316686883913,392.0257894736842,0.21039739654304623,0.84,nominal,18465.383152365146,nan,altitude_hold,19.54682935855269,2.0,0.0
