time_s,x_m,y_m,altitude_m,vx_mps,vy_mps,vz_mps,speed_mps,mass_kg,roll_deg,pitch_deg,yaw_deg,p_dps,q_dps,r_dps,alpha_deg,beta_deg,qbar_pa,mach,airspeed_mps,load_factor_g,density_kgpm3,pressure_pa,temperature_k,wind_x_mps,wind_y_mps,wind_z_mps,thrust_n,mass_flow_kgps,propulsion_throttle_actual,propulsion_health,energy_j_per_kg,target_distance_m,guidance_mode,pitch_command_deg,heading_command_deg,roll_command_deg,elevator_command_deg,aileron_command_deg,rudder_command_deg,elevator_deg,aileron_deg,rudder_deg,throttle,elevator_saturated,aileron_saturated,rudder_saturated,elevator_failed,aileron_failed,rudder_failed,elevator_raw_rad,aileron_raw_rad,rudder_raw_rad,elevator_effective_rad,aileron_effective_rad,rudder_effective_rad,sensor_time_s,imu_valid,imu_ax_mps2,imu_ay_mps2,imu_az_mps2,gyro_p_rps,gyro_q_rps,gyro_r_rps,imu_accel_norm_mps2,imu_gyro_norm_rps,gps_valid,gps_latency_s,gps_x_m,gps_y_m,gps_z_m,gps_vx_mps,gps_vy_mps,gps_vz_mps,baro_valid,baro_alt_m,baro_bias_m,pitot_valid,pitot_airspeed_mps,pitot_qbar_pa,pitot_compressibility_factor,mag_valid,mag_heading_deg,mag_x_ut,mag_y_ut,mag_z_ut,radar_valid,radar_agl_m,optical_flow_valid,optical_flow_x_radps,optical_flow_y_radps,optical_flow_quality,horizon_valid,horizon_roll_deg,horizon_pitch_deg
0.0,0.0,0.0,20.0,85.0,0.0,8.0,85.37564055396598,18.0,0.0,6.000000000000002,0.0,0.0,0.0,0.0,0.6169987648720024,0.0,4445.560332884186,0.250651868342899,85.27608105441995,1.74634069828506,1.2226496753673843,101084.96761777384,288.02,0.1,0.0,0.0,326.8,0.17539118863220368,0.86,nominal,3840.633,nan,pitch_program,13.0,0.0,0.0,-20.05352282957881,-0.0,0.0,-2.6999999999999997,0.0,0.0,0.86,0.0,0.0,0.0,0.0,0.0,0.0,-0.047123889803846894,0.0,0.0,-0.047123889803846894,0.0,0.0,0.0,1.0,17.092684802550952,-0.04331266066330364,0.17133629194414204,0.0016677683591043149,0.0011681274632859406,0.0012765720485123657,17.09359838860347,0.00240324973008537,1.0,0.0,-1.885154541229685,1.8645638091475825,21.162662438547994,85.32748210022089,0.18147237523479218,7.846341299741817,1.0,20.771163472887363,0.0,1.0,85.52743876012808,4455.110504654227,1.0,1.0,-0.8198733225718878,19.523475325297145,-0.00615746722134172,-43.81279554351524,1.0,20.39618647858491,1.0,-0.0077448575321814855,4.273240466216326,0.95,1.0,0.17459483210835952,5.697481511065039
0.03,2.565310932297066,0.0,20.232946462003074,85.51036440990221,0.0,7.764882066769182,85.86219083522796,17.994738264341034,0.0,6.265543957279823,0.0,0.0,-8.85148108657323,0.0,1.070913132337987,0.0,4496.330359733195,0.2520825585697221,85.76260106913224,1.774623954223055,1.2226223205068891,101082.17459824144,288.01848584799694,0.1,0.0,0.0,332.605,0.1785066900092231,0.86,nominal,3884.5753319341547,nan,pitch_program,12.985,0.0,0.0,-0.5460126382263611,-0.0,0.0,-1.4076075829358166,0.0,0.0,0.86,0.0,0.0,0.0,0.0,0.0,0.0,-0.02456738689826915,0.0,0.0,-0.02456738689826915,0.0,0.0,0.03,1.0,17.399563908154985,-0.024205067786461216,0.6823135895685112,0.001972178925766813,-0.15516674912873246,0.0016995476198838452,17.412953853777537,0.1551885884561313,1.0,0.0,-1.885154541229685,1.8645638091475825,21.162662438547994,85.32748210022089,0.18147237523479218,7.846341299741817,1.0,20.771163472887363,0.0,1.0,85.34892133282018,4483.358861672386,1.0,1.0,-0.8198733225718878,19.523475325297145,-0.00615746722134172,-43.81279554351524,1.0,20.39618647858491,1.0,-0.0077448575321814855,4.273240466216326,0.95,1.0,0.17459483210835952,5.697481511065039
0.06,5.146113127259087,0.0,20.459378752689986,86.02673983206738,0.0,7.5477430228970865,86.35721389017769,17.98938306364076,0.0,6.57752156327721,0.0,0.0,-10.399279226776827,0.0,1.5575858822248216,0.0,4548.284159850648,0.2535381511086057,86.25759701561068,1.8037943609316183,1.2225957310531048,101079.45974327708,288.0170140381075,0.1,0.0,0.0,338.40999999999997,0.18162219138624247,0.86,nominal,3929.4221620820167,nan,pitch_program,12.97,0.0,0.0,0.17498622073674802,-0.0,0.0,-0.45805130073227784,0.0,0.0,0.86,0.0,0.0,0.0,0.0,0.0,0.0,-0.007994503340820962,0.0,0.0,-0.007994503340820962,0.0,0.0,0.06,1.0,17.70739027309802,-0.048625240197861,1.2170528887428502,-0.003446139225741984,-0.18297062084317978,-0.00034689119184351384,17.74923244627181,0.18300339969738494,1.0,0.0,-1.885154541229685,1.8645638091475825,21.162662438547994,85.32748210022089,0.18147237523479218,7.846341299741817,1.0,20.52601511429277,0.0,1.0,85.83863034520898,4515.424226797025,1.0,1.0,0.07665381874344163,19.05133394791982,-0.026858555853548426,-44.016831377629565,1.0,20.444364994919965,1.0,0.00018197912592243334,4.219143646315873,0.9488515531182751,1.0,-0.15907090264631085,6.39853393834517
0.09,7.7425755282514235,0.0,20.679850894031002,86.54874669974454,0.0,7.34907137803391,86.86020035330323,17.983934397899173,0.0,6.771012195876393,0.0,0.0,-6.449693882912137,0.0,1.9119386973406594,0.0,4601.38284734343,0.2550171496657027,86.76055933473475,1.8335501958236302,1.2225698419118347,101076.81640543984,288.01558096918876,0.1,0.0,0.0,344.215,0.18473769276326188,0.86,nominal,3975.1472624779385,nan,pitch_program,12.955,0.0,0.0,-1.0943193970615346,-0.0,0.0,-0.8398121585298319,0.0,0.0,0.86,0.0,0.0,0.0,0.0,0.0,0.0,-0.014657487264626148,0.0,0.0,-0.014657487264626148,0.0,0.0,0.09,1.0,17.981306555514355,-0.01094183278357201,1.4085129528815297,0.0004011470069548937,-0.1142593993192011,0.0025448602353110453,18.036391377033354,0.11428844020863661,1.0,0.0,-1.885154541229685,1.8645638091475825,21.162662438547994,85.32748210022089,0.18147237523479218,7.846341299741817,1.0,20.52601511429277,0.0,1.0,87.13105693663857,4633.3129823552035,1.0,1.0,0.07665381874344163,19.05133394791982,-0.026858555853548426,-44.016831377629565,1.0,20.444364994919965,1.0,0.00018197912592243334,4.219143646315873,0.9488515531182751,1.0,-0.15907090264631085,6.39853393834517
0.12,10.35490626960628,0.0,20.894672259828663,87.07769137849523,0.0,7.160712193255405,87.37162087842424,17.978392267116273,0.0,6.869403810589265,0.0,0.0,-3.279721296413501,0.0,2.1629625803591828,0.0,4655.691106478735,0.256520935467538,87.27195767626279,1.8636039351202125,1.22254461672143,101074.24087108609,288.0141846303111,0.1,0.0,0.0,350.02,0.1878531941402813,0.86,nominal,4021.8068051783985,nan,pitch_program,12.94,0.0,0.0,-2.1439515249052032,-0.0,0.0,-1.622295778355055,0.0,0.0,0.86,0.0,0.0,0.0,0.0,0.0,0.0,-0.028314402773499864,0.0,0.0,-0.028314402773499864,0.0,0.0,0.12,1.0,18.247132538342104,-0.01413003862604277,1.5234151570752872,0.0017811967641120853,-0.05656559229548186,-0.0028376729027249836,18.31062094169997,0.0566647269573764,1.0,0.0,-1.885154541229685,1.8645638091475825,21.162662438547994,85.32748210022089,0.18147237523479218,7.846341299741817,1.0,20.83524743559063,0.0,1.0,87.16426406339222,4701.904046027917,1.0,1.0,-1.8951218293581098,18.8396056318105,-0.005790965511073151,-44.081934350389474,1.0,20.15956427595214,1.0,-0.013840283315854317,4.181162881182803,0.9477633193504283,1.0,0.28335723464815654,7.476143709853791
0.15,12.983340073184266,0.0,21.104019222019527,87.61446011926621,0.0,6.978232073028787,87.89191854121479,17.972756671292064,0.0,6.954217304977828,0.0,0.0,-2.827116995853424,0.0,2.395209750916437,0.0,4711.272190439236,0.25805080969775823,87.79223458160571,1.8941883532571016,1.2225200347406417,101071.73102152879,288.0128238750568,0.1,0.0,0.0,355.825,0.1909686955173007,0.86,nominal,4069.4544025313867,nan,pitch_program,12.925,0.0,0.0,-2.2500498704231413,-0.0,0.0,-1.9989482335959068,0.0,0.0,0.86,0.0,0.0,0.0,0.0,0.0,0.0,-0.0348882282531733,0.0,0.0,-0.0348882282531733,0.0,0.0,0.15,1.0,18.54641607679734,-0.03605765477427094,1.6834096148356799,-0.00013304420042076212,-0.04947563981984342,-0.0016289172586783655,18.622693612350385,0.04950262627151979,1.0,0.0,-1.885154541229685,1.8645638091475825,21.162662438547994,85.32748210022089,0.18147237523479218,7.846341299741817,1.0,20.83524743559063,0.0,1.0,87.44045197805038,4729.064741420962,1.0,1.0,-1.8951218293581098,18.8396056318105,-0.005790965511073151,-44.081934350389474,1.0,20.15956427595214,1.0,-0.013840283315854317,4.181162881182803,0.9477633193504283,1.0,0.28335723464815654,7.476143709853791
0.18,15.628109404476222,0.0,21.308096191739523,88.15897770973184,0.0,6.80256565733322,88.42103963620494,17.967027610426545,0.0,7.051609375254437,0.0,0.0,-3.246403124223233,0.0,2.634277129957921,0.0,4768.137159764534,0.2596066150141372,88.32133635088057,1.9252485454174213,1.2224960719379416,101069.2844022067,288.0114973747537,0.1,0.0,0.0,361.63,0.19408419689432013,0.86,nominal,4118.101166692385,nan,pitch_program,12.91,0.0,0.0,-2.04387526687245,-0.0,0.0,-2.0259044535618327,0.0,0.0,0.86,0.0,0.0,0.0,0.0,0.0,0.0,-0.03535870304547054,0.0,0.0,-0.03535870304547054,0.0,0.0,0.18,1.0,18.751858148578783,-0.04780444576139571,1.9026468098857752,0.00013974800767314763,-0.0592292026804217,-0.0008869940367906495,18.848197106689636,0.05923600879604756,1.0,0.0,-1.885154541229685,1.8645638091475825,21.162662438547994,85.32748210022089,0.18147237523479218,7.846341299741817,1.0,20.082203382569883,0.0,1.0,87.93174652289834,4832.294728515825,1.0,1.0,-0.5428950996559269,18.728864957938608,0.02966309435753329,-44.22167162576094,1.0,21.361730013096725,1.0,0.006974051956994979,4.138887943065216,0.9467297595206512,1.0,-0.5040599611879599,6.693867412756719
0.21,18.28943836441655,0.0,21.5071569682004,88.7109653313443,0.0,6.635359215362556,88.95877338371898,17.961205084519715,0.0,7.14041529625072,0.0,0.0,-2.9601979591652037,0.0,2.857989670397352,0.0,4826.280141529667,0.26118773268001555,88.85905226182417,1.9565067106762444,1.222472698484936,101066.8979667668,288.01020347970666,0.1,0.0,0.0,367.435,0.19719969827133954,0.86,nominal,4167.744841850136,nan,pitch_program,12.895,0.0,0.0,-2.0893684624453597,-0.0,0.0,-2.063982858891949,0.0,0.0,0.86,0.0,0.0,0.0,0.0,0.0,0.0,-0.03602329659239003,0.0,0.0,-0.03602329659239003,0.0,0.0,0.21,1.0,19.042726007418686,0.06045326675660328,2.1025757784549306,-0.0011844703614280934,-0.049955195596097436,0.0010356537480328346,19.158546220818188,0.0499799671445197,1.0,0.0,18.158597578379382,-0.8507156713177079,22.528382500531222,88.79192642839834,-0.10696639449047544,6.6949367170114655,1.0,20.082203382569883,0.0,1.0,88.7121938469943,4822.809246019287,1.0,1.0,-0.5428950996559269,18.728864957938608,0.02966309435753329,-44.22167162576094,1.0,21.361730013096725,1.0,0.006974051956994979,4.138887943065216,0.9467297595206512,1.0,-0.5040599611879599,6.693867412756719
0.24,20.967552706727446,0.0,21.70144622163709,89.27047807702982,0.0,6.476308447889768,89.50508827554816,17.955289093571576,0.0,7.2039268558358955,0.0,0.0,-2.117052202948266,0.0,3.0499202352116463,0.0,4885.714562163504,0.26279407036087726,89.40535068774275,1.9877841230887894,1.222449885627541,101064.56877861854,288.0089405995593,0.1,0.0,0.0,373.24,0.20031519964835895,0.86,nominal,4218.398901196252,nan,pitch_program,12.88,0.0,0.0,-2.3439085536783617,-0.0,0.0,-2.2319382757637967,0.0,0.0,0.86,0.0,0.0,0.0,0.0,0.0,0.0,-0.038954671613363405,0.0,0.0,-0.038954671613363405,0.0,0.0,0.24,1.0,19.343580633769914,-0.05931437453800777,2.304640261754881,0.0004014737785476082,-0.03690555995049378,0.0011573760834501412,19.480477321315487,0.03692588598602468,1.0,0.0,18.158597578379382,-0.8507156713177079,22.528382500531222,88.79192642839834,-0.10696639449047544,6.6949367170114655,1.0,22.185296900108504,0.0,1.0,89.35831472873973,4880.322192183869,1.0,1.0,-0.9874075351661772,18.640989606025094,-0.01105574941250553,-44.296083489940415,1.0,21.597754777479953,1.0,0.015553992101837083,4.126249306173392,0.9457463844459073,1.0,-0.5929147826834491,7.160661801518863
0.27,23.662686238424147,0.0,21.891169185531563,89.83778438989,0.0,6.32409879648236,90.06010065324173,17.949279637582126,0.0,7.246833687262236,0.0,0.0,-1.4302277810505999,0.0,3.2156878503193576,0.0,4946.470301344028,0.2644259699878434,89.96034778053082,2.0191382512790352,1.22242760924437,101062.29437423636,288.007707400294,0.1,0.0,0.0,379.045,0.20343070102537836,0.86,nominal,4270.08989912931,nan,pitch_program,12.865,0.0,0.0,-2.5552401380472705,-0.0,0.0,-2.425919393133881,0.0,0.0,0.86,0.0,0.0,0.0,0.0,0.0,0.0,-0.04234028079816894,0.0,0.0,-0.04234028079816894,0.0,0.0,0.27,1.0,19.555994576926324,-0.02835453910261265,2.4481396263152853,0.0019072580176267414,-0.02285017448245768,-0.002090558849283284,19.708655852254225,0.023024737638611178,1.0,0.0,18.158597578379382,-0.8507156713177079,22.528382500531222,88.79192642839834,-0.10696639449047544,6.6949367170114655,1.0,22.185296900108504,0.0,1.0,90.02991160181693,4950.928816817808,1.0,1.0,-0.9874075351661772,18.640989606025094,-0.01105574941250553,-44.296083489940415,1.0,21.597754777479953,1.0,0.015553992101837083,4.126249306173392,0.9457463844459073,1.0,-0.5929147826834491,7.160661801518863
0.3,26.37507853916707,0.0,22.07650681015981,90.4130766914308,0.0,6.177920820941555,90.6238994001051,17.943176716551363,0.0,7.279560154102971,0.0,0.0,-1.090882257682986,0.0,3.366303788714938,0.0,5008.574805128744,0.2660836928890186,90.52413229157231,2.050654623728551,1.2224058480670996,101060.07258144839,288.00650270573396,0.1,0.0,0.0,384.84999999999997,0.20654620240239774,0.86,nominal,4322.842146750039,nan,pitch_program,12.850000000000001,0.0,0.0,-2.6506265044074904,-0.0,0.0,-2.560743659898047,0.0,0.0,0.86,0.0,0.0,0.0,0.0,0.0,0.0,-0.044693408164790796,0.0,0.0,-0.044693408164790796,0.0,0.0,0.3,1.0,19.93682493463433,-0.023144794989114953,2.5893395342162804,-0.0006483740193760299,-0.021296600534628035,0.0011196854561373627,20.104283209785113,0.021335868361077,1.0,0.0,18.158597578379382,-0.8507156713177079,22.528382500531222,88.79192642839834,-0.10696639449047544,6.6949367170114655,1.0,22.082869129114215,0.0,1.0,90.30034963678948,5022.692605537272,1.0,1.0,-0.032100222264470346,18.475691594702575,-0.006038005167106243,-44.29436668650004,1.0,21.913496190671392,1.0,0.0042634016461290366,4.091696559105737,0.9448087329746004,1.0,0.49262759900427344,7.873935906403636
0.32999999999999996,29.10497106372431,0.0,22.257635616994417,90.99641748524134,0.0,6.037626894486873,91.19649627954665,17.93698033047929,0.0,7.305333252936838,0.0,0.0,-0.8591033089483979,0.0,3.5051490562870753,0.0,5072.047463884733,0.26776727388174537,91.09671591318931,2.0823030453204026,1.222384581349064,101057.90128139549,288.00532536848954,0.1,0.0,0.0,390.655,0.20966170377941715,0.86,nominal,4376.673309156082,nan,pitch_program,12.835,0.0,0.0,-2.7122339973726723,-0.0,0.0,-2.651637862382822,0.0,0.0,0.86,0.0,0.0,0.0,0.0,0.0,0.0,-0.04627981126912454,0.0,0.0,-0.04627981126912454,0.0,0.0,0.32999999999999996,1.0,20.176264764776715,-0.05396740755448139,2.7815433368012603,-0.0008335127957680589,-0.014501297842815892,0.0009767482210283772,20.367168572827005,0.01455803626159957,1.0,0.0,18.158597578379382,-0.8507156713177079,22.528382500531222,88.79192642839834,-0.10696639449047544,6.6949367170114655,1.0,22.082869129114215,0.0,1.0,90.7909894759184,5062.184748786958,1.0,1.0,-0.032100222264470346,18.475691594702575,-0.006038005167106243,-44.29436668650004,1.0,21.913496190671392,1.0,0.0042634016461290366,4.091696559105737,0.9448087329746004,1.0,0.49262759900427344,7.873935906403636
0.36,31.852606528082674,0.0,22.43472940568088,91.5878488119454,0.0,5.9031262895487755,91.77788922169725,17.930690479365907,0.0,7.322354906060517,0.0,0.0,-0.5673884416291656,0.0,3.6305420604819694,0.0,5136.906434151325,0.26947670714496746,91.67809651289531,2.114005642466922,1.222363788664745,101055.77838805648,288.00417425886303,0.1,0.0,0.0,396.46,0.21277720515643656,0.86,nominal,4431.600014121286,nan,pitch_program,12.82,0.0,0.0,-2.7997006596634346,-0.0,0.0,-2.7404755407511896,0.0,0.0,0.86,0.0,0.0,0.0,0.0,0.0,0.0,-0.0478303212564803,0.0,0.0,-0.0478303212564803,0.0,0.0,0.36,1.0,20.56559428601874,0.04056869726443273,2.8690807879957596,-0.0017116473741721086,-0.010415299308907904,0.0002472742290717788,20.76480047398411,0.010557904194110249,1.0,0.0,18.158597578379382,-0.8507156713177079,22.528382500531222,88.79192642839834,-0.10696639449047544,6.6949367170114655,1.0,22.99776068086253,0.0,1.0,91.2932256573185,5114.46570040369,1.0,1.0,0.24703569469091746,18.55768590836159,0.05777323077028381,-44.33119041772163,1.0,22.232791833840274,1.0,0.008474791280591054,4.087125492261698,0.9439131764857978,1.0,-0.12522865530984933,7.108418518105805
0.39,34.61823013843754,0.0,22.60795250753524,92.1874536784955,0.0,5.774103395145397,92.36810534888427,17.924307163211214,0.0,7.330073497393612,0.0,0.0,-0.25728637815889865,0.0,3.742188320749778,0.0,5203.173443716609,0.2712120726073334,92.26830113861902,2.145732035190216,1.2223434507017834,101053.7019291078,288.003048308701,0.1,0.0,0.0,402.265,0.21589270653345596,0.86,nominal,4487.641720329312,nan,pitch_program,12.805,0.0,0.0,-2.898798925687051,-0.0,0.0,-2.8354695717127067,0.0,0.0,0.86,0.0,0.0,0.0,0.0,0.0,0.0,-0.0494882798665002,0.0,0.0,-0.0494882798665002,0.0,0.0,0.39,1.0,20.83457518667695,-0.03998306635079582,3.020517173949502,-0.004200210305302578,-0.004379027094026372,0.0021403138457621635,21.052426127480263,0.006434173471188685,1.0,0.0,18.158597578379382,-0.8507156713177079,22.528382500531222,88.79192642839834,-0.10696639449047544,6.6949367170114655,1.0,22.99776068086253,0.0,1.0,91.4454229770022,5170.299377802432,1.0,1.0,0.24703569469091746,18.55768590836159,0.05777323077028381,-44.33119041772163,1.0,22.232791833840274,1.0,0.008474791280591054,4.087125492261698,0.9439131764857978,1.0,-0.12522865530984933,7.108418518105805
0.42,37.40208999269245,0.0,22.777457992226545,92.79532847516371,0.0,5.650182823043476,92.96718535455048,17.91783038201521,0.0,7.330288551384551,0.0,0.0,-0.007168466364658176,0.0,3.842177643276891,0.0,5270.872127286002,0.2729734900648935,92.86737041099157,2.1555898659221375,1.222323549471391,101051.67006740204,288.0019465230505,0.1,0.0,0.0,404.1773684210526,0.21691906078826353,0.86,nominal,4544.819334793141,nan,pitch_program,12.79,0.0,0.0,-2.9810955913519046,-0.0,0.0,-2.9228451834962255,0.0,0.0,0.86,0.0,0.0,0.0,0.0,0.0,0.0,-0.05101327197806696,0.0,0.0,-0.05101327197806696,0.0,0.0,0.42,1.0,20.876890365241522,-0.028261817516269515,3.169778104816052,-4.435109278206495e-05,0.001075837705322254,0.001005012113417697,21.116174920814018,0.0014729029620923174,1.0,0.0,38.9891293871407,0.8561697855581142,23.106007934490748,92.81559574653079,-0.01429878191719496,5.638545718841565,1.0,23.176397388262043,0.0,1.0,93.05707173119484,5272.966499787786,1.0,1.0,1.0151129233973093,18.489095031651633,0.018258774712861983,-44.25561062218894,1.0,22.71142927447195,1.0,0.016688064665782515,4.06278091395835,0.9430563550194336,1.0,0.4032278623625569,6.9593715530896665
0.44999999999999996,40.204242499677065,0.0,22.943366057497183,93.4050835661538,0.0,5.530268842354609,93.56865666166686,17.911322810191564,0.0,7.324827715373248,0.0,0.0,0.18202786718127478,0.0,3.9328282144139544,0.0,5339.282388760245,0.27474193408976294,93.46883166465527,2.154567270099198,1.2223040708453914,101049.68135998712,288.00086812062625,0.1,0.0,0.0,404.14342105263154,0.21690084148196515,0.86,nominal,4602.5443154822015,nan,pitch_program,12.775,0.0,0.0,-3.045242479595667,-0.0,0.0,-2.9962835611558902,0.0,0.0,0.86,0.0,0.0,0.0,0.0,0.0,0.0,-0.05229501346555116,0.0,0.0,-0.05229501346555116,0.0,0.0,0.44999999999999996,1.0,20.904884146461598,0.03480239865722864,3.2966539299224302,0.003273383298076893,0.00523457035327554,0.0006495057299919682,21.163253991709468,0.00620786780568114,1.0,0.0,38.9891293871407,0.8561697855581142,23.106007934490748,92.81559574653079,-0.01429878191719496,5.638545718841565,1.0,23.176397388262043,0.0,1.0,93.04931737270194,5375.880319114516,1.0,1.0,1.0151129233973093,18.489095031651633,0.018258774712861983,-44.25561062218894,1.0,22.71142927447195,1.0,0.016688064665782515,4.06278091395835,0.9430563550194336,1.0,0.4032278623625569,6.9593715530896665
0.48,43.02464871624431,0.0,23.105778973251315,94.01354055224141,0.0,5.4137638584710945,94.1692871709414,17.904815784947104,0.0,7.314389757359138,0.0,0.0,0.3479319347659064,0.0,4.015153990802247,0.0,5408.037847944785,0.2765079041999895,94.06945273664975,2.1536094376284765,1.2222850028014327,101047.73457894046,287.99981243667384,0.1,0.0,0.0,404.1094736842105,0.2168826221756668,0.86,nominal,4660.51761050965,nan,pitch_program,12.76,0.0,0.0,-3.1040215256776644,-0.0,0.0,-3.060926339868955,0.0,0.0,0.86,0.0,0.0,0.0,0.0,0.0,0.0,-0.05342324279173224,0.0,0.0,-0.05342324279173224,0.0,0.0,0.48,1.0,20.85732777370136,0.012525986310875077,3.391070189205391,-0.0009259558692904829,0.006309806397479893,0.002863435715449263,21.131200528793073,0.00699073065866953,1.0,0.0,38.9891293871407,0.8561697855581142,23.106007934490748,92.81559574653079,-0.01429878191719496,5.638545718841565,1.0,24.501370226863,0.0,1.0,93.92153043749089,5351.018358053156,1.0,1.0,-0.341560527222041,18.47738573422686,-0.01746976429002118,-44.2698586735237,1.0,23.258020650811773,1.0,0.007915542794734144,4.080716610296816,0.9422355525668717,1.0,0.636746191090788,7.66362987505712
0.51,45.86327125792338,0.0,23.264793591366892,94.62075138930236,0.0,5.300487270519221,94.76909706640187,17.898309306281835,0.0,7.29925634866819,0.0,0.0,0.5044469592976221,0.0,4.089613995551308,0.0,5477.138986880675,0.2782714596722183,94.66925376542925,2.152698660635836,1.2222663339541575,101045.82856140187,287.9987788416561,0.1,0.0,0.0,404.0755263157895,0.21686440286936848,0.86,nominal,4718.740567463328,nan,pitch_program,12.745,0.0,0.0,-3.1621439388287893,-0.0,0.0,-3.1216568992448557,0.0,0.0,0.86,0.0,0.0,0.0,0.0,0.0,0.0,-0.05448319100941962,0.0,0.0,-0.05448319100941962,0.0,0.0,0.51,1.0,20.803026406346238,0.06853486531179354,3.5667487204412054,0.0007061520466158617,0.009747696901136409,-0.0019268357040249766,21.10668854002615,0.009961372466666906,1.0,0.0,38.9891293871407,0.8561697855581142,23.106007934490748,92.81559574653079,-0.01429878191719496,5.638545718841565,1.0,24.501370226863,0.0,1.0,93.67886188343445,5472.707304562989,1.0,1.0,-0.341560527222041,18.47738573422686,-0.01746976429002118,-44.2698586735237,1.0,23.258020650811773,1.0,0.007915542794734144,4.080716610296816,0.9422355525668717,1.0,0.636746191090788,7.66362987505712
0.54,48.72007433013861,0.0,23.420501019091482,95.22676907384093,0.0,5.1902475908197,95.3681090212899,17.891803374195753,0.0,7.27998925833613,0.0,0.0,0.6422363504539902,0.0,4.156949165365247,0.0,5546.586640473857,0.280032667098412,95.26825738136426,2.1518290492389305,1.2222480535934654,101043.96221347849,287.9977667433759,0.1,0.0,0.0,404.0415789473684,0.2168461835630701,0.86,nominal,4777.214765467191,nan,pitch_program,12.73,0.0,0.0,-3.216029801984913,-0.0,0.0,-3.17828064088889,0.0,0.0,0.86,0.0,0.0,0.0,0.0,0.0,0.0,-0.05547146173590665,0.0,0.0,-0.05547146173590665,0.0,0.0,0.54,1.0,20.813990157482568,-0.011959623866143985,3.652165448236907,0.00258475109658373,0.012741902774657058,-0.000786372376342729,21.13198149179768,0.013025183532848162,1.0,0.0,38.9891293871407,0.8561697855581142,23.106007934490748,92.81559574653079,-0.01429878191719496,5.638545718841565,1.0,23.597597026237892,0.0,1.0,94.92261219314486,5530.404755514937,1.0,1.0,0.6010780516446778,18.517191246679953,-0.00910350250981173,-44.215036314078894,1.0,23.61437157104928,1.0,-0.0028495226081697673,4.050095016433385,0.9414487474522713,1.0,0.0064165621930257054,7.15982979849928
0.57,51.595023582233466,0.0,23.57298722436576,95.83164173649536,0.0,5.0828735091426696,95.96634389733696,17.885297988688862,0.0,7.257299829092787,0.0,0.0,0.7563143179952432,0.0,4.218033060276265,0.0,5616.381501482516,0.28179158775028146,95.86648440761059,2.150999677341796,1.2222301516133907,101042.13450298095,287.9967755830416,0.1,0.0,0.0,404.0076315789474,0.21682796425677175,0.86,nominal,4835.941615674798,nan,pitch_program,12.715,0.0,0.0,-3.2635377901449303,-0.0,0.0,-3.229434930442514,0.0,0.0,0.86,0.0,0.0,0.0,0.0,0.0,0.0,-0.05636427251513593,0.0,0.0,-0.05636427251513593,0.0,0.0,0.57,1.0,20.78813257998332,0.012149172236429435,3.712465866996509,0.0034063518963941427,0.015888917514317077,-0.0048126073959461535,21.117031197092174,0.016947628830203818,1.0,0.0,38.9891293871407,0.8561697855581142,23.106007934490748,92.81559574653079,-0.01429878191719496,5.638545718841565,1.0,23.597597026237892,0.0,1.0,96.25371251115368,5647.522761741967,1.0,1.0,0.6010780516446778,18.517191246679953,-0.00910350250981173,-44.215036314078894,1.0,23.61437157104928,1.0,-0.0028495226081697673,4.050095016433385,0.9414487474522713,1.0,0.0064165621930257054,7.15982979849928
0.6,54.48808588372384,0.0,23.722333979098234,96.4354100496791,0.0,4.978225157749144,96.56381846825961,17.878793149761158,0.0,7.231733178516064,0.0,0.0,0.8522217000315099,0.0,4.273549863501938,0.0,5686.523844965618,0.28354827089065676,96.46395158379663,2.1502064175623365,1.2222126184013051,101040.34444810999,287.99580482913586,0.1,0.0,0.0,403.9736842105263,0.21680974495047337,0.86,nominal,4894.922145101623,nan,pitch_program,12.7,0.0,0.0,-3.3063036572092157,-0.0,0.0,-3.2755561665025352,0.0,0.0,0.86,0.0,0.0,0.0,0.0,0.0,0.0,-0.05716923993947283,0.0,0.0,-0.05716923993947283,0.0,0.0,0.6,1.0,20.778867102228567,0.03723658218695693,3.863158056595066,-0.00218884881802764,0.019413614865456723,0.0005021721522843135,21.134963799007675,0.019543072382892948,1.0,0.0,38.9891293871407,0.8561697855581142,23.106007934490748,92.81559574653079,-0.01429878191719496,5.638545718841565,1.0,23.924929033043128,0.0,1.0,96.51769145435944,5714.141216943768,1.0,1.0,-2.0884129315731466,18.586447139160324,-0.05198653732366435,-44.30004979369723,1.0,23.30001668636968,1.0,0.0059601927122216744,4.05453614328901,0.9406941650522544,1.0,-0.031199227627410092,7.176844339351173
0.63,57.39922917520962,0.0,23.868619405140524,97.03810971619252,0.0,4.876180868076341,97.16054691668842,17.872288857412645,0.0,7.203667427717864,0.0,0.0,0.9355250453126877,0.0,4.324002244011271,0.0,5757.0136904778365,0.2853027581713698,97.06067306178531,2.1494432587045362,1.2221954447737642,101038.59111090499,287.99485397386655,0.1,0.0,0.0,403.9397368421053,0.21679152564417503,0.86,nominal,4954.157135064427,nan,pitch_program,12.685,0.0,0.0,-3.3460654469068682,-0.0,0.0,-3.3178617347451347,0.0,0.0,0.86,0.0,0.0,0.0,0.0,0.0,0.0,-0.05790761139723335,0.0,0.0,-0.05790761139723335,0.0,0.0,0.63,1.0,20.747256915147673,0.0482501784753116,3.9677857244947643,0.000997562163779802,0.014343020609748135,0.0018119332194381364,21.123312267217237,0.014491393048080928,1.0,0.0,57.72132954862684,-1.4405247638228156,24.3389162090145,97.24899283155072,0.11105817103984193,4.8425370324123165,1.0,23.924929033043128,0.0,1.0,97.27859629200216,5757.373783668462,1.0,1.0,-2.0884129315731466,18.586447139160324,-0.05198653732366435,-44.30004979369723,1.0,23.30001668636968,1.0,0.0059601927122216744,4.05453614328901,0.9406941650522544,1.0,-0.031199227627410092,7.176844339351173
0.6599999999999999,60.32842238165571,0.0,24.01191823297673,97.63977354820317,0.0,4.77662759454012,97.75654223488736,17.86578511164332,0.0,7.173455548034602,0.0,0.0,1.007062679442539,0.0,4.369859347278803,0.0,5827.8509595472215,0.2870550877485938,97.65666180559153,2.148706294568003,1.222178621946102,101036.87359413858,287.9939225314856,0.1,0.0,0.0,403.9057894736842,0.21677330633787664,0.86,nominal,5013.6472528000795,nan,pitch_program,12.67,0.0,0.0,-3.3829201969892506,-0.0,0.0,-3.3568968120916045,0.0,0.0,0.86,0.0,0.0,0.0,0.0,0.0,0.0,-0.05858890202069989,0.0,0.0,-0.05858890202069989,0.0,0.0,0.6599999999999999,1.0,20.645811837622105,0.01932912714719676,3.992626275588309,0.0011141667637941386,0.013921111676360393,0.002382543117453245,21.02833765722273,0.01416740024103805,1.0,0.0,57.72132954862684,-1.4405247638228156,24.3389162090145,97.24899283155072,0.11105817103984193,4.8425370324123165,1.0,23.95291559011326,0.0,1.0,98.31920083166872,5684.519939445355,1.0,1.0,-1.670335623109286,18.679749133878058,0.0066186895430424015,-44.22804255282617,1.0,24.05258937664308,1.0,0.005384943889153253,4.049330661007889,0.9399702044175582,1.0,-0.05654672738215016,7.627410175903832
0.69,63.275635318422886,0.0,24.1523021208321,98.24043122557235,0.0,4.67946292851236,98.35181595011721,17.859281912453184,0.0,7.141457344499114,0.0,0.0,1.0666068122385253,0.0,4.411587873775581,0.0,5899.035438150481,0.2888052934758792,98.25192931663287,2.1479936727306117,1.2221621414949237,101035.19103748586,287.99301003621457,0.1,0.0,0.0,403.8718421052631,0.21675508703157828,0.86,nominal,5073.393023936124,nan,pitch_program,12.655,0.0,0.0,-3.416587761943757,-0.0,0.0,-3.392711382002896,0.0,0.0,0.86,0.0,0.0,0.0,0.0,0.0,0.0,-0.05921398418583762,0.0,0.0,-0.05921398418583762,0.0,0.0,0.69,1.0,20.679971225360013,0.03405703130360546,4.166752159497188,-0.00024342411824013636,0.01932231504138898,0.002091143341679508,21.095596538656448,0.01943666623512063,1.0,0.0,57.72132954862684,-1.4405247638228156,24.3389162090145,97.24899283155072,0.11105817103984193,4.8425370324123165,1.0,23.95291559011326,0.0,1.0,97.49891668978945,5908.019907763362,1.0,1.0,-1.670335623109286,18.679749133878058,0.0066186895430424015,-44.22804255282617,1.0,24.05258937664308,1.0,0.005384943889153253,4.049330661007889,0.9399702044175582,1.0,-0.05654672738215016,7.627410175903832
0.72,66.24083858228647,0.0,24.289840053891147,98.84010879545282,0.0,4.5845977686349535,98.94637761634897,17.852779259842237,0.0,7.107990944675174,0.0,0.0,1.1155466925140847,0.0,4.449602307505334,0.0,5970.566709730975,0.2905534034107733,98.84648512536008,2.147303574599273,1.2221459953112037,101033.54261273482,287.99211603964966,0.1,0.0,0.0,403.8378947368421,0.21673686772527995,0.86,nominal,5133.394781663053,nan,pitch_program,12.64,0.0,0.0,-3.4473771083762768,-0.0,0.0,-3.4255108178269245,0.0,0.0,0.86,0.0,0.0,0.0,0.0,0.0,0.0,-0.0597864423337635,0.0,0.0,-0.0597864423337635,0.0,0.0,0.72,1.0,20.61670052214541,-0.007930072127170567,4.259891123088538,0.0025088031883426986,0.019592939877308205,-0.0021429161886015883,21.052198832579066,0.019868806614012413,1.0,0.0,57.72132954862684,-1.4405247638228156,24.3389162090145,97.24899283155072,0.11105817103984193,4.8425370324123165,1.0,23.546649439434212,0.0,1.0,98.72648992042042,5953.101138874273,1.0,1.0,0.2874945668536168,18.625603184574434,-0.004236792949381907,-44.196291557718645,1.0,24.86752842797083,1.0,0.005990995406906327,4.066782199899037,0.9392753998652721,1.0,-0.44453082773386493,6.760112817176395
0.75,69.22400345547769,0.0,24.42459868126458,99.4388291063736,0.0,4.491954245781144,99.54023501576016,17.84627715381048,0.0,7.073318516295406,0.0,0.0,1.1557476479289155,0.0,4.4842521741104076,0.0,6042.4441722816455,0.2922994404069839,99.44033699244734,2.1466338295819405,1.2221301755606953,101031.9275197437,287.99124010857173,0.1,0.0,0.0,403.80394736842106,0.21671864841898159,0.86,nominal,5193.652684154006,nan,pitch_program,12.625,0.0,0.0,-3.4757950106660283,-0.0,0.0,-3.4556813335303866,0.0,0.0,0.86,0.0,0.0,0.0,0.0,0.0,0.0,-0.06031301716981357,0.0,0.0,-0.06031301716981357,0.0,0.0,0.75,1.0,20.567626842722866,0.011625204899593356,4.2620199649424375,0.0011903280909354376,0.023914675818634476,0.0013521571613500842,21.00457624586726,0.023982429598842583,1.0,0.0,57.72132954862684,-1.4405247638228156,24.3389162090145,97.24899283155072,0.11105817103984193,4.8425370324123165,1.0,23.546649439434212,0.0,1.0,99.86094744016332,6025.955021742003,1.0,1.0,0.2874945668536168,18.625603184574434,-0.004236792949381907,-44.196291557718645,1.0,24.86752842797083,1.0,0.005990995406906327,4.066782199899037,0.9392753998652721,1.0,-0.44453082773386493,6.760112817176395
0.78,72.22510182912718,0.0,24.556642566760363,100.03661245498338,0.0,4.401462849859396,100.13339456288911,17.83977559435791,0.0,7.037670345607582,0.0,0.0,1.1882723945929947,0.0,4.515848063722244,0.0,6114.667081140993,0.294043423302011,100.03349131264106,2.1459827081186824,1.222114674654462,101030.34498343115,287.99038182331606,0.1,0.0,0.0,403.77,0.21670042911268322,0.86,nominal,5254.166752170935,nan,pitch_program,12.61,0.0,0.0,-3.5020850446105967,-0.0,0.0,-3.483523560178513,0.0,0.0,0.86,0.0,0.0,0.0,0.0,0.0,0.0,-0.06079895569590987,0.0,0.0,-0.06079895569590987,0.0,0.0,0.78,1.0,20.571894923551184,-0.06683260163433906,4.375760320211463,0.0007836953734760417,0.020002409426006885,-0.0002538655740981199,21.032227787902293,0.02001936584944011,1.0,0.0,57.72132954862684,-1.4405247638228156,24.3389162090145,97.24899283155072,0.11105817103984193,4.8425370324123165,1.0,23.5057196496153,0.0,1.0,100.07458535559684,6201.853808406132,1.0,1.0,0.02320020698432135,18.752894214457026,0.020512500027092834,-44.226274103034775,1.0,24.363944419078333,1.0,0.02958593775135763,4.067498110365602,0.9386083935830991,1.0,-0.3641198977541506,6.517772257496464
0.8099999999999999,75.24410613389557,0.0,24.68603441647006,100.63347682561286,0.0,4.313061656989934,100.72586142033313,17.83327458148453,0.0,7.00125813636629,0.0,0.0,1.213740348893155,0.0,4.544675597396252,0.0,6187.234558110646,0.2957853672572235,100.62595323028266,2.145349105558611,1.2220994852221307,101028.79425104494,287.9895407762929,0.1,0.0,0.0,403.73605263157896,0.21668220980638486,0.86,nominal,5314.936878844354,nan,pitch_program,12.595,0.0,0.0,-3.526345910279594,-0.0,0.0,-3.5092169702391613,0.0,0.0,0.86,0.0,0.0,0.0,0.0,0.0,0.0,-0.061247390297533226,0.0,0.0,-0.061247390297533226,0.0,0.0,0.8099999999999999,1.0,20.60737043621943,-0.01909293271997271,4.533412875323018,0.001127163187817565,0.020632267602364033,0.0027680952868012225,21.100140121188648,0.020847621321972026,1.0,0.0,57.72132954862684,-1.4405247638228156,24.3389162090145,97.24899283155072,0.11105817103984193,4.8425370324123165,1.0,23.5057196496153,0.0,1.0,99.8063247690186,6138.618272136825,1.0,1.0,0.02320020698432135,18.752894214457026,0.020512500027092834,-44.226274103034775,1.0,24.363944419078333,1.0,0.02958593775135763,4.067498110365602,0.9386083935830991,1.0,-0.3641198977541506,6.517772257496464
0.84,78.28098927288212,0.0,24.812835304302272,101.22943796621861,0.0,4.226696261073708,101.3176394920444,17.82677411519034,0.0,6.964270345461222,0.0,0.0,1.2329264063203689,0.0,4.570991002540389,0.0,6260.14558594876,0.2975252837383027,101.21772663247596,2.144732123947746,1.2220846000853989,101027.27458945627,287.988716570522,0.1,0.0,0.0,403.7021052631579,0.2166639905000865,0.86,nominal,5375.962827456874,nan,pitch_program,12.58,0.0,0.0,-3.5487436305866056,-0.0,0.0,-3.5329329664476274,0.0,0.0,0.86,0.0,0.0,0.0,0.0,0.0,0.0,-0.061661312516761456,0.0,0.0,-0.061661312516761456,0.0,0.0,0.84,1.0,20.495142450324405,0.05166430092585032,4.521494307173669,0.0012661216670166629,0.02531524653937023,-5.870225580505489e-05,20.988030970743385,0.02534695676762049,1.0,0.0,77.87501239712564,0.11040984545368764,24.917736480845882,101.23841331307729,0.017043018975863612,4.174477552070743,1.0,25.959150721803514,0.0,1.0,100.97635507264587,6278.356865322748,1.0,1.0,-0.2524767918030103,18.689890114701395,0.042477749502781575,-44.16107613431681,1.0,24.641199378525076,1.0,-0.015716378217716927,4.073519511416848,0.9379679117392443,1.0,0.559642409700591,7.403523428098296
0.87,81.33572456079744,0.0,24.93710487386377,101.82450959717734,0.0,4.1423189853832465,101.90873152621579,17.82027419547534,0.0,6.926870186940884,0.0,0.0,1.2466719949442255,0.0,4.5950197549589955,0.0,6333.399016488301,0.2992631808177177,101.80881425182639,2.14413089658802,1.2220700122343051,101025.7852827367,287.98790881831985,0.1,0.0,0.0,403.66815789473685,0.21664577119378817,0.86,nominal,5437.2442401524395,nan,pitch_program,12.565,0.0,0.0,-3.56948155290221,-0.0,0.0,-3.554862118320377,0.0,0.0,0.86,0.0,0.0,0.0,0.0,0.0,0.0,-0.06204404841911081,0.0,0.0,-0.06204404841911081,0.0,0.0,0.87,1.0,20.458759509887972,-0.0032009294677551336,4.6374883249782215,-0.0007627910474587565,0.02136305461083448,0.001423801640237294,20.977777501291463,0.021424032384178334,1.0,0.0,77.87501239712564,0.11040984545368764,24.917736480845882,101.23841331307729,0.017043018975863612,4.174477552070743,1.0,25.959150721803514,0.0,1.0,101.5700769991048,6272.186435009803,1.0,1.0,-0.2524767918030103,18.689890114701395,0.042477749502781575,-44.16107613431681,1.0,24.641199378525076,1.0,-0.015716378217716927,4.073519511416848,0.9379679117392443,1.0,0.559642409700591,7.403523428098296
0.8999999999999999,84.40828567099157,0.0,25.058901509403228,102.41870367313776,0.0,4.059887851315262,102.49913927175807,17.813774822339525,0.0,6.8892010156277514,0.0,0.0,1.255639088999373,0.0,4.616962713753394,0.0,6406.993585933488,0.3009990636346709,102.3992178227775,2.1435447174696884,1.2220557148071447,101024.32563010685,287.98711714018884,0.1,0.0,0.0,403.6342105263158,0.2166275518874898,0.86,nominal,5498.7806522128185,nan,pitch_program,12.55,0.0,0.0,-3.5887112509067856,-0.0,0.0,-3.575171597872222,0.0,0.0,0.86,0.0,0.0,0.0,0.0,0.0,0.0,-0.06239851570665697,0.0,0.0,-0.06239851570665697,0.0,0.0,0.8999999999999999,1.0,20.48967227284245,-0.010573689704318741,4.668738837530892,0.00044742135249231185,0.021866056120771155,0.00382627890876341,21.014849606515675,0.022202815281649024,1.0,0.0,77.87501239712564,0.11040984545368764,24.917736480845882,101.23841331307729,0.017043018975863612,4.174477552070743,1.0,25.04498935050306,0.0,1.0,101.86855815104765,6540.896125546072,1.0,1.0,-2.017714388591032,18.91050360419113,-0.03530780576572019,-44.088910878928466,1.0,25.199165020176522,1.0,0.0004759712891396072,4.076109073567378,0.9373527462264919,1.0,0.18807463782397235,6.669951386256788
0.9299999999999999,87.49864658796204,0.0,25.178282487780653,103.01203056568208,0.0,3.979365945914188,103.08886358184633,17.8072759957829,0.0,6.851390516874003,0.0,0.0,1.2603500041975944,0.0,4.637000811551029,0.0,6480.92792419276,0.3027329346995049,102.98893818504678,2.142973081818368,1.2220417010726143,101022.89494411291,287.9863411638294,0.1,0.0,0.0,403.6002631578947,0.21660933258119142,0.86,nominal,5560.5715012570545,nan,pitch_program,12.535000000000002,0.0,0.0,-3.606544116090645,-0.0,0.0,-3.5939951088032758,0.0,0.0,0.86,0.0,0.0,0.0,0.0,0.0,0.0,-0.062727047949189,0.0,0.0,-0.062727047949189,0.0,0.0,0.9299999999999999,1.0,20.432108044324494,-0.03394187802056017,4.7333006109085165,-0.0007921764512016805,0.023140171564900686,-0.001474918900734763,20.973228789560757,0.023200656657659958,1.0,0.0,77.87501239712564,0.11040984545368764,24.917736480845882,101.23841331307729,0.017043018975863612,4.174477552070743,1.0,25.04498935050306,0.0,1.0,102.87498609118786,6443.299016714532,1.0,1.0,-2.017714388591032,18.91050360419113,-0.03530780576572019,-44.088910878928466,1.0,25.199165020176522,1.0,0.0004759712891396072,4.076109073567378,0.9373527462264919,1.0,0.18807463782397235,6.669951386256788
0.96,90.60678156387158,0.0,25.295304117816034,103.6044991969847,0.0,3.900721001179345,103.67790448396923,17.800777715805463,0.0,6.813551379592398,0.0,0.0,1.2613046218968316,0.0,4.655296091593634,0.0,6555.200560434679,0.3044647940996822,103.57797535358398,2.1424155906572695,1.2220279644134286,101021.49254895358,287.98558052323415,0.1,0.0,0.0,403.56631578947366,0.21659111327489305,0.86,nominal,5622.616133220504,nan,pitch_program,12.520000000000001,0.0,0.0,-3.6230920183091415,-0.0,0.0,-3.611453254506795,0.0,0.0,0.86,0.0,0.0,0.0,0.0,0.0,0.0,-0.06303175007300832,0.0,0.0,-0.06303175007300832,0.0,0.0,0.96,1.0,20.404945374969625,0.0403044881716855,4.881413887613299,0.005810731508932576,0.021614330499821907,-0.0017345670483146591,20.98074407044338,0.02244888875801055,1.0,0.0,77.87501239712564,0.11040984545368764,24.917736480845882,101.23841331307729,0.017043018975863612,4.174477552070743,1.0,25.01287820326736,0.0,1.0,103.0790850223144,6569.576317645258,1.0,1.0,0.32106353464181236,18.93798895451457,0.01749869089294133,-44.139686966535926,1.0,25.444451996754253,1.0,0.008488511521670595,4.0736441048674585,0.93676173970546,1.0,-0.2852912671137542,6.596241841196202
0.99,93.73266507940332,0.0,25.410021864552235,104.19611718439116,0.0,3.8239248912066883,104.26626126354087,17.794279982407215,0.0,6.775782126267692,0.0,0.0,1.2589751564132619,0.0,4.6719929338405,0.0,6629.8099306876,0.30619463974561306,104.1663286020972,2.1418719002372746,1.2220144983117283,101020.1177789898,287.9848348578804,0.1,0.0,0.0,403.53236842105264,0.21657289396859472,0.86,nominal,5684.913809856493,nan,pitch_program,12.505,0.0,0.0,-3.638465018039359,-0.0,0.0,-3.6276603126263334,0.0,0.0,0.86,0.0,0.0,0.0,0.0,0.0,0.0,-0.06331461659925634,0.0,0.0,-0.06331461659925634,0.0,0.0,0.99,1.0,20.478099973330504,0.02423630645272609,4.949504945419311,-0.0014060586879246736,0.022299188487179756,0.003593470265315887,21.067766021128094,0.02263059514834659,1.0,0.0,77.87501239712564,0.11040984545368764,24.917736480845882,101.23841331307729,0.017043018975863612,4.174477552070743,1.0,25.01287820326736,0.0,1.0,103.47921322839751,6586.112243452966,1.0,1.0,0.32106353464181236,18.93798895451457,0.01749869089294133,-44.139686966535926,1.0,25.444451996754253,1.0,0.008488511521670595,4.0736441048674585,0.93676173970546,1.0,-0.2852912671137542,6.596241841196202
1.02,96.87627180896152,0.0,25.52249045804082,104.78689098527344,0.0,3.7489531162861978,104.85393255299341,17.787782795588157,0.0,6.738169143754728,0.0,0.0,1.2537661287917514,0.0,4.68722047470476,0.0,6704.7543865164735,0.30792246763258313,104.75399655206783,2.1413417382539466,1.2220012963362836,101018.76997743784,287.98410381202274,0.1,0.0,0.0,403.49842105263156,0.21655467466229633,0.86,nominal,5747.463716964192,nan,pitch_program,12.49,0.0,0.0,-3.6527562272339016,-0.0,0.0,-3.6427178613908744,0.0,0.0,0.86,0.0,0.0,0.0,0.0,0.0,0.0,-0.06357742040247719,0.0,0.0,-0.06357742040247719,0.0,0.0,1.02,1.0,20.36101960190235,-0.003617189695431459,5.041930665255022,-0.0012687287302588265,0.022798136213126527,0.0009741654625859581,20.975990969352363,0.02285418311232652,1.0,0.0,77.87501239712564,0.11040984545368764,24.917736480845882,101.23841331307729,0.017043018975863612,4.174477552070743,1.0,25.351901042987876,0.0,1.0,104.92564775770813,6825.585566980767,1.0,1.0,0.20716255069020592,18.942440704723936,-0.02774534788802444,-44.0847837249683,1.0,25.58138079382276,1.0,0.004000979885722656,4.1219327995681745,0.936193773854898,1.0,-0.2350183702845472,6.392959968544285
1.05,100.03757658950381,0.0,25.63276398983568,105.37682601807653,0.0,3.675784393162007,105.44091640605646,17.781286155348287,0.0,6.700788356737736,0.0,0.0,1.2460262780971738,0.0,4.70109459741322,0.0,6780.032202189804,0.3096482720591438,105.34097724696392,2.1408249023139927,1.2219883521311603,101017.44849521178,287.983387034066,0.1,0.0,0.0,403.46447368421053,0.216536455355998,0.86,nominal,5810.264971255415,nan,pitch_program,12.475,0.0,0.0,-3.666045047413236,-0.0,0.0,-3.6567141730042914,0.0,0.0,0.86,0.0,0.0,0.0,0.0,0.0,0.0,-0.06382170212326643,0.0,0.0,-0.06382170212326643,0.0,0.0,1.05,1.0,20.393651847841493,0.023065120251563386,5.085156807595184,-0.0009619480502852831,0.02326801680549917,-0.000216186253064102,21.018096665696746,0.023288896208460662,1.0,0.0,100.9647444499562,-0.5143213134600304,25.09458098701854,105.48760797171896,-0.10413279965858194,3.662381786741738,1.0,25.351901042987876,0.0,1.0,104.98312539382736,6682.437001417498,1.0,1.0,0.20716255069020592,18.942440704723936,-0.02774534788802444,-44.0847837249683,1.0,25.58138079382276,1.0,0.004000979885722656,4.1219327995681745,0.936193773854898,1.0,-0.2350183702845472,6.392959968544285
1.08,103.21655439249521,0.0,25.740895999181138,105.96592676637985,0.0,3.604400311515232,106.02721036160213,17.774790061687607,0.0,6.6637061777959925,0.0,0.0,1.2360726745382535,0.0,4.713719151596995,0.0,6855.641580826623,0.31137204581483224,105.92726821602714,2.1403212325961722,1.22197565940559,101016.15268988888,287.9826841760053,0.1,0.0,0.0,403.43052631578945,0.21651823604969964,0.86,nominal,5873.316626282084,nan,pitch_program,12.46,0.0,0.0,-3.6784050829312203,-0.0,0.0,-3.6697287189604486,0.0,0.0,0.86,0.0,0.0,0.0,0.0,0.0,0.0,-0.06404884880085349,0.0,0.0,-0.06404884880085349,0.0,0.0,1.08,1.0,20.305703938594974,-0.022853924830118926,5.228987186675303,6.010971362783861e-05,0.021723403387809634,0.0015833385952579505,20.9681768816978,0.021781111749274988,1.0,0.0,100.9647444499562,-0.5143213134600304,25.09458098701854,105.48760797171896,-0.10413279965858194,3.662381786741738,1.0,26.158709917479353,0.0,1.0,105.74338253415719,6847.219113088476,1.0,1.0,0.7264451323418568,19.029155077892014,-0.02658840919779483,-44.01604601861471,1.0,25.685537579611914,1.0,-0.0045325187658295995,4.1152519252223145,0.9356477600020472,1.0,-0.808246265656688,6.73576295022328
1.1099999999999999,106.41318029882248,0.0,25.84693954919362,106.55419687757565,0.0,3.5347850004160613,106.61281150604893,17.768294514606115,0.0,6.626980444522116,0.0,0.0,1.2241911510436714,0.0,4.725187144951402,0.0,6931.580660640603,0.3130937803636496,106.51286653662461,2.139830597308633,1.221963211925009,101014.8819247945,287.98199489293023,0.1,0.0,0.0,403.3965789473684,0.21650001674340127,0.86,nominal,5936.617678342259,nan,pitch_program,12.445,0.0,0.0,-3.689903772382759,-0.0,0.0,-3.6818337510138353,0.0,0.0,0.86,0.0,0.0,0.0,0.0,0.0,0.0,-0.06426012146624453,0.0,0.0,-0.06426012146624453,0.0,0.0,1.1099999999999999,1.0,20.340331183390777,-0.051319635676952136,5.279204196912054,-0.0009535318708432641,0.022040305499912736,0.002824344071052272,21.01432138584825,0.02224098039632888,1.0,0.0,100.9647444499562,-0.5143213134600304,25.09458098701854,105.48760797171896,-0.10413279965858194,3.662381786741738,1.0,26.158709917479353,0.0,1.0,107.03275624216883,6974.01207117608,1.0,1.0,0.7264451323418568,19.029155077892014,-0.02658840919779483,-44.01604601861471,1.0,25.685537579611914,1.0,-0.0045325187658295995,4.1152519252223145,0.9356477600020472,1.0,-0.808246265656688,6.73576295022328
1.14,109.62742947644155,0.0,25.95094729378034,107.14163925396883,0.0,3.4669248195573252,107.19771653226601,17.761799514103814,0.0,6.590661473193281,0.0,0.0,1.2106324181649435,0.0,4.735582029155622,0.0,7007.847521003677,0.3148134660172463,107.09776889310658,2.139352891451519,1.2219510035031975,101013.63556819901,287.9813188425904,0.1,0.0,0.0,403.3626315789474,0.21648179743710294,0.86,nominal,6000.16707214458,nan,pitch_program,12.43,0.0,0.0,-3.7006004432796495,-0.0,0.0,-3.6930937663733236,0.0,0.0,0.86,0.0,0.0,0.0,0.0,0.0,0.0,-0.06445664580809274,0.0,0.0,-0.06445664580809274,0.0,0.0,1.14,1.0,20.2892590661256,0.00532466447862414,5.300459882204893,0.00121304139877298,0.017731886659306417,0.0019481353936812015,20.970191624476755,0.017879779233696914,1.0,0.0,100.9647444499562,-0.5143213134600304,25.09458098701854,105.48760797171896,-0.10413279965858194,3.662381786741738,1.0,26.669948180830882,0.0,1.0,106.87406714592838,6945.692973884225,1.0,1.0,-0.7598756353801139,19.09832576116893,0.06539829339394247,-44.085767994259385,1.0,26.005331180839953,1.0,0.0038094536017736326,4.124874206167928,0.9351226317655491,1.0,-0.20272584193111715,6.885459548035038
1.17,112.85927716042774,0.0,26.052971536568823,107.72825613287314,0.0,3.4008080929493776,107.78192179171324,17.7553050601807,0.0,6.554792935740058,0.0,0.0,1.1956179541548777,0.0,4.74497877825922,0.0,7084.44018788063,0.31653109208822117,107.68197162890552,2.1388880308338476,1.2219390279953493,101012.41299261007,287.98065568501227,0.1,0.0,0.0,403.3286842105263,0.21646357813080455,0.86,nominal,6063.9637058765875,nan,pitch_program,12.415,0.0,0.0,-3.7105478864610575,-0.0,0.0,-3.7035662384259633,0.0,0.0,0.86,0.0,0.0,0.0,0.0,0.0,0.0,-0.0646394249262344,0.0,0.0,-0.0646394249262344,0.0,0.0,1.17,1.0,20.19959261560772,-0.02730403298349267,5.328261771672037,-0.0008634720567739232,0.023098164387572246,-0.001090500165282645,20.890539984744116,0.023140008052691372,1.0,0.0,100.9647444499562,-0.5143213134600304,25.09458098701854,105.48760797171896,-0.10413279965858194,3.662381786741738,1.0,26.669948180830882,0.0,1.0,107.74950026725247,7004.736074140485,1.0,1.0,-0.7598756353801139,19.09832576116893,0.06539829339394247,-44.085767994259385,1.0,26.005331180839953,1.0,0.0038094536017736326,4.124874206167928,0.9351226317655491,1.0,-0.20272584193111715,6.885459548035038
1.2,116.10869863517576,0.0,26.153064282730586,108.3140491582674,0.0,3.3364248720587315,108.3654233415182,17.748811152836776,0.0,6.519412555281805,0.0,0.0,1.1793460527499566,0.0,4.753444762973058,0.0,7161.356638824714,0.3182466470285336,108.26547079357667,2.1384359427052044,1.221927279291978,101011.21357415016,287.9800050821622,0.1,0.0,0.0,403.2947368421053,0.21644535882450622,0.86,nominal,6128.006435841468,nan,pitch_program,12.4,0.0,0.0,-3.719794086885905,-0.0,0.0,-3.7133029475019286,0.0,0.0,0.86,0.0,0.0,0.0,0.0,0.0,0.0,-0.0648093625579188,0.0,0.0,-0.0648093625579188,0.0,0.0,1.2,1.0,20.17257154979159,0.05991784686592215,5.52575140013323,-0.00012476373930662816,0.020130811988195083,-0.0010175630330780644,20.91578737738335,0.02015689936029328,1.0,0.0,100.9647444499562,-0.5143213134600304,25.09458098701854,105.48760797171896,-0.10413279965858194,3.662381786741738,1.0,26.841017177424792,0.0,1.0,107.66696974620865,7189.683672209505,1.0,1.0,2.06342647402825,19.133653952687613,0.08539920361413032,-44.02149353769402,1.0,26.397944995738307,1.0,-5.519108586433316e-05,4.130917401389758,0.9346173392931736,1.0,-0.11770425331794655,6.120938124391592
1.23,119.37566921856684,0.0,26.25127728426646,108.89901944636962,0.0,3.2737667178625123,108.948216988181,17.74231779207204,0.0,6.484552762411478,0.0,0.0,1.1619931315224035,0.0,4.76104056953716,0.0,7238.594807732916,0.3199601185579978,108.84826218646994,2.1379965607073226,1.2219157513135919,101010.03669201254,287.97936669765227,0.1,0.0,0.0,403.26078947368416,0.2164271395182078,0.86,nominal,6192.294080831638,nan,pitch_program,12.385,0.0,0.0,-3.7283823172136583,-0.0,0.0,-3.7223505693289662,0.0,0.0,0.86,0.0,0.0,0.0,0.0,0.0,0.0,-0.06496727334827591,0.0,0.0,-0.06496727334827591,0.0,0.0,1.23,1.0,20.220782196777055,-0.0034837575534648673,5.523719008253778,0.0002589862009826061,0.021123763949862734,0.0025757760128478453,20.9616677883275,0.021281802069612953,1.0,0.0,100.9647444499562,-0.5143213134600304,25.09458098701854,105.48760797171896,-0.10413279965858194,3.662381786741738,1.0,26.841017177424792,0.0,1.0,109.18400586176135,7280.916108424902,1.0,1.0,2.06342647402825,19.133653952687613,0.08539920361413032,-44.02149353769402,1.0,26.397944995738307,1.0,-5.519108586433316e-05,4.130917401389758,0.9346173392931736,1.0,-0.11770425331794655,6.120938124391592
1.26,122.66016424791157,0.0,26.34766207940956,109.48316764482426,0.0,3.2128265047699673,109.53029832742375,17.735824977886494,0.0,6.450241308945756,0.0,0.0,1.143715149703909,0.0,4.767820758986867,0.0,7316.152589278616,0.3216714937814388,109.43034139654999,2.137569822144617,1.2219044380060562,101008.88172798767,287.97874019648384,0.1,0.0,0.0,403.22684210526313,0.21640892021190947,0.86,nominal,6256.825426178265,nan,pitch_program,12.37,0.0,0.0,-3.7363512931488976,-0.0,0.0,-3.7307510036209255,0.0,0.0,0.86,0.0,0.0,0.0,0.0,0.0,0.0,-0.06511388858526804,0.0,0.0,-0.06511388858526804,0.0,0.0,1.26,1.0,20.211087371267322,0.00794684442405135,5.5878954615598415,-0.0014282419835606125,0.02056268825615439,-0.00016546531227039135,20.969327399100305,0.0206128940775661,1.0,0.0,120.35106249752643,-0.9886792019865726,28.264149177566452,109.52881788820322,-0.10364898284714909,3.1770401134027546,1.0,25.621831573218667,0.0,1.0,110.02980969206843,7426.405587507244,1.0,1.0,0.9629097954391108,19.23191398346726,0.023134658006696746,-43.94370766743922,1.0,26.721401188057637,1.0,0.0006925181714708218,4.14279894494893,0.9341308448014761,1.0,-0.16193324251844712,6.320623624760575
1.29,125.96215906747885,0.0,26.44227002681211,110.0664939855762,0.0,3.1535982467517076,110.11166278001072,17.729332710280136,0.0,6.416501793236886,0.0,0.0,1.1246505561278468,0.0,4.773834521417433,0.0,7394.027842978162,0.3233807592940008,110.01170383819023,2.137155664208403,1.2218933333365773,101007.74806605274,287.9781252448257,0.1,0.0,0.0,403.1928947368421,0.21639070090561113,0.86,nominal,6321.599227447836,nan,pitch_program,12.355,0.0,0.0,-3.7437359135383645,-0.0,0.0,-3.7385419495713887,0.0,0.0,0.86,0.0,0.0,0.0,0.0,0.0,0.0,-0.06524986624394855,0.0,0.0,-0.06524986624394855,0.0,0.0,1.29,1.0,20.20031469259236,-0.049476832008403165,5.670950198013144,-0.003389608958674506,0.01848294430379062,-0.0003681181865630906,20.98129733322069,0.018794791566522653,1.0,0.0,120.35106249752643,-0.9886792019865726,28.264149177566452,109.52881788820322,-0.10364898284714909,3.1770401134027546,1.0,25.621831573218667,0.0,1.0,109.92748792504896,7323.519579753159,1.0,1.0,0.9629097954391108,19.23191398346726,0.023134658006696746,-43.94370766743922,1.0,26.721401188057637,1.0,0.0006925181714708218,4.14279894494893,0.9341308448014761,1.0,-0.16193324251844712,6.320623624760575
1.3199999999999998,129.28162901745392,0.0,26.535152335041275,110.64899833250206,0.0,3.096076940972108,110.6923056242414,17.72284098925297,0.0,6.383354119254115,0.0,0.0,1.1049224969109197,0.0,4.779126250559717,0.0,7472.218396965322,0.32508790127666953,110.59234478364206,2.1367540204855757,1.2218824312902283,101006.6350920168,287.9775215098222,0.1,0.0,0.0,403.158947368421,0.21637248159931274,0.86,nominal,6386.614213851664,nan,pitch_program,12.34,0.0,0.0,-3.750567778191673,-0.0,0.0,-3.7457574467435597,0.0,0.0,0.86,0.0,0.0,0.0,0.0,0.0,0.0,-0.06537580042677127,0.0,0.0,-0.06537580042677127,0.0,0.0,1.3199999999999998,1.0,20.080837461649345,0.03567348886726788,5.739590518691674,-0.0005986024000608491,0.021492072915850795,0.00022732488971947352,20.885023463746528,0.021501609234173425,1.0,0.0,120.35106249752643,-0.9886792019865726,28.264149177566452,109.52881788820322,-0.10364898284714909,3.1770401134027546,1.0,26.38186119711799,0.0,1.0,111.12087274922045,7361.582782906064,1.0,1.0,1.6927284296326035,19.198406790495927,-0.030682723420617862,-43.90998364014346,1.0,26.532299192006068,1.0,0.013162503591316774,4.149686337826202,0.9336621191623968,1.0,-0.7218941598180079,6.501347142800859
1.3499999999999999,132.61854942418714,0.0,26.62636008783944,111.23068022444002,0.0,3.040258426605541,111.27222202550006,17.71634981480499,0.0,6.350814915547913,0.0,0.0,1.0846401526923954,0.0,4.783736066513234,0.0,7550.722051508548,0.3267929055831376,111.17225939256292,2.136364818824896,1.2218717258669751,101005.54219321696,287.976928659429,0.1,0.0,0.0,403.125,0.2163542622930144,0.86,nominal,6451.8690914015,nan,pitch_program,12.325,0.0,0.0,-3.756875423257641,-0.0,0.0,-3.7524282326520084,0.0,0.0,0.86,0.0,0.0,0.0,0.0,0.0,0.0,-0.06549222760456934,0.0,0.0,-0.06549222760456934,0.0,0.0,1.3499999999999999,1.0,20.123940091609498,-0.08324399002846977,5.825557279786446,-0.002692286164653651,0.020574469414451832,0.00011597472438910492,20.950346345410065,0.020750196303054497,1.0,0.0,120.35106249752643,-0.9886792019865726,28.264149177566452,109.52881788820322,-0.10364898284714909,3.1770401134027546,1.0,26.38186119711799,0.0,1.0,110.40516733281505,7532.442758826793,1.0,1.0,1.6927284296326035,19.198406790495927,-0.030682723420617862,-43.90998364014346,1.0,26.532299192006068,1.0,0.013162503591316774,4.149686337826202,0.9336621191623968,1.0,-0.7218941598180079,6.501347142800859
1.38,135.97289559160228,0.0,26.71594426559519,111.81153891383799,0.0,2.986139258525027,111.8514070629065,17.7098591869362,0.0,6.318897909048315,0.0,0.0,1.0639002441650263,0.0,4.787700282208856,0.0,7629.5365822619315,0.3284957578181443,111.75144273864765,2.1359879795833496,1.2218612110791496,101004.46875826009,287.9763463622736,0.1,0.0,0.0,403.0910526315789,0.21633604298671602,0.86,nominal,6517.362545808205,nan,pitch_program,12.31,0.0,0.0,-3.7626846405776275,-0.0,0.0,-3.7585820774073797,0.0,0.0,0.86,0.0,0.0,0.0,0.0,0.0,0.0,-0.06559963245720715,0.0,0.0,-0.06559963245720715,0.0,0.0,1.38,1.0,20.052907503880682,0.016192227366680224,5.876293633640259,0.000628780306154169,0.018705428067865345,0.0021791237596503594,20.89617640661043,0.018842425115556775,1.0,0.0,120.35106249752643,-0.9886792019865726,28.264149177566452,109.52881788820322,-0.10364898284714909,3.1770401134027546,1.0,26.557930025535057,0.0,1.0,111.71012209408241,7741.1630696115,1.0,1.0,0.008506569961628012,19.26014814673468,-0.03420361459673876,-43.95440016422592,1.0,26.89394097919418,1.0,-0.0009266132384222408,4.179635053121812,0.933210139336012,1.0,-0.06537621353699231,6.8977654764525616
1.41,139.34464279364556,0.0,26.80395576342602,112.3915734014431,0.0,2.9337165943610457,112.4298557533007,17.703369105646598,0.0,6.287614252993474,0.0,0.0,1.0427885610675915,0.0,4.79105181409881,0.0,7708.6597432667795,0.33019644340797333,112.32988983359557,2.1356234138894505,1.2218508809493214,101003.41417680531,287.9757742875377,0.1,0.0,0.0,403.0571052631579,0.2163178236804177,0.86,nominal,6583.093245141403,nan,pitch_program,12.295,0.0,0.0,-3.768018830733704,-0.0,0.0,-3.764244129403175,0.0,0.0,0.86,0.0,0.0,0.0,0.0,0.0,0.0,-0.06569845390695289,0.0,0.0,-0.06569845390695289,0.0,0.0,1.41,1.0,20.119080700208848,-0.07625831548021851,5.881807100148467,-0.003819351200820914,0.014776715426690203,-0.0006470055900708794,20.961366327497664,0.01527603936333562,1.0,0.0,120.35106249752643,-0.9886792019865726,28.264149177566452,109.52881788820322,-0.10364898284714909,3.1770401134027546,1.0,26.557930025535057,0.0,1.0,112.34058320639126,7638.318605482628,1.0,1.0,0.008506569961628012,19.26014814673468,-0.03420361459673876,-43.95440016422592,1.0,26.89394097919418,1.0,-0.0009266132384222408,4.179635053121812,0.933210139336012,1.0,-0.06537621353699231,6.8977654764525616
1.44,142.7337662676711,0.0,26.890445406219165,112.97078246751776,0.0,2.882988093104832,113.00756307286785,17.696879570936186,0.0,6.2569728194784044,0.0,0.0,1.021381141512288,0.0,4.793820548877079,0.0,7788.089269732281,0.3318949476640108,112.90759564871932,2.1352710223490723,1.221840729508519,101002.37783938221,287.97521210485957,0.1,0.0,0.0,403.02315789473687,0.21629960437411935,0.86,nominal,6649.059842277002,nan,pitch_program,12.28,0.0,0.0,-3.7728992533568664,-0.0,0.0,-3.76943720377539,0.0,0.0,0.86,0.0,0.0,0.0,0.0,0.0,0.0,-0.06578909015304898,0.0,0.0,-0.06578909015304898,0.0,0.0,1.44,1.0,20.12524398392314,0.027761547359216102,5.963995316111093,-0.00031388330610222076,0.017337517333363497,0.001718790116999069,20.99036579592031,0.0174253341282405,1.0,0.0,120.35106249752643,-0.9886792019865726,28.264149177566452,109.52881788820322,-0.10364898284714909,3.1770401134027546,1.0,27.2042365990061,0.0,1.0,113.26905996747064,7672.910706282839,1.0,1.0,1.430724974756069,19.32230604451392,0.04184226310548753,-43.915399419887166,1.0,26.69883097250742,1.0,0.00636477619432341,4.19949770090738,0.9327738864844521,1.0,-0.3017590074810985,5.874061178142086
1.47,146.1402412086681,0.0,26.975463960946946,113.5491646999006,0.0,2.8339518242593966,113.58452397658483,17.690390582804962,0.0,6.226980461369472,0.0,0.0,0.9997452931266423,0.0,4.796033671811315,0.0,7867.822880608382,0.3335912558398947,113.48455513437676,2.1349306941439847,1.2218307507947854,101001.35913724314,287.97465948425383,0.1,0.0,0.0,402.9892105263158,0.21628138506782096,0.86,nominal,6715.2609771463085,nan,pitch_program,12.265,0.0,0.0,-3.7773452390648816,-0.0,0.0,-3.774182024949085,0.0,0.0,0.86,0.0,0.0,0.0,0.0,0.0,0.0,-0.0658719029049483,0.0,0.0,-0.0658719029049483,0.0,0.0,1.47,1.0,19.987146521814275,-0.014612581059159788,6.088924949381811,0.0003055854345507461,0.017722545349289832,-0.0003411062948706504,20.89404811546106,0.01772846156946069,1.0,0.0,145.79467007050707,-1.2389951447554337,26.767823842592314,113.82394816769211,-0.12167131273932834,3.196764892685569,1.0,27.2042365990061,0.0,1.0,113.28463175604747,7923.289353508207,1.0,1.0,1.430724974756069,19.32230604451392,0.04184226310548753,-43.915399419887166,1.0,26.69883097250742,1.0,0.00636477619432341,4.19949770090738,0.9327738864844521,1.0,-0.3017590074810985,5.874061178142086
