time_s,sensor_time_s,imu_valid,imu_ax_mps2,imu_ay_mps2,imu_az_mps2,gyro_p_rps,gyro_q_rps,gyro_r_rps,imu_accel_norm_mps2,imu_gyro_norm_rps,gps_valid,gps_latency_s,gps_x_m,gps_y_m,gps_z_m,gps_vx_mps,gps_vy_mps,gps_vz_mps,baro_valid,baro_alt_m,baro_bias_m,pitot_valid,pitot_airspeed_mps,pitot_qbar_pa,pitot_compressibility_factor,mag_valid,mag_heading_deg,mag_x_ut,mag_y_ut,mag_z_ut,radar_valid,radar_agl_m,optical_flow_valid,optical_flow_x_radps,optical_flow_y_radps,optical_flow_quality,horizon_valid,horizon_roll_deg,horizon_pitch_deg
0.0,0.0,1.0,17.092684802550952,-0.04331266066330364,0.17133629194414204,0.0016677683591043149,0.0011681274632859406,0.0012765720485123657,17.09359838860347,0.00240324973008537,1.0,0.0,-1.885154541229685,1.8645638091475825,21.162662438547994,85.32748210022089,0.18147237523479218,7.846341299741817,1.0,20.771163472887363,0.0,1.0,85.52743876012808,4455.110504654227,1.0,1.0,-0.8198733225718878,19.523475325297145,-0.00615746722134172,-43.81279554351524,1.0,20.39618647858491,1.0,-0.0077448575321814855,4.273240466216326,0.95,1.0,0.17459483210835952,5.697481511065039
0.03,0.03,1.0,17.399563908154985,-0.024205067786461216,0.6823135895685112,0.001972178925766813,-0.15516674912873246,0.0016995476198838452,17.412953853777537,0.1551885884561313,1.0,0.0,-1.885154541229685,1.8645638091475825,21.162662438547994,85.32748210022089,0.18147237523479218,7.846341299741817,1.0,20.771163472887363,0.0,1.0,85.34892133282018,4483.358861672386,1.0,1.0,-0.8198733225718878,19.523475325297145,-0.00615746722134172,-43.81279554351524,1.0,20.39618647858491,1.0,-0.0077448575321814855,4.273240466216326,0.95,1.0,0.17459483210835952,5.697481511065039
0.06,0.06,1.0,17.70739027309802,-0.048625240197861,1.2170528887428502,-0.003446139225741984,-0.18297062084317978,-0.00034689119184351384,17.74923244627181,0.18300339969738494,1.0,0.0,-1.885154541229685,1.8645638091475825,21.162662438547994,85.32748210022089,0.18147237523479218,7.846341299741817,1.0,20.52601511429277,0.0,1.0,85.83863034520898,4515.424226797025,1.0,1.0,0.07665381874344163,19.05133394791982,-0.026858555853548426,-44.016831377629565,1.0,20.444364994919965,1.0,0.00018197912592243334,4.219143646315873,0.9488515531182751,1.0,-0.15907090264631085,6.39853393834517
0.09,0.09,1.0,17.981306555514355,-0.01094183278357201,1.4085129528815297,0.0004011470069548937,-0.1142593993192011,0.0025448602353110453,18.036391377033354,0.11428844020863661,1.0,0.0,-1.885154541229685,1.8645638091475825,21.162662438547994,85.32748210022089,0.18147237523479218,7.846341299741817,1.0,20.52601511429277,0.0,1.0,87.13105693663857,4633.3129823552035,1.0,1.0,0.07665381874344163,19.05133394791982,-0.026858555853548426,-44.016831377629565,1.0,20.444364994919965,1.0,0.00018197912592243334,4.219143646315873,0.9488515531182751,1.0,-0.15907090264631085,6.39853393834517
0.12,0.12,1.0,18.247132538342104,-0.01413003862604277,1.5234151570752872,0.0017811967641120853,-0.05656559229548186,-0.0028376729027249836,18.31062094169997,0.0566647269573764,1.0,0.0,-1.885154541229685,1.8645638091475825,21.162662438547994,85.32748210022089,0.18147237523479218,7.846341299741817,1.0,20.83524743559063,0.0,1.0,87.16426406339222,4701.904046027917,1.0,1.0,-1.8951218293581098,18.8396056318105,-0.005790965511073151,-44.081934350389474,1.0,20.15956427595214,1.0,-0.013840283315854317,4.181162881182803,0.9477633193504283,1.0,0.28335723464815654,7.476143709853791
0.15,0.15,1.0,18.54641607679734,-0.03605765477427094,1.6834096148356799,-0.00013304420042076212,-0.04947563981984342,-0.0016289172586783655,18.622693612350385,0.04950262627151979,1.0,0.0,-1.885154541229685,1.8645638091475825,21.162662438547994,85.32748210022089,0.18147237523479218,7.846341299741817,1.0,20.83524743559063,0.0,1.0,87.44045197805038,4729.064741420962,1.0,1.0,-1.8951218293581098,18.8396056318105,-0.005790965511073151,-44.081934350389474,1.0,20.15956427595214,1.0,-0.013840283315854317,4.181162881182803,0.9477633193504283,1.0,0.28335723464815654,7.476143709853791
0.18,0.18,1.0,18.751858148578783,-0.04780444576139571,1.9026468098857752,0.00013974800767314763,-0.0592292026804217,-0.0008869940367906495,18.848197106689636,0.05923600879604756,1.0,0.0,-1.885154541229685,1.8645638091475825,21.162662438547994,85.32748210022089,0.18147237523479218,7.846341299741817,1.0,20.082203382569883,0.0,1.0,87.93174652289834,4832.294728515825,1.0,1.0,-0.5428950996559269,18.728864957938608,0.02966309435753329,-44.22167162576094,1.0,21.361730013096725,1.0,0.006974051956994979,4.138887943065216,0.9467297595206512,1.0,-0.5040599611879599,6.693867412756719
0.21,0.21,1.0,19.042726007418686,0.06045326675660328,2.1025757784549306,-0.0011844703614280934,-0.049955195596097436,0.0010356537480328346,19.158546220818188,0.0499799671445197,1.0,0.0,18.158597578379382,-0.8507156713177079,22.528382500531222,88.79192642839834,-0.10696639449047544,6.6949367170114655,1.0,20.082203382569883,0.0,1.0,88.7121938469943,4822.809246019287,1.0,1.0,-0.5428950996559269,18.728864957938608,0.02966309435753329,-44.22167162576094,1.0,21.361730013096725,1.0,0.006974051956994979,4.138887943065216,0.9467297595206512,1.0,-0.5040599611879599,6.693867412756719
0.24,0.24,1.0,19.343580633769914,-0.05931437453800777,2.304640261754881,0.0004014737785476082,-0.03690555995049378,0.0011573760834501412,19.480477321315487,0.03692588598602468,1.0,0.0,18.158597578379382,-0.8507156713177079,22.528382500531222,88.79192642839834,-0.10696639449047544,6.6949367170114655,1.0,22.185296900108504,0.0,1.0,89.35831472873973,4880.322192183869,1.0,1.0,-0.9874075351661772,18.640989606025094,-0.01105574941250553,-44.296083489940415,1.0,21.597754777479953,1.0,0.015553992101837083,4.126249306173392,0.9457463844459073,1.0,-0.5929147826834491,7.160661801518863
0.27,0.27,1.0,19.555994576926324,-0.02835453910261265,2.4481396263152853,0.0019072580176267414,-0.02285017448245768,-0.002090558849283284,19.708655852254225,0.023024737638611178,1.0,0.0,18.158597578379382,-0.8507156713177079,22.528382500531222,88.79192642839834,-0.10696639449047544,6.6949367170114655,1.0,22.185296900108504,0.0,1.0,90.02991160181693,4950.928816817808,1.0,1.0,-0.9874075351661772,18.640989606025094,-0.01105574941250553,-44.296083489940415,1.0,21.597754777479953,1.0,0.015553992101837083,4.126249306173392,0.9457463844459073,1.0,-0.5929147826834491,7.160661801518863
0.3,0.3,1.0,19.93682493463433,-0.023144794989114953,2.5893395342162804,-0.0006483740193760299,-0.021296600534628035,0.0011196854561373627,20.104283209785113,0.021335868361077,1.0,0.0,18.158597578379382,-0.8507156713177079,22.528382500531222,88.79192642839834,-0.10696639449047544,6.6949367170114655,1.0,22.082869129114215,0.0,1.0,90.30034963678948,5022.692605537272,1.0,1.0,-0.032100222264470346,18.475691594702575,-0.006038005167106243,-44.29436668650004,1.0,21.913496190671392,1.0,0.0042634016461290366,4.091696559105737,0.9448087329746004,1.0,0.49262759900427344,7.873935906403636
0.32999999999999996,0.32999999999999996,1.0,20.176264764776715,-0.05396740755448139,2.7815433368012603,-0.0008335127957680589,-0.014501297842815892,0.0009767482210283772,20.367168572827005,0.01455803626159957,1.0,0.0,18.158597578379382,-0.8507156713177079,22.528382500531222,88.79192642839834,-0.10696639449047544,6.6949367170114655,1.0,22.082869129114215,0.0,1.0,90.7909894759184,5062.184748786958,1.0,1.0,-0.032100222264470346,18.475691594702575,-0.006038005167106243,-44.29436668650004,1.0,21.913496190671392,1.0,0.0042634016461290366,4.091696559105737,0.9448087329746004,1.0,0.49262759900427344,7.873935906403636
0.36,0.36,1.0,20.56559428601874,0.04056869726443273,2.8690807879957596,-0.0017116473741721086,-0.010415299308907904,0.0002472742290717788,20.76480047398411,0.010557904194110249,1.0,0.0,18.158597578379382,-0.8507156713177079,22.528382500531222,88.79192642839834,-0.10696639449047544,6.6949367170114655,1.0,22.99776068086253,0.0,1.0,91.2932256573185,5114.46570040369,1.0,1.0,0.24703569469091746,18.55768590836159,0.05777323077028381,-44.33119041772163,1.0,22.232791833840274,1.0,0.008474791280591054,4.087125492261698,0.9439131764857978,1.0,-0.12522865530984933,7.108418518105805
0.39,0.39,1.0,20.83457518667695,-0.03998306635079582,3.020517173949502,-0.004200210305302578,-0.004379027094026372,0.0021403138457621635,21.052426127480263,0.006434173471188685,1.0,0.0,18.158597578379382,-0.8507156713177079,22.528382500531222,88.79192642839834,-0.10696639449047544,6.6949367170114655,1.0,22.99776068086253,0.0,1.0,91.4454229770022,5170.299377802432,1.0,1.0,0.24703569469091746,18.55768590836159,0.05777323077028381,-44.33119041772163,1.0,22.232791833840274,1.0,0.008474791280591054,4.087125492261698,0.9439131764857978,1.0,-0.12522865530984933,7.108418518105805
0.42,0.42,1.0,20.876890365241522,-0.028261817516269515,3.169778104816052,-4.435109278206495e-05,0.001075837705322254,0.001005012113417697,21.116174920814018,0.0014729029620923174,1.0,0.0,38.9891293871407,0.8561697855581142,23.106007934490748,92.81559574653079,-0.01429878191719496,5.638545718841565,1.0,23.176397388262043,0.0,1.0,93.05707173119484,5272.966499787786,1.0,1.0,1.0151129233973093,18.489095031651633,0.018258774712861983,-44.25561062218894,1.0,22.71142927447195,1.0,0.016688064665782515,4.06278091395835,0.9430563550194336,1.0,0.4032278623625569,6.9593715530896665
0.44999999999999996,0.44999999999999996,1.0,20.904884146461598,0.03480239865722864,3.2966539299224302,0.003273383298076893,0.00523457035327554,0.0006495057299919682,21.163253991709468,0.00620786780568114,1.0,0.0,38.9891293871407,0.8561697855581142,23.106007934490748,92.81559574653079,-0.01429878191719496,5.638545718841565,1.0,23.176397388262043,0.0,1.0,93.04931737270194,5375.880319114516,1.0,1.0,1.0151129233973093,18.489095031651633,0.018258774712861983,-44.25561062218894,1.0,22.71142927447195,1.0,0.016688064665782515,4.06278091395835,0.9430563550194336,1.0,0.4032278623625569,6.9593715530896665
0.48,0.48,1.0,20.85732777370136,0.012525986310875077,3.391070189205391,-0.0009259558692904829,0.006309806397479893,0.002863435715449263,21.131200528793073,0.00699073065866953,1.0,0.0,38.9891293871407,0.8561697855581142,23.106007934490748,92.81559574653079,-0.01429878191719496,5.638545718841565,1.0,24.501370226863,0.0,1.0,93.92153043749089,5351.018358053156,1.0,1.0,-0.341560527222041,18.47738573422686,-0.01746976429002118,-44.2698586735237,1.0,23.258020650811773,1.0,0.007915542794734144,4.080716610296816,0.9422355525668717,1.0,0.636746191090788,7.66362987505712
0.51,0.51,1.0,20.803026406346238,0.06853486531179354,3.5667487204412054,0.0007061520466158617,0.009747696901136409,-0.0019268357040249766,21.10668854002615,0.009961372466666906,1.0,0.0,38.9891293871407,0.8561697855581142,23.106007934490748,92.81559574653079,-0.01429878191719496,5.638545718841565,1.0,24.501370226863,0.0,1.0,93.67886188343445,5472.707304562989,1.0,1.0,-0.341560527222041,18.47738573422686,-0.01746976429002118,-44.2698586735237,1.0,23.258020650811773,1.0,0.007915542794734144,4.080716610296816,0.9422355525668717,1.0,0.636746191090788,7.66362987505712
0.54,0.54,1.0,20.813990157482568,-0.011959623866143985,3.652165448236907,0.00258475109658373,0.012741902774657058,-0.000786372376342729,21.13198149179768,0.013025183532848162,1.0,0.0,38.9891293871407,0.8561697855581142,23.106007934490748,92.81559574653079,-0.01429878191719496,5.638545718841565,1.0,23.597597026237892,0.0,1.0,94.92261219314486,5530.404755514937,1.0,1.0,0.6010780516446778,18.517191246679953,-0.00910350250981173,-44.215036314078894,1.0,23.61437157104928,1.0,-0.0028495226081697673,4.050095016433385,0.9414487474522713,1.0,0.0064165621930257054,7.15982979849928
0.57,0.57,1.0,20.78813257998332,0.012149172236429435,3.712465866996509,0.0034063518963941427,0.015888917514317077,-0.0048126073959461535,21.117031197092174,0.016947628830203818,1.0,0.0,38.9891293871407,0.8561697855581142,23.106007934490748,92.81559574653079,-0.01429878191719496,5.638545718841565,1.0,23.597597026237892,0.0,1.0,96.25371251115368,5647.522761741967,1.0,1.0,0.6010780516446778,18.517191246679953,-0.00910350250981173,-44.215036314078894,1.0,23.61437157104928,1.0,-0.0028495226081697673,4.050095016433385,0.9414487474522713,1.0,0.0064165621930257054,7.15982979849928
0.6,0.6,1.0,20.778867102228567,0.03723658218695693,3.863158056595066,-0.00218884881802764,0.019413614865456723,0.0005021721522843135,21.134963799007675,0.019543072382892948,1.0,0.0,38.9891293871407,0.8561697855581142,23.106007934490748,92.81559574653079,-0.01429878191719496,5.638545718841565,1.0,23.924929033043128,0.0,1.0,96.51769145435944,5714.141216943768,1.0,1.0,-2.0884129315731466,18.586447139160324,-0.05198653732366435,-44.30004979369723,1.0,23.30001668636968,1.0,0.0059601927122216744,4.05453614328901,0.9406941650522544,1.0,-0.031199227627410092,7.176844339351173
0.63,0.63,1.0,20.747256915147673,0.0482501784753116,3.9677857244947643,0.000997562163779802,0.014343020609748135,0.0018119332194381364,21.123312267217237,0.014491393048080928,1.0,0.0,57.72132954862684,-1.4405247638228156,24.3389162090145,97.24899283155072,0.11105817103984193,4.8425370324123165,1.0,23.924929033043128,0.0,1.0,97.27859629200216,5757.373783668462,1.0,1.0,-2.0884129315731466,18.586447139160324,-0.05198653732366435,-44.30004979369723,1.0,23.30001668636968,1.0,0.0059601927122216744,4.05453614328901,0.9406941650522544,1.0,-0.031199227627410092,7.176844339351173
0.6599999999999999,0.6599999999999999,1.0,20.645811837622105,0.01932912714719676,3.992626275588309,0.0011141667637941386,0.013921111676360393,0.002382543117453245,21.02833765722273,0.01416740024103805,1.0,0.0,57.72132954862684,-1.4405247638228156,24.3389162090145,97.24899283155072,0.11105817103984193,4.8425370324123165,1.0,23.95291559011326,0.0,1.0,98.31920083166872,5684.519939445355,1.0,1.0,-1.670335623109286,18.679749133878058,0.0066186895430424015,-44.22804255282617,1.0,24.05258937664308,1.0,0.005384943889153253,4.049330661007889,0.9399702044175582,1.0,-0.05654672738215016,7.627410175903832
0.69,0.69,1.0,20.679971225360013,0.03405703130360546,4.166752159497188,-0.00024342411824013636,0.01932231504138898,0.002091143341679508,21.095596538656448,0.01943666623512063,1.0,0.0,57.72132954862684,-1.4405247638228156,24.3389162090145,97.24899283155072,0.11105817103984193,4.8425370324123165,1.0,23.95291559011326,0.0,1.0,97.49891668978945,5908.019907763362,1.0,1.0,-1.670335623109286,18.679749133878058,0.0066186895430424015,-44.22804255282617,1.0,24.05258937664308,1.0,0.005384943889153253,4.049330661007889,0.9399702044175582,1.0,-0.05654672738215016,7.627410175903832
0.72,0.72,1.0,20.61670052214541,-0.007930072127170567,4.259891123088538,0.0025088031883426986,0.019592939877308205,-0.0021429161886015883,21.052198832579066,0.019868806614012413,1.0,0.0,57.72132954862684,-1.4405247638228156,24.3389162090145,97.24899283155072,0.11105817103984193,4.8425370324123165,1.0,23.546649439434212,0.0,1.0,98.72648992042042,5953.101138874273,1.0,1.0,0.2874945668536168,18.625603184574434,-0.004236792949381907,-44.196291557718645,1.0,24.86752842797083,1.0,0.005990995406906327,4.066782199899037,0.9392753998652721,1.0,-0.44453082773386493,6.760112817176395
0.75,0.75,1.0,20.567626842722866,0.011625204899593356,4.2620199649424375,0.0011903280909354376,0.023914675818634476,0.0013521571613500842,21.00457624586726,0.023982429598842583,1.0,0.0,57.72132954862684,-1.4405247638228156,24.3389162090145,97.24899283155072,0.11105817103984193,4.8425370324123165,1.0,23.546649439434212,0.0,1.0,99.86094744016332,6025.955021742003,1.0,1.0,0.2874945668536168,18.625603184574434,-0.004236792949381907,-44.196291557718645,1.0,24.86752842797083,1.0,0.005990995406906327,4.066782199899037,0.9392753998652721,1.0,-0.44453082773386493,6.760112817176395
0.78,0.78,1.0,20.571894923551184,-0.06683260163433906,4.375760320211463,0.0007836953734760417,0.020002409426006885,-0.0002538655740981199,21.032227787902293,0.02001936584944011,1.0,0.0,57.72132954862684,-1.4405247638228156,24.3389162090145,97.24899283155072,0.11105817103984193,4.8425370324123165,1.0,23.5057196496153,0.0,1.0,100.07458535559684,6201.853808406132,1.0,1.0,0.02320020698432135,18.752894214457026,0.020512500027092834,-44.226274103034775,1.0,24.363944419078333,1.0,0.02958593775135763,4.067498110365602,0.9386083935830991,1.0,-0.3641198977541506,6.517772257496464
0.8099999999999999,0.8099999999999999,1.0,20.60737043621943,-0.01909293271997271,4.533412875323018,0.001127163187817565,0.020632267602364033,0.0027680952868012225,21.100140121188648,0.020847621321972026,1.0,0.0,57.72132954862684,-1.4405247638228156,24.3389162090145,97.24899283155072,0.11105817103984193,4.8425370324123165,1.0,23.5057196496153,0.0,1.0,99.8063247690186,6138.618272136825,1.0,1.0,0.02320020698432135,18.752894214457026,0.020512500027092834,-44.226274103034775,1.0,24.363944419078333,1.0,0.02958593775135763,4.067498110365602,0.9386083935830991,1.0,-0.3641198977541506,6.517772257496464
0.84,0.84,1.0,20.495142450324405,0.05166430092585032,4.521494307173669,0.0012661216670166629,0.02531524653937023,-5.870225580505489e-05,20.988030970743385,0.02534695676762049,1.0,0.0,77.87501239712564,0.11040984545368764,24.917736480845882,101.23841331307729,0.017043018975863612,4.174477552070743,1.0,25.959150721803514,0.0,1.0,100.97635507264587,6278.356865322748,1.0,1.0,-0.2524767918030103,18.689890114701395,0.042477749502781575,-44.16107613431681,1.0,24.641199378525076,1.0,-0.015716378217716927,4.073519511416848,0.9379679117392443,1.0,0.559642409700591,7.403523428098296
0.87,0.87,1.0,20.458759509887972,-0.0032009294677551336,4.6374883249782215,-0.0007627910474587565,0.02136305461083448,0.001423801640237294,20.977777501291463,0.021424032384178334,1.0,0.0,77.87501239712564,0.11040984545368764,24.917736480845882,101.23841331307729,0.017043018975863612,4.174477552070743,1.0,25.959150721803514,0.0,1.0,101.5700769991048,6272.186435009803,1.0,1.0,-0.2524767918030103,18.689890114701395,0.042477749502781575,-44.16107613431681,1.0,24.641199378525076,1.0,-0.015716378217716927,4.073519511416848,0.9379679117392443,1.0,0.559642409700591,7.403523428098296
0.8999999999999999,0.8999999999999999,1.0,20.48967227284245,-0.010573689704318741,4.668738837530892,0.00044742135249231185,0.021866056120771155,0.00382627890876341,21.014849606515675,0.022202815281649024,1.0,0.0,77.87501239712564,0.11040984545368764,24.917736480845882,101.23841331307729,0.017043018975863612,4.174477552070743,1.0,25.04498935050306,0.0,1.0,101.86855815104765,6540.896125546072,1.0,1.0,-2.017714388591032,18.91050360419113,-0.03530780576572019,-44.088910878928466,1.0,25.199165020176522,1.0,0.0004759712891396072,4.076109073567378,0.9373527462264919,1.0,0.18807463782397235,6.669951386256788
0.9299999999999999,0.9299999999999999,1.0,20.432108044324494,-0.03394187802056017,4.7333006109085165,-0.0007921764512016805,0.023140171564900686,-0.001474918900734763,20.973228789560757,0.023200656657659958,1.0,0.0,77.87501239712564,0.11040984545368764,24.917736480845882,101.23841331307729,0.017043018975863612,4.174477552070743,1.0,25.04498935050306,0.0,1.0,102.87498609118786,6443.299016714532,1.0,1.0,-2.017714388591032,18.91050360419113,-0.03530780576572019,-44.088910878928466,1.0,25.199165020176522,1.0,0.0004759712891396072,4.076109073567378,0.9373527462264919,1.0,0.18807463782397235,6.669951386256788
0.96,0.96,1.0,20.404945374969625,0.0403044881716855,4.881413887613299,0.005810731508932576,0.021614330499821907,-0.0017345670483146591,20.98074407044338,0.02244888875801055,1.0,0.0,77.87501239712564,0.11040984545368764,24.917736480845882,101.23841331307729,0.017043018975863612,4.174477552070743,1.0,25.01287820326736,0.0,1.0,103.0790850223144,6569.576317645258,1.0,1.0,0.32106353464181236,18.93798895451457,0.01749869089294133,-44.139686966535926,1.0,25.444451996754253,1.0,0.008488511521670595,4.0736441048674585,0.93676173970546,1.0,-0.2852912671137542,6.596241841196202
0.99,0.99,1.0,20.478099973330504,0.02423630645272609,4.949504945419311,-0.0014060586879246736,0.022299188487179756,0.003593470265315887,21.067766021128094,0.02263059514834659,1.0,0.0,77.87501239712564,0.11040984545368764,24.917736480845882,101.23841331307729,0.017043018975863612,4.174477552070743,1.0,25.01287820326736,0.0,1.0,103.47921322839751,6586.112243452966,1.0,1.0,0.32106353464181236,18.93798895451457,0.01749869089294133,-44.139686966535926,1.0,25.444451996754253,1.0,0.008488511521670595,4.0736441048674585,0.93676173970546,1.0,-0.2852912671137542,6.596241841196202
1.02,1.02,1.0,20.36101960190235,-0.003617189695431459,5.041930665255022,-0.0012687287302588265,0.022798136213126527,0.0009741654625859581,20.975990969352363,0.02285418311232652,1.0,0.0,77.87501239712564,0.11040984545368764,24.917736480845882,101.23841331307729,0.017043018975863612,4.174477552070743,1.0,25.351901042987876,0.0,1.0,104.92564775770813,6825.585566980767,1.0,1.0,0.20716255069020592,18.942440704723936,-0.02774534788802444,-44.0847837249683,1.0,25.58138079382276,1.0,0.004000979885722656,4.1219327995681745,0.936193773854898,1.0,-0.2350183702845472,6.392959968544285
1.05,1.05,1.0,20.393651847841493,0.023065120251563386,5.085156807595184,-0.0009619480502852831,0.02326801680549917,-0.000216186253064102,21.018096665696746,0.023288896208460662,1.0,0.0,100.9647444499562,-0.5143213134600304,25.09458098701854,105.48760797171896,-0.10413279965858194,3.662381786741738,1.0,25.351901042987876,0.0,1.0,104.98312539382736,6682.437001417498,1.0,1.0,0.20716255069020592,18.942440704723936,-0.02774534788802444,-44.0847837249683,1.0,25.58138079382276,1.0,0.004000979885722656,4.1219327995681745,0.936193773854898,1.0,-0.2350183702845472,6.392959968544285
1.08,1.08,1.0,20.305703938594974,-0.022853924830118926,5.228987186675303,6.010971362783861e-05,0.021723403387809634,0.0015833385952579505,20.9681768816978,0.021781111749274988,1.0,0.0,100.9647444499562,-0.5143213134600304,25.09458098701854,105.48760797171896,-0.10413279965858194,3.662381786741738,1.0,26.158709917479353,0.0,1.0,105.74338253415719,6847.219113088476,1.0,1.0,0.7264451323418568,19.029155077892014,-0.02658840919779483,-44.01604601861471,1.0,25.685537579611914,1.0,-0.0045325187658295995,4.1152519252223145,0.9356477600020472,1.0,-0.808246265656688,6.73576295022328
1.1099999999999999,1.1099999999999999,1.0,20.340331183390777,-0.051319635676952136,5.279204196912054,-0.0009535318708432641,0.022040305499912736,0.002824344071052272,21.01432138584825,0.02224098039632888,1.0,0.0,100.9647444499562,-0.5143213134600304,25.09458098701854,105.48760797171896,-0.10413279965858194,3.662381786741738,1.0,26.158709917479353,0.0,1.0,107.03275624216883,6974.01207117608,1.0,1.0,0.7264451323418568,19.029155077892014,-0.02658840919779483,-44.01604601861471,1.0,25.685537579611914,1.0,-0.0045325187658295995,4.1152519252223145,0.9356477600020472,1.0,-0.808246265656688,6.73576295022328
1.14,1.14,1.0,20.2892590661256,0.00532466447862414,5.300459882204893,0.00121304139877298,0.017731886659306417,0.0019481353936812015,20.970191624476755,0.017879779233696914,1.0,0.0,100.9647444499562,-0.5143213134600304,25.09458098701854,105.48760797171896,-0.10413279965858194,3.662381786741738,1.0,26.669948180830882,0.0,1.0,106.87406714592838,6945.692973884225,1.0,1.0,-0.7598756353801139,19.09832576116893,0.06539829339394247,-44.085767994259385,1.0,26.005331180839953,1.0,0.0038094536017736326,4.124874206167928,0.9351226317655491,1.0,-0.20272584193111715,6.885459548035038
1.17,1.17,1.0,20.19959261560772,-0.02730403298349267,5.328261771672037,-0.0008634720567739232,0.023098164387572246,-0.001090500165282645,20.890539984744116,0.023140008052691372,1.0,0.0,100.9647444499562,-0.5143213134600304,25.09458098701854,105.48760797171896,-0.10413279965858194,3.662381786741738,1.0,26.669948180830882,0.0,1.0,107.74950026725247,7004.736074140485,1.0,1.0,-0.7598756353801139,19.09832576116893,0.06539829339394247,-44.085767994259385,1.0,26.005331180839953,1.0,0.0038094536017736326,4.124874206167928,0.9351226317655491,1.0,-0.20272584193111715,6.885459548035038
1.2,1.2,1.0,20.17257154979159,0.05991784686592215,5.52575140013323,-0.00012476373930662816,0.020130811988195083,-0.0010175630330780644,20.91578737738335,0.02015689936029328,1.0,0.0,100.9647444499562,-0.5143213134600304,25.09458098701854,105.48760797171896,-0.10413279965858194,3.662381786741738,1.0,26.841017177424792,0.0,1.0,107.66696974620865,7189.683672209505,1.0,1.0,2.06342647402825,19.133653952687613,0.08539920361413032,-44.02149353769402,1.0,26.397944995738307,1.0,-5.519108586433316e-05,4.130917401389758,0.9346173392931736,1.0,-0.11770425331794655,6.120938124391592
1.23,1.23,1.0,20.220782196777055,-0.0034837575534648673,5.523719008253778,0.0002589862009826061,0.021123763949862734,0.0025757760128478453,20.9616677883275,0.021281802069612953,1.0,0.0,100.9647444499562,-0.5143213134600304,25.09458098701854,105.48760797171896,-0.10413279965858194,3.662381786741738,1.0,26.841017177424792,0.0,1.0,109.18400586176135,7280.916108424902,1.0,1.0,2.06342647402825,19.133653952687613,0.08539920361413032,-44.02149353769402,1.0,26.397944995738307,1.0,-5.519108586433316e-05,4.130917401389758,0.9346173392931736,1.0,-0.11770425331794655,6.120938124391592
1.26,1.26,1.0,20.211087371267322,0.00794684442405135,5.5878954615598415,-0.0014282419835606125,0.02056268825615439,-0.00016546531227039135,20.969327399100305,0.0206128940775661,1.0,0.0,120.35106249752643,-0.9886792019865726,28.264149177566452,109.52881788820322,-0.10364898284714909,3.1770401134027546,1.0,25.621831573218667,0.0,1.0,110.02980969206843,7426.405587507244,1.0,1.0,0.9629097954391108,19.23191398346726,0.023134658006696746,-43.94370766743922,1.0,26.721401188057637,1.0,0.0006925181714708218,4.14279894494893,0.9341308448014761,1.0,-0.16193324251844712,6.320623624760575
1.29,1.29,1.0,20.20031469259236,-0.049476832008403165,5.670950198013144,-0.003389608958674506,0.01848294430379062,-0.0003681181865630906,20.98129733322069,0.018794791566522653,1.0,0.0,120.35106249752643,-0.9886792019865726,28.264149177566452,109.52881788820322,-0.10364898284714909,3.1770401134027546,1.0,25.621831573218667,0.0,1.0,109.92748792504896,7323.519579753159,1.0,1.0,0.9629097954391108,19.23191398346726,0.023134658006696746,-43.94370766743922,1.0,26.721401188057637,1.0,0.0006925181714708218,4.14279894494893,0.9341308448014761,1.0,-0.16193324251844712,6.320623624760575
1.3199999999999998,1.3199999999999998,1.0,20.080837461649345,0.03567348886726788,5.739590518691674,-0.0005986024000608491,0.021492072915850795,0.00022732488971947352,20.885023463746528,0.021501609234173425,1.0,0.0,120.35106249752643,-0.9886792019865726,28.264149177566452,109.52881788820322,-0.10364898284714909,3.1770401134027546,1.0,26.38186119711799,0.0,1.0,111.12087274922045,7361.582782906064,1.0,1.0,1.6927284296326035,19.198406790495927,-0.030682723420617862,-43.90998364014346,1.0,26.532299192006068,1.0,0.013162503591316774,4.149686337826202,0.9336621191623968,1.0,-0.7218941598180079,6.501347142800859
1.3499999999999999,1.3499999999999999,1.0,20.123940091609498,-0.08324399002846977,5.825557279786446,-0.002692286164653651,0.020574469414451832,0.00011597472438910492,20.950346345410065,0.020750196303054497,1.0,0.0,120.35106249752643,-0.9886792019865726,28.264149177566452,109.52881788820322,-0.10364898284714909,3.1770401134027546,1.0,26.38186119711799,0.0,1.0,110.40516733281505,7532.442758826793,1.0,1.0,1.6927284296326035,19.198406790495927,-0.030682723420617862,-43.90998364014346,1.0,26.532299192006068,1.0,0.013162503591316774,4.149686337826202,0.9336621191623968,1.0,-0.7218941598180079,6.501347142800859
1.38,1.38,1.0,20.052907503880682,0.016192227366680224,5.876293633640259,0.000628780306154169,0.018705428067865345,0.0021791237596503594,20.89617640661043,0.018842425115556775,1.0,0.0,120.35106249752643,-0.9886792019865726,28.264149177566452,109.52881788820322,-0.10364898284714909,3.1770401134027546,1.0,26.557930025535057,0.0,1.0,111.71012209408241,7741.1630696115,1.0,1.0,0.008506569961628012,19.26014814673468,-0.03420361459673876,-43.95440016422592,1.0,26.89394097919418,1.0,-0.0009266132384222408,4.179635053121812,0.933210139336012,1.0,-0.06537621353699231,6.8977654764525616
1.41,1.41,1.0,20.119080700208848,-0.07625831548021851,5.881807100148467,-0.003819351200820914,0.014776715426690203,-0.0006470055900708794,20.961366327497664,0.01527603936333562,1.0,0.0,120.35106249752643,-0.9886792019865726,28.264149177566452,109.52881788820322,-0.10364898284714909,3.1770401134027546,1.0,26.557930025535057,0.0,1.0,112.34058320639126,7638.318605482628,1.0,1.0,0.008506569961628012,19.26014814673468,-0.03420361459673876,-43.95440016422592,1.0,26.89394097919418,1.0,-0.0009266132384222408,4.179635053121812,0.933210139336012,1.0,-0.06537621353699231,6.8977654764525616
1.44,1.44,1.0,20.12524398392314,0.027761547359216102,5.963995316111093,-0.00031388330610222076,0.017337517333363497,0.001718790116999069,20.99036579592031,0.0174253341282405,1.0,0.0,120.35106249752643,-0.9886792019865726,28.264149177566452,109.52881788820322,-0.10364898284714909,3.1770401134027546,1.0,27.2042365990061,0.0,1.0,113.26905996747064,7672.910706282839,1.0,1.0,1.430724974756069,19.32230604451392,0.04184226310548753,-43.915399419887166,1.0,26.69883097250742,1.0,0.00636477619432341,4.19949770090738,0.9327738864844521,1.0,-0.3017590074810985,5.874061178142086
1.47,1.47,1.0,19.987146521814275,-0.014612581059159788,6.088924949381811,0.0003055854345507461,0.017722545349289832,-0.0003411062948706504,20.89404811546106,0.01772846156946069,1.0,0.0,145.79467007050707,-1.2389951447554337,26.767823842592314,113.82394816769211,-0.12167131273932834,3.196764892685569,1.0,27.2042365990061,0.0,1.0,113.28463175604747,7923.289353508207,1.0,1.0,1.430724974756069,19.32230604451392,0.04184226310548753,-43.915399419887166,1.0,26.69883097250742,1.0,0.00636477619432341,4.19949770090738,0.9327738864844521,1.0,-0.3017590074810985,5.874061178142086
1.5,1.5,1.0,20.020020797240626,-0.05849183849588691,6.111222259635919,0.0005658666969142462,0.01765019129473757,0.001447673505714987,20.932073273419128,0.017718499271627258,1.0,0.0,145.79467007050707,-1.2389951447554337,26.767823842592314,113.82394816769211,-0.12167131273932834,3.196764892685569,1.0,26.961077521884718,0.0,1.0,114.3078852360742,8042.4655769114825,1.0,1.0,-1.2019821554122339,19.413985616106334,0.031243065780116114,-43.86432339583472,1.0,27.051650771861397,1.0,0.0008202138454862203,4.199477606551032,0.932352344633633,1.0,0.3489614714784054,6.277444396880965
1.53,1.53,1.0,19.986311335542563,-0.004045045969823648,6.251232840939178,0.003779395934551159,0.01448404189851755,0.000847128737547872,20.941121488479805,0.014992962697415516,1.0,0.0,145.79467007050707,-1.2389951447554337,26.767823842592314,113.82394816769211,-0.12167131273932834,3.196764892685569,1.0,26.961077521884718,0.0,1.0,114.74618954197832,7934.957347107052,1.0,1.0,-1.2019821554122339,19.413985616106334,0.031243065780116114,-43.86432339583472,1.0,27.051650771861397,1.0,0.0008202138454862203,4.199477606551032,0.932352344633633,1.0,0.3489614714784054,6.277444396880965
1.56,1.56,1.0,19.982076369080982,0.06228828308165944,6.249023076829996,0.0019368357837205887,0.017238948761469527,-0.0016953108876864049,20.93651225168002,0.017430053535763462,1.0,0.0,145.79467007050707,-1.2389951447554337,26.767823842592314,113.82394816769211,-0.12167131273932834,3.196764892685569,1.0,27.190842946164967,0.0,1.0,115.04988001611373,8016.529339445996,1.0,1.0,0.7895691799827573,19.383997576829525,-0.08293977770278484,-43.864423045781145,1.0,27.312853024119374,1.0,0.002017349946885081,4.218075491789147,0.9319444997744808,1.0,-0.12955041479895812,5.278303166759319
1.5899999999999999,1.5899999999999999,1.0,19.887307883843796,-0.027721553808669343,6.347823266121276,0.0007793280462142175,0.013089322533240414,0.0014853473402726709,20.875838751275403,0.013196362123860743,1.0,0.0,145.79467007050707,-1.2389951447554337,26.767823842592314,113.82394816769211,-0.12167131273932834,3.196764892685569,1.0,27.190842946164967,0.0,1.0,115.72810661756186,8149.520308810524,1.0,1.0,0.7895691799827573,19.383997576829525,-0.08293977770278484,-43.864423045781145,1.0,27.312853024119374,1.0,0.002017349946885081,4.218075491789147,0.9319444997744808,1.0,-0.12955041479895812,5.278303166759319
1.6199999999999999,1.6199999999999999,1.0,19.95813967684036,-0.04133767912465263,6.428153847647585,-0.00022357653111030915,0.013055469268572942,-0.0008930185862735824,20.96783751494205,0.013087885485568168,1.0,0.0,145.79467007050707,-1.2389951447554337,26.767823842592314,113.82394816769211,-0.12167131273932834,3.196764892685569,1.0,27.90452609998827,0.0,1.0,116.78944791950359,8323.376861716706,1.0,1.0,0.2672245144087914,19.43854097610531,0.0836155907880831,-43.93483157631891,1.0,27.190771124145556,1.0,0.0016252355438096673,4.233863362763524,0.9315493393157226,1.0,0.2590999534225386,5.548871081495326
1.65,1.65,1.0,19.815733068102293,-0.03149770820662431,6.436872743683165,-0.00031166391982524196,0.018695091821204733,-0.0008708280710869574,20.835008995685033,0.01871795753098051,1.0,0.0,145.79467007050707,-1.2389951447554337,26.767823842592314,113.82394816769211,-0.12167131273932834,3.196764892685569,1.0,27.90452609998827,0.0,1.0,117.34121131203797,8263.377762223727,1.0,1.0,0.2672245144087914,19.43854097610531,0.0836155907880831,-43.93483157631891,1.0,27.190771124145556,1.0,0.0016252355438096673,4.233863362763524,0.9315493393157226,1.0,0.2590999534225386,5.548871081495326
1.68,1.68,1.0,19.917071310999003,0.0016834332470432795,6.638796505859841,0.0007375120723331163,0.014242293669358806,0.002200374561925831,20.99436475551437,0.014430124782338693,1.0,0.0,169.38589826010045,0.10467949366459839,25.714541404175463,117.39863695925574,-0.11996303888903753,2.540580668046066,1.0,28.12957700231463,0.0,1.0,117.94085494772906,8417.014902177076,1.0,1.0,0.21119975031304736,19.4829690056681,-0.05832704608835584,-43.84637424650075,1.0,27.71211975572443,1.0,-0.00543425822334291,4.246269807538169,0.9311658518169237,1.0,0.10699802367398142,5.84318128710582
1.71,1.71,1.0,19.723025611963884,-0.022542819924003258,6.619734499075354,0.0007828565490089715,0.01180837286301821,0.0008870477358788632,20.80430561944238,0.011867492900108216,1.0,0.0,169.38589826010045,0.10467949366459839,25.714541404175463,117.39863695925574,-0.11996303888903753,2.540580668046066,1.0,28.12957700231463,0.0,1.0,118.07799433178484,8636.54343110321,1.0,1.0,0.21119975031304736,19.4829690056681,-0.05832704608835584,-43.84637424650075,1.0,27.71211975572443,1.0,-0.00543425822334291,4.246269807538169,0.9311658518169237,1.0,0.10699802367398142,5.84318128710582
1.74,1.74,1.0,19.752631211214325,0.06386807782458512,6.627006502421506,0.0012293759769343958,0.016554636413525142,-0.0013421034472542188,20.834772234913927,0.016654386621542314,1.0,0.0,169.38589826010045,0.10467949366459839,25.714541404175463,117.39863695925574,-0.11996303888903753,2.540580668046066,1.0,27.652463274758652,0.0,1.0,118.6122747910356,8505.051211407963,1.0,1.0,0.35735351418991396,19.494346242101937,0.013098680850136067,-43.82107829548444,1.0,28.013163896559657,1.0,0.0041346211143124464,4.2791647976685425,0.9307930269438871,1.0,-0.07440528772314185,5.965428367024221
1.77,1.77,1.0,19.762008552567043,0.008778923153284957,6.815442880533597,-0.002399117131381455,0.011561687804235289,-0.002344988067335383,20.904241692992375,0.012038577861551434,1.0,0.0,169.38589826010045,0.10467949366459839,25.714541404175463,117.39863695925574,-0.11996303888903753,2.540580668046066,1.0,27.652463274758652,0.0,1.0,119.49652500014899,8749.283326554209,1.0,1.0,0.35735351418991396,19.494346242101937,0.013098680850136067,-43.82107829548444,1.0,28.013163896559657,1.0,0.0041346211143124464,4.2791647976685425,0.9307930269438871,1.0,-0.07440528772314185,5.965428367024221
1.7999999999999998,1.7999999999999998,1.0,19.75908896041825,-0.021217514946967615,6.84368674179229,-0.0006837096447960569,0.010447904776396861,0.001158210139002124,20.910717227021326,0.01053411713534318,1.0,0.0,169.38589826010045,0.10467949366459839,25.714541404175463,117.39863695925574,-0.11996303888903753,2.540580668046066,1.0,28.159026404985667,0.0,1.0,119.61136159278786,8579.906616529155,1.0,1.0,-2.254423487237513,19.5127147777264,0.015143301359906294,-43.80282474168004,1.0,27.844243113177093,1.0,-0.02474790865352522,4.296320758064803,0.9304298555994603,1.0,-0.23641239826435617,5.8437872685450305
1.8299999999999998,1.8299999999999998,1.0,19.707135838768743,0.033205225890756,6.924549973317909,7.149624547488423e-05,0.014631359162749292,0.0006277958355700721,20.888314864720105,0.014644996083087348,1.0,0.0,169.38589826010045,0.10467949366459839,25.714541404175463,117.39863695925574,-0.11996303888903753,2.540580668046066,1.0,28.159026404985667,0.0,1.0,119.97181433174693,8901.737257921171,1.0,1.0,-2.254423487237513,19.5127147777264,0.015143301359906294,-43.80282474168004,1.0,27.844243113177093,1.0,-0.02474790865352522,4.296320758064803,0.9304298555994603,1.0,-0.23641239826435617,5.8437872685450305
1.8599999999999999,1.8599999999999999,1.0,19.71395102762183,-0.014808011295835657,6.951328675883222,-0.0020288310169881587,0.009640074769234864,0.0005026141464205757,20.90361343779651,0.009864067002616815,1.0,0.0,169.38589826010045,0.10467949366459839,25.714541404175463,117.39863695925574,-0.11996303888903753,2.540580668046066,1.0,28.23424127518881,0.0,1.0,120.77753081279249,8951.624376240317,1.0,1.0,-0.38454546694159275,19.587211891785252,0.019967761008969995,-43.79578224647366,1.0,27.85325753264696,1.0,0.003225422314104629,4.309766592319471,0.9300753301916606,1.0,0.06865813693711625,6.316176443683616
1.89,1.89,1.0,19.661820541193986,-0.007213876384782036,7.047443208872526,-0.001675229689958972,0.012252717418502522,4.729491857227685e-05,20.886687023470568,0.012366798917307497,1.0,0.0,195.91209678196614,0.5803632647016573,28.334883908888056,121.72060462822658,-0.020949794872449978,2.1064949420794084,1.0,28.23424127518881,0.0,1.0,121.60726539435383,8927.773649258621,1.0,1.0,-0.38454546694159275,19.587211891785252,0.019967761008969995,-43.79578224647366,1.0,27.85325753264696,1.0,0.003225422314104629,4.309766592319471,0.9300753301916606,1.0,0.06865813693711625,6.316176443683616
1.92,1.92,1.0,19.69605481746911,0.0009528939202755693,7.087609445074286,-2.475920507279969e-05,0.007817617979670363,0.0008898182702178508,20.932481552043974,0.007868134496074318,1.0,0.0,195.91209678196614,0.5803632647016573,28.334883908888056,121.72060462822658,-0.020949794872449978,2.1064949420794084,1.0,27.241050488189032,0.0,1.0,122.17910461904964,9083.134139274373,1.0,1.0,0.027167083226558676,19.599609584708194,0.06485926045376163,-43.88413779761686,1.0,27.883606121733443,1.0,-0.01561150849108961,4.343619156519117,0.9297284450082285,1.0,0.04638167746826721,6.649336670413635
1.95,1.95,1.0,19.660270616624068,-0.029418256994016394,7.168694021221946,0.0002499554068132249,0.013696176587195266,0.0006055810501484147,20.926473188825668,0.01371183646421331,1.0,0.0,195.91209678196614,0.5803632647016573,28.334883908888056,121.72060462822658,-0.020949794872449978,2.1064949420794084,1.0,27.241050488189032,0.0,1.0,122.33790847011164,9251.854806522699,1.0,1.0,0.027167083226558676,19.599609584708194,0.06485926045376163,-43.88413779761686,1.0,27.883606121733443,1.0,-0.01561150849108961,4.343619156519117,0.9297284450082285,1.0,0.04638167746826721,6.649336670413635
1.98,1.98,1.0,19.64299360291957,0.02372509537056146,7.210305048251764,-0.0022144301550635105,0.014733952226599538,0.00044669641978878404,20.92453725780655,0.014906125815208464,1.0,0.0,195.91209678196614,0.5803632647016573,28.334883908888056,121.72060462822658,-0.020949794872449978,2.1064949420794084,1.0,28.980767523328225,0.0,1.0,123.30488260415235,9351.644641560924,1.0,1.0,0.22990760679561076,19.612694277405218,-0.030262560087283178,-43.771751599832186,1.0,28.167162943695647,1.0,-0.0008272722942451474,4.360081327034493,0.9293881966725612,1.0,0.5447030672880988,5.136760371973051
2.01,2.01,1.0,19.559553660314634,0.008599499041272819,7.323418179302832,0.0002276717814214487,0.011525839159084533,0.00047190024471040166,20.88560909265168,0.011537742092892345,1.0,0.0,195.91209678196614,0.5803632647016573,28.334883908888056,121.72060462822658,-0.020949794872449978,2.1064949420794084,1.0,28.980767523328225,0.0,1.0,123.90506380046288,9375.454209653928,1.0,1.0,0.22990760679561076,19.612694277405218,-0.030262560087283178,-43.771751599832186,1.0,28.167162943695647,1.0,-0.0008272722942451474,4.360081327034493,0.9293881966725612,1.0,0.5447030672880988,5.136760371973051
2.04,2.04,1.0,19.529127348909007,0.00901287799253271,7.355441929831441,0.0012959509496534008,0.00833121863762671,-0.0010481736513931015,20.868383316035718,0.008496314545455632,1.0,0.0,195.91209678196614,0.5803632647016573,28.334883908888056,121.72060462822658,-0.020949794872449978,2.1064949420794084,1.0,27.29946384962331,0.0,1.0,124.22646447453586,9530.535988472358,1.0,1.0,0.5174757826812354,19.678188953809695,0.022011415832582027,-43.76134007368154,1.0,28.154103531198537,1.0,-0.00815869616760906,4.373276576230884,0.9290535846607217,1.0,0.21326898200569677,5.933392720798931
2.07,2.07,1.0,19.467266081182153,0.022062440982930705,7.417908697913562,-5.2136427482700744e-05,0.008175676093246358,-0.0012669380291954451,20.832673973290824,0.008273423098003168,1.0,0.0,195.91209678196614,0.5803632647016573,28.334883908888056,121.72060462822658,-0.020949794872449978,2.1064949420794084,1.0,27.29946384962331,0.0,1.0,125.34279041082121,9606.879035447073,1.0,1.0,0.5174757826812354,19.678188953809695,0.022011415832582027,-43.76134007368154,1.0,28.154103531198537,1.0,-0.00815869616760906,4.373276576230884,0.9290535846607217,1.0,0.21326898200569677,5.933392720798931
2.1,2.1,1.0,19.50315057304915,0.004081106689045281,7.463882108002392,-0.002733906544495553,0.008742595661191357,0.002438693497912051,20.88258688603061,0.009479158710870711,1.0,0.0,220.7067390866878,-0.9126351324079304,27.715499954462388,125.39554316399135,-0.16126875235301044,2.100081806775736,1.0,28.900030906001177,0.0,1.0,125.70805997350946,9765.127782513393,1.0,1.0,-0.132208708406364,19.632582954593357,-0.021724524062429765,-43.80531813174938,1.0,28.33767645893447,1.0,0.009225769955652965,4.37956372637885,0.928723611863072,1.0,0.002188521992375938,6.342823067655108
2.13,2.13,1.0,19.441323421941128,-0.03772153904689924,7.554914880089525,-0.003215320442064753,0.007779342779994211,0.0021725951250623253,20.85768966487954,0.008693481995797317,1.0,0.0,220.7067390866878,-0.9126351324079304,27.715499954462388,125.39554316399135,-0.16126875235301044,2.100081806775736,1.0,28.900030906001177,0.0,1.0,125.49667598185113,9725.73307241494,1.0,1.0,-0.132208708406364,19.632582954593357,-0.021724524062429765,-43.80531813174938,1.0,28.33767645893447,1.0,0.009225769955652965,4.37956372637885,0.928723611863072,1.0,0.002188521992375938,6.342823067655108
2.16,2.16,1.0,19.41746947908234,0.0008643724797329816,7.570290103772909,-0.002053445989291011,0.010898103149995682,0.00012167427065311867,20.84100319019015,0.011090540894249483,1.0,0.0,220.7067390866878,-0.9126351324079304,27.715499954462388,125.39554316399135,-0.16126875235301044,2.100081806775736,1.0,28.9305894557463,0.0,1.0,126.04224026567462,9746.50955990619,1.0,1.0,-1.1808146066566236,19.739786216454092,0.017835522692160915,-43.733064134798425,1.0,28.48386265435665,1.0,0.005341512196297713,4.402240404784656,0.9283972851772005,1.0,0.4447806537253375,5.6555927054738575
2.19,2.19,1.0,19.3907958785885,-0.0680490998716121,7.679596724777211,0.002127563673337678,0.010100266187017459,-0.0016183734827011527,20.856265277855645,0.010448015934244385,1.0,0.0,220.7067390866878,-0.9126351324079304,27.715499954462388,125.39554316399135,-0.16126875235301044,2.100081806775736,1.0,28.9305894557463,0.0,1.0,126.44337400383348,9614.928417914625,1.0,1.0,-1.1808146066566236,19.739786216454092,0.017835522692160915,-43.733064134798425,1.0,28.48386265435665,1.0,0.005341512196297713,4.402240404784656,0.9283972851772005,1.0,0.4447806537253375,5.6555927054738575
2.2199999999999998,2.2199999999999998,1.0,19.357012957694877,-0.03674808958546651,7.7106917200626475,0.0005881574895730492,0.00776709670788996,-0.0001691356679671133,20.83626808879887,0.007791169833627977,1.0,0.0,220.7067390866878,-0.9126351324079304,27.715499954462388,125.39554316399135,-0.16126875235301044,2.100081806775736,1.0,28.821080462347762,0.0,1.0,127.72635630592356,10013.380298766428,1.0,1.0,1.1001754087521782,19.723713416638233,-0.012095677645621642,-43.74739992097198,1.0,28.962669199070532,1.0,0.006808794125097082,4.419266924896437,0.9280736161213603,1.0,0.5526411510499093,5.856931077306858
2.25,2.25,1.0,19.33544750654409,-0.04122723800333921,7.815608486413964,0.0015116432580279864,0.006781668130824081,0.001822756685767126,20.855334233149595,0.007183211671090112,1.0,0.0,220.7067390866878,-0.9126351324079304,27.715499954462388,125.39554316399135,-0.16126875235301044,2.100081806775736,1.0,28.821080462347762,0.0,1.0,128.6539831069612,10149.966869604574,1.0,1.0,1.1001754087521782,19.723713416638233,-0.012095677645621642,-43.74739992097198,1.0,28.962669199070532,1.0,0.006808794125097082,4.419266924896437,0.9280736161213603,1.0,0.5526411510499093,5.856931077306858
2.28,2.28,1.0,19.413823072389157,0.01221413090344737,7.870847252277158,0.0010587851842506692,0.008249525132355412,0.002181179473663335,20.948673273973753,0.008598443747102296,1.0,0.0,220.7067390866878,-0.9126351324079304,27.715499954462388,125.39554316399135,-0.16126875235301044,2.100081806775736,1.0,29.53007804649514,0.0,1.0,129.43372720883931,10126.423826235698,1.0,1.0,0.7489650167228306,19.758303148513313,-0.014113850951209258,-43.67417120545601,1.0,28.463476603501903,1.0,-0.0046198615492057185,4.439552306562798,0.9277516214596869,1.0,-0.5889626797749533,5.740674650279484
2.31,2.31,1.0,19.40962987534586,0.0027120919167082113,7.921740015144433,4.77148430652025e-05,0.006900621118561817,-0.0006233268279356578,20.963962032996093,0.006928880491292544,1.0,0.0,248.8302260691345,0.39841727765723006,29.337653963033905,129.31064983303614,0.275570978637166,2.00815335570776,1.0,29.53007804649514,0.0,1.0,129.69024582176223,10203.447445729738,1.0,1.0,0.7489650167228306,19.758303148513313,-0.014113850951209258,-43.67417120545601,1.0,28.463476603501903,1.0,-0.0046198615492057185,4.439552306562798,0.9277516214596869,1.0,-0.5889626797749533,5.740674650279484
2.34,2.34,1.0,19.306958475316417,0.008517984442994285,7.893967674041999,0.00017656879866341583,0.008980501482467125,-0.0003304306777197846,20.858414219745264,0.00898831284780598,1.0,0.0,248.8302260691345,0.39841727765723006,29.337653963033905,129.31064983303614,0.275570978637166,2.00815335570776,1.0,29.106200591667857,0.0,1.0,129.83871666069186,10122.590746210746,1.0,1.0,0.8814232332534068,19.778489056128468,-0.05036015320854237,-43.68260299145339,1.0,29.179553385525622,1.0,0.001965513710947383,4.457070781467693,0.9274303238321497,1.0,0.3201883821516754,5.376649802506129
2.37,2.37,1.0,19.224991223195733,0.04330105164029876,8.034065398175157,0.0016188102975515004,0.008338512498280793,-0.0032302341210303106,20.836227329705864,0.009087670215193343,1.0,0.0,248.8302260691345,0.39841727765723006,29.337653963033905,129.31064983303614,0.275570978637166,2.00815335570776,1.0,29.106200591667857,0.0,1.0,130.68678963079282,10368.310107967322,1.0,1.0,0.8814232332534068,19.778489056128468,-0.05036015320854237,-43.68260299145339,1.0,29.179553385525622,1.0,0.001965513710947383,4.457070781467693,0.9274303238321497,1.0,0.3201883821516754,5.376649802506129
2.4,2.4,1.0,19.251495707167827,-0.026595376024048878,8.160140092289137,-0.00102717545926293,0.0037488597744352223,0.003772060297661713,20.909535638146334,0.005416408212246035,1.0,0.0,248.8302260691345,0.39841727765723006,29.337653963033905,129.31064983303614,0.275570978637166,2.00815335570776,1.0,30.382724006512753,0.0,1.0,130.40322255870646,10524.56769758708,1.0,1.0,-1.2292660481253275,19.85031466233646,-0.013679138290930001,-43.7669044844975,1.0,28.97728508471536,1.0,0.0047068960552744945,4.475352069165564,0.9271087523835445,1.0,0.5933274989912868,5.997341878854636
2.4299999999999997,2.4299999999999997,1.0,19.222466065591263,0.037674202403097524,8.112306670149446,0.001272348202470435,0.009524518882466807,-0.002397425815906407,20.86418319750106,0.009903685194591507,1.0,0.0,248.8302260691345,0.39841727765723006,29.337653963033905,129.31064983303614,0.275570978637166,2.00815335570776,1.0,30.382724006512753,0.0,1.0,131.8359086055095,10598.871841350956,1.0,1.0,-1.2292660481253275,19.85031466233646,-0.013679138290930001,-43.7669044844975,1.0,28.97728508471536,1.0,0.0047068960552744945,4.475352069165564,0.9271087523835445,1.0,0.5933274989912868,5.997341878854636
2.46,2.46,1.0,19.142587576621885,0.01725438232334368,8.254083236708226,-0.0001487685996427187,0.003814638440593875,-0.0036123455428427372,20.846314948231395,0.0052557243886634615,1.0,0.0,248.8302260691345,0.39841727765723006,29.337653963033905,129.31064983303614,0.275570978637166,2.00815335570776,1.0,28.734859919231774,0.0,1.0,131.99839243617816,10629.085859260884,1.0,1.0,2.090500705405645,19.86725192528659,-0.04437813586878794,-43.618788717029105,1.0,29.02861730623971,1.0,-0.007722047058818455,4.4984120891175365,0.9267859510872292,1.0,0.8662572561451346,5.5256273316997095
2.4899999999999998,2.4899999999999998,1.0,19.223462680143317,0.024032802005368833,8.314471066560245,-0.0019050035423399088,0.0002800865984508502,-0.0011308485599816366,20.944510596027364,0.0022330036866453915,1.0,0.0,248.8302260691345,0.39841727765723006,29.337653963033905,129.31064983303614,0.275570978637166,2.00815335570776,1.0,28.734859919231774,0.0,1.0,132.52530374882812,10668.201035069056,1.0,1.0,2.090500705405645,19.86725192528659,-0.04437813586878794,-43.618788717029105,1.0,29.02861730623971,1.0,-0.007722047058818455,4.4984120891175365,0.9267859510872292,1.0,0.8662572561451346,5.5256273316997095
2.52,2.52,1.0,19.168474655570176,0.011535326374274377,8.389104098877725,0.002291227630734123,0.001801984916221196,0.0007244888954484719,20.923852925950275,0.0030036241199185294,1.0,0.0,273.9254675835914,0.20176025599158562,29.450516264740553,133.32122622698645,-0.0696421494113209,2.2389133492204873,1.0,29.669361112343953,0.0,1.0,133.03333141947823,10733.761946043658,1.0,1.0,-0.6098023610345005,19.856091598610412,0.036790822791022346,-43.63267380992493,1.0,29.54804463707392,1.0,0.012029913998308855,4.506664701452188,0.9264609002094717,1.0,0.22765828148255066,5.448121402180704
2.55,2.55,1.0,19.07558694349082,-0.009835198927267665,8.546044155683047,0.0001440186347443477,0.00010850448015005653,-0.0006658152489848269,20.902463603142564,0.0006898003589061018,1.0,0.0,273.9254675835914,0.20176025599158562,29.450516264740553,133.32122622698645,-0.0696421494113209,2.2389133492204873,1.0,29.669361112343953,0.0,1.0,133.44240096211806,11117.318427503082,1.0,1.0,-0.6098023610345005,19.856091598610412,0.036790822791022346,-43.63267380992493,1.0,29.54804463707392,1.0,0.012029913998308855,4.506664701452188,0.9264609002094717,1.0,0.22765828148255066,5.448121402180704
2.58,2.58,1.0,19.073422262491064,0.05370447164653571,8.5035603492468,-0.0036574406157678244,0.003232147516418704,-0.0012609970144927824,20.883219569473646,0.005041206492132556,1.0,0.0,273.9254675835914,0.20176025599158562,29.450516264740553,133.32122622698645,-0.0696421494113209,2.2389133492204873,1.0,29.386475652305894,0.0,1.0,134.85977285188156,10835.63947547131,1.0,1.0,-0.4421226376729621,19.868494158438203,0.028040520701193124,-43.68195772551766,1.0,29.78821735487507,1.0,-0.00389804089071116,4.534909841441216,0.9261324412783528,1.0,-0.29934993309376307,6.199860672836296
2.61,2.61,1.0,19.04291873790045,0.0664022513206286,8.573477631970906,-0.00024114491760876216,-0.001182697600333178,0.002171356915759841,20.884005411394767,0.002484293730769468,1.0,0.0,273.9254675835914,0.20176025599158562,29.450516264740553,133.32122622698645,-0.0696421494113209,2.2389133492204873,1.0,29.386475652305894,0.0,1.0,135.64021504143923,11156.79460998862,1.0,1.0,-0.4421226376729621,19.868494158438203,0.028040520701193124,-43.68195772551766,1.0,29.78821735487507,1.0,-0.00389804089071116,4.534909841441216,0.9261324412783528,1.0,-0.29934993309376307,6.199860672836296
2.6399999999999997,2.6399999999999997,1.0,18.9927515942848,0.0904396940321086,8.695773239482179,0.0015596281021600699,-0.004244685094471939,0.0004070795264131864,20.888974716174054,0.004540430057726301,1.0,0.0,273.9254675835914,0.20176025599158562,29.450516264740553,133.32122622698645,-0.0696421494113209,2.2389133492204873,1.0,29.321456158671634,0.0,1.0,135.11398646755805,11048.096703739058,1.0,1.0,-0.5640543747808037,19.948543216514853,-0.021717159203047003,-43.67790557017171,1.0,29.818911270263214,1.0,0.008479129042409857,4.539752722021376,0.9257993150233719,1.0,0.5719898668425217,6.3582957055337035
2.67,2.67,1.0,19.06162612573643,-0.04863038105835259,8.776854971027985,0.001541810122804799,-0.003660842057231762,-0.0015914128913733369,20.985260033027423,0.0042791982909897355,1.0,0.0,273.9254675835914,0.20176025599158562,29.450516264740553,133.32122622698645,-0.0696421494113209,2.2389133492204873,1.0,29.321456158671634,0.0,1.0,136.04647822688278,11537.461185118333,1.0,1.0,-0.5640543747808037,19.948543216514853,-0.021717159203047003,-43.67790557017171,1.0,29.818911270263214,1.0,0.008479129042409857,4.539752722021376,0.9257993150233719,1.0,0.5719898668425217,6.3582957055337035
2.6999999999999997,2.6999999999999997,1.0,18.872093395305875,-0.04796357526115563,8.770141049627112,0.0006356576811287177,-0.0036220910736565683,-0.0021755139739447864,20.810420073993075,0.004272758533344655,1.0,0.0,273.9254675835914,0.20176025599158562,29.450516264740553,133.32122622698645,-0.0696421494113209,2.2389133492204873,1.0,30.28279143633074,0.0,1.0,135.72948543160962,11353.970735763876,1.0,1.0,1.356642701192511,19.761573090470446,0.027156923288884763,-43.66915979474613,1.0,29.867396493174265,1.0,-0.014418349992410054,4.568144614345882,0.9254601847037793,1.0,-0.4059408602265983,5.42334002126
2.73,2.73,1.0,18.852038289630542,-0.007278845032513286,8.935171398284242,-0.0012000749088391701,-0.005862531880923416,-0.0009280501254632214,20.862327017185734,0.0060556367854290175,1.0,0.0,302.74305403167483,0.9234410924736416,32.35900456484183,137.13376385369048,0.011270291125223627,2.36492110302845,1.0,30.28279143633074,0.0,1.0,137.17916506112084,11422.814700526505,1.0,1.0,1.356642701192511,19.761573090470446,0.027156923288884763,-43.66915979474613,1.0,29.867396493174265,1.0,-0.014418349992410054,4.568144614345882,0.9254601847037793,1.0,-0.4059408602265983,5.42334002126
2.76,2.76,1.0,18.866227383992193,0.030824936769150945,8.952519227901362,0.000304903391135432,-0.005576929662187112,-0.0037273558382535585,20.88260248166323,0.00671478161073547,1.0,0.0,302.74305403167483,0.9234410924736416,32.35900456484183,137.13376385369048,0.011270291125223627,2.36492110302845,1.0,29.824231965297656,0.0,1.0,137.6891917638036,11587.77512977992,1.0,1.0,-1.4421442425219928,19.752986392481144,0.026670993516435048,-43.761804007695524,1.0,29.44294028175976,1.0,0.020682851812615907,4.5824837036945745,0.9251136545126317,1.0,0.1256258689012356,5.570373372138438
2.79,2.79,1.0,18.913374387596367,0.0404730276103574,8.981920247577794,0.003993726602763566,-0.009052743496539008,-0.001959319294788977,20.937818896083666,0.01008667185402019,1.0,0.0,302.74305403167483,0.9234410924736416,32.35900456484183,137.13376385369048,0.011270291125223627,2.36492110302845,1.0,29.824231965297656,0.0,1.0,137.95227208598362,11551.801494047857,1.0,1.0,-1.4421442425219928,19.752986392481144,0.026670993516435048,-43.761804007695524,1.0,29.44294028175976,1.0,0.020682851812615907,4.5824837036945745,0.9251136545126317,1.0,0.1256258689012356,5.570373372138438
2.82,2.82,1.0,18.855945909203033,0.02293663732086746,9.138520312502365,-0.002564169592683705,-0.007850438817545232,0.0019164528533044678,20.953753260982637,0.008478039093269359,1.0,0.0,302.74305403167483,0.9234410924736416,32.35900456484183,137.13376385369048,0.011270291125223627,2.36492110302845,1.0,30.43753082468172,0.0,1.0,138.48361987118037,11824.462336349648,1.0,1.0,-1.8266271924628283,19.767831740934046,0.0030350272323798264,-43.71368581102031,1.0,30.127183761508714,1.0,0.003368237854427196,4.595024289127114,0.92475828501205,1.0,-0.35809540184838956,5.5925199420687335
2.85,2.85,1.0,18.88508054728394,0.05353413402624443,9.222045118655906,-0.00028237044305409227,-0.010315620838360046,0.002668347357816831,21.016547036833465,0.01065888568143437,1.0,0.0,302.74305403167483,0.9234410924736416,32.35900456484183,137.13376385369048,0.011270291125223627,2.36492110302845,1.0,30.43753082468172,0.0,1.0,139.64315659166164,12092.082414081106,1.0,1.0,-1.8266271924628283,19.767831740934046,0.0030350272323798264,-43.71368581102031,1.0,30.127183761508714,1.0,0.003368237854427196,4.595024289127114,0.92475828501205,1.0,-0.35809540184838956,5.5925199420687335
2.88,2.88,1.0,18.77795439340925,-0.03615650005563831,9.291986076224651,0.0006034458294573401,-0.00848470378396862,0.001600319573296504,20.951226306214316,0.008655366422483613,1.0,0.0,302.74305403167483,0.9234410924736416,32.35900456484183,137.13376385369048,0.011270291125223627,2.36492110302845,1.0,29.879294118108977,0.0,1.0,139.48270072770808,11855.855098612155,1.0,1.0,0.29787603331982676,19.79046692265223,0.0458927442708022,-43.74569265158997,1.0,30.341450045880347,1.0,0.018989474823699035,4.61606244936598,0.9243926061686972,1.0,-0.6145416429887318,5.749079101399269
2.9099999999999997,2.9099999999999997,1.0,18.747373926677017,-0.024628922534964213,9.405081537587163,0.002396700685191622,-0.009678229170397335,-0.00020077747661171683,20.974274587196987,0.009972592724273987,1.0,0.0,302.74305403167483,0.9234410924736416,32.35900456484183,137.13376385369048,0.011270291125223627,2.36492110302845,1.0,29.879294118108977,0.0,1.0,140.4921813655175,11824.13719001184,1.0,1.0,0.29787603331982676,19.79046692265223,0.0458927442708022,-43.74569265158997,1.0,30.341450045880347,1.0,0.018989474823699035,4.61606244936598,0.9243926061686972,1.0,-0.6145416429887318,5.749079101399269
2.94,2.94,1.0,18.751759311772673,0.012246636495848735,9.52213004928202,0.004059827262651679,-0.009131283810639771,-9.796278652709261e-05,21.0309198073265,0.009993604862138884,1.0,0.0,335.19732301971595,-2.2542872146042616,30.476725375336514,141.23001606758936,0.025456919087767427,2.8468916954379675,1.0,31.96394780320193,0.0,1.0,141.10054970097013,12392.58253957486,1.0,1.0,0.20243712099329267,19.686777734882916,-0.013421981974192084,-43.6783949474968,1.0,30.584410146214275,1.0,-0.01461027070043123,4.619902026007811,0.9240151283375009,1.0,-0.6431591562241735,5.787680282398944
2.9699999999999998,2.9699999999999998,1.0,18.705447406279628,0.03704693588504008,9.520941925697773,0.0027584679670912783,-0.007405778416222973,-0.001437560076455922,20.989127430578467,0.008032513831241293,1.0,0.0,335.19732301971595,-2.2542872146042616,30.476725375336514,141.23001606758936,0.025456919087767427,2.8468916954379675,1.0,31.96394780320193,0.0,1.0,141.11658171780377,12127.565230359181,1.0,1.0,0.20243712099329267,19.686777734882916,-0.013421981974192084,-43.6783949474968,1.0,30.584410146214275,1.0,-0.01461027070043123,4.619902026007811,0.9240151283375009,1.0,-0.6431591562241735,5.787680282398944
3.0,3.0,1.0,18.654043163688584,0.0596521370930404,9.601888896291598,-0.0014416629791642013,-0.01254812504062069,-0.0010842513525904714,20.980303980327466,0.012677122511679803,1.0,0.0,335.19732301971595,-2.2542872146042616,30.476725375336514,141.23001606758936,0.025456919087767427,2.8468916954379675,1.0,31.275729479542857,0.0,1.0,141.6424457501469,12487.44714709288,1.0,1.0,-0.3837121961309631,19.744768414217038,-0.03950730821613547,-43.72120458651216,1.0,30.510966868819914,1.0,-0.014780175839994046,4.6295602815721315,0.9236243515333245,1.0,0.30255840620065566,5.482185243105268
