time_s,x_m,y_m,altitude_m,vx_mps,vy_mps,vz_mps,speed_mps,mass_kg,roll_deg,pitch_deg,yaw_deg,p_dps,q_dps,r_dps,alpha_deg,beta_deg,qbar_pa,mach,airspeed_mps,load_factor_g,density_kgpm3,pressure_pa,temperature_k,wind_x_mps,wind_y_mps,wind_z_mps,thrust_n,mass_flow_kgps,propulsion_throttle_actual,propulsion_health,energy_j_per_kg,target_distance_m,guidance_mode,pitch_command_deg,heading_command_deg,roll_command_deg
0.0,0.0,0.0,20.0,85.0,0.0,8.0,85.37564055396598,18.0,0.0,6.000000000000002,0.0,0.0,0.0,0.0,0.6169987648720024,0.0,4445.560332884186,0.250651868342899,85.27608105441995,1.74634069828506,1.2226496753673843,101084.96761777384,288.02,0.1,0.0,0.0,326.8,0.17539118863220368,0.86,nominal,3840.633,nan,pitch_program,13.0,0.0,0.0
0.03,2.565310932297066,0.0,20.232946462003074,85.51036440990221,0.0,7.764882066769182,85.86219083522796,17.994738264341034,0.0,6.265543957279823,0.0,0.0,-8.85148108657323,0.0,1.070913132337987,0.0,4496.330359733195,0.2520825585697221,85.76260106913224,1.774623954223055,1.2226223205068891,101082.17459824144,288.01848584799694,0.1,0.0,0.0,332.605,0.1785066900092231,0.86,nominal,3884.5753319341547,nan,pitch_program,12.985,0.0,0.0
0.06,5.146113127259087,0.0,20.459378752689986,86.02673983206738,0.0,7.5477430228970865,86.35721389017769,17.98938306364076,0.0,6.57752156327721,0.0,0.0,-10.399279226776827,0.0,1.5575858822248216,0.0,4548.284159850648,0.2535381511086057,86.25759701561068,1.8037943609316183,1.2225957310531048,101079.45974327708,288.0170140381075,0.1,0.0,0.0,338.40999999999997,0.18162219138624247,0.86,nominal,3929.4221620820167,nan,pitch_program,12.97,0.0,0.0
0.09,7.7425755282514235,0.0,20.679850894031002,86.54874669974454,0.0,7.34907137803391,86.86020035330323,17.983934397899173,0.0,6.771012195876393,0.0,0.0,-6.449693882912137,0.0,1.9119386973406594,0.0,4601.38284734343,0.2550171496657027,86.76055933473475,1.8335501958236302,1.2225698419118347,101076.81640543984,288.01558096918876,0.1,0.0,0.0,344.215,0.18473769276326188,0.86,nominal,3975.1472624779385,nan,pitch_program,12.955,0.0,0.0
0.12,10.35490626960628,0.0,20.894672259828663,87.07769137849523,0.0,7.160712193255405,87.37162087842424,17.978392267116273,0.0,6.869403810589265,0.0,0.0,-3.279721296413501,0.0,2.1629625803591828,0.0,4655.691106478735,0.256520935467538,87.27195767626279,1.8636039351202125,1.22254461672143,101074.24087108609,288.0141846303111,0.1,0.0,0.0,350.02,0.1878531941402813,0.86,nominal,4021.8068051783985,nan,pitch_program,12.94,0.0,0.0
0.15,12.983340073184266,0.0,21.104019222019527,87.61446011926621,0.0,6.978232073028787,87.89191854121479,17.972756671292064,0.0,6.954217304977828,0.0,0.0,-2.827116995853424,0.0,2.395209750916437,0.0,4711.272190439236,0.25805080969775823,87.79223458160571,1.8941883532571016,1.2225200347406417,101071.73102152879,288.0128238750568,0.1,0.0,0.0,355.825,0.1909686955173007,0.86,nominal,4069.4544025313867,nan,pitch_program,12.925,0.0,0.0
0.18,15.628109404476222,0.0,21.308096191739523,88.15897770973184,0.0,6.80256565733322,88.42103963620494,17.967027610426545,0.0,7.051609375254437,0.0,0.0,-3.246403124223233,0.0,2.634277129957921,0.0,4768.137159764534,0.2596066150141372,88.32133635088057,1.9252485454174213,1.2224960719379416,101069.2844022067,288.0114973747537,0.1,0.0,0.0,361.63,0.19408419689432013,0.86,nominal,4118.101166692385,nan,pitch_program,12.91,0.0,0.0
0.21,18.28943836441655,0.0,21.5071569682004,88.7109653313443,0.0,6.635359215362556,88.95877338371898,17.961205084519715,0.0,7.14041529625072,0.0,0.0,-2.9601979591652037,0.0,2.857989670397352,0.0,4826.280141529667,0.26118773268001555,88.85905226182417,1.9565067106762444,1.222472698484936,101066.8979667668,288.01020347970666,0.1,0.0,0.0,367.435,0.19719969827133954,0.86,nominal,4167.744841850136,nan,pitch_program,12.895,0.0,0.0
0.24,20.967552706727446,0.0,21.70144622163709,89.27047807702982,0.0,6.476308447889768,89.50508827554816,17.955289093571576,0.0,7.2039268558358955,0.0,0.0,-2.117052202948266,0.0,3.0499202352116463,0.0,4885.714562163504,0.26279407036087726,89.40535068774275,1.9877841230887894,1.222449885627541,101064.56877861854,288.0089405995593,0.1,0.0,0.0,373.24,0.20031519964835895,0.86,nominal,4218.398901196252,nan,pitch_program,12.88,0.0,0.0
0.27,23.662686238424147,0.0,21.891169185531563,89.83778438989,0.0,6.32409879648236,90.06010065324173,17.949279637582126,0.0,7.246833687262236,0.0,0.0,-1.4302277810505999,0.0,3.2156878503193576,0.0,4946.470301344028,0.2644259699878434,89.96034778053082,2.0191382512790352,1.22242760924437,101062.29437423636,288.007707400294,0.1,0.0,0.0,379.045,0.20343070102537836,0.86,nominal,4270.08989912931,nan,pitch_program,12.865,0.0,0.0
0.3,26.37507853916707,0.0,22.07650681015981,90.4130766914308,0.0,6.177920820941555,90.6238994001051,17.943176716551363,0.0,7.279560154102971,0.0,0.0,-1.090882257682986,0.0,3.366303788714938,0.0,5008.574805128744,0.2660836928890186,90.52413229157231,2.050654623728551,1.2224058480670996,101060.07258144839,288.00650270573396,0.1,0.0,0.0,384.84999999999997,0.20654620240239774,0.86,nominal,4322.842146750039,nan,pitch_program,12.850000000000001,0.0,0.0
0.32999999999999996,29.10497106372431,0.0,22.257635616994417,90.99641748524134,0.0,6.037626894486873,91.19649627954665,17.93698033047929,0.0,7.305333252936838,0.0,0.0,-0.8591033089483979,0.0,3.5051490562870753,0.0,5072.047463884733,0.26776727388174537,91.09671591318931,2.0823030453204026,1.222384581349064,101057.90128139549,288.00532536848954,0.1,0.0,0.0,390.655,0.20966170377941715,0.86,nominal,4376.673309156082,nan,pitch_program,12.835,0.0,0.0
0.36,31.852606528082674,0.0,22.43472940568088,91.5878488119454,0.0,5.9031262895487755,91.77788922169725,17.930690479365907,0.0,7.322354906060517,0.0,0.0,-0.5673884416291656,0.0,3.6305420604819694,0.0,5136.906434151325,0.26947670714496746,91.67809651289531,2.114005642466922,1.222363788664745,101055.77838805648,288.00417425886303,0.1,0.0,0.0,396.46,0.21277720515643656,0.86,nominal,4431.600014121286,nan,pitch_program,12.82,0.0,0.0
0.39,34.61823013843754,0.0,22.60795250753524,92.1874536784955,0.0,5.774103395145397,92.36810534888427,17.924307163211214,0.0,7.330073497393612,0.0,0.0,-0.25728637815889865,0.0,3.742188320749778,0.0,5203.173443716609,0.2712120726073334,92.26830113861902,2.145732035190216,1.2223434507017834,101053.7019291078,288.003048308701,0.1,0.0,0.0,402.265,0.21589270653345596,0.86,nominal,4487.641720329312,nan,pitch_program,12.805,0.0,0.0
0.42,37.40208999269245,0.0,22.777457992226545,92.79532847516371,0.0,5.650182823043476,92.96718535455048,17.91783038201521,0.0,7.330288551384551,0.0,0.0,-0.007168466364658176,0.0,3.842177643276891,0.0,5270.872127286002,0.2729734900648935,92.86737041099157,2.1555898659221375,1.222323549471391,101051.67006740204,288.0019465230505,0.1,0.0,0.0,404.1773684210526,0.21691906078826353,0.86,nominal,4544.819334793141,nan,pitch_program,12.79,0.0,0.0
0.44999999999999996,40.204242499677065,0.0,22.943366057497183,93.4050835661538,0.0,5.530268842354609,93.56865666166686,17.911322810191564,0.0,7.324827715373248,0.0,0.0,0.18202786718127478,0.0,3.9328282144139544,0.0,5339.282388760245,0.27474193408976294,93.46883166465527,2.154567270099198,1.2223040708453914,101049.68135998712,288.00086812062625,0.1,0.0,0.0,404.14342105263154,0.21690084148196515,0.86,nominal,4602.5443154822015,nan,pitch_program,12.775,0.0,0.0
0.48,43.02464871624431,0.0,23.105778973251315,94.01354055224141,0.0,5.4137638584710945,94.1692871709414,17.904815784947104,0.0,7.314389757359138,0.0,0.0,0.3479319347659064,0.0,4.015153990802247,0.0,5408.037847944785,0.2765079041999895,94.06945273664975,2.1536094376284765,1.2222850028014327,101047.73457894046,287.99981243667384,0.1,0.0,0.0,404.1094736842105,0.2168826221756668,0.86,nominal,4660.51761050965,nan,pitch_program,12.76,0.0,0.0
0.51,45.86327125792338,0.0,23.264793591366892,94.62075138930236,0.0,5.300487270519221,94.76909706640187,17.898309306281835,0.0,7.29925634866819,0.0,0.0,0.5044469592976221,0.0,4.089613995551308,0.0,5477.138986880675,0.2782714596722183,94.66925376542925,2.152698660635836,1.2222663339541575,101045.82856140187,287.9987788416561,0.1,0.0,0.0,404.0755263157895,0.21686440286936848,0.86,nominal,4718.740567463328,nan,pitch_program,12.745,0.0,0.0
0.54,48.72007433013861,0.0,23.420501019091482,95.22676907384093,0.0,5.1902475908197,95.3681090212899,17.891803374195753,0.0,7.27998925833613,0.0,0.0,0.6422363504539902,0.0,4.156949165365247,0.0,5546.586640473857,0.280032667098412,95.26825738136426,2.1518290492389305,1.2222480535934654,101043.96221347849,287.9977667433759,0.1,0.0,0.0,404.0415789473684,0.2168461835630701,0.86,nominal,4777.214765467191,nan,pitch_program,12.73,0.0,0.0
0.57,51.595023582233466,0.0,23.57298722436576,95.83164173649536,0.0,5.0828735091426696,95.96634389733696,17.885297988688862,0.0,7.257299829092787,0.0,0.0,0.7563143179952432,0.0,4.218033060276265,0.0,5616.381501482516,0.28179158775028146,95.86648440761059,2.150999677341796,1.2222301516133907,101042.13450298095,287.9967755830416,0.1,0.0,0.0,404.0076315789474,0.21682796425677175,0.86,nominal,4835.941615674798,nan,pitch_program,12.715,0.0,0.0
0.6,54.48808588372384,0.0,23.722333979098234,96.4354100496791,0.0,4.978225157749144,96.56381846825961,17.878793149761158,0.0,7.231733178516064,0.0,0.0,0.8522217000315099,0.0,4.273549863501938,0.0,5686.523844965618,0.28354827089065676,96.46395158379663,2.1502064175623365,1.2222126184013051,101040.34444810999,287.99580482913586,0.1,0.0,0.0,403.9736842105263,0.21680974495047337,0.86,nominal,4894.922145101623,nan,pitch_program,12.7,0.0,0.0
0.63,57.39922917520962,0.0,23.868619405140524,97.03810971619252,0.0,4.876180868076341,97.16054691668842,17.872288857412645,0.0,7.203667427717864,0.0,0.0,0.9355250453126877,0.0,4.324002244011271,0.0,5757.0136904778365,0.2853027581713698,97.06067306178531,2.1494432587045362,1.2221954447737642,101038.59111090499,287.99485397386655,0.1,0.0,0.0,403.9397368421053,0.21679152564417503,0.86,nominal,4954.157135064427,nan,pitch_program,12.685,0.0,0.0
0.6599999999999999,60.32842238165571,0.0,24.01191823297673,97.63977354820317,0.0,4.77662759454012,97.75654223488736,17.86578511164332,0.0,7.173455548034602,0.0,0.0,1.007062679442539,0.0,4.369859347278803,0.0,5827.8509595472215,0.2870550877485938,97.65666180559153,2.148706294568003,1.222178621946102,101036.87359413858,287.9939225314856,0.1,0.0,0.0,403.9057894736842,0.21677330633787664,0.86,nominal,5013.6472528000795,nan,pitch_program,12.67,0.0,0.0
0.69,63.275635318422886,0.0,24.1523021208321,98.24043122557235,0.0,4.67946292851236,98.35181595011721,17.859281912453184,0.0,7.141457344499114,0.0,0.0,1.0666068122385253,0.0,4.411587873775581,0.0,5899.035438150481,0.2888052934758792,98.25192931663287,2.1479936727306117,1.2221621414949237,101035.19103748586,287.99301003621457,0.1,0.0,0.0,403.8718421052631,0.21675508703157828,0.86,nominal,5073.393023936124,nan,pitch_program,12.655,0.0,0.0
0.72,66.24083858228647,0.0,24.289840053891147,98.84010879545282,0.0,4.5845977686349535,98.94637761634897,17.852779259842237,0.0,7.107990944675174,0.0,0.0,1.1155466925140847,0.0,4.449602307505334,0.0,5970.566709730975,0.2905534034107733,98.84648512536008,2.147303574599273,1.2221459953112037,101033.54261273482,287.99211603964966,0.1,0.0,0.0,403.8378947368421,0.21673686772527995,0.86,nominal,5133.394781663053,nan,pitch_program,12.64,0.0,0.0
0.75,69.22400345547769,0.0,24.42459868126458,99.4388291063736,0.0,4.491954245781144,99.54023501576016,17.84627715381048,0.0,7.073318516295406,0.0,0.0,1.1557476479289155,0.0,4.4842521741104076,0.0,6042.4441722816455,0.2922994404069839,99.44033699244734,2.1466338295819405,1.2221301755606953,101031.9275197437,287.99124010857173,0.1,0.0,0.0,403.80394736842106,0.21671864841898159,0.86,nominal,5193.652684154006,nan,pitch_program,12.625,0.0,0.0
0.78,72.22510182912718,0.0,24.556642566760363,100.03661245498338,0.0,4.401462849859396,100.13339456288911,17.83977559435791,0.0,7.037670345607582,0.0,0.0,1.1882723945929947,0.0,4.515848063722244,0.0,6114.667081140993,0.294043423302011,100.03349131264106,2.1459827081186824,1.222114674654462,101030.34498343115,287.99038182331606,0.1,0.0,0.0,403.77,0.21670042911268322,0.86,nominal,5254.166752170935,nan,pitch_program,12.61,0.0,0.0
0.8099999999999999,75.24410613389557,0.0,24.68603441647006,100.63347682561286,0.0,4.313061656989934,100.72586142033313,17.83327458148453,0.0,7.00125813636629,0.0,0.0,1.213740348893155,0.0,4.544675597396252,0.0,6187.234558110646,0.2957853672572235,100.62595323028266,2.145349105558611,1.2220994852221307,101028.79425104494,287.9895407762929,0.1,0.0,0.0,403.73605263157896,0.21668220980638486,0.86,nominal,5314.936878844354,nan,pitch_program,12.595,0.0,0.0
0.84,78.28098927288212,0.0,24.812835304302272,101.22943796621861,0.0,4.226696261073708,101.3176394920444,17.82677411519034,0.0,6.964270345461222,0.0,0.0,1.2329264063203689,0.0,4.570991002540389,0.0,6260.14558594876,0.2975252837383027,101.21772663247596,2.144732123947746,1.2220846000853989,101027.27458945627,287.988716570522,0.1,0.0,0.0,403.7021052631579,0.2166639905000865,0.86,nominal,5375.962827456874,nan,pitch_program,12.58,0.0,0.0
0.87,81.33572456079744,0.0,24.93710487386377,101.82450959717734,0.0,4.1423189853832465,101.90873152621579,17.82027419547534,0.0,6.926870186940884,0.0,0.0,1.2466719949442255,0.0,4.5950197549589955,0.0,6333.399016488301,0.2992631808177177,101.80881425182639,2.14413089658802,1.2220700122343051,101025.7852827367,287.98790881831985,0.1,0.0,0.0,403.66815789473685,0.21664577119378817,0.86,nominal,5437.2442401524395,nan,pitch_program,12.565,0.0,0.0
0.8999999999999999,84.40828567099157,0.0,25.058901509403228,102.41870367313776,0.0,4.059887851315262,102.49913927175807,17.813774822339525,0.0,6.8892010156277514,0.0,0.0,1.255639088999373,0.0,4.616962713753394,0.0,6406.993585933488,0.3009990636346709,102.3992178227775,2.1435447174696884,1.2220557148071447,101024.32563010685,287.98711714018884,0.1,0.0,0.0,403.6342105263158,0.2166275518874898,0.86,nominal,5498.7806522128185,nan,pitch_program,12.55,0.0,0.0
0.9299999999999999,87.49864658796204,0.0,25.178282487780653,103.01203056568208,0.0,3.979365945914188,103.08886358184633,17.8072759957829,0.0,6.851390516874003,0.0,0.0,1.2603500041975944,0.0,4.637000811551029,0.0,6480.92792419276,0.3027329346995049,102.98893818504678,2.142973081818368,1.2220417010726143,101022.89494411291,287.9863411638294,0.1,0.0,0.0,403.6002631578947,0.21660933258119142,0.86,nominal,5560.5715012570545,nan,pitch_program,12.535000000000002,0.0,0.0
0.96,90.60678156387158,0.0,25.295304117816034,103.6044991969847,0.0,3.900721001179345,103.67790448396923,17.800777715805463,0.0,6.813551379592398,0.0,0.0,1.2613046218968316,0.0,4.655296091593634,0.0,6555.200560434679,0.3044647940996822,103.57797535358398,2.1424155906572695,1.2220279644134286,101021.49254895358,287.98558052323415,0.1,0.0,0.0,403.56631578947366,0.21659111327489305,0.86,nominal,5622.616133220504,nan,pitch_program,12.520000000000001,0.0,0.0
0.99,93.73266507940332,0.0,25.410021864552235,104.19611718439116,0.0,3.8239248912066883,104.26626126354087,17.794279982407215,0.0,6.775782126267692,0.0,0.0,1.2589751564132619,0.0,4.6719929338405,0.0,6629.8099306876,0.30619463974561306,104.1663286020972,2.1418719002372746,1.2220144983117283,101020.1177789898,287.9848348578804,0.1,0.0,0.0,403.53236842105264,0.21657289396859472,0.86,nominal,5684.913809856493,nan,pitch_program,12.505,0.0,0.0
1.02,96.87627180896152,0.0,25.52249045804082,104.78689098527344,0.0,3.7489531162861978,104.85393255299341,17.787782795588157,0.0,6.738169143754728,0.0,0.0,1.2537661287917514,0.0,4.68722047470476,0.0,6704.7543865164735,0.30792246763258313,104.75399655206783,2.1413417382539466,1.2220012963362836,101018.76997743784,287.98410381202274,0.1,0.0,0.0,403.49842105263156,0.21655467466229633,0.86,nominal,5747.463716964192,nan,pitch_program,12.49,0.0,0.0
1.05,100.03757658950381,0.0,25.63276398983568,105.37682601807653,0.0,3.675784393162007,105.44091640605646,17.781286155348287,0.0,6.700788356737736,0.0,0.0,1.2460262780971738,0.0,4.70109459741322,0.0,6780.032202189804,0.3096482720591438,105.34097724696392,2.1408249023139927,1.2219883521311603,101017.44849521178,287.983387034066,0.1,0.0,0.0,403.46447368421053,0.216536455355998,0.86,nominal,5810.264971255415,nan,pitch_program,12.475,0.0,0.0
1.08,103.21655439249521,0.0,25.740895999181138,105.96592676637985,0.0,3.604400311515232,106.02721036160213,17.774790061687607,0.0,6.6637061777959925,0.0,0.0,1.2360726745382535,0.0,4.713719151596995,0.0,6855.641580826623,0.31137204581483224,105.92726821602714,2.1403212325961722,1.22197565940559,101016.15268988888,287.9826841760053,0.1,0.0,0.0,403.43052631578945,0.21651823604969964,0.86,nominal,5873.316626282084,nan,pitch_program,12.46,0.0,0.0
1.1099999999999999,106.41318029882248,0.0,25.84693954919362,106.55419687757565,0.0,3.5347850004160613,106.61281150604893,17.768294514606115,0.0,6.626980444522116,0.0,0.0,1.2241911510436714,0.0,4.725187144951402,0.0,6931.580660640603,0.3130937803636496,106.51286653662461,2.139830597308633,1.221963211925009,101014.8819247945,287.98199489293023,0.1,0.0,0.0,403.3965789473684,0.21650001674340127,0.86,nominal,5936.617678342259,nan,pitch_program,12.445,0.0,0.0
1.14,109.62742947644155,0.0,25.95094729378034,107.14163925396883,0.0,3.4669248195573252,107.19771653226601,17.761799514103814,0.0,6.590661473193281,0.0,0.0,1.2106324181649435,0.0,4.735582029155622,0.0,7007.847521003677,0.3148134660172463,107.09776889310658,2.139352891451519,1.2219510035031975,101013.63556819901,287.9813188425904,0.1,0.0,0.0,403.3626315789474,0.21648179743710294,0.86,nominal,6000.16707214458,nan,pitch_program,12.43,0.0,0.0
1.17,112.85927716042774,0.0,26.052971536568823,107.72825613287314,0.0,3.4008080929493776,107.78192179171324,17.7553050601807,0.0,6.554792935740058,0.0,0.0,1.1956179541548777,0.0,4.74497877825922,0.0,7084.44018788063,0.31653109208822117,107.68197162890552,2.1388880308338476,1.2219390279953493,101012.41299261007,287.98065568501227,0.1,0.0,0.0,403.3286842105263,0.21646357813080455,0.86,nominal,6063.9637058765875,nan,pitch_program,12.415,0.0,0.0
1.2,116.10869863517576,0.0,26.153064282730586,108.3140491582674,0.0,3.3364248720587315,108.3654233415182,17.748811152836776,0.0,6.519412555281805,0.0,0.0,1.1793460527499566,0.0,4.753444762973058,0.0,7161.356638824714,0.3182466470285336,108.26547079357667,2.1384359427052044,1.221927279291978,101011.21357415016,287.9800050821622,0.1,0.0,0.0,403.2947368421053,0.21644535882450622,0.86,nominal,6128.006435841468,nan,pitch_program,12.4,0.0,0.0
1.23,119.37566921856684,0.0,26.25127728426646,108.89901944636962,0.0,3.2737667178625123,108.948216988181,17.74231779207204,0.0,6.484552762411478,0.0,0.0,1.1619931315224035,0.0,4.76104056953716,0.0,7238.594807732916,0.3199601185579978,108.84826218646994,2.1379965607073226,1.2219157513135919,101010.03669201254,287.97936669765227,0.1,0.0,0.0,403.26078947368416,0.2164271395182078,0.86,nominal,6192.294080831638,nan,pitch_program,12.385,0.0,0.0
1.26,122.66016424791157,0.0,26.34766207940956,109.48316764482426,0.0,3.2128265047699673,109.53029832742375,17.735824977886494,0.0,6.450241308945756,0.0,0.0,1.143715149703909,0.0,4.767820758986867,0.0,7316.152589278616,0.3216714937814388,109.43034139654999,2.137569822144617,1.2219044380060562,101008.88172798767,287.97874019648384,0.1,0.0,0.0,403.22684210526313,0.21640892021190947,0.86,nominal,6256.825426178265,nan,pitch_program,12.37,0.0,0.0
1.29,125.96215906747885,0.0,26.44227002681211,110.0664939855762,0.0,3.1535982467517076,110.11166278001072,17.729332710280136,0.0,6.416501793236886,0.0,0.0,1.1246505561278468,0.0,4.773834521417433,0.0,7394.027842978162,0.3233807592940008,110.01170383819023,2.137155664208403,1.2218933333365773,101007.74806605274,287.9781252448257,0.1,0.0,0.0,403.1928947368421,0.21639070090561113,0.86,nominal,6321.599227447836,nan,pitch_program,12.355,0.0,0.0
1.3199999999999998,129.28162901745392,0.0,26.535152335041275,110.64899833250206,0.0,3.096076940972108,110.6923056242414,17.72284098925297,0.0,6.383354119254115,0.0,0.0,1.1049224969109197,0.0,4.779126250559717,0.0,7472.218396965322,0.32508790127666953,110.59234478364206,2.1367540204855757,1.2218824312902283,101006.6350920168,287.9775215098222,0.1,0.0,0.0,403.158947368421,0.21637248159931274,0.86,nominal,6386.614213851664,nan,pitch_program,12.34,0.0,0.0
1.3499999999999999,132.61854942418714,0.0,26.62636008783944,111.23068022444002,0.0,3.040258426605541,111.27222202550006,17.71634981480499,0.0,6.350814915547913,0.0,0.0,1.0846401526923954,0.0,4.783736066513234,0.0,7550.722051508548,0.3267929055831376,111.17225939256292,2.136364818824896,1.2218717258669751,101005.54219321696,287.976928659429,0.1,0.0,0.0,403.125,0.2163542622930144,0.86,nominal,6451.8690914015,nan,pitch_program,12.325,0.0,0.0
1.38,135.97289559160228,0.0,26.71594426559519,111.81153891383799,0.0,2.986139258525027,111.8514070629065,17.7098591869362,0.0,6.318897909048315,0.0,0.0,1.0639002441650263,0.0,4.787700282208856,0.0,7629.5365822619315,0.3284957578181443,111.75144273864765,2.1359879795833496,1.2218612110791496,101004.46875826009,287.9763463622736,0.1,0.0,0.0,403.0910526315789,0.21633604298671602,0.86,nominal,6517.362545808205,nan,pitch_program,12.31,0.0,0.0
1.41,139.34464279364556,0.0,26.80395576342602,112.3915734014431,0.0,2.9337165943610457,112.4298557533007,17.703369105646598,0.0,6.287614252993474,0.0,0.0,1.0427885610675915,0.0,4.79105181409881,0.0,7708.6597432667795,0.33019644340797333,112.32988983359557,2.1356234138894505,1.2218508809493214,101003.41417680531,287.9757742875377,0.1,0.0,0.0,403.0571052631579,0.2163178236804177,0.86,nominal,6583.093245141403,nan,pitch_program,12.295,0.0,0.0
1.44,142.7337662676711,0.0,26.890445406219165,112.97078246751776,0.0,2.882988093104832,113.00756307286785,17.696879570936186,0.0,6.2569728194784044,0.0,0.0,1.021381141512288,0.0,4.793820548877079,0.0,7788.089269732281,0.3318949476640108,112.90759564871932,2.1352710223490723,1.221840729508519,101002.37783938221,287.97521210485957,0.1,0.0,0.0,403.02315789473687,0.21629960437411935,0.86,nominal,6649.059842277002,nan,pitch_program,12.28,0.0,0.0
1.47,146.1402412086681,0.0,26.975463960946946,113.5491646999006,0.0,2.8339518242593966,113.58452397658483,17.690390582804962,0.0,6.226980461369472,0.0,0.0,0.9997452931266423,0.0,4.796033671811315,0.0,7867.822880608382,0.3335912558398947,113.48455513437676,2.1349306941439847,1.2218307507947854,101001.35913724314,287.97465948425383,0.1,0.0,0.0,402.9892105263158,0.21628138506782096,0.86,nominal,6715.2609771463085,nan,pitch_program,12.265,0.0,0.0
1.5,149.56404276424382,0.0,27.059062146546804,114.1267185191904,0.0,2.786606186661932,114.16073341564542,17.68390214125293,0.0,6.197642244405946,0.0,0.0,0.9779405868183112,0.0,4.797715958245344,0.0,7947.858280961343,0.33528535318271785,114.06076323738249,2.1346023062707404,1.221820938852005,101000.35746224325,287.9741160960474,0.1,0.0,0.0,402.9552631578947,0.2162631657615226,0.86,nominal,6781.695278798464,nan,pitch_program,12.25,0.0,0.0
1.53,153.0051460302846,0.0,27.141290641623907,114.70344220135986,0.0,2.740949835903392,114.73618635305795,17.677414246280083,0.0,6.1689616532161216,0.0,0.0,0.9560197262900979,0.0,4.798890032804461,0.0,8028.193164168969,0.3369772249788569,114.63621491659332,2.134285722955385,1.2218112877289977,100999.37220674785,287.9735816108294,0.1,0.0,0.0,402.9213157894737,0.21624494645522424,0.86,nominal,6848.361367292501,nan,pitch_program,12.235,0.0,0.0
1.56,156.46352604722648,0.0,27.22220009020767,115.27933389806267,0.0,2.696981619458773,115.31087777758316,17.670926897886428,0.0,6.140940775030101,0.0,0.0,0.9340292914838125,0.0,4.79957660076183,0.0,8108.8252139495235,0.3386668565949166,115.21090515683449,2.1339807952844465,1.221801791478835,100998.40276356229,287.97305569941364,0.1,0.0,0.0,402.8873684210526,0.21622672714892588,0.86,nominal,6915.257855432996,nan,pitch_program,12.220000000000002,0.0,0.0
1.5899999999999999,159.93915779687208,0.0,27.30184110577238,115.85439165485347,0.0,2.654700518823555,115.88480271614921,17.66444009607196,0.0,6.113580463027569,0.0,0.0,0.9120104174151086,0.0,4.79979465406111,0.0,8189.752106235334,0.34035423351419547,115.78482898130416,2.133687360970862,1.22179244415836,100997.44852588284,287.97253803281245,0.1,0.0,0.0,402.8534210526316,0.21620850784262752,0.86,nominal,6982.383350360335,nan,pitch_program,12.205000000000002,0.0,0.0
1.6199999999999999,163.432016199698,0.0,27.380264273710967,116.4286134275311,0.0,2.6141055979529546,116.45795624488146,17.657953840836683,0.0,6.08688048137444,0.0,0.0,0.8899994045435903,0.0,4.799561654581406,0.0,8270.971510902846,0.34203934136907566,116.35798146259337,2.1334052442239924,1.221783239827895,100996.50888726668,287.97202828222083,0.1,0.0,0.0,402.8194736842105,0.21619028853632916,0.86,nominal,7049.736455007151,nan,pitch_program,12.19,0.0,0.0
1.65,166.94207611260197,0.0,27.45752015243165,117.00199709679818,0.0,2.575195957356055,117.03033349887521,17.651468132180593,0.0,6.0608396342530515,0.0,0.0,0.8680282523219206,0.0,4.798893697431627,0.0,8352.481093370263,0.34372216596971433,116.93035773244942,2.133134255733512,1.2217741725511069,100995.58324161799,287.9715261190092,0.1,0.0,0.0,402.78552631578947,0.21617206923003082,0.86,nominal,7117.31576943182,nan,pitch_program,12.175,0.0,0.0
1.68,170.46931232704412,0.0,27.533659273230523,117.5745404814047,0.0,2.5379706932958443,117.60192968082411,17.64498297010369,0.0,6.035455880606313,0.0,0.0,0.846125135397414,0.0,4.797805656408242,0.0,8434.278516072634,0.3454026933293697,117.50195299039595,2.1328741927432695,1.2217652363950127,100994.67098318826,287.97103121472395,0.1,0.0,0.0,402.75157894736844,0.21615384992373246,0.86,nominal,7185.119892038576,nan,pitch_program,12.16,0.0,0.0
1.71,174.01369956754195,0.0,27.608732139078285,118.14624134992803,0.0,2.502428861592038,118.17274006860792,17.63849835460598,0.0,6.010726436068242,0.0,0.0,0.824314830732327,0.0,4.7963113134627715,0.0,8516.361439823491,0.3470809096866632,118.07276251131243,2.132624839192576,1.2217564254301236,100993.7715065909,287.970543241096,0.1,0.0,0.0,402.71763157894736,0.2161356306174341,0.86,nominal,7253.147420693079,nan,pitch_program,12.145,0.0,0.0
1.74,177.57521249048182,0.0,27.682789222445155,118.7170974313288,0.0,2.468569445562318,118.7427600219364,17.632014285687454,0.0,5.986647863557444,0.0,0.0,0.8026190955058384,0.0,4.794423473995075,0.0,8598.727525071683,0.34875680152506633,118.64278165207067,2.1323859659207542,1.2217477337306886,100992.88420682597,287.9700618700541,0.1,0.0,0.0,402.68368421052634,0.21611741131113574,0.86,nominal,7321.396953741881,nan,pitch_program,12.13,0.0,0.0
1.77,181.15382568321402,0.0,27.755880962275924,119.28710642440656,0.0,2.43639132769228,119.31198498813667,17.62553076334812,0.0,5.963216153795206,0.0,0.0,0.7810570029604321,0.0,4.792154069533194,0.0,8681.374433061448,0.350430355589866,119.21200585731485,2.13215733092496,1.2217391553750487,100992.00847931614,287.96958677374516,0.1,0.0,0.0,402.64973684210526,0.21609919200483738,0.86,nominal,7389.867090943378,nan,pitch_program,12.115,0.0,0.0
1.7999999999999998,184.74951366340204,0.0,27.828057760215888,119.85626600626705,0.0,2.4058932646654205,119.88041050716338,17.619047787587974,0.0,5.940426796828585,0.0,0.0,0.7596452422357479,0.0,4.78951424914721,0.0,8764.29982690294,0.35210155890284434,119.78043066446523,2.1319386796593367,1.221730684446076,100991.14371995148,287.9691176245586,0.1,0.0,0.0,402.6157894736842,0.216080972698539,0.86,nominal,7458.5564343172255,nan,pitch_program,12.1,0.0,0.0
1.8299999999999998,188.3622508785991,0.0,27.899369976178402,120.42457383990173,0.0,2.377073865417193,120.4480322159046,17.612565358407018,0.0,5.9182748455626655,0.0,0.0,0.7383983847285684,0.0,4.786514460841839,0.0,8847.501372559902,0.3537703987748842,120.34805170801734,2.1317297453696034,1.221722315031686,100990.28932514152,287.9686540951548,0.1,0.0,0.0,402.58184210526315,0.21606275339224065,0.86,nominal,7527.463588918687,nan,pitch_program,12.085,0.0,0.0
1.8599999999999999,191.99201170602822,0.0,27.969867923335766,120.99202758097057,0.0,2.3499315719121117,121.01484585184998,17.60608347580525,0.0,5.896754972192297,0.0,0.0,0.7173291207784307,0.0,4.783164524032169,0.0,8930.97673976096,0.35543686281670045,120.9148647232044,2.131530249457306,1.2217140412254266,100989.44469187524,287.9681958584983,0.1,0.0,0.0,402.54789473684207,0.2160445340859423,0.86,nominal,7596.587163543887,nan,pitch_program,12.07,0.0,0.0
1.89,195.6387704525443,0.0,28.03960186260697,121.55862488386921,0.0,2.3244646423734445,121.58084725618123,17.59960213978267,0.0,5.875861518309428,0.0,0.0,0.6964484704798624,0.0,4.779473694069761,0.0,9014.723602839977,0.35710093894786904,121.48086554908184,2.131339901867138,1.2217058571271169,100988.60921778632,287.96774258789304,0.1,0.0,0.0,402.51394736842104,0.21602631477964393,0.86,nominal,7665.9257713713705,nan,pitch_program,12.055,0.0,0.0
1.92,199.3025013547589,0.0,28.10862199670859,122.12436340715402,0.0,2.3006711367206347,122.14603237634024,17.59312135033928,0.0,5.855588539388085,0.0,0.0,0.6757659710950272,0.0,4.7754507196924285,0.0,9098.739641510994,0.3587626154043204,122.04605013109,2.1311584014930443,1.2216977568435434,100987.78230122387,287.96729395702135,0.1,0.0,0.0,402.48,0.2160080954733456,0.86,nominal,7735.478030545002,nan,pitch_program,12.040000000000001,0.0,0.0
1.95,202.98317857931062,0.0,28.176978463828416,122.68924081839074,0.0,2.2785489039942535,122.71039726812464,17.58664110747508,0.0,5.835929844271261,0.0,0.0,0.6552898436560702,0.0,4.771103894174888,0.0,9183.022541582519,0.360421880744441,122.61041452314439,2.1309854365991874,1.2216897344891986,100986.96334132798,287.96684963998507,0.1,0.0,0.0,402.44605263157894,0.2159898761670472,0.86,nominal,7805.2425647027885,nan,pitch_program,12.025,0.0,0.0
1.98,206.6807762232652,0.0,28.244721330975523,123.25325479848615,0.0,2.2580955715702475,123.27393809735656,17.58016141119007,0.0,5.816879030212004,0.0,0.0,0.6350271411591151,0.0,4.766441100869236,0.0,9267.569995615704,0.3620787238539199,123.17395488929955,2.1308206852521483,1.2216817841870613,100986.15173810902,287.9664093113486,0.1,0.0,0.0,402.4121052631579,0.21597165686074887,0.86,nominal,7875.218003455859,nan,pitch_program,12.01,0.0,0.0
2.01,210.3952683146319,0.0,28.311900587055064,123.8164030455556,0.0,2.2393085359846823,123.83665114116582,17.573682261484247,0.0,5.798429513961047,0.0,0.0,0.6149838803457096,0.0,4.761469853749769,0.0,9352.379703530416,0.36373313394946005,123.73666750502738,2.1306638157613005,1.2216739000694008,100985.34689252988,287.9659726461841,0.1,0.0,0.0,402.37815789473683,0.2159534375544505,0.86,nominal,7945.402982821445,nan,pitch_program,11.995000000000001,0.0,0.0
2.04,214.1266288129831,0.0,28.378566135711296,124.37868327837447,0.0,2.222184955207786,124.39853278892537,17.567203658357613,0.0,5.780574559341612,0.0,0.0,0.5951651587976806,0.0,4.756197333512117,0.0,9437.449373163145,0.36538510058146517,124.29854875814787,2.1305144871250774,1.221666076278618,100984.54820659153,287.96553932011784,0.1,0.0,0.0,402.3442105263158,0.21593521824815215,0.86,nominal,8015.7961456134435,nan,pitch_program,11.98,0.0,0.0
2.07,217.8748316101668,0.0,28.444767787977966,124.9400932394562,0.0,2.206721742222306,124.959579542873,17.56072560181017,0.0,5.763307301700017,0.0,0.0,0.5755752590761506,0.0,4.750630419712931,0.0,9522.776720780175,0.367034613635805,124.85959514944663,2.130372349480732,1.2216583069681057,100983.75508342094,287.9651090093781,0.1,0.0,0.0,402.3102631578947,0.2159169989418538,0.86,nominal,8086.396141793776,nan,pitch_program,11.965,0.0,0.0
2.1,221.63985053110068,0.0,28.510555254771226,125.5006306977956,0.0,2.192915559775293,125.51978801845061,17.554248091841913,0.0,5.7466207695797955,0.0,0.0,0.5562177412721747,0.0,4.744775719385181,0.0,9608.359471549125,0.3686816633347478,125.4198032930096,2.1302370445557943,1.2216505863031246,100982.96692736028,287.96468139084396,0.1,0.0,0.0,402.27631578947364,0.2158987796355554,0.86,nominal,8157.201628787592,nan,pitch_program,11.95,0.0,0.0
2.13,225.42165933464003,0.0,28.57597813925679,126.06029345131168,0.0,2.180762816185429,126.07915494438909,17.547771128452847,0.0,5.730507903928789,0.0,0.0,0.5370955252399296,0.0,4.738639592516662,0.0,9694.195359971985,0.37032624023714467,125.97916991630406,2.130108206119714,1.2216429084616987,100982.18314405845,287.9642561420948,0.1,0.0,0.0,402.2423684210526,0.21588056032925707,0.86,nominal,8228.211271764978,nan,pitch_program,11.935,0.0,0.0
2.16,229.22023171451067,0.0,28.641085929119782,126.61907932902129,0.0,2.1702596620997108,126.63767716256456,17.54129471164297,0.0,5.7149615751137866,0.0,0.0,0.5182109636794103,0.0,4.73222817473608,0.0,9780.282130282227,0.3719683352379409,126.53769186003086,2.129985460434281,1.2216352676355198,100981.40314056311,287.9638329414607,0.1,0.0,0.0,402.2084210526316,0.2158623410229587,0.86,nominal,8299.423743891764,nan,pitch_program,11.92,0.0,0.0
2.19,233.0355413002998,0.0,28.705927988762895,127.17698619297113,0.0,2.161401988103746,127.1953516276493,17.53481884141228,0.0,5.699974597986429,0.0,0.0,0.4995659070936113,0.0,4.72554739751292,0.0,9866.617536808515,0.3736079395670824,127.09536607777153,2.12986842670159,1.2216276580308627,100980.62632541428,287.963411468073,0.1,0.0,0.0,402.1744736842105,0.21584412171666034,0.86,nominal,8370.837726551676,nan,pitch_program,11.905,0.0,0.0
2.2199999999999998,236.8675616584984,0.0,28.770553551455873,127.73401193995318,0.0,2.15418542309925,127.75217540657849,17.52834351776078,0.0,5.6855397452198035,0.0,0.0,0.4811617614325579,0.0,4.718603006146403,0.0,9953.199344307332,0.3752450447878804,127.65218963545124,2.1297567175088354,1.2216200738695033,100979.85210873785,287.96299140191553,0.1,0.0,0.0,402.1405263157895,0.215825902410362,0.86,nominal,8442.451909541982,nan,pitch_program,11.890000000000002,0.0,0.0
2.25,240.71626629358917,0.0,28.835011711457007,128.29015450302578,0.0,2.1486053333711133,128.3081456778517,17.521868740688472,0.0,5.671649759106751,0.0,0.0,0.4629995393693304,0.0,4.711400575784473,0.0,10040.025328266594,0.3768796427948906,128.20815971063703,2.1296499392687633,1.2216125093896406,100979.07990233973,287.9625724238755,0.1,0.0,0.0,402.1065789473684,0.21580768310406362,0.86,nominal,8514.264991244567,nan,pitch_program,11.875,0.0,0.0
2.28,244.58162864917497,0.0,28.899351416125217,128.84541185286048,0.0,2.144656822273708,128.86325973068725,17.51539451019535,0.0,5.6582973619940224,0.0,0.0,0.4450799057719858,0.0,4.703945525691737,0.0,10127.09327518227,0.3785117258113562,128.76327359168835,2.129547692655405,1.2216049588468272,100978.3091198008,287.9621542157952,0.1,0.0,0.0,402.0726315789474,0.21578946379776529,0.86,nominal,8586.275678774227,nan,pitch_program,11.86,0.0,0.0
2.31,248.46362210914293,0.0,28.963621458039416,129.39978199893238,0.0,2.1423347304733222,129.41751496404424,17.508920826281418,0.0,5.645475265503747,0.0,0.0,0.42740321812617754,0.0,4.696243131957759,0.0,10214.40098280964,0.38014128638626604,129.3175286767762,2.129449573034256,1.2215974165148833,100977.53917657015,287.96173646052273,0.1,0.0,0.0,402.03868421052636,0.21577124449146692,0.86,nominal,8658.48268810579,nan,pitch_program,11.845,0.0,0.0
2.34,252.36221999886004,0.0,29.027870467140104,129.9532629905703,0.0,2.1416336366895794,129.97090888552765,17.502447688946674,0.0,5.633176178679274,0.0,0.0,0.4099695623900456,0.0,4.688298538818594,0.0,10301.94626039102,0.38176831739106315,129.87092247278454,2.129355170886583,1.221589876686827,100976.76949006012,287.9613188419636,0.1,0.0,0.0,402.0047368421053,0.21575302518516856,0.86,nominal,8730.884744181645,nan,pitch_program,11.83,0.0,0.0
2.37,256.27739558639644,0.0,29.092146902906638,130.50585291788082,0.0,2.1425478588844564,130.52343911018875,17.49597509819112,0.0,5.621392815175579,0.0,0.0,0.3927787848408951,0.0,4.680116768743769,0.0,10389.726928861393,0.3833928120160504,130.42345259410817,2.1292640722273126,1.2215823336757885,100975.99947973939,287.9609010451311,0.1,0.0,0.0,401.9707894736842,0.21573480587887017,0.86,nominal,8803.480581000966,nan,pitch_program,11.815,0.0,0.0
2.4,260.2091220837732,0.0,29.156499046582212,131.0575499125593,0.0,2.1450714558524377,131.07510335923325,17.489503054014754,0.0,5.610117899602303,0.0,0.0,0.37583052032204683,0.0,4.671702731425494,0.0,10477.740821033256,0.38501476376651983,130.9751167613573,2.129175859016251,1.22157478181592,100975.22856722603,287.96048275619717,0.1,0.0,0.0,401.9368421052631,0.2157165865725718,0.86,nominal,8876.268941692006,nan,pitch_program,11.8,0.0,0.0
2.4299999999999997,264.15737264823116,0.0,29.22097499345731,131.60835214859924,0.0,2.1491982291699574,131.62589945864747,17.483031556417576,0.0,5.599344173114436,0.0,0.0,0.35912421732033384,0.0,4.6630612317907,0.0,10565.985781762187,0.3866341664586444,131.52591279998117,2.1289530721807775,1.2215672154633044,100974.45617638035,287.9600636625425,0.1,0.0,0.0,401.9028947368421,0.21569836726627348,0.86,nominal,8949.248578568575,nan,pitch_program,11.785,0.0,0.0
2.46,268.1221206854906,0.0,29.28561956510832,132.1582679086477,0.0,2.1548190550336592,132.17583372830993,17.476560605399587,0.0,5.592844190369764,0.0,0.0,0.21666609172144535,0.0,4.658021373920592,0.0,10654.461024762055,0.38825103886286666,132.07584702810772,2.1291296273448252,1.2215596293583033,100973.68177029383,287.95964347282677,0.1,0.0,0.0,401.86894736842106,0.21568014795997512,0.86,nominal,9022.419331995086,nan,pitch_program,11.77,0.0,0.0
2.4899999999999998,272.1033369186248,0.0,29.350489489429204,132.70720777113982,0.0,2.1623308106961066,132.72482310761376,17.470090200960787,0.0,5.587702021588872,0.0,0.0,0.1714056261447765,0.0,4.653503553728763,0.0,10743.151290297263,0.38986513708022014,132.62483638969414,2.1292207280416533,1.2215520168441716,100972.90466944173,287.95922181831867,0.1,0.0,0.0,401.835,0.21566192865367675,0.86,nominal,9095.769312225191,nan,pitch_program,11.755,0.0,0.0
2.52,276.1009918350093,0.0,29.415639916211337,133.25516387948377,0.0,2.171680892737761,133.27285882147183,17.463620343101177,0.0,5.584991917264643,0.0,0.0,0.09033681082450605,0.0,4.650614944921334,0.0,10832.053182595104,0.3914764355623682,133.17287210866957,2.129460667722492,1.2215443714494811,100972.12421322097,287.9587983405446,0.1,0.0,0.0,401.80105263157895,0.2156437093473784,0.86,nominal,9169.296334408293,nan,pitch_program,11.74,0.0,0.0
2.55,280.1150546592587,0.0,29.481130523587225,133.80209414164665,0.0,2.183020245862946,133.81990126316757,17.457151031820754,0.0,5.58426572828494,0.0,0.0,0.024206299323716287,0.0,4.648852303782803,0.0,10921.15824337429,0.3930848181594313,133.7199145798994,2.129778722475045,1.2215366861715344,100971.33968679937,287.9583726515967,0.1,0.0,0.0,401.7671052631579,0.21562549004108003,0.86,nominal,9242.994115691095,nan,pitch_program,11.725000000000001,0.0,0.0
2.58,284.14549372431605,0.0,29.547023488658876,134.3479688352459,0.0,2.1964321690550572,134.3659221842706,17.45068226711952,0.0,5.585190222409379,0.0,0.0,-0.030816470815266294,0.0,4.647857112537231,0.0,11010.459770241014,0.3946902021232913,134.26593555575596,2.13014538567728,1.2215289537145184,100970.55034542753,287.9579443473237,0.1,0.0,0.0,401.73315789473685,0.2156072707347817,0.86,nominal,9316.857840109788,nan,pitch_program,11.71,0.0,0.0
2.61,288.19227669166025,0.0,29.613382514638566,134.89276557813974,0.0,2.21196753265631,134.91090024784688,17.444214048997477,0.0,5.587938118437214,0.0,0.0,-0.09159653427872631,0.0,4.647791004859596,0.0,11099.952123648392,0.3962925250330247,134.8109136997775,2.1306096570308446,1.2215211666036836,100969.75542609443,287.9575130136548,0.1,0.0,0.0,401.6992105263158,0.21558905142848334,0.86,nominal,9390.883580479427,nan,pitch_program,11.695,0.0,0.0
2.6399999999999997,292.2553703628787,0.0,29.680273990651262,135.43645570728114,0.0,2.2297158670898907,135.4548085798296,17.437746377454623,0.0,5.592108624606389,0.0,0.0,-0.13901687236723642,0.0,4.648225833308325,0.0,11189.628690773203,0.39789170820863373,135.3548221389132,2.131115718697126,1.2215133170492425,100968.95413363441,287.95707821906075,0.1,0.0,0.0,401.6652631578947,0.21557083212218495,0.86,nominal,9465.06664262956,nan,pitch_program,11.68,0.0,0.0
2.67,296.33474099102233,0.0,29.747765406409822,135.97902093812027,0.0,2.249713858618655,135.99762993425807,17.431279252490956,0.0,5.5977872652756515,0.0,0.0,-0.18928802246365564,0.0,4.649242507800442,0.0,11279.484386300106,0.3994877012808537,135.89764362765013,2.1316977100763492,1.22150539713242,100968.1456597196,287.9566395248583,0.1,0.0,0.0,401.63131578947366,0.21555261281588659,0.86,nominal,9539.403597490475,nan,pitch_program,11.665,0.0,0.0
2.6999999999999997,300.43035416485594,0.0,29.815926118488246,136.5204391277879,0.0,2.2720237359475,136.53934374934119,17.42481267410648,0.0,5.604747485342758,0.0,0.0,-0.2320073358555204,0.0,4.650599134196864,0.0,11369.51352660623,0.4010804441473145,136.4393576050371,2.1323267061029685,1.221497398715536,100967.32917368128,287.9561964802298,0.1,0.0,0.0,401.59736842105264,0.21553439350958825,0.86,nominal,9613.890547620249,nan,pitch_program,11.65,0.0,0.0
2.73,304.54217497884065,0.0,29.884826513370065,137.06069379948937,0.0,2.2966798293939075,137.0799347936675,17.41834664230119,0.0,5.6129682474277205,0.0,0.0,-0.2740254033021975,0.0,4.652271237567895,0.0,11459.71126646867,0.4026698923835575,136.97994884024536,2.133013703413591,1.221489313540232,100966.50383253732,287.95574862766307,0.1,0.0,0.0,401.56342105263155,0.21551617420328986,0.86,nominal,9688.524295445406,nan,pitch_program,11.635,0.0,0.0
2.76,308.6701680181634,0.0,29.954538194947304,137.59976797742448,0.0,2.3237227192412835,137.61938756845623,17.411881157075094,0.0,5.622325568200694,0.0,0.0,-0.31191069312571135,0.0,4.654128794989851,0.0,11550.072676392407,0.404256000789939,137.51940183523735,2.1337467209809335,1.221481133205469,100965.66877874623,287.9552955017328,0.1,0.0,0.0,401.52947368421053,0.21549795489699153,0.86,nominal,9763.301589347964,nan,pitch_program,11.620000000000001,0.0,0.0
2.79,312.81429744275124,0.0,30.025133608260976,138.13764748626062,0.0,2.353180443789052,138.15768929465864,17.405416218428183,0.0,5.632763107700576,0.0,0.0,-0.34791798429155674,0.0,4.656114695271891,0.0,11640.593245992464,0.4058387321702839,138.05770381163882,2.134526745027858,1.2214728492116962,100964.82314471646,287.9548366315463,0.1,0.0,0.0,401.49552631578945,0.21547973559069317,0.86,nominal,9838.219532119168,nan,pitch_program,11.605,0.0,0.0
2.82,316.97452701068244,0.0,30.096685995179968,138.6743189310407,0.0,2.3850795639664066,138.6948280777421,17.398951826360463,0.0,5.644199012900804,0.0,0.0,-0.38119684127311204,0.0,4.65814689189637,0.0,11731.268582465646,0.407418051937292,138.59484287565766,2.1353479117602587,1.221464452966053,100963.96605333732,287.9543715410313,0.1,0.0,0.0,401.4615789473684,0.2154615162843948,0.86,nominal,9913.275333471853,nan,pitch_program,11.59,0.0,0.0
2.85,321.1508201285637,0.0,30.169269192021517,139.20977059604232,0.0,2.4194398947183022,139.23079371607017,17.39248798087193,0.0,5.6565749413117095,0.0,0.0,-0.412530948634114,0.0,4.660169590635903,0.0,11822.094551217115,0.40899393048780247,139.13080882639787,2.13620833367804,1.2214559358061272,100963.09662040487,287.9538997502518,0.1,0.0,0.0,401.4276315789474,0.21544329697809647,0.86,nominal,9988.46642312538,nan,pitch_program,11.575,0.0,0.0
2.88,325.34313988192696,0.0,30.242957532521118,139.74399177877567,0.0,2.4562780166533242,139.76557709236425,17.38602468196259,0.0,5.669827592063394,0.0,0.0,-0.44175502702554365,0.0,4.662123282777028,0.0,11913.067177822393,0.41056634141362386,139.66559254736242,2.1371039500861957,1.2214472890113535,100962.21395578532,287.95342077603857,0.1,0.0,0.0,401.3936842105263,0.21542507767179808,0.86,nominal,10063.790369467106,nan,pitch_program,11.56,0.0,0.0
2.9099999999999997,329.5514490726122,0.0,30.31782570668221,140.27697302284056,0.0,2.495605805369719,140.2991703781121,17.379561929632434,0.0,5.6839052197246875,0.0,0.0,-0.4692542577371941,0.0,4.663961837846164,0.0,12004.18268683679,0.41213526210172857,140.19918621084062,2.1380322985054576,1.2214385038195767,100961.3171651064,287.95293413290653,0.1,0.0,0.0,401.3597368421053,0.21540685836549975,0.86,nominal,10139.2449098597,nan,pitch_program,11.545,0.0,0.0
2.94,333.77571024705577,0.0,30.393948664999666,140.80870581478604,0.0,2.537431943915174,140.83156675300094,17.37309972388147,0.0,5.698755268930089,0.0,0.0,-0.49500164295108273,0.0,4.6656394861310835,0.0,12095.437457975187,0.4137006729091005,140.7315829973571,2.138989873675895,1.2214295714383039,100960.40535090605,287.9524393336775,0.1,0.0,0.0,401.3257894736842,0.21538863905920136,0.86,nominal,10214.827913728099,nan,pitch_program,11.53,0.0,0.0
2.9699999999999998,338.0158857271355,0.0,30.47140150472249,141.33918266932517,0.0,2.5817613240941415,141.36276047519536,17.366638064709694,0.0,5.714333372250716,0.0,0.0,-0.5192701138864196,0.0,4.667120038367332,0.0,12186.828041730818,0.41526255736876516,141.26277716593847,2.139974220526182,1.221420483058057,100959.47761399581,287.95193589021926,0.1,0.0,0.0,401.29184210526313,0.215370419752903,0.86,nominal,10290.537394150017,nan,pitch_program,11.515,0.0,0.0
3.0,342.2719376347284,0.0,30.550259386670195,141.86839691976147,0.0,2.628596064923525,141.89274668514778,17.360176952117108,0.0,5.730594565640482,0.0,0.0,-0.542039783297297,0.0,4.668367662766519,0.0,12278.351129069548,0.4168209016126906,141.79276385793304,2.1409820511614535,1.2214112298621456,100958.53305445863,287.9514233139866,0.1,0.0,0.0,401.2578947368421,0.21535220044660466,0.86,nominal,10366.371482142049,nan,pitch_program,11.5,0.0,0.0
3.03,346.54382791828,0.0,30.630597438196368,142.39634278505324,0.0,2.677935050872445,142.42152145899536,17.35371638610371,0.0,5.747501020519836,0.0,0.0,-0.5635485000673038,0.0,4.669354786505279,0.0,12370.003563745555,0.4183756945282527,142.32153915039729,2.142011066768058,1.2214018030380591,100957.5707728121,287.9509011166517,0.1,0.0,0.0,401.223947368421,0.21533398114030627,0.86,nominal,10442.328435714826,nan,pitch_program,11.485,0.0,0.0
3.06,350.8315183737305,0.0,30.71249068374265,142.92301518168358,0.0,2.7297748515427105,142.949081631761,17.3472563666695,0.0,5.765013468353719,0.0,0.0,-0.5837482656740471,0.0,4.670053130261394,0.0,12461.782314615539,0.41992692723817854,142.8490998793046,2.14305806503939,1.2213921937856222,100956.5898708412,287.95036881055563,0.1,0.0,0.0,401.19,0.21531576183400794,0.86,nominal,10518.40661644566,nan,pitch_program,11.47,0.0,0.0
3.09,355.13497066802597,0.0,30.796013959299593,143.44840980984935,0.0,2.7841091852314377,143.47542486757018,17.34079689381448,0.0,5.783099737968935,0.0,0.0,-0.6028756588465797,0.0,4.670442448098877,0.0,12553.684490528167,0.421474593306487,143.3754437097504,2.1441209788885325,1.2213823933270491,100955.589452625,287.9498259092645,0.1,0.0,0.0,401.156052631579,0.21529754252770958,0.86,nominal,10594.604500758853,nan,pitch_program,11.455,0.0,0.0
3.12,359.4541463566926,0.0,30.881241856407776,143.9725229555539,0.0,2.8409299036060705,144.0005494743152,17.33433796753865,0.0,5.801724730919721,0.0,0.0,-0.6208331038264584,0.0,4.670500093422925,0.0,12645.70731052342,0.42301868819338734,143.90056895062503,2.145196579318305,1.2213723929135178,100954.56862520796,287.94927192793335,0.1,0.0,0.0,401.1221052631579,0.21527932322141122,0.86,nominal,10670.92065490349,nan,pitch_program,11.44,0.0,0.0
3.15,363.7890069052907,0.0,30.968248643864836,144.4953516199369,0.0,2.9002262485686616,144.5244545122454,17.32787958784201,0.0,5.820861384218584,0.0,0.0,-0.637888449225423,0.0,4.670212269181719,0.0,12737.848125176726,0.42455920957403503,144.42447466318896,2.1462831346770517,1.2213621838343651,100953.52649953886,287.94870638381485,0.1,0.0,0.0,401.08815789473687,0.21526110391511288,0.86,nominal,10747.353751594403,nan,pitch_program,11.425,0.0,0.0
3.1799999999999997,368.1395137036968,0.0,31.05710822574706,145.01689328020393,0.0,2.9619860627408094,145.04713957220227,17.321421754724557,0.0,5.840477269038827,0.0,0.0,-0.6538628337280938,0.0,4.669560132982031,0.0,12830.104379824601,0.42609615668640205,144.9471604393197,2.14737722354344,1.22135175742203,100952.4621909758,287.9481287965326,0.1,0.0,0.0,401.0542105263158,0.2152428846088145,0.86,nominal,10823.902539420984,nan,pitch_program,11.410000000000002,0.0,0.0
3.21,372.505628086609,0.0,31.147894065380093,145.53714609707393,0.0,3.026194654434433,145.5686049537041,17.314964468186293,0.0,5.8605504322337225,0.0,0.0,-0.6691054466737307,0.0,4.668536082903355,0.0,12922.473648006759,0.42762953085430594,145.4686265795761,2.1484776511016577,1.2213411050609762,100951.3748201972,287.947538688575,0.1,0.0,0.0,401.0202631578947,0.21522466530251613,0.86,nominal,10900.565869420043,nan,pitch_program,11.395000000000001,0.0,0.0
3.2399999999999998,376.88731134411546,0.0,31.240679160227053,146.05610858354817,0.0,3.092836494898619,146.08885136160592,17.308507728227216,0.0,5.881049264061159,0.0,0.0,-0.6832944015363847,0.0,4.6671229444616635,0.0,13014.953579682788,0.42915933459556715,145.98887378987718,2.149580494444515,1.2213302181906538,100950.26351350463,287.9469355854585,0.1,0.0,0.0,400.9863157894737,0.21520644599621777,0.86,nominal,10977.342652363335,nan,pitch_program,11.38,0.0,0.0
3.27,381.2845247428451,0.0,31.335535960505243,146.57377995765574,0.0,3.1618933426063456,146.6078802131226,17.30205153484733,0.0,5.901957899182807,0.0,0.0,-0.6969545117893434,0.0,4.665320107940522,0.0,13107.541957559315,0.4306855725240051,146.50790348849367,2.1506855225782346,1.2213190883150566,100949.12740379841,287.94631901625667,0.1,0.0,0.0,400.9523684210526,0.2151882266899194,0.86,nominal,11054.23190401974,nan,pitch_program,11.365,0.0,0.0
3.3,385.6972295314316,0.0,31.432536368593983,147.09015961954947,0.0,3.2333469362912632,147.12569316511295,17.29559588804663,0.0,5.923242609793955,0.0,0.0,-0.7094903618642856,0.0,4.663108855119432,0.0,13200.23661447114,0.43220824995984014,147.0257173333667,2.1517876626562624,1.2213077070028064,100947.96563058684,287.9456885136041,0.1,0.0,0.0,400.9184210526316,0.21517000738362105,0.86,nominal,11131.232677436556,nan,pitch_program,11.35,0.0,0.0
3.33,390.1253869651778,0.0,31.531751638063813,147.6052477915408,0.0,3.307175648994367,147.64229267515273,17.289140787825122,0.0,5.944896621634201,0.0,0.0,-0.7218004032663403,0.0,4.660498485661768,0.0,13293.03553535528,0.43372737457834587,147.54231778312672,2.152888605092741,1.2212960658990009,100946.77734119585,287.9450436143526,0.1,0.0,0.0,400.8844736842105,0.2151517880773227,0.86,nominal,11208.344145389148,nan,pitch_program,11.335,0.0,0.0
3.36,394.5689583028697,0.0,31.633252416095203,148.11904458972916,0.0,3.3833592677129967,148.15768117147553,17.2826862341828,0.0,5.96687833218019,0.0,0.0,-0.7327236938537891,0.0,4.657462661354275,0.0,13385.936709630663,0.43524295397007196,148.05770726710128,2.1539806531360504,1.2212841567202595,100945.56169026358,287.9443838592954,0.1,0.0,0.0,400.85052631578947,0.21513356877102435,0.86,nominal,11285.565479860596,nan,pitch_program,11.32,0.0,0.0
3.3899999999999997,399.027904841014,0.0,31.73710859240217,148.63155127147598,0.0,3.4618725435655233,148.6718621490741,17.27623222711967,0.0,5.9891977825050935,0.0,0.0,-0.7439816869048639,0.0,4.6540283912085565,0.0,13478.938330154308,0.4367549988619158,148.5718892813139,2.155069690064832,1.2212719712724516,100944.31784155032,287.94370879414936,0.1,0.0,0.0,400.81657894736844,0.215115349464726,0.86,nominal,11362.896013414324,nan,pitch_program,11.305,0.0,0.0
3.42,403.50218789325686,0.0,31.84338942938087,149.14276840809464,0.0,3.542694565956655,149.184838550096,17.269778766635728,0.0,6.011792484433551,0.0,0.0,-0.7531567407090929,0.0,4.650148213244824,0.0,13572.038501519934,0.4382635183569709,149.0848667690205,2.156141813611268,1.221259501435442,100943.0449663819,287.943017968709,0.1,0.0,0.0,400.78263157894736,0.21509713015842763,0.86,nominal,11440.335001556743,nan,pitch_program,11.29,0.0,0.0
3.4499999999999997,407.99176884844405,0.0,31.95216328897337,149.65269850623926,0.0,3.6257953197499453,149.69661506493748,17.263325852730976,0.0,6.03470896165131,0.0,0.0,-0.7638825841087753,0.0,4.645886941255241,0.0,13665.23565902486,0.4397685266969628,149.59664442158729,2.1572128097646854,1.2212467391951458,100941.74224692189,287.94231093862163,0.1,0.0,0.0,400.74868421052633,0.21507891085212927,0.86,nominal,11517.881963067844,nan,pitch_program,11.275,0.0,0.0
3.48,412.4966091104677,0.0,32.06349796286029,150.16134206745562,0.0,3.7111557962306474,150.20719466404833,17.25687348540541,0.0,6.057831503073833,0.0,0.0,-0.7707513912113231,0.0,4.641142654407101,0.0,13758.52793794318,0.4412700330693098,150.10722521061342,2.1582533118732994,1.2212336766047984,100940.40887221867,287.9415872632414,0.1,0.0,0.0,400.71473684210525,0.2150606915458309,0.86,nominal,11595.53616671914,nan,pitch_program,11.26,0.0,0.0
3.51,417.01667021640236,0.0,32.177460094658244,150.66870353115524,0.0,3.7987377265984397,150.71658379911162,17.250421664659036,0.0,6.081295029388695,0.0,0.0,-0.7821175547590619,0.0,4.636071206866437,0.0,13851.914125509215,0.4427680568925938,150.61661558861428,2.159304232132946,1.2212203058527618,100939.04404512704,287.9408465093847,0.1,0.0,0.0,400.6807894736842,0.21504247223953252,0.86,nominal,11673.297405074598,nan,pitch_program,11.245000000000001,0.0,0.0
3.54,421.5519136777532,0.0,32.294116007170395,151.17478204502828,0.0,3.888530417071697,151.22478432838415,17.24397039049185,0.0,6.104844213038519,0.0,0.0,-0.7849727993779277,0.0,4.63042739151596,0.0,13945.39218050698,0.4442626040857929,151.124817415133,2.1602953245616527,1.221206619165472,100937.64697240197,287.94008824595335,0.1,0.0,0.0,400.64684210526315,0.21502425293323418,0.86,nominal,11751.164790324865,nan,pitch_program,11.23,0.0,0.0
3.57,426.10230125721864,0.0,32.41353032567218,151.6795859821815,0.0,3.980477283392677,151.73180616841543,17.237519662903853,0.0,6.128846604510506,0.0,0.0,-0.8000797274336493,0.0,4.624606138599536,0.0,14038.961563383338,0.44575370424996125,151.63184060721932,2.161335676521228,1.2211926089689806,100936.21688118832,287.9393120528831,0.1,0.0,0.0,400.61289473684207,0.21500603362693582,0.86,nominal,11829.13864873305,nan,pitch_program,11.215,0.0,0.0
3.5999999999999996,430.66779454527546,0.0,32.53576813324904,152.18310960189285,0.0,4.074593585895475,152.23764698980327,17.231069481895045,0.0,6.1526614305065,0.0,0.0,-0.7938275446284431,0.0,4.617966476747423,0.0,14132.619486272773,0.44724135099633955,152.1376828371971,2.162240167932427,1.2211782676360827,100934.75299320919,287.93851750713384,0.1,0.0,0.0,400.57894736842104,0.21498781432063746,0.86,nominal,11907.217471059903,nan,pitch_program,11.2,0.0,0.0
3.63,435.24835568035417,0.0,32.66089137394494,152.68537116929113,0.0,4.170774689863317,152.74232527566747,17.224619847465426,0.0,6.177312614792974,0.0,0.0,-0.8217061555580222,0.0,4.611577335219753,0.0,14226.367041668418,0.4487255991006903,152.64236258779525,2.1633151029011923,1.221163587908334,100933.25456784363,287.9377042060693,0.1,0.0,0.0,400.545,0.21496959501433913,0.86,nominal,11985.4028957012,nan,pitch_program,11.185,0.0,0.0
3.6599999999999997,439.8439461659665,0.0,32.78896479931993,153.18634952040972,0.0,4.269114179166149,153.24582544155612,17.218170759614996,0.0,6.20103170553124,0.0,0.0,-0.7906363692335254,0.0,4.603640119685473,0.0,14320.198995871015,0.4502064032179603,153.14586427768725,2.1640321992204243,1.2211485621983855,100931.72083091317,287.9368717288044,0.1,0.0,0.0,400.51105263157893,0.21495137570804074,0.86,nominal,12063.691409281195,nan,pitch_program,11.17,0.0,0.0
3.69,444.45452890711925,0.0,32.92004581775327,153.68609137175827,0.0,4.3693672811113355,153.74819040094644,17.211722218343755,0.0,6.226816672536365,0.0,0.0,-0.8594989146769778,0.0,4.597249853653764,0.0,14414.121064346124,0.4516838899188994,153.64823081731635,2.165304665518035,1.2211331837808947,100930.15109624337,287.9360197021846,0.1,0.0,0.0,400.4771052631579,0.2149331564017424,0.86,nominal,12142.088393101509,nan,pitch_program,11.155,0.0,0.0
3.7199999999999998,449.0800647066816,0.0,33.054201964416706,154.18452665207724,0.0,4.471871555447751,154.2493627025199,17.205274223651703,0.0,6.249397798482635,0.0,0.0,-0.7527042079519515,0.0,4.587015002997219,0.0,14508.12016594487,0.453157890815905,154.14940476305162,2.1655154709949866,1.2211174447429551,100928.54455645647,287.9351476872313,0.1,0.0,0.0,400.4431578947368,0.21491493709544401,0.86,nominal,12220.583936761115,nan,pitch_program,11.14,0.0,0.0
3.75,453.7205184511964,0.0,33.19148020147376,154.68179148382885,0.0,4.575941235235041,154.74946156557388,17.19882677553884,0.0,6.2780822227851,0.0,0.0,-0.9561474967193297,0.0,4.582503617293637,0.0,14602.216470192587,0.4546287567270424,154.64950532264325,2.1675610243288963,1.221101339585774,100926.90065060818,287.9342553786904,0.1,0.0,0.0,400.4092105263158,0.21489671778914568,0.86,nominal,12299.195156735297,nan,pitch_program,11.125,0.0,0.0
3.78,458.3758480727362,0.0,33.331961599222794,155.17765405132477,0.0,4.682713258301058,155.2482918435243,17.192379874005166,0.0,6.29606969025246,0.0,0.0,-0.5995822538364866,0.0,4.566496155531809,0.0,14696.370841385717,0.4560959145985491,155.148337372728,2.1661606852089785,1.221084858809609,100925.21840938092,287.933342249605,0.1,0.0,0.0,400.3752631578947,0.21487849848284732,0.86,nominal,12377.890941383066,nan,pitch_program,11.11,0.0,0.0
3.81,463.04602461221293,0.0,33.475662275164154,155.67255131589138,0.0,4.790022531378733,155.74622804116302,17.185933519050682,0.0,6.334053135326914,0.0,0.0,-1.266114882185005,0.0,4.570493972483487,0.0,14790.652017606464,0.4575604654837879,155.64627537717305,2.1710815888442676,1.2210680005352823,100923.4976413272,287.9324081952114,0.1,0.0,0.0,400.34131578947364,0.21486027917654893,0.86,nominal,12456.727877975714,nan,pitch_program,11.095,0.0,0.0
3.84,467.73099523901413,0.0,33.622715510405484,156.16568756003957,0.0,4.901774508044292,156.24259779083172,17.179487710675385,0.0,6.33500331831162,0.0,0.0,-0.031672766157526316,0.0,4.53602560317881,0.0,14884.929906890507,0.45902043385914537,156.14264704722925,2.163989892532518,1.2210507491391096,100921.73675207976,287.93145234918234,0.1,0.0,0.0,400.3073684210526,0.2148420598702506,0.86,nominal,12535.600885273923,nan,pitch_program,11.080000000000002,0.0,0.0
3.8699999999999997,472.4307524826996,0.0,33.7730317265246,156.65857478951537,0.0,5.010540537303871,156.7386824353138,17.17304244887928,0.0,6.406367430800705,0.0,0.0,-2.3788040571692886,0.0,4.57328438538089,0.0,14979.446740436704,0.4604795857994658,156.6387335769804,2.1798600437627016,1.2210331151424685,100919.93681597381,287.9304752937776,0.1,0.0,0.0,400.2734210526316,0.21482384056395223,0.86,nominal,12614.707587359995,nan,pitch_program,11.065000000000001,0.0,0.0
3.9,477.1452026608131,0.0,33.92694270575153,157.1483392704499,0.0,5.130365974230984,157.23206158570196,17.16659773366236,0.0,6.34262795353823,0.0,0.0,2.124649461200274,0.0,4.471587339287362,0.0,15073.737094557437,0.46193080867935676,157.1321148671903,2.1512332840558934,1.2210150596364402,100918.09386191894,287.9294748724126,0.1,0.0,0.0,400.2394736842105,0.21480562125765387,0.86,nominal,12693.670247930344,nan,pitch_program,11.05,0.0,0.0
3.9299999999999997,481.87441933283696,0.0,34.08396292868969,157.6405557341287,0.0,5.234007431271925,157.72742198475046,17.160153565024633,0.0,6.542471874795365,0.0,0.0,-6.661470795352945,0.0,4.639620442285086,0.0,15168.698599935124,0.46338787635350887,157.6274770933314,2.2110306192519085,1.2209966395912957,100916.21370537864,287.9284542409635,0.1,0.0,0.0,400.2055263157895,0.21478740195135554,0.86,nominal,12773.219318032408,nan,pitch_program,11.035,0.0,0.0
3.96,486.61814678977885,0.0,34.24520539263864,158.1242485647287,0.0,5.374748798298442,158.2155678459137,17.153709942966092,0.0,6.221356865346764,0.0,0.0,10.703861666176,0.0,4.2733535768848,0.0,15262.557971140872,0.4648237646651405,158.11562560067227,2.107077883321443,1.2209777244562237,100914.28302133964,287.92740616494785,0.1,0.0,0.0,400.1715789473684,0.21476918264505715,0.86,nominal,12851.913697866179,nan,pitch_program,11.02,0.0,0.0
