time_s,x_m,y_m,altitude_m,vx_mps,vy_mps,vz_mps,speed_mps,mass_kg,roll_deg,pitch_deg,yaw_deg,p_dps,q_dps,r_dps,alpha_deg,beta_deg,qbar_pa,mach,airspeed_mps,load_factor_g,density_kgpm3,pressure_pa,temperature_k,wind_x_mps,wind_y_mps,wind_z_mps,thrust_n,mass_flow_kgps,propulsion_throttle_actual,propulsion_health,energy_j_per_kg,target_distance_m,guidance_mode,pitch_command_deg,heading_command_deg,roll_command_deg,elevator_command_deg,aileron_command_deg,rudder_command_deg,elevator_deg,aileron_deg,rudder_deg,throttle,elevator_saturated,aileron_saturated,rudder_saturated,elevator_failed,aileron_failed,rudder_failed,elevator_raw_rad,aileron_raw_rad,rudder_raw_rad,elevator_effective_rad,aileron_effective_rad,rudder_effective_rad,sensor_time_s,imu_valid,imu_ax_mps2,imu_ay_mps2,imu_az_mps2,gyro_p_rps,gyro_q_rps,gyro_r_rps,imu_accel_norm_mps2,imu_gyro_norm_rps,gps_valid,gps_latency_s,gps_x_m,gps_y_m,gps_z_m,gps_vx_mps,gps_vy_mps,gps_vz_mps,baro_valid,baro_alt_m,baro_bias_m,pitot_valid,pitot_airspeed_mps,pitot_qbar_pa,pitot_compressibility_factor,mag_valid,mag_heading_deg,mag_x_ut,mag_y_ut,mag_z_ut,radar_valid,radar_agl_m,optical_flow_valid,horizon_valid,horizon_roll_deg,horizon_pitch_deg
0.0,0.0,0.0,900.0,70.0,0.0,4.0,70.11419257183242,18.0,0.0,18.000000000000004,0.0,0.0,0.0,0.0,14.72951207681644,0.0,2759.3556404685783,0.20816395637020318,70.1141925718324,1.4790299068951314,1.1226019692711875,90970.07887058289,282.29999999999995,0.0,0.0,0.0,273.59999999999997,0.14683913466882167,0.72,nominal,11283.984999999999,nan,fixed_pitch,26.0,0.0,0.0,-20.05352282957881,-0.0,0.0,-1.8750000000000002,0.0,0.0,0.72,0.0,0.0,0.0,0.0,0.0,0.0,-0.03272492347489368,0.0,0.0,-0.03272492347489368,0.0,0.0,0.0,1.0,13.124683187965003,0.0401032777054351,6.052526515782966,-0.0017697994528526222,0.0008620863442852247,-0.0019047864694523068,14.453096356199588,0.0027392689649848347,1.0,0.0,-1.1847204903281356,-2.1801049899993714,897.6597487825237,70.39011843772215,0.18917350047430306,3.8016023654792703,1.0,899.6899854359319,0.0,1.0,70.76165448518913,2732.849514235471,1.0,1.0,-1.4840521806067302,9.962958229895124,0.048500247149829485,-46.890039957756706,1.0,899.7067055008114,0.0,1.0,0.7910241563651457,18.546306663164323
0.025,1.7566489908610163,0.0,900.1000344673942,70.26595963444065,0.0,4.001378695766349,70.37979905353365,17.99632902163328,0.0,17.597888525492426,0.0,0.0,16.084525000226876,0.0,14.338632244457203,0.0,2780.273958365412,0.20895276340660923,70.37979905353365,1.496370955451231,1.1225909648889092,90968.97760007007,282.2993497759619,0.0,0.0,0.0,277.65,0.14901274028069567,0.72,nominal,11303.624060417558,nan,fixed_pitch,26.0,0.0,0.0,-10.340950726559836,-0.0,0.0,-3.7500000000000004,0.0,0.0,0.72,0.0,0.0,0.0,0.0,0.0,0.0,-0.06544984694978737,0.0,0.0,-0.06544984694978737,0.0,0.0,0.025,1.0,13.457635324829601,-0.05909191052167622,5.857373096339133,-0.000181717823083268,0.28309857434829916,0.0007325737117672112,14.677202048745807,0.283099580507725,1.0,0.0,-1.1847204903281356,-2.1801049899993714,897.6597487825237,70.39011843772215,0.18917350047430306,3.8016023654792703,1.0,899.6899854359319,0.0,1.0,70.94058369958937,2769.2192663973965,1.0,1.0,-1.4840521806067302,9.962958229895124,0.048500247149829485,-46.890039957756706,1.0,899.7067055008114,0.0,1.0,0.7910241563651457,18.546306663164323
0.05,3.520191619805133,0.0,900.1999908120836,70.54170515776465,0.0,3.9982537875747504,70.65492339472782,17.992603703126264,0.0,16.9194824758874,0.0,0.0,27.136559020292346,0.0,13.67546922564409,0.0,2802.0259475092034,0.2097698299716331,70.65492339472782,1.5153726545082316,1.122579969183019,90967.87720038582,282.29870005972145,0.0,0.0,0.0,281.7,0.15118634589256968,0.72,nominal,11324.005339854746,nan,fixed_pitch,26.0,0.0,0.0,-14.593547526081753,-0.0,0.0,-5.625000000000001,0.0,0.0,0.72,0.0,0.0,0.0,0.0,0.0,0.0,-0.09817477042468105,0.0,0.0,-0.09817477042468105,0.0,0.0,0.05,1.0,13.711655730540285,0.0716729491587782,5.634476987285194,0.004674512407931903,0.47748713371640783,-0.0018490906905282158,14.824370840097929,0.47751359464139287,1.0,0.0,-1.1847204903281356,-2.1801049899993714,897.6597487825237,70.39011843772215,0.18917350047430306,3.8016023654792703,1.0,900.198929979724,0.0,1.0,70.41540909598744,2792.725603293576,1.0,1.0,-1.0934740400812786,10.829329792838188,-0.006150638790838771,-46.78005469515262,1.0,900.2217818565256,0.0,1.0,-1.9593629645428712e-05,16.657993826703002
0.07500000000000001,5.290942347637728,0.0,900.2996771615408,70.8300291133038,0.0,3.9874539782872422,70.94217936756964,17.98882404447895,0.0,16.091319317393676,0.0,0.0,33.127103093295794,0.0,12.869191764542691,0.0,2824.8286060878195,0.21062291582226453,70.94217936756964,1.5363046317913078,1.1225690032600364,90966.77978376037,282.29805209844994,0.0,0.0,0.0,285.75,0.1533599515044437,0.72,nominal,11345.320235746434,nan,fixed_pitch,26.0,0.0,0.0,-17.158898731367184,-0.0,0.0,-7.500000000000001,0.0,0.0,0.72,0.0,0.0,0.0,0.0,0.0,0.0,-0.13089969389957473,0.0,0.0,-0.13089969389957473,0.0,0.0,0.07500000000000001,1.0,14.170801322522959,-0.0036913274543079245,5.199681390522314,0.0015163372945679108,0.5799878489156102,-0.0021423552810293143,15.094645087290422,0.5799937877725051,1.0,0.0,-1.1847204903281356,-2.1801049899993714,897.6597487825237,70.39011843772215,0.18917350047430306,3.8016023654792703,1.0,900.198929979724,0.0,1.0,71.15708248786703,2806.5615909041476,1.0,1.0,-1.0934740400812786,10.829329792838188,-0.006150638790838771,-46.78005469515262,1.0,900.2217818565256,0.0,1.0,-1.9593629645428712e-05,16.657993826703002
0.1,7.069250029685576,0.0,900.3988537615935,71.13230728191392,0.0,3.9670640021083425,71.24284340230567,17.984990045691337,0.0,15.237808270374112,0.0,0.0,34.141073231324675,0.0,12.045717114555803,0.0,2848.7957886086706,0.21151581013704132,71.24284340230567,1.5588606454431497,1.122558093492984,90965.68798944887,282.2974074505496,0.0,0.0,0.0,289.8,0.15553355711631772,0.72,nominal,11367.667787263854,nan,fixed_pitch,26.0,0.0,0.0,-17.997121912623918,-0.0,0.0,-9.375000000000002,0.0,0.0,0.72,0.0,0.0,0.0,0.0,0.0,0.0,-0.16362461737446843,0.0,0.0,-0.16362461737446843,0.0,0.0,0.1,1.0,14.466797587490221,-0.04134297836845507,4.949525322947329,0.0008921225986699562,0.591170552981022,0.003721778987929432,15.290119116663876,0.5911829414263011,1.0,0.0,-1.1847204903281356,-2.1801049899993714,897.6597487825237,70.39011843772215,0.18917350047430306,3.8016023654792703,1.0,900.421588692402,0.0,1.0,71.47312769616885,2843.0886912188103,1.0,1.0,0.9166586510981276,12.27644386131756,0.015486777582566525,-46.43885342797578,1.0,900.554970933938,0.0,1.0,0.09211798404325502,15.110859280107533
0.125,8.85546484340442,0.0,900.4972663122942,71.44859254875378,0.0,3.9365020280256475,71.55695232061301,17.98110170676343,0.0,14.478565154630989,0.0,0.0,30.370169039594128,0.0,11.325008964133323,0.0,2873.9440701132708,0.21244862173613643,71.55695232061301,1.5821144943404655,1.1225472678541675,90964.60461673017,282.2967677689701,0.0,0.0,0.0,293.84999999999997,0.15770716272819169,0.72,nominal,11391.060229388702,nan,fixed_pitch,26.0,0.0,0.0,-17.10828904292537,-0.0,0.0,-11.250000000000004,0.0,0.0,0.72,0.0,0.0,0.0,0.0,0.0,0.0,-0.19634954084936213,0.0,0.0,-0.19634954084936213,0.0,0.0,0.125,1.0,14.858754927264009,0.007580114548028007,4.677157346180837,0.0007055062918121973,0.5300868350546849,0.0011117843933798606,15.577498396326748,0.5300884704480544,1.0,0.0,-1.1847204903281356,-2.1801049899993714,897.6597487825237,70.39011843772215,0.18917350047430306,3.8016023654792703,1.0,900.421588692402,0.0,1.0,72.33946976779333,2878.656078645747,1.0,1.0,0.9166586510981276,12.27644386131756,0.015486777582566525,-46.43885342797578,1.0,900.554970933938,0.0,1.0,0.09211798404325502,15.110859280107533
0.15000000000000002,10.649909029896964,0.0,900.5946807464675,71.77776745970179,0.0,3.8965773669336037,71.88345579252241,17.977159027695222,0.0,13.925952164630063,0.0,0.0,22.104690956618246,0.0,10.81860408169769,0.0,2900.2029569079496,0.2134182317805842,71.88345579252243,1.6051489932274223,1.1225365520894464,90963.5322420479,282.29613457514796,0.0,0.0,0.0,297.9,0.1598807683400657,0.72,nominal,11415.432434280108,nan,fixed_pitch,26.0,0.0,0.0,-14.530940275524186,-0.0,0.0,-12.890470137762094,0.0,0.0,0.72,0.0,0.0,0.0,0.0,0.0,0.0,-0.22498114603395558,0.0,0.0,-0.22498114603395558,0.0,0.0,0.15000000000000002,1.0,15.109727968321975,0.038549272230478174,4.410062860460586,0.0019646967772118393,0.38526422053491277,0.0015741690663285107,15.740203929946226,0.38527244602495214,1.0,0.0,-1.1847204903281356,-2.1801049899993714,897.6597487825237,70.39011843772215,0.18917350047430306,3.8016023654792703,1.0,901.269417158587,0.0,1.0,71.47914872421254,2895.176104724367,1.0,1.0,-0.1779840465434555,13.253420162624701,-0.0354611563190946,-46.11706187337747,1.0,900.4069277049862,0.0,1.0,0.04886793277601613,13.623702561122705
0.17500000000000002,12.452849212232906,0.0,900.6909284472272,72.11760729343769,0.0,3.8499080303863247,72.22029544091419,17.97316200848672,0.0,13.670171827237782,0.0,0.0,10.231230487351404,0.0,10.614409079418866,0.0,2927.4192281241276,0.21441852872340958,72.22029544091417,1.6316298151345574,1.1225259647443748,90962.47272125883,282.295508965093,0.0,0.0,0.0,301.95,0.16205437395193972,0.72,nominal,11440.646230243465,nan,fixed_pitch,26.0,0.0,0.0,-10.524669605536786,-0.0,0.0,-11.707569871649442,0.0,0.0,0.72,0.0,0.0,0.0,0.0,0.0,0.0,-0.20433564166757268,0.0,0.0,-0.20433564166757268,0.0,0.0,0.17500000000000002,1.0,15.391802374020216,0.02530880610325757,4.493748204142258,0.0019450701434978732,0.17986832943222839,-3.645329860300707e-06,16.03440032488875,0.17987884601556736,1.0,0.0,-1.1847204903281356,-2.1801049899993714,897.6597487825237,70.39011843772215,0.18917350047430306,3.8016023654792703,1.0,901.269417158587,0.0,1.0,71.6799213342148,2889.9456096031395,1.0,1.0,-0.1779840465434555,13.253420162624701,-0.0354611563190946,-46.11706187337747,1.0,900.4069277049862,0.0,1.0,0.04886793277601613,13.623702561122705
0.2,14.264450359295811,0.0,900.7860485254299,72.46404588251625,0.0,3.80480312810842,72.56386478480239,17.96911064913792,0.0,13.636756271264513,0.0,0.0,1.3366222768169396,0.0,10.63113940215226,0.0,2955.31080941773,0.21543880524574746,72.56386478480239,1.6576776587428226,1.1225155015139896,90961.42562346281,282.2948906845847,0.0,0.0,0.0,306.0,0.16422797956381371,0.72,nominal,11466.450739025448,nan,fixed_pitch,26.0,0.0,0.0,-7.436455303502738,-0.0,0.0,-9.83256987164944,0.0,0.0,0.72,0.0,0.0,0.0,0.0,0.0,0.0,-0.17161071819267898,0.0,0.0,-0.17161071819267898,0.0,0.0,0.2,1.0,15.549218176957698,0.04593181574034343,4.6361332701653675,-0.001959887195297939,0.019682425852507873,-0.0006299594719408782,16.22572116563893,0.019789792676883987,1.0,0.0,15.693014096161473,-1.2390701528638024,901.2528204863231,72.49237674127708,-0.20896209951698597,3.875710852981112,1.0,899.6285579643123,0.0,1.0,72.74257754857523,2959.1824030251455,1.0,1.0,-0.31231635544879516,13.517204025091955,0.019704449971231084,-46.10624458508842,1.0,900.720765176014,0.0,1.0,0.37127588655652777,13.078442559755038
0.225,16.084817192716603,0.0,900.8801784696728,72.81467333683163,0.0,3.7651977697172523,72.911956271894,17.965004949648826,0.0,13.710941878886267,0.0,0.0,-2.967424719435121,0.0,10.750852072566529,0.0,2983.704759293944,0.21647250758697079,72.91195627189398,1.683016398288973,1.122505147272018,90960.38943483596,282.2942788399471,0.0,0.0,0.0,310.05,0.16640158517568773,0.72,nominal,11492.693285886908,nan,fixed_pitch,26.0,0.0,0.0,-5.894639556719824,-0.0,0.0,-7.957569871649439,0.0,0.0,0.72,0.0,0.0,0.0,0.0,0.0,0.0,-0.13888579471778528,0.0,0.0,-0.13888579471778528,0.0,0.0,0.225,1.0,15.794226397751226,-0.04013304314033232,4.908108529982356,-0.0030428724709688926,-0.05619610595281736,-0.0013401925743029889,16.539308555881618,0.056294382608490096,1.0,0.0,15.693014096161473,-1.2390701528638024,901.2528204863231,72.49237674127708,-0.20896209951698597,3.875710852981112,1.0,899.6285579643123,0.0,1.0,72.8508731374267,3008.6434359642026,1.0,1.0,-0.31231635544879516,13.517204025091955,0.019704449971231084,-46.10624458508842,1.0,900.720765176014,0.0,1.0,0.37127588655652777,13.078442559755038
0.25,17.914028060916287,0.0,900.9734906065798,73.16843472798732,0.0,3.7324854762819095,73.263574089546,17.960844910019432,0.0,13.7801719925042,0.0,0.0,-2.769204881631074,0.0,10.859917473842026,0.0,3012.524427882586,0.2175166796582229,73.26357408954601,1.7067180828811948,1.1224948830605217,90959.36225811999,282.2936723110572,0.0,0.0,0.0,314.09999999999997,0.16857519078756172,0.72,nominal,11519.307325844213,nan,fixed_pitch,26.0,0.0,0.0,-5.9313575309162365,-0.0,0.0,-6.944463701282838,0.0,0.0,0.72,0.0,0.0,0.0,0.0,0.0,0.0,-0.12120375637261749,0.0,0.0,-0.12120375637261749,0.0,0.0,0.25,1.0,15.920311796797865,0.0014875039078433325,5.043120313966715,-0.0037741072489491574,-0.050037994230965686,0.002864398391690749,16.69998180900425,0.05026180985928627,1.0,0.0,15.693014096161473,-1.2390701528638024,901.2528204863231,72.49237674127708,-0.20896209951698597,3.875710852981112,1.0,900.7372735585499,0.0,1.0,73.41442679506407,3054.4750227300337,1.0,1.0,-0.8856653770183001,13.412880371543041,-0.006840521503056411,-46.1029479273468,1.0,900.4820095127651,0.0,1.0,-0.2185037857549412,14.278985019107173
0.275,19.75217149045454,0.0,901.0661192628535,73.52573718153006,0.0,3.705146250945103,73.61903379444969,17.956630530249743,0.0,13.785139605398948,0.0,0.0,-0.19870451591434798,0.0,10.900301887631846,0.0,3041.800022131687,0.21857225867821298,73.61903379444968,1.7288932797187804,1.122484694102006,90958.34261442431,282.29307022479145,0.0,0.0,0.0,318.15,0.17074879639943571,0.72,nominal,11546.321126883224,nan,fixed_pitch,26.0,0.0,0.0,-6.8343581416956365,-0.0,0.0,-6.889410921489237,0.0,0.0,0.72,0.0,0.0,0.0,0.0,0.0,0.0,-0.12024290410284375,0.0,0.0,-0.12024290410284375,0.0,0.0,0.275,1.0,16.160119600396712,0.019508949048417247,5.088982895321908,-0.0031935616877507207,-0.0034831534797516417,0.0013295780452930704,16.94247895105961,0.004909070400340633,1.0,0.0,15.693014096161473,-1.2390701528638024,901.2528204863231,72.49237674127708,-0.20896209951698597,3.875710852981112,1.0,900.7372735585499,0.0,1.0,73.47531415339013,3062.428676047842,1.0,1.0,-0.8856653770183001,13.412880371543041,-0.006840521503056411,-46.1029479273468,1.0,900.4820095127651,0.0,1.0,-0.2185037857549412,14.278985019107173
0.30000000000000004,21.59936264101535,0.0,901.1581366477682,73.8876460224324,0.0,3.680695396587841,73.9792656988344,17.952361810339756,0.0,13.724974035783804,0.0,0.0,2.4066230057510016,0.0,10.873155876781526,0.0,3071.613364944254,0.21964200690752264,73.9792656988344,1.7505102279878604,1.1224745724521163,90957.32970868483,282.2924721117895,0.0,0.0,0.0,322.2,0.17292240201130973,0.72,nominal,11573.808317426203,nan,fixed_pitch,26.0,0.0,0.0,-7.786052950927855,-0.0,0.0,-7.337731936208546,0.0,0.0,0.72,0.0,0.0,0.0,0.0,0.0,0.0,-0.12806758191557766,0.0,0.0,-0.12806758191557766,0.0,0.0,0.30000000000000004,1.0,16.435014053844345,0.06815996346257375,5.113319879180067,-0.00011239081637780688,0.04282193152782319,-0.002814236898561917,17.212215804988574,0.042914454217552515,1.0,0.0,15.693014096161473,-1.2390701528638024,901.2528204863231,72.49237674127708,-0.20896209951698597,3.875710852981112,1.0,901.0302699691363,0.0,1.0,73.698691295967,3070.6070911462584,1.0,1.0,0.26634093903031225,13.37658011503505,-0.029494006171825047,-46.053950762348855,1.0,901.5939557673161,0.0,1.0,-0.057116006698419916,14.521775718351549
0.325,23.4557390193732,0.0,901.2495715453297,74.25505513431408,0.0,3.657395902461114,74.34507218227286,17.948038750289474,0.0,13.629330630816987,0.0,0.0,3.8257370870526097,0.0,10.809534243334523,0.0,3102.037185237285,0.22072830668281465,74.34507218227286,1.7723488070063358,1.1224645149433368,90956.32322387623,282.2918777849553,0.0,0.0,0.0,326.25,0.17509600762318375,0.72,nominal,11601.833989688686,nan,fixed_pitch,26.0,0.0,0.0,-8.342488354040732,-0.0,0.0,-7.84011014512464,0.0,0.0,0.72,0.0,0.0,0.0,0.0,0.0,0.0,-0.13683573575143543,0.0,0.0,-0.13683573575143543,0.0,0.0,0.325,1.0,16.65339886671199,0.020013096373075603,5.1430093513174615,0.0005355727017172973,0.06823598920862456,-0.0006922029914480386,17.429476168995137,0.06824160172782964,1.0,0.0,15.693014096161473,-1.2390701528638024,901.2528204863231,72.49237674127708,-0.20896209951698597,3.875710852981112,1.0,901.0302699691363,0.0,1.0,74.50008290846971,3027.9379484819005,1.0,1.0,0.26634093903031225,13.37658011503505,-0.029494006171825047,-46.053950762348855,1.0,901.5939557673161,0.0,1.0,-0.057116006698419916,14.521775718351549
0.35000000000000003,25.32144806970595,0.0,901.3404383463961,74.62836201330994,0.0,3.6346720426572925,74.71682044658563,17.943661350098893,0.0,13.53067056748667,0.0,0.0,3.9464035083320814,0.0,10.742361459988865,0.0,3133.1091299325367,0.22183224828367423,74.71682044658563,1.7947074607908935,1.122454519991423,90955.3230014185,282.2912871507484,0.0,0.0,0.0,330.3,0.17726961323505777,0.72,nominal,11630.431838533343,nan,fixed_pitch,26.0,0.0,0.0,-8.446205879985055,-0.0,0.0,-8.143158012554848,0.0,0.0,0.72,0.0,0.0,0.0,0.0,0.0,0.0,-0.14212491882923983,0.0,0.0,-0.14212491882923983,0.0,0.0,0.35000000000000003,1.0,16.79665453981096,-0.009998557001843733,5.0549530703723615,0.00016492952569605336,0.06815572315799107,0.0008332945040189553,17.540816806653023,0.06816101657595487,1.0,0.0,15.693014096161473,-1.2390701528638024,901.2528204863231,72.49237674127708,-0.20896209951698597,3.875710852981112,1.0,900.6378458422815,0.0,1.0,75.33926530299752,3147.9697861670475,1.0,1.0,-0.40175946827528874,13.542079975739655,0.030093070387636138,-46.026895184266294,1.0,901.1089532378996,0.0,1.0,0.03423340263224971,13.429337961496161
0.375,27.196636016198802,0.0,901.4307590784101,75.00751785971401,0.0,3.612829280561688,75.0944756349347,17.939229609768017,0.0,13.448548939152763,0.0,0.0,3.2848656957056304,0.0,10.690958509118426,0.0,3164.833679932829,0.22295372831121815,75.0944756349347,1.817501309909109,1.1224445851721985,90954.32879867905,282.29070006599034,0.0,0.0,0.0,334.34999999999997,0.17944321884693173,0.72,nominal,11659.60608895919,nan,fixed_pitch,26.0,0.0,0.0,-8.266931586155595,-0.0,0.0,-8.205044799355221,0.0,0.0,0.72,0.0,0.0,0.0,0.0,0.0,0.0,-0.14320504702238612,0.0,0.0,-0.14320504702238612,0.0,0.0,0.375,1.0,17.012665545974574,-0.011656175042515728,5.162410729904565,0.0007627277892675338,0.05896805552820643,-0.0009062746479365208,17.778678505160073,0.05897995134107564,1.0,0.0,15.693014096161473,-1.2390701528638024,901.2528204863231,72.49237674127708,-0.20896209951698597,3.875710852981112,1.0,900.6378458422815,0.0,1.0,75.22979857206876,3143.378552036572,1.0,1.0,-0.40175946827528874,13.542079975739655,0.030093070387636138,-46.026895184266294,1.0,901.1089532378996,0.0,1.0,0.03423340263224971,13.429337961496161
0.4,29.08144231298035,0.0,901.5205721213712,75.39225187126188,0.0,3.5925217184435922,75.47779709634668,17.934743529296842,0.0,13.387070059043143,0.0,0.0,2.459155440330054,0.0,10.65892828431701,0.0,3197.1979349723747,0.2240920324102188,75.47779709634669,1.8404965220481235,1.1224347062628823,90953.3401930372,282.29011628121106,0.0,0.0,0.0,338.4,0.18161682445880575,0.72,nominal,11689.345645852683,nan,fixed_pitch,26.0,0.0,0.0,-8.018667716207048,-0.0,0.0,-8.111856257781135,0.0,0.0,0.72,0.0,0.0,0.0,0.0,0.0,0.0,-0.1415786001467867,0.0,0.0,-0.1415786001467867,0.0,0.0,0.4,1.0,17.261505383495653,-0.0907931942526972,5.19062530297347,0.000251058242861576,0.04372282285101943,0.0014656330848655127,18.025271219719286,0.04374810108613159,1.0,0.0,30.368669502030542,2.8135483756416955,901.5794730541159,75.29419210537237,-0.310263602739104,3.3357910269358992,1.0,901.4655163920789,0.0,1.0,76.0148473919121,3192.034796184897,1.0,1.0,0.9736838973934514,13.70556292127046,0.0019570278589873765,-45.98362061342589,1.0,901.5243183220607,0.0,1.0,0.68336377691599,13.700887054817725
0.42500000000000004,30.975999485498548,0.0,901.6099299949915,75.78228690072791,0.0,3.5743149448105695,75.86653237909937,17.930203108685372,0.0,13.340420959454827,0.0,0.0,1.8659640866100318,0.0,10.640033951146878,0.0,3230.187682664554,0.2252464112243428,75.86653237909937,1.8413203744274085,1.1224248774855428,90952.35660624888,282.28953545503254,0.0,0.0,0.0,338.37631578947367,0.18160411331487666,0.72,nominal,11719.63838759985,nan,fixed_pitch,26.0,0.0,0.0,-7.8435040609116795,-0.0,0.0,-7.9776801593464075,0.0,0.0,0.72,0.0,0.0,0.0,0.0,0.0,0.0,-0.1392367854516207,0.0,0.0,-0.1392367854516207,0.0,0.0,0.42500000000000004,1.0,17.265648235368392,0.040879071925000766,5.228478002898687,-0.00011203191902471998,0.0321598047349566,-0.0014660940608027817,18.039990640596145,0.032193400310258295,1.0,0.0,30.368669502030542,2.8135483756416955,901.5794730541159,75.29419210537237,-0.310263602739104,3.3357910269358992,1.0,901.4655163920789,0.0,1.0,75.807769787764,3212.6154246610486,1.0,1.0,0.9736838973934514,13.70556292127046,0.0019570278589873765,-45.98362061342589,1.0,901.5243183220607,0.0,1.0,0.68336377691599,13.700887054817725
0.45,32.88029771662446,0.0,901.6988595480213,76.17192924503662,0.0,3.5571821211939527,76.25494311553977,17.9256630058525,0.0,13.300222876287156,0.0,0.0,1.60792339266225,0.0,10.626487833772785,0.0,3263.3188252722402,0.22639982772413655,76.2549431155398,1.8420377997373427,1.122415095886019,90951.37774265477,282.28895741293786,0.0,0.0,0.0,338.35263157894735,0.18159140217094757,0.72,nominal,11750.053295763706,nan,fixed_pitch,26.0,0.0,0.0,-7.782050642446355,-0.0,0.0,-7.87986540089638,0.0,0.0,0.72,0.0,0.0,0.0,0.0,0.0,0.0,-0.13752959585962476,0.0,0.0,-0.13752959585962476,0.0,0.0,0.45,1.0,17.20413328804721,0.05486849238053924,5.361872995683515,-0.0004281515960226781,0.0280799229563498,0.0008060203772042808,18.020402181033315,0.028094751393671128,1.0,0.0,30.368669502030542,2.8135483756416955,901.5794730541159,75.29419210537237,-0.310263602739104,3.3357910269358992,1.0,901.5185757399772,0.0,1.0,76.09821403445144,3303.006067328385,1.0,1.0,-0.09408074110913262,13.809416019479421,0.03235021532457746,-46.01763113180943,1.0,901.8724380983925,0.0,1.0,-0.06698468827697245,13.407133754694465
0.47500000000000003,34.79432605594899,0.0,901.7873881305894,76.5611335729812,0.0,3.541143302722525,76.64298317439298,17.921123220798226,0.0,13.260526063411868,0.0,0.0,1.5878725785298957,0.0,10.612340755291823,0.0,3296.5869615472766,0.2275521449980029,76.642983174393,1.8426431680494466,1.1224053584550813,90950.40330108746,282.2883819771511,0.0,0.0,0.0,338.32894736842104,0.18157869102701849,0.72,nominal,11780.586724745986,nan,fixed_pitch,26.0,0.0,0.0,-7.803632810287699,-0.0,0.0,-7.841749105592039,0.0,0.0,0.72,0.0,0.0,0.0,0.0,0.0,0.0,-0.13686434100790157,0.0,0.0,-0.13686434100790157,0.0,0.0,0.47500000000000003,1.0,17.219233407647053,-0.014208111291212439,5.440145372318196,-7.71416553500972e-05,0.028894113146119886,0.0014435634636649729,18.058166648068397,0.028930254074401016,1.0,0.0,30.368669502030542,2.8135483756416955,901.5794730541159,75.29419210537237,-0.310263602739104,3.3357910269358992,1.0,901.5185757399772,0.0,1.0,76.66043054444411,3303.473242311423,1.0,1.0,-0.09408074110913262,13.809416019479421,0.03235021532457746,-46.01763113180943,1.0,901.8724380983925,0.0,1.0,-0.06698468827697245,13.407133754694465
0.5,36.71807427705431,0.0,901.8755403735482,76.94992884421272,0.0,3.52608971835097,77.03067478499239,17.91658375352255,0.0,13.219325837249777,0.0,0.0,1.6480091174958147,0.0,10.595686869894545,0.0,3329.99352139775,0.22870342909018232,77.03067478499239,1.8431841419017665,1.1223956624826859,90949.4330103219,282.2878089875719,0.0,0.0,0.0,338.30526315789473,0.18156597988308942,0.72,nominal,11811.240196919887,nan,fixed_pitch,26.0,0.0,0.0,-7.854143060784287,-0.0,0.0,-7.847946083188163,0.0,0.0,0.72,0.0,0.0,0.0,0.0,0.0,0.0,-0.13697249867062625,0.0,0.0,-0.13697249867062625,0.0,0.0,0.5,1.0,17.273704793972026,-0.046035354864689744,5.470082181200479,-0.0016593042029406698,0.026150236929210344,-0.002027896168836918,18.119183084021106,0.026281182331914153,1.0,0.0,30.368669502030542,2.8135483756416955,901.5794730541159,75.29419210537237,-0.310263602739104,3.3357910269358992,1.0,901.46398996743,0.0,1.0,76.91109245182552,3295.7226900150854,1.0,1.0,0.7001214451233372,13.906585301840561,-0.016646611689183643,-45.98675916868334,1.0,901.9729905857148,0.0,1.0,0.11091253966546691,12.89202587601744
0.525,38.65153324711781,0.0,901.963338175768,77.33835880253984,0.0,3.51191208878652,77.4180551860466,17.91204460402547,0.0,13.17752757232863,0.0,0.0,1.671930670995287,0.0,10.577529224123829,0.0,3363.5412786180696,0.22985379060204258,77.4180551860466,1.8437167351161272,1.122386005559351,90948.4666292131,282.2872383018575,0.0,0.0,0.0,338.2815789473684,0.18155326873916033,0.72,nominal,11842.016404716273,nan,fixed_pitch,26.0,0.0,0.0,-7.892333868294687,-0.0,0.0,-7.8701399757414245,0.0,0.0,0.72,0.0,0.0,0.0,0.0,0.0,0.0,-0.13735985516951452,0.0,0.0,-0.13735985516951452,0.0,0.0,0.525,1.0,17.19500776173446,-0.028180378447320603,5.505750741278557,0.002190800710431522,0.03175286032916267,-0.0026802711018412404,18.05498206271408,0.03194100186305222,1.0,0.0,30.368669502030542,2.8135483756416955,901.5794730541159,75.29419210537237,-0.310263602739104,3.3357910269358992,1.0,901.46398996743,0.0,1.0,77.08004862443414,3381.520219048785,1.0,1.0,0.7001214451233372,13.906585301840561,-0.016646611689183643,-45.98675916868334,1.0,901.9729905857148,0.0,1.0,0.11091253966546691,12.89202587601744
0.55,40.59469435523183,0.0,902.0508023668015,77.72644432456084,0.0,3.498567641342137,77.80514200796823,17.907505772306994,0.0,13.137043533203217,0.0,0.0,1.619361632389485,0.0,10.559826056441034,0.0,3397.2313597949365,0.23100328191675448,77.80514200796823,1.844276402405527,1.1223763853932756,90947.5039283945,282.28666978461575,0.0,0.0,0.0,338.25789473684205,0.18154055759523122,0.72,nominal,11872.916562470446,nan,fixed_pitch,26.0,0.0,0.0,-7.903037246620237,-0.0,0.0,-7.886588611180831,0.0,0.0,0.72,0.0,0.0,0.0,0.0,0.0,0.0,-0.13764693801539238,0.0,0.0,-0.13764693801539238,0.0,0.0,0.55,1.0,17.20749735004608,-0.0279457372147169,5.5449742161266045,-0.004707653058005957,0.029357881632735783,7.153176510058875e-05,18.07886846773271,0.02973301747333587,1.0,0.0,30.368669502030542,2.8135483756416955,901.5794730541159,75.29419210537237,-0.310263602739104,3.3357910269358992,1.0,901.283981637456,0.0,1.0,78.04120641643162,3415.285832332884,1.0,1.0,0.56332668989451,13.901226434429347,0.012913129396100356,-45.94327324055416,1.0,901.9007048350315,0.0,1.0,-0.2660731236018461,13.372544080832375
0.5750000000000001,42.54754873137029,0.0,902.1379544451893,78.11417504553836,0.0,3.4860831355142436,78.19192489427999,17.902967258367113,0.0,13.099325255309914,0.0,0.0,1.5087311702187458,0.0,10.544022004089678,0.0,3431.062465814688,0.23215187232751874,78.19192489428,1.8448716623635752,1.122366799619143,90946.54467114469,282.28610329610626,0.0,0.0,0.0,338.2342105263158,0.18152784645130216,0.72,nominal,11903.939730296277,nan,fixed_pitch,26.0,0.0,0.0,-7.891889161074849,-0.0,0.0,-7.88923888612784,0.0,0.0,0.72,0.0,0.0,0.0,0.0,0.0,0.0,-0.1376931940393008,0.0,0.0,-0.1376931940393008,0.0,0.0,0.5750000000000001,1.0,17.17175971725782,-0.0023145253405642456,5.611534275278571,0.002694454256022685,0.02820857027295356,0.0008076677398474496,18.065399360847024,0.028348471700604047,1.0,0.0,30.368669502030542,2.8135483756416955,901.5794730541159,75.29419210537237,-0.310263602739104,3.3357910269358992,1.0,901.283981637456,0.0,1.0,78.12346053270802,3444.7489140581183,1.0,1.0,0.56332668989451,13.901226434429347,0.012913129396100356,-45.94327324055416,1.0,901.9007048350315,0.0,1.0,-0.2660731236018461,13.372544080832375
0.6000000000000001,44.51008674325353,0.0,902.2248175059026,78.50152047532951,0.0,3.474522428530455,78.57837503438806,17.89842906220583,0.0,13.064823128397279,0.0,0.0,1.3800851182086007,0.0,10.530533013057864,0.0,3465.031651603637,0.23329947634251963,78.57837503438806,1.8454931994182942,1.1223572456961097,90945.58860317916,282.2855386862116,0.0,0.0,0.0,338.2105263157895,0.18151513530737307,0.72,nominal,11935.083518116728,nan,fixed_pitch,26.0,0.0,0.0,-7.872651825574015,-0.0,0.0,-7.880945355850927,0.0,0.0,0.72,0.0,0.0,0.0,0.0,0.0,0.0,-0.13754844462935484,0.0,0.0,-0.13754844462935484,0.0,0.0,0.6000000000000001,1.0,17.1508743552817,-0.012837377409966676,5.595913584017323,-0.0017341306941260676,0.02553148275996994,0.0009442755372492855,18.04070133860399,0.025607723004539076,1.0,0.0,45.14817025964911,0.08488048923289125,900.3762866562809,78.51423784724696,0.12421506685860094,3.335831013667848,1.0,901.4772035119619,0.0,1.0,78.9782850505936,3451.10023985175,1.0,1.0,0.17125574255220896,13.909985072208013,0.03670263630779307,-45.88141142260993,1.0,902.1649549571216,0.0,1.0,-0.3238354001448056,12.832509720925813
0.625,46.48229789544725,0.0,902.3114162744461,78.88844608774885,0.0,3.4639507417376807,78.9644596060838,17.893891183823147,0.0,13.033194561844999,0.0,0.0,1.2651426942183985,0.0,10.51898161406599,0.0,3499.135566181994,0.23444599656473086,78.9644596060838,1.8461271692412276,1.1223477209040633,90944.63545227604,282.28497579421605,0.0,0.0,0.0,338.1868421052631,0.18150242416344395,0.72,nominal,11966.345190848217,nan,fixed_pitch,26.0,0.0,0.0,-7.856617379559707,-0.0,0.0,-7.868781367705317,0.0,0.0,0.72,0.0,0.0,0.0,0.0,0.0,0.0,-0.13733614298604038,0.0,0.0,-0.13733614298604038,0.0,0.0,0.625,1.0,17.2280087931847,-0.01368800188720007,5.686421111655506,-0.001971053812215531,0.024074357133704934,0.0005684654790737704,18.14221208669236,0.024161599233757637,1.0,0.0,45.14817025964911,0.08488048923289125,900.3762866562809,78.51423784724696,0.12421506685860094,3.335831013667848,1.0,901.4772035119619,0.0,1.0,78.84315346807196,3554.487542688305,1.0,1.0,0.17125574255220896,13.909985072208013,0.03670263630779307,-45.88141142260993,1.0,902.1649549571216,0.0,1.0,-0.3238354001448056,12.832509720925813
0.65,48.46417100107907,0.0,902.3977766372683,79.27492422527283,0.0,3.4544145128885684,79.35015179915918,17.889353623219062,0.0,13.003805362743158,0.0,0.0,1.175567989848483,0.0,10.508713188116495,0.0,3533.371336922128,0.23559135345089846,79.35015179915918,1.8467645582041465,1.1223382223952787,90943.6849334454,282.28441445185774,0.0,0.0,0.0,338.16315789473686,0.1814897130195149,0.72,nominal,11997.722451534668,nan,fixed_pitch,26.0,0.0,0.0,-7.848222283433894,-0.0,0.0,-7.858501825569606,0.0,0.0,0.72,0.0,0.0,0.0,0.0,0.0,0.0,-0.13715673113017474,0.0,0.0,-0.13715673113017474,0.0,0.0,0.65,1.0,17.21505359976809,-0.005001897900720413,5.757999833841296,-0.003912898967988748,0.019361725643841685,0.0009369048559353213,18.152483509106606,0.019775363181245478,1.0,0.0,45.14817025964911,0.08488048923289125,900.3762866562809,78.51423784724696,0.12421506685860094,3.335831013667848,1.0,902.0297310045851,0.0,1.0,79.08023126655789,3475.8884805155985,1.0,1.0,0.7296355182643244,14.035009549530212,0.016939204661837008,-45.86650240788822,1.0,902.5279684474926,0.0,1.0,0.1438743116313154,13.67031640492189
0.675,50.4556944233688,0.0,902.4839251230447,79.66093689158899,0.0,3.445939431059414,79.73543356004438,17.884816380393573,0.0,12.97613902340377,0.0,0.0,1.1066535950781071,0.0,10.499206389887581,0.0,3567.73682844052,0.23673549345915587,79.7354335600444,1.8474039479639763,1.1223287472514654,90942.73675463817,282.2838544867002,0.0,0.0,0.0,338.1394736842105,0.18147700187558577,0.72,nominal,12029.213666812033,nan,fixed_pitch,26.0,0.0,0.0,-7.846107326850789,-0.0,0.0,-7.852304576210197,0.0,0.0,0.72,0.0,0.0,0.0,0.0,0.0,0.0,-0.13704856872428595,0.0,0.0,-0.13704856872428595,0.0,0.0,0.675,1.0,17.13967475162334,0.04759233469202839,5.750462437305457,-0.0021233300287092985,0.01757591342724957,-0.002985818969655212,18.078676219917682,0.017953728808594145,1.0,0.0,45.14817025964911,0.08488048923289125,900.3762866562809,78.51423784724696,0.12421506685860094,3.335831013667848,1.0,902.0297310045851,0.0,1.0,79.82869448603502,3528.8920885151842,1.0,1.0,0.7296355182643244,14.035009549530212,0.016939204661837008,-45.86650240788822,1.0,902.5279684474926,0.0,1.0,0.1438743116313154,13.67031640492189
0.7000000000000001,52.45685624425554,0.0,902.5698886014125,80.0464728354698,0.0,3.4385391347100027,80.1202930897069,17.880279455346685,0.0,12.949954038362966,0.0,0.0,1.0473994198621779,0.0,10.490223772791234,0.0,3602.23043670082,0.2378783816195911,80.1202930897069,1.8480493069966242,1.1223192925169123,90941.79062006294,282.2832957240908,0.0,0.0,0.0,338.1157894736842,0.18146429073165668,0.72,nominal,12060.81768044331,nan,fixed_pitch,26.0,0.0,0.0,-7.846556980947074,-0.0,0.0,-7.849430778578635,0.0,0.0,0.72,0.0,0.0,0.0,0.0,0.0,0.0,-0.13699841149357916,0.0,0.0,-0.13699841149357916,0.0,0.0,0.7000000000000001,1.0,17.101317306646838,0.03485909602314629,5.78735538749121,-0.0017499082157690163,0.02009559330458857,-0.0008625375797976863,18.054078518725838,0.020190072315462472,1.0,0.0,45.14817025964911,0.08488048923289125,900.3762866562809,78.51423784724696,0.12421506685860094,3.335831013667848,1.0,901.4467212612357,0.0,1.0,81.46866272927682,3635.0570554557085,1.0,1.0,0.8787869574009572,14.06506038110504,0.057968095932936704,-45.91682355088595,1.0,902.8503799771023,0.0,1.0,-0.5259465552686466,12.95451414516701
0.7250000000000001,54.467644320306455,0.0,902.6556942327024,80.43152304203657,0.0,3.4322252516013925,80.50472078728917,17.875742848078392,0.0,12.925229478841786,0.0,0.0,0.9889823961939783,0.0,10.481749866566151,0.0,3636.850736079669,0.2390199894908068,80.50472078728917,1.8487060966049975,1.1223098552040114,90940.8462307388,282.2827379874874,0.0,0.0,0.0,338.0921052631579,0.18145157958772765,0.72,nominal,12092.533498366825,nan,fixed_pitch,26.0,0.0,0.0,-7.846494161976294,-0.0,0.0,-7.847962470277464,0.0,0.0,0.72,0.0,0.0,0.0,0.0,0.0,0.0,-0.13697278467928936,0.0,0.0,-0.13697278467928936,0.0,0.0,0.7250000000000001,1.0,17.06317311726422,0.0015386808741678448,5.892835235262918,-0.001028765208221306,0.01643827819933151,0.00016661661793533153,18.052074293754263,0.01647128134389175,1.0,0.0,45.14817025964911,0.08488048923289125,900.3762866562809,78.51423784724696,0.12421506685860094,3.335831013667848,1.0,901.4467212612357,0.0,1.0,79.32421572676661,3611.6989397801294,1.0,1.0,0.8787869574009572,14.06506038110504,0.057968095932936704,-45.91682355088595,1.0,902.8503799771023,0.0,1.0,-0.5259465552686466,12.95451414516701
0.75,56.48804626120612,0.0,902.7413695604222,80.81607763598669,0.0,3.427013108788281,80.8887064015344,17.8712065585887,0.0,12.90202666035398,0.0,0.0,0.9281127521962249,0.0,10.473848674615986,0.0,3671.596225512866,0.2401602867027464,80.88870640153442,1.8493783641840462,1.122300432283091,90939.90328347788,282.28218109785723,0.0,0.0,0.0,338.06842105263155,0.18143886844379853,0.72,nominal,12124.36006345653,nan,fixed_pitch,26.0,0.0,0.0,-7.844732352265774,-0.0,0.0,-7.84634741127162,0.0,0.0,0.72,0.0,0.0,0.0,0.0,0.0,0.0,-0.1369445965820234,0.0,0.0,-0.1369445965820234,0.0,0.0,0.75,1.0,17.153607457322558,-0.03299772309200197,5.977782166332571,0.002242887697950806,0.02006983143700206,0.0024090950440133446,18.16538513981372,0.020337955110246084,1.0,0.0,45.14817025964911,0.08488048923289125,900.3762866562809,78.51423784724696,0.12421506685860094,3.335831013667848,1.0,901.8668282260151,0.0,1.0,81.07061863059809,3693.235971220254,1.0,1.0,-0.5611969848171424,14.046732333463734,-0.004909454008617348,-45.90895945087607,1.0,902.8344309832797,0.0,1.0,0.2916895527804138,13.19501982953101
0.775,58.51804938849655,0.0,902.8269426170372,81.20012509161707,0.0,3.4229222645977435,81.27223825959108,17.866670586877603,0.0,12.88037746363632,0.0,0.0,0.8659678790092619,0.0,10.466551661960267,0.0,3706.465256755651,0.2412992386673017,81.27223825959106,1.8500678370948056,1.1222910206707803,90938.96146972114,282.28162487298925,0.0,0.0,0.0,338.04473684210524,0.18142615729986944,0.72,nominal,12156.296192677237,nan,fixed_pitch,26.0,0.0,0.0,-7.841665008675865,-0.0,0.0,-7.844006209973743,0.0,0.0,0.72,0.0,0.0,0.0,0.0,0.0,0.0,-0.13690373491092347,0.0,0.0,-0.13690373491092347,0.0,0.0,0.775,1.0,17.091902749781504,0.07979868380514983,6.013829096323328,0.001339333709113779,0.01612686940592382,-0.003165260548266207,18.119206600668548,0.016489045028700137,1.0,0.0,45.14817025964911,0.08488048923289125,900.3762866562809,78.51423784724696,0.12421506685860094,3.335831013667848,1.0,901.8668282260151,0.0,1.0,80.56874824899997,3726.3430437225284,1.0,1.0,-0.5611969848171424,14.046732333463734,-0.004909454008617348,-45.90895945087607,1.0,902.8344309832797,0.0,1.0,0.2916895527804138,13.19501982953101
0.8,60.55764071470872,0.0,902.912441968446,81.58365304848664,0.0,3.4199740563535577,81.65530397519792,17.862134932945107,0.0,12.860244324373351,0.0,0.0,0.8053255788053332,0.0,10.459819561107803,0.0,3741.456096254543,0.24243680868106599,81.65530397519794,1.850774581191813,1.122281617225118,90938.0204750488,282.28106912720506,0.0,0.0,0.0,338.0210526315789,0.18141344615594035,0.72,nominal,12188.340632670846,nan,fixed_pitch,26.0,0.0,0.0,-7.838284639933552,-0.0,0.0,-7.841145424953647,0.0,0.0,0.72,0.0,0.0,0.0,0.0,0.0,0.0,-0.13685380479313108,0.0,0.0,-0.13685380479313108,0.0,0.0,0.8,1.0,17.08987874321627,-0.02135697958723223,6.084018829835575,0.0010824022145651804,0.01334251274897526,-0.00042749258783569984,18.140553924844916,0.013393169562255135,1.0,0.0,60.52403115453102,-2.189739807835618,902.2354299683118,81.4165175634896,-0.255011780218076,3.5765308142718126,1.0,902.4932786104312,0.0,1.0,81.79259844773813,3759.940121590616,1.0,1.0,-1.2164926452031213,14.134337612875752,-0.005418000616834761,-45.857126308443796,1.0,903.3019113059102,0.0,1.0,-0.06013121964549108,12.351154133962874
0.8250000000000001,62.60680695292396,0.0,902.997896690408,81.96664952860968,0.0,3.418188878477946,82.03789155112946,17.857599596791207,0.0,12.841538584839595,0.0,0.0,0.7482295879961115,0.0,10.453562687695689,0.0,3776.5670251764213,0.2435729611984805,82.03789155112946,1.8514981874261036,1.1222722187481506,90937.07997944065,282.2805136715123,0.0,0.0,0.0,337.9973684210526,0.18140073501201126,0.72,nominal,12220.492148656427,nan,fixed_pitch,26.0,0.0,0.0,-7.835355488407065,-0.0,0.0,-7.838250456680356,0.0,0.0,0.72,0.0,0.0,0.0,0.0,0.0,0.0,-0.13680327806502138,0.0,0.0,-0.13680327806502138,0.0,0.0,0.8250000000000001,1.0,17.080693392353215,0.012780636383930967,6.12878541234195,-0.0013574750637685082,0.012772283184674254,-0.0030827515867952538,18.146962851639408,0.01320898609447957,1.0,0.0,60.52403115453102,-2.189739807835618,902.2354299683118,81.4165175634896,-0.255011780218076,3.5765308142718126,1.0,902.4932786104312,0.0,1.0,81.71841026366032,3771.414636794475,1.0,1.0,-1.2164926452031213,14.134337612875752,-0.005418000616834761,-45.857126308443796,1.0,903.3019113059102,0.0,1.0,-0.06013121964549108,12.351154133962874
0.8500000000000001,64.66553454551757,0.0,903.0833363099217,82.34910370374477,0.0,3.41758478054809,82.41999009064696,17.853064578415907,0.0,12.824159556731187,0.0,0.0,0.6951611296660822,0.0,10.447680981751278,0.0,3811.7964061242924,0.24470766394402685,82.41999009064698,1.8522386380079858,1.1222628219923776,90936.13965792069,282.2799583139855,0.0,0.0,0.0,337.9736842105263,0.18138802386808217,0.72,nominal,12252.749583294864,nan,fixed_pitch,26.0,0.0,0.0,-7.833101704282876,-0.0,0.0,-7.835676080481615,0.0,0.0,0.72,0.0,0.0,0.0,0.0,0.0,0.0,-0.13675834672416837,0.0,0.0,-0.13675834672416837,0.0,0.0,0.8500000000000001,1.0,17.080032297167648,-0.06524281724705698,6.248873544674335,0.0005798346308286623,0.012354591987276389,0.0007649707432584844,18.187363208415427,0.012391825192812542,1.0,0.0,60.52403115453102,-2.189739807835618,902.2354299683118,81.4165175634896,-0.255011780218076,3.5765308142718126,1.0,902.7461119491733,0.0,1.0,82.3505392110747,3859.5935595896426,1.0,1.0,-0.3620570521453154,14.19674442781202,0.03584852030826636,-45.89221628749748,1.0,903.4949831468457,0.0,1.0,-0.340713193310383,12.60600058954328
0.875,66.73380969545718,0.0,903.1687907482974,82.73100599758455,0.0,3.4181775350251504,82.80158990643429,17.848529877819203,0.0,12.808023391375176,0.0,0.0,0.6454466185064953,0.0,10.442092793761542,0.0,3847.1426956884143,0.24584088823554037,82.80158990643429,1.8529965448691272,1.1222534236670143,90935.1991811843,282.27940286013603,0.0,0.0,0.0,337.95,0.18137531272415308,0.72,nominal,12285.11186730845,nan,fixed_pitch,26.0,0.0,0.0,-7.8313338665465615,-0.0,0.0,-7.833504973514088,0.0,0.0,0.72,0.0,0.0,0.0,0.0,0.0,0.0,-0.13672045375917202,0.0,0.0,-0.13672045375917202,0.0,0.0,0.875,1.0,17.092566180594574,-0.028566168728226787,6.273011363351704,0.0014264886343193124,0.01039085832694834,0.0030093422963232436,18.207342096768016,0.01091150528804316,1.0,0.0,60.52403115453102,-2.189739807835618,902.2354299683118,81.4165175634896,-0.255011780218076,3.5765308142718126,1.0,902.7461119491733,0.0,1.0,82.70802769911815,3891.694046135877,1.0,1.0,-0.3620570521453154,14.19674442781202,0.03584852030826636,-45.89221628749748,1.0,903.4949831468457,0.0,1.0,-0.340713193310383,12.60600058954328
0.9,68.81161838956945,0.0,903.2542902850101,83.11234776449031,0.0,3.419981468511982,83.18268223717328,17.8439954950011,0.0,12.793070874423655,0.0,0.0,0.598100681455473,0.0,10.436742060339643,0.0,3882.6044206344945,0.24697260814264724,83.18268223717328,1.853772917685017,1.1222440204419728,90934.25821599629,282.27884711314744,0.0,0.0,0.0,337.9263157894737,0.18136260158022402,0.72,nominal,12317.577997908766,nan,fixed_pitch,26.0,0.0,0.0,-7.829739662852213,-0.0,0.0,-7.8316223181831495,0.0,0.0,0.72,0.0,0.0,0.0,0.0,0.0,0.0,-0.13668759522496693,0.0,0.0,-0.13668759522496693,0.0,0.0,0.9,1.0,17.05612461805249,0.0686941069081946,6.3615456546705875,0.001824779335121172,0.010678761729513011,-0.001547121375082221,18.2039932153173,0.010943461803599137,1.0,0.0,60.52403115453102,-2.189739807835618,902.2354299683118,81.4165175634896,-0.255011780218076,3.5765308142718126,1.0,903.8134950435145,0.0,1.0,82.59912550235875,3807.979432770116,1.0,1.0,-0.09792438588057155,14.186546072652952,-0.008479319572511924,-45.89429717675456,1.0,903.1962932388042,0.0,1.0,0.45300573804182975,12.894427628877157
0.925,70.89894641214828,0.0,903.3398655416831,83.4931209031534,0.0,3.4230102669188183,83.56325889669468,17.839461429961595,0.0,12.779259805196306,0.0,0.0,0.5524427717688631,0.0,10.43159009803016,0.0,3918.1801470276355,0.2481027994450649,83.56325889669469,1.8545687982086816,1.1222346089496171,90933.31642536687,282.278290873979,0.0,0.0,0.0,337.90263157894736,0.18134989043629493,0.72,nominal,12350.147011132358,nan,fixed_pitch,26.0,0.0,0.0,-7.828103963506555,-0.0,0.0,-7.829863140844852,0.0,0.0,0.72,0.0,0.0,0.0,0.0,0.0,0.0,-0.13665689178828716,0.0,0.0,-0.13665689178828716,0.0,0.0,0.925,1.0,16.983000388638736,-0.000711636822999041,6.3782166996658525,0.0011630137542575766,0.010379298222099416,0.0014636401023279423,18.141222422285296,0.01054631096284435,1.0,0.0,60.52403115453102,-2.189739807835618,902.2354299683118,81.4165175634896,-0.255011780218076,3.5765308142718126,1.0,903.8134950435145,0.0,1.0,83.56614989605092,3866.720664424269,1.0,1.0,-0.09792438588057155,14.186546072652952,-0.008479319572511924,-45.89429717675456,1.0,903.1962932388042,0.0,1.0,0.45300573804182975,12.894427628877157
0.9500000000000001,72.99577935296186,0.0,903.4255474753533,83.87331763254349,0.0,3.4272773468027915,83.94331206654547,17.834927682700688,0.0,12.766553387861057,0.0,0.0,0.5082566954931553,0.0,10.42660372568447,0.0,3953.8684619600076,0.2492314390167308,83.94331206654547,1.8553850199593256,1.1222251857855141,90932.37346862652,282.2777339414102,0.0,0.0,0.0,337.87894736842105,0.18133717929236584,0.72,nominal,12382.817965499893,nan,fixed_pitch,26.0,0.0,0.0,-7.826371153971798,-0.0,0.0,-7.828117147408324,0.0,0.0,0.72,0.0,0.0,0.0,0.0,0.0,0.0,-0.13662641845410156,0.0,0.0,-0.13662641845410156,0.0,0.0,0.9500000000000001,1.0,16.977753213275204,0.0619708909315009,6.467099530505779,0.0013932722437634255,0.0077771237399623565,0.004094771226037869,18.167865061687007,0.008898989414844549,1.0,0.0,60.52403115453102,-2.189739807835618,902.2354299683118,81.4165175634896,-0.255011780218076,3.5765308142718126,1.0,903.4893682157824,0.0,1.0,83.54627228294008,3960.507436260757,1.0,1.0,0.5515757550920114,14.233712233332966,0.08560475662243833,-45.84354249114226,1.0,903.5555408882835,0.0,1.0,0.08272463840641422,12.18602342495174
0.9750000000000001,75.10210261452991,0.0,903.5113673706861,84.25293046272218,0.0,3.432795813316589,84.32283426600544,17.83039425321838,0.0,12.75491287874229,0.0,0.0,0.46562036635217374,0.0,10.421747936505573,0.0,3989.6679715373193,0.25035850473677984,84.32283426600544,1.8562255988287748,1.1222157475092827,90931.4290015114,282.2771761120905,0.0,0.0,0.0,337.85526315789474,0.18132446814843675,0.72,nominal,12415.589940151849,nan,fixed_pitch,26.0,0.0,0.0,-7.824589667559979,-0.0,0.0,-7.826353407484151,0.0,0.0,0.72,0.0,0.0,0.0,0.0,0.0,0.0,-0.13659563538527586,0.0,0.0,-0.13659563538527586,0.0,0.0,0.9750000000000001,1.0,16.964919816529395,0.04368198903242653,6.561945235567232,-0.0014720525387692523,0.006522567960183124,-0.000986605134644812,18.189819619007253,0.006759010368671729,1.0,0.0,60.52403115453102,-2.189739807835618,902.2354299683118,81.4165175634896,-0.255011780218076,3.5765308142718126,1.0,903.4893682157824,0.0,1.0,84.10459362145144,3986.85156685022,1.0,1.0,0.5515757550920114,14.233712233332966,0.08560475662243833,-45.84354249114226,1.0,903.5555408882835,0.0,1.0,0.08272463840641422,12.18602342495174
1.0,77.21790116120762,0.0,903.5973572561126,84.63194186710818,0.0,3.4395954170589498,84.70180872230905,17.825861141514668,0.0,12.744211109065978,0.0,0.0,0.4280707882969903,0.0,10.416887672790972,0.0,4025.5763861308988,0.25148394689947134,84.70180872230907,1.8570948029445578,1.122206290598838,90930.4826715843,282.27661717783525,0.0,0.0,0.0,337.8315789473684,0.18131175700450766,0.72,nominal,12448.461223950972,nan,fixed_pitch,26.0,0.0,0.0,-7.824068200794219,-0.0,0.0,-7.825210804139186,0.0,0.0,0.72,0.0,0.0,0.0,0.0,0.0,0.0,-0.1365756931948619,0.0,0.0,-0.1365756931948619,0.0,0.0,1.0,1.0,17.06569969719655,-0.01874902409599158,6.611211989967906,0.003356340812989093,0.007257338280318927,9.794569403432961e-05,18.30154588162143,0.007996472717823692,1.0,0.0,77.8833894655996,-0.2857293032153698,903.7342917963517,84.80114374018427,-0.16945035377344445,3.4274930355874638,1.0,903.0631166536039,0.0,1.0,84.84047455610967,4038.0094138732497,1.0,1.0,-0.4946212838329261,14.277889361534085,0.009752712071119272,-45.82679494682949,1.0,903.820813440296,0.0,1.0,-0.7100255770478338,12.602271981572269
1.0250000000000001,79.34315926340741,0.0,903.6835503190359,85.0103240879917,0.0,3.4477225169360746,85.08020916816773,17.821328347589557,0.0,12.734190844056824,0.0,0.0,0.40081060138778674,0.0,10.411746465374721,0.0,4061.5904812170124,0.2526076876141351,85.08020916816771,1.8579835847784165,1.1221968114047236,90929.5341136653,282.2760569229263,0.0,0.0,0.0,337.80789473684206,0.18129904586057854,0.72,nominal,12481.42928478576,nan,fixed_pitch,26.0,0.0,0.0,-7.826771388414839,-0.0,0.0,-7.825991096277012,0.0,0.0,0.72,0.0,0.0,0.0,0.0,0.0,0.0,-0.1365893118617944,0.0,0.0,-0.1365893118617944,0.0,0.0,1.0250000000000001,1.0,17.04346040783492,0.019281396550144627,6.586444900644158,2.5984999545419785e-05,0.007468365559600907,-0.0004879599629203926,18.2718682918554,0.007484334591494932,1.0,0.0,77.8833894655996,-0.2857293032153698,903.7342917963517,84.80114374018427,-0.16945035377344445,3.4274930355874638,1.0,903.0631166536039,0.0,1.0,85.91609138618568,4016.8998677337972,1.0,1.0,-0.4946212838329261,14.277889361534085,0.009752712071119272,-45.82679494682949,1.0,903.820813440296,0.0,1.0,-0.7100255770478338,12.602271981572269
1.05,81.4778611552812,0.0,903.7699798079062,85.38807567495147,0.0,3.4571795548105277,85.45803389936746,17.81679587144304,0.0,12.724765122314839,0.0,0.0,0.3770288705297824,0.0,10.406248560980123,0.0,4097.709343931699,0.2537297219208196,85.45803389936746,1.8588942597548495,1.1221873062708665,90928.58296191516,282.2754951312486,0.0,0.0,0.0,337.7842105263158,0.18128633471664948,0.72,nominal,12514.493651455921,nan,fixed_pitch,26.0,0.0,0.0,-7.83036380427144,-0.0,0.0,-7.828177450274226,0.0,0.0,0.72,0.0,0.0,0.0,0.0,0.0,0.0,-0.13662747093765992,0.0,0.0,-0.13662747093765992,0.0,0.0,1.05,1.0,16.940221164457594,0.00416058369218773,6.698775962817234,-0.0001623914970455043,0.008527184811021625,-0.0020564331413674545,18.21660533170798,0.008773150464032006,1.0,0.0,77.8833894655996,-0.2857293032153698,903.7342917963517,84.80114374018427,-0.16945035377344445,3.4274930355874638,1.0,902.2374736499594,0.0,1.0,85.1803258751412,4075.317986958655,1.0,1.0,0.9736716567738575,14.232102695881423,-0.004962835756417939,-45.867429631182574,1.0,903.6888811634797,0.0,1.0,0.11495443315012784,12.859472592294164
1.075,83.62199105504055,0.0,903.8566790266345,85.76519599037402,0.0,3.4679687491314906,85.83528208442156,17.812263713075126,0.0,12.715972516293462,0.0,0.0,0.3517042415452072,0.0,10.400443675651715,0.0,4133.932143220658,0.25485004745258705,85.83528208442155,1.859830591091276,1.1221777715351904,90927.62884989692,282.27493158632683,0.0,0.0,0.0,337.7605263157895,0.1812736235727204,0.72,nominal,12547.653926632656,nan,fixed_pitch,26.0,0.0,0.0,-7.833066057281087,-0.0,0.0,-7.830621753777655,0.0,0.0,0.72,0.0,0.0,0.0,0.0,0.0,0.0,-0.1366701320817128,0.0,0.0,-0.1366701320817128,0.0,0.0,1.075,1.0,16.96762982814727,-0.03553336794665623,6.7139443217648145,0.0021523717840598792,0.005987914554037831,-0.0009714343281910296,18.247705964340522,0.006436731286706254,1.0,0.0,77.8833894655996,-0.2857293032153698,903.7342917963517,84.80114374018427,-0.16945035377344445,3.4274930355874638,1.0,902.2374736499594,0.0,1.0,86.32639015636698,4110.325123097951,1.0,1.0,0.9736716567738575,14.232102695881423,-0.004962835756417939,-45.867429631182574,1.0,903.6888811634797,0.0,1.0,0.11495443315012784,12.859472592294164
1.1,85.7755331361418,0.0,903.9436814170263,86.14168324404991,0.0,3.480095615668285,86.21195194178371,17.807731872485807,0.0,12.70788082486745,0.0,0.0,0.32366765757855276,0.0,10.394408298536135,0.0,4170.25795530913,0.255968659023799,86.21195194178371,1.860795072067812,1.1221682035205527,90926.67140966898,282.2743660707893,0.0,0.0,0.0,337.7368421052631,0.18126091242879128,0.72,nominal,12580.909632174493,nan,fixed_pitch,26.0,0.0,0.0,-7.8344306597166735,-0.0,0.0,-7.832526206747165,0.0,0.0,0.72,0.0,0.0,0.0,0.0,0.0,0.0,-0.13670337105648012,0.0,0.0,-0.13670337105648012,0.0,0.0,1.1,1.0,16.92694134838118,0.01166192622400793,6.768961620078042,0.0012816164945934781,0.006663513608619609,0.0020516741838696125,18.230203532219527,0.007089028241460873,1.0,0.0,77.8833894655996,-0.2857293032153698,903.7342917963517,84.80114374018427,-0.16945035377344445,3.4274930355874638,1.0,904.305235361443,0.0,1.0,85.81231206958564,4119.264706481199,1.0,1.0,-2.1377845376970277,14.249696382011768,-0.03740844855449062,-45.78073384556458,1.0,904.1547000452417,0.0,1.0,-0.3377341052652119,12.832760380718518
1.125,87.93847149335815,0.0,904.0310206330105,86.51753428865366,0.0,3.4935686393699825,86.5880405207691,17.803200349675087,0.0,12.700520750287696,0.0,0.0,0.2944029835949812,0.0,10.388179634338504,0.0,4206.685740383263,0.2570855479798642,86.58804052076911,1.8617881918487844,1.1221585985265767,90925.71027096776,282.2737983658854,0.0,0.0,0.0,337.71315789473687,0.18124820128486224,0.72,nominal,12614.260189103888,nan,fixed_pitch,26.0,0.0,0.0,-7.834959405245279,-0.0,0.0,-7.833742805996222,0.0,0.0,0.72,0.0,0.0,0.0,0.0,0.0,0.0,-0.13672460471905346,0.0,0.0,-0.13672460471905346,0.0,0.0,1.125,1.0,16.91927045500656,0.012054218073843822,6.827576412285449,0.0013611123147082215,0.004809290853447579,-0.0023193390234482413,18.244935124560676,0.005510103334057788,1.0,0.0,77.8833894655996,-0.2857293032153698,903.7342917963517,84.80114374018427,-0.16945035377344445,3.4274930355874638,1.0,904.305235361443,0.0,1.0,86.45841896178814,4276.364875515612,1.0,1.0,-2.1377845376970277,14.249696382011768,-0.03740844855449062,-45.78073384556458,1.0,904.1547000452417,0.0,1.0,-0.3377341052652119,12.832760380718518
1.1500000000000001,90.11079012971912,0.0,904.118730561356,86.89274545443857,0.0,3.5083971338177875,86.96354444857015,17.798669144642965,0.0,12.693874647196283,0.0,0.0,0.265844123954572,0.0,10.381745831317637,0.0,4243.214413026296,0.25820070441522985,86.96354444857013,1.8628092165546737,1.1221489528273838,90924.74506098086,282.27322825135116,0.0,0.0,0.0,337.6894736842105,0.18123549014093313,0.72,nominal,12647.704980588738,nan,fixed_pitch,26.0,0.0,0.0,-7.83533868480547,-0.0,0.0,-7.8345407454008456,0.0,0.0,0.72,0.0,0.0,0.0,0.0,0.0,0.0,-0.13673853138889555,0.0,0.0,-0.13673853138889555,0.0,0.0,1.1500000000000001,1.0,16.900946929131116,-0.014661922395149666,6.922605943547567,-0.0013798204093905368,0.005441582156216924,-0.0024909742677004087,18.263753587992664,0.0061416344345275615,1.0,0.0,77.8833894655996,-0.2857293032153698,903.7342917963517,84.80114374018427,-0.16945035377344445,3.4274930355874638,1.0,904.6526530988251,0.0,1.0,87.1062689835292,4211.033807103654,1.0,1.0,1.6986705414800243,14.30799605421482,0.005958676378396754,-45.826725231421754,1.0,903.7079234254285,0.0,1.0,-0.09670573662507005,13.056397697526496
1.175,92.2924729652661,0.0,904.2068452974505,87.2673134218792,0.0,3.5245894437829053,87.33846072962199,17.79413825738944,0.0,12.687900608473326,0.0,0.0,0.23896154913491074,0.0,10.375071283756682,0.0,4279.842919697368,0.2593141195466852,87.33846072962199,1.863857331855657,1.1221392626742526,90923.7754046132,282.27265550556655,0.0,0.0,0.0,337.6657894736842,0.18122277899700404,0.72,nominal,12681.243420746105,nan,fixed_pitch,26.0,0.0,0.0,-7.835931295019542,-0.0,0.0,-7.835236020210193,0.0,0.0,0.72,0.0,0.0,0.0,0.0,0.0,0.0,-0.13675066622352483,0.0,0.0,-0.13675066622352483,0.0,0.0,1.175,1.0,16.872702894551164,0.08203464053217376,6.9669334453596745,-0.002268595064723144,0.0023023017857962767,-0.001050308439118307,18.25467047859571,0.00339856806579625,1.0,0.0,77.8833894655996,-0.2857293032153698,903.7342917963517,84.80114374018427,-0.16945035377344445,3.4274930355874638,1.0,904.6526530988251,0.0,1.0,86.9381420605104,4317.425600765928,1.0,1.0,1.6986705414800243,14.30799605421482,0.005958676378396754,-45.826725231421754,1.0,903.7079234254285,0.0,1.0,-0.09670573662507005,13.056397697526496
1.2000000000000002,94.48350385477195,0.0,904.2953991080225,87.64123558023391,0.0,3.5421524228782255,87.71278708271082,17.789607687914515,0.0,12.682560227020506,0.0,0.0,0.21361525826736064,0.0,10.368124733370722,0.0,4316.570272733575,0.26042578671415983,87.7127870827108,1.8649322963460164,1.122129524299722,90922.8009248977,282.27207990579785,0.0,0.0,0.0,337.64210526315793,0.18121006785307497,0.72,nominal,12714.874984571168,nan,fixed_pitch,26.0,0.0,0.0,-7.836709426731531,-0.0,0.0,-7.835972723470862,0.0,0.0,0.72,0.0,0.0,0.0,0.0,0.0,0.0,-0.13676352412103368,0.0,0.0,-0.13676352412103368,0.0,0.0,1.2000000000000002,1.0,16.941007377321103,-0.022284632975748692,7.056218318312102,-0.0008392729843754904,0.005834390077409362,-0.00014154485946724681,18.35179676541232,0.005896144644165114,1.0,0.0,95.39718642109877,-1.0230831237574762,905.3619322923197,87.62662820403679,-0.07595104250038326,3.537206138354983,1.0,904.6087600461411,0.0,1.0,87.48985418027654,4322.394847381009,1.0,1.0,-0.3642896828153875,14.257827918052124,-0.010037878890270031,-45.85261689723937,1.0,904.6401704021413,0.0,1.0,0.27259318327846466,12.66414490324613
1.225,96.68386660209738,0.0,904.3844264056198,88.01450989301732,0.0,3.5610919038939377,88.08652182516927,17.785077436218188,0.0,12.677831207406243,0.0,0.0,0.1891607846780303,0.0,10.360891553969331,0.0,4353.39554042314,0.2615357010368299,88.08652182516927,1.8660344327356682,1.122119733920398,90921.82124327616,282.27150122836343,0.0,0.0,0.0,337.61842105263156,0.18119735670914586,0.72,nominal,12748.599198838681,nan,fixed_pitch,26.0,0.0,0.0,-7.8374596963671195,-0.0,0.0,-7.8367162099189915,0.0,0.0,0.72,0.0,0.0,0.0,0.0,0.0,0.0,-0.1367765004074975,0.0,0.0,-0.1367765004074975,0.0,0.0,1.225,1.0,16.78792420852038,0.009375575604820486,7.173122900656969,0.002088448290239597,0.0019137080575176587,0.000949137869980612,18.256181946956268,0.0029874332606175556,1.0,0.0,95.39718642109877,-1.0230831237574762,905.3619322923197,87.62662820403679,-0.07595104250038326,3.537206138354983,1.0,904.6087600461411,0.0,1.0,88.40936452937117,4378.91085656975,1.0,1.0,-0.3642896828153875,14.257827918052124,-0.010037878890270031,-45.85261689723937,1.0,904.6401704021413,0.0,1.0,0.27259318327846466,12.66414490324613
1.25,98.89354496670376,0.0,904.473961740725,88.38713458425478,0.0,3.5814134042065784,88.45966358734923,17.78054750230046,0.0,12.67370428494584,0.0,0.0,0.16507689848749105,0.0,10.353370195164453,0.0,4390.3178199271815,0.2626438585653511,88.45966358734923,1.867164265030633,1.1221098877378293,90920.83597968688,282.2709192486853,0.0,0.0,0.0,337.59473684210525,0.18118464556521677,0.72,nominal,12782.41561789818,nan,fixed_pitch,26.0,0.0,0.0,-7.838004560644938,-0.0,0.0,-7.837360385281964,0.0,0.0,0.72,0.0,0.0,0.0,0.0,0.0,0.0,-0.1367877433885416,0.0,0.0,-0.1367877433885416,0.0,0.0,1.25,1.0,16.829056557595802,0.04311079032477059,7.165064484797954,-0.0002861348191982844,0.005236028417085604,-0.002638911712607669,18.290903537833053,0.0058704106965546754,1.0,0.0,95.39718642109877,-1.0230831237574762,905.3619322923197,87.62662820403679,-0.07595104250038326,3.537206138354983,1.0,905.3504042304336,0.0,1.0,88.05961405674691,4401.279381432491,1.0,1.0,0.735157290465571,14.23506738458076,0.02258465320520546,-45.79001270832423,1.0,904.7186988878004,0.0,1.0,0.02846006961117506,12.341164017475018
1.2750000000000001,101.11252266476387,0.0,904.5640398037549,88.75910792240484,0.0,3.603122521195037,88.83221111220779,17.77601788616133,0.0,12.67017390756876,0.0,0.0,0.14121509512770114,0.0,10.345562603219316,0.0,4427.336217960613,0.26375025568682625,88.83221111220779,1.8683221885819692,1.1220999819382784,90919.84475254186,282.2703337412756,0.0,0.0,0.0,337.57105263157894,0.18117193442128768,0.72,nominal,12816.323806483419,nan,fixed_pitch,26.0,0.0,0.0,-7.838294853853363,-0.0,0.0,-7.837827619567664,0.0,0.0,0.72,0.0,0.0,0.0,0.0,0.0,0.0,-0.13679589816520527,0.0,0.0,-0.13679589816520527,0.0,0.0,1.2750000000000001,1.0,16.88078652370086,-0.009566038647204105,7.247317911497113,0.0015090322637258868,0.008099852439538896,-0.001665893554938218,18.370755620773004,0.008405949634137393,1.0,0.0,95.39718642109877,-1.0230831237574762,905.3619322923197,87.62662820403679,-0.07595104250038326,3.537206138354983,1.0,905.3504042304336,0.0,1.0,89.03521047267907,4452.954374078241,1.0,1.0,0.735157290465571,14.23506738458076,0.02258465320520546,-45.79001270832423,1.0,904.7186988878004,0.0,1.0,0.02846006961117506,12.341164017475018
1.3,103.34078336944265,0.0,904.6546954268495,89.13042818715087,0.0,3.6262249237827144,89.20416322135824,17.7714885878008,0.0,12.667231532654684,0.0,0.0,0.11769499658905455,0.0,10.337467527345446,0.0,4464.449847631555,0.26485488902401566,89.20416322135824,1.869508364623384,1.1220900126925368,90918.84717870844,282.26974447972543,0.0,0.0,0.0,337.5473684210526,0.18115922327735862,0.72,nominal,12850.323336919075,nan,fixed_pitch,26.0,0.0,0.0,-7.838376933554738,-0.0,0.0,-7.838102276561202,0.0,0.0,0.72,0.0,0.0,0.0,0.0,0.0,0.0,-0.13680069183405613,0.0,0.0,-0.13680069183405613,0.0,0.0,1.3,1.0,16.815083048777165,0.003747088923836718,7.257329330248868,0.00044032854157194243,6.207931747538023e-05,0.004212423498267918,18.314362150663044,0.004235829882672439,1.0,0.0,95.39718642109877,-1.0230831237574762,905.3619322923197,87.62662820403679,-0.07595104250038326,3.537206138354983,1.0,904.5667121539467,0.0,1.0,89.0239599404708,4394.214097221723,1.0,1.0,-1.7938104791271714,14.268341487040706,-0.02630645483962334,-45.87981744922998,1.0,904.8571841819353,0.0,1.0,0.2436013705333076,12.829656542709262
