time_s,sensor_time_s,imu_valid,imu_ax_mps2,imu_ay_mps2,imu_az_mps2,gyro_p_rps,gyro_q_rps,gyro_r_rps,imu_accel_norm_mps2,imu_gyro_norm_rps,gps_valid,gps_latency_s,gps_x_m,gps_y_m,gps_z_m,gps_vx_mps,gps_vy_mps,gps_vz_mps,baro_valid,baro_alt_m,baro_bias_m,pitot_valid,pitot_airspeed_mps,pitot_qbar_pa,pitot_compressibility_factor,mag_valid,mag_heading_deg,mag_x_ut,mag_y_ut,mag_z_ut,radar_valid,radar_agl_m,optical_flow_valid,horizon_valid,horizon_roll_deg,horizon_pitch_deg
0.0,0.0,1.0,13.124683187965003,0.0401032777054351,6.052526515782966,-0.0017697994528526222,0.0008620863442852247,-0.0019047864694523068,14.453096356199588,0.0027392689649848347,1.0,0.0,-1.1847204903281356,-2.1801049899993714,897.6597487825237,70.39011843772215,0.18917350047430306,3.8016023654792703,1.0,899.6899854359319,0.0,1.0,70.76165448518913,2732.849514235471,1.0,1.0,-1.4840521806067302,9.962958229895124,0.048500247149829485,-46.890039957756706,1.0,899.7067055008114,0.0,1.0,0.7910241563651457,18.546306663164323
0.025,0.025,1.0,13.457635324829601,-0.05909191052167622,5.857373096339133,-0.000181717823083268,0.28309857434829916,0.0007325737117672112,14.677202048745807,0.283099580507725,1.0,0.0,-1.1847204903281356,-2.1801049899993714,897.6597487825237,70.39011843772215,0.18917350047430306,3.8016023654792703,1.0,899.6899854359319,0.0,1.0,70.94058369958937,2769.2192663973965,1.0,1.0,-1.4840521806067302,9.962958229895124,0.048500247149829485,-46.890039957756706,1.0,899.7067055008114,0.0,1.0,0.7910241563651457,18.546306663164323
0.05,0.05,1.0,13.711655730540285,0.0716729491587782,5.634476987285194,0.004674512407931903,0.47748713371640783,-0.0018490906905282158,14.824370840097929,0.47751359464139287,1.0,0.0,-1.1847204903281356,-2.1801049899993714,897.6597487825237,70.39011843772215,0.18917350047430306,3.8016023654792703,1.0,900.198929979724,0.0,1.0,70.41540909598744,2792.725603293576,1.0,1.0,-1.0934740400812786,10.829329792838188,-0.006150638790838771,-46.78005469515262,1.0,900.2217818565256,0.0,1.0,-1.9593629645428712e-05,16.657993826703002
0.07500000000000001,0.07500000000000001,1.0,14.170801322522959,-0.0036913274543079245,5.199681390522314,0.0015163372945679108,0.5799878489156102,-0.0021423552810293143,15.094645087290422,0.5799937877725051,1.0,0.0,-1.1847204903281356,-2.1801049899993714,897.6597487825237,70.39011843772215,0.18917350047430306,3.8016023654792703,1.0,900.198929979724,0.0,1.0,71.15708248786703,2806.5615909041476,1.0,1.0,-1.0934740400812786,10.829329792838188,-0.006150638790838771,-46.78005469515262,1.0,900.2217818565256,0.0,1.0,-1.9593629645428712e-05,16.657993826703002
0.1,0.1,1.0,14.466797587490221,-0.04134297836845507,4.949525322947329,0.0008921225986699562,0.591170552981022,0.003721778987929432,15.290119116663876,0.5911829414263011,1.0,0.0,-1.1847204903281356,-2.1801049899993714,897.6597487825237,70.39011843772215,0.18917350047430306,3.8016023654792703,1.0,900.421588692402,0.0,1.0,71.47312769616885,2843.0886912188103,1.0,1.0,0.9166586510981276,12.27644386131756,0.015486777582566525,-46.43885342797578,1.0,900.554970933938,0.0,1.0,0.09211798404325502,15.110859280107533
0.125,0.125,1.0,14.858754927264009,0.007580114548028007,4.677157346180837,0.0007055062918121973,0.5300868350546849,0.0011117843933798606,15.577498396326748,0.5300884704480544,1.0,0.0,-1.1847204903281356,-2.1801049899993714,897.6597487825237,70.39011843772215,0.18917350047430306,3.8016023654792703,1.0,900.421588692402,0.0,1.0,72.33946976779333,2878.656078645747,1.0,1.0,0.9166586510981276,12.27644386131756,0.015486777582566525,-46.43885342797578,1.0,900.554970933938,0.0,1.0,0.09211798404325502,15.110859280107533
0.15000000000000002,0.15000000000000002,1.0,15.109727968321975,0.038549272230478174,4.410062860460586,0.0019646967772118393,0.38526422053491277,0.0015741690663285107,15.740203929946226,0.38527244602495214,1.0,0.0,-1.1847204903281356,-2.1801049899993714,897.6597487825237,70.39011843772215,0.18917350047430306,3.8016023654792703,1.0,901.269417158587,0.0,1.0,71.47914872421254,2895.176104724367,1.0,1.0,-0.1779840465434555,13.253420162624701,-0.0354611563190946,-46.11706187337747,1.0,900.4069277049862,0.0,1.0,0.04886793277601613,13.623702561122705
0.17500000000000002,0.17500000000000002,1.0,15.391802374020216,0.02530880610325757,4.493748204142258,0.0019450701434978732,0.17986832943222839,-3.645329860300707e-06,16.03440032488875,0.17987884601556736,1.0,0.0,-1.1847204903281356,-2.1801049899993714,897.6597487825237,70.39011843772215,0.18917350047430306,3.8016023654792703,1.0,901.269417158587,0.0,1.0,71.6799213342148,2889.9456096031395,1.0,1.0,-0.1779840465434555,13.253420162624701,-0.0354611563190946,-46.11706187337747,1.0,900.4069277049862,0.0,1.0,0.04886793277601613,13.623702561122705
0.2,0.2,1.0,15.549218176957698,0.04593181574034343,4.6361332701653675,-0.001959887195297939,0.019682425852507873,-0.0006299594719408782,16.22572116563893,0.019789792676883987,1.0,0.0,15.693014096161473,-1.2390701528638024,901.2528204863231,72.49237674127708,-0.20896209951698597,3.875710852981112,1.0,899.6285579643123,0.0,1.0,72.74257754857523,2959.1824030251455,1.0,1.0,-0.31231635544879516,13.517204025091955,0.019704449971231084,-46.10624458508842,1.0,900.720765176014,0.0,1.0,0.37127588655652777,13.078442559755038
0.225,0.225,1.0,15.794226397751226,-0.04013304314033232,4.908108529982356,-0.0030428724709688926,-0.05619610595281736,-0.0013401925743029889,16.539308555881618,0.056294382608490096,1.0,0.0,15.693014096161473,-1.2390701528638024,901.2528204863231,72.49237674127708,-0.20896209951698597,3.875710852981112,1.0,899.6285579643123,0.0,1.0,72.8508731374267,3008.6434359642026,1.0,1.0,-0.31231635544879516,13.517204025091955,0.019704449971231084,-46.10624458508842,1.0,900.720765176014,0.0,1.0,0.37127588655652777,13.078442559755038
0.25,0.25,1.0,15.920311796797865,0.0014875039078433325,5.043120313966715,-0.0037741072489491574,-0.050037994230965686,0.002864398391690749,16.69998180900425,0.05026180985928627,1.0,0.0,15.693014096161473,-1.2390701528638024,901.2528204863231,72.49237674127708,-0.20896209951698597,3.875710852981112,1.0,900.7372735585499,0.0,1.0,73.41442679506407,3054.4750227300337,1.0,1.0,-0.8856653770183001,13.412880371543041,-0.006840521503056411,-46.1029479273468,1.0,900.4820095127651,0.0,1.0,-0.2185037857549412,14.278985019107173
0.275,0.275,1.0,16.160119600396712,0.019508949048417247,5.088982895321908,-0.0031935616877507207,-0.0034831534797516417,0.0013295780452930704,16.94247895105961,0.004909070400340633,1.0,0.0,15.693014096161473,-1.2390701528638024,901.2528204863231,72.49237674127708,-0.20896209951698597,3.875710852981112,1.0,900.7372735585499,0.0,1.0,73.47531415339013,3062.428676047842,1.0,1.0,-0.8856653770183001,13.412880371543041,-0.006840521503056411,-46.1029479273468,1.0,900.4820095127651,0.0,1.0,-0.2185037857549412,14.278985019107173
0.30000000000000004,0.30000000000000004,1.0,16.435014053844345,0.06815996346257375,5.113319879180067,-0.00011239081637780688,0.04282193152782319,-0.002814236898561917,17.212215804988574,0.042914454217552515,1.0,0.0,15.693014096161473,-1.2390701528638024,901.2528204863231,72.49237674127708,-0.20896209951698597,3.875710852981112,1.0,901.0302699691363,0.0,1.0,73.698691295967,3070.6070911462584,1.0,1.0,0.26634093903031225,13.37658011503505,-0.029494006171825047,-46.053950762348855,1.0,901.5939557673161,0.0,1.0,-0.057116006698419916,14.521775718351549
0.325,0.325,1.0,16.65339886671199,0.020013096373075603,5.1430093513174615,0.0005355727017172973,0.06823598920862456,-0.0006922029914480386,17.429476168995137,0.06824160172782964,1.0,0.0,15.693014096161473,-1.2390701528638024,901.2528204863231,72.49237674127708,-0.20896209951698597,3.875710852981112,1.0,901.0302699691363,0.0,1.0,74.50008290846971,3027.9379484819005,1.0,1.0,0.26634093903031225,13.37658011503505,-0.029494006171825047,-46.053950762348855,1.0,901.5939557673161,0.0,1.0,-0.057116006698419916,14.521775718351549
0.35000000000000003,0.35000000000000003,1.0,16.79665453981096,-0.009998557001843733,5.0549530703723615,0.00016492952569605336,0.06815572315799107,0.0008332945040189553,17.540816806653023,0.06816101657595487,1.0,0.0,15.693014096161473,-1.2390701528638024,901.2528204863231,72.49237674127708,-0.20896209951698597,3.875710852981112,1.0,900.6378458422815,0.0,1.0,75.33926530299752,3147.9697861670475,1.0,1.0,-0.40175946827528874,13.542079975739655,0.030093070387636138,-46.026895184266294,1.0,901.1089532378996,0.0,1.0,0.03423340263224971,13.429337961496161
0.375,0.375,1.0,17.012665545974574,-0.011656175042515728,5.162410729904565,0.0007627277892675338,0.05896805552820643,-0.0009062746479365208,17.778678505160073,0.05897995134107564,1.0,0.0,15.693014096161473,-1.2390701528638024,901.2528204863231,72.49237674127708,-0.20896209951698597,3.875710852981112,1.0,900.6378458422815,0.0,1.0,75.22979857206876,3143.378552036572,1.0,1.0,-0.40175946827528874,13.542079975739655,0.030093070387636138,-46.026895184266294,1.0,901.1089532378996,0.0,1.0,0.03423340263224971,13.429337961496161
0.4,0.4,1.0,17.261505383495653,-0.0907931942526972,5.19062530297347,0.000251058242861576,0.04372282285101943,0.0014656330848655127,18.025271219719286,0.04374810108613159,1.0,0.0,30.368669502030542,2.8135483756416955,901.5794730541159,75.29419210537237,-0.310263602739104,3.3357910269358992,1.0,901.4655163920789,0.0,1.0,76.0148473919121,3192.034796184897,1.0,1.0,0.9736838973934514,13.70556292127046,0.0019570278589873765,-45.98362061342589,1.0,901.5243183220607,0.0,1.0,0.68336377691599,13.700887054817725
0.42500000000000004,0.42500000000000004,1.0,17.265648235368392,0.040879071925000766,5.228478002898687,-0.00011203191902471998,0.0321598047349566,-0.0014660940608027817,18.039990640596145,0.032193400310258295,1.0,0.0,30.368669502030542,2.8135483756416955,901.5794730541159,75.29419210537237,-0.310263602739104,3.3357910269358992,1.0,901.4655163920789,0.0,1.0,75.807769787764,3212.6154246610486,1.0,1.0,0.9736838973934514,13.70556292127046,0.0019570278589873765,-45.98362061342589,1.0,901.5243183220607,0.0,1.0,0.68336377691599,13.700887054817725
0.45,0.45,1.0,17.20413328804721,0.05486849238053924,5.361872995683515,-0.0004281515960226781,0.0280799229563498,0.0008060203772042808,18.020402181033315,0.028094751393671128,1.0,0.0,30.368669502030542,2.8135483756416955,901.5794730541159,75.29419210537237,-0.310263602739104,3.3357910269358992,1.0,901.5185757399772,0.0,1.0,76.09821403445144,3303.006067328385,1.0,1.0,-0.09408074110913262,13.809416019479421,0.03235021532457746,-46.01763113180943,1.0,901.8724380983925,0.0,1.0,-0.06698468827697245,13.407133754694465
0.47500000000000003,0.47500000000000003,1.0,17.219233407647053,-0.014208111291212439,5.440145372318196,-7.71416553500972e-05,0.028894113146119886,0.0014435634636649729,18.058166648068397,0.028930254074401016,1.0,0.0,30.368669502030542,2.8135483756416955,901.5794730541159,75.29419210537237,-0.310263602739104,3.3357910269358992,1.0,901.5185757399772,0.0,1.0,76.66043054444411,3303.473242311423,1.0,1.0,-0.09408074110913262,13.809416019479421,0.03235021532457746,-46.01763113180943,1.0,901.8724380983925,0.0,1.0,-0.06698468827697245,13.407133754694465
0.5,0.5,1.0,17.273704793972026,-0.046035354864689744,5.470082181200479,-0.0016593042029406698,0.026150236929210344,-0.002027896168836918,18.119183084021106,0.026281182331914153,1.0,0.0,30.368669502030542,2.8135483756416955,901.5794730541159,75.29419210537237,-0.310263602739104,3.3357910269358992,1.0,901.46398996743,0.0,1.0,76.91109245182552,3295.7226900150854,1.0,1.0,0.7001214451233372,13.906585301840561,-0.016646611689183643,-45.98675916868334,1.0,901.9729905857148,0.0,1.0,0.11091253966546691,12.89202587601744
0.525,0.525,1.0,17.19500776173446,-0.028180378447320603,5.505750741278557,0.002190800710431522,0.03175286032916267,-0.0026802711018412404,18.05498206271408,0.03194100186305222,1.0,0.0,30.368669502030542,2.8135483756416955,901.5794730541159,75.29419210537237,-0.310263602739104,3.3357910269358992,1.0,901.46398996743,0.0,1.0,77.08004862443414,3381.520219048785,1.0,1.0,0.7001214451233372,13.906585301840561,-0.016646611689183643,-45.98675916868334,1.0,901.9729905857148,0.0,1.0,0.11091253966546691,12.89202587601744
0.55,0.55,1.0,17.20749735004608,-0.0279457372147169,5.5449742161266045,-0.004707653058005957,0.029357881632735783,7.153176510058875e-05,18.07886846773271,0.02973301747333587,1.0,0.0,30.368669502030542,2.8135483756416955,901.5794730541159,75.29419210537237,-0.310263602739104,3.3357910269358992,1.0,901.283981637456,0.0,1.0,78.04120641643162,3415.285832332884,1.0,1.0,0.56332668989451,13.901226434429347,0.012913129396100356,-45.94327324055416,1.0,901.9007048350315,0.0,1.0,-0.2660731236018461,13.372544080832375
0.5750000000000001,0.5750000000000001,1.0,17.17175971725782,-0.0023145253405642456,5.611534275278571,0.002694454256022685,0.02820857027295356,0.0008076677398474496,18.065399360847024,0.028348471700604047,1.0,0.0,30.368669502030542,2.8135483756416955,901.5794730541159,75.29419210537237,-0.310263602739104,3.3357910269358992,1.0,901.283981637456,0.0,1.0,78.12346053270802,3444.7489140581183,1.0,1.0,0.56332668989451,13.901226434429347,0.012913129396100356,-45.94327324055416,1.0,901.9007048350315,0.0,1.0,-0.2660731236018461,13.372544080832375
0.6000000000000001,0.6000000000000001,1.0,17.1508743552817,-0.012837377409966676,5.595913584017323,-0.0017341306941260676,0.02553148275996994,0.0009442755372492855,18.04070133860399,0.025607723004539076,1.0,0.0,45.14817025964911,0.08488048923289125,900.3762866562809,78.51423784724696,0.12421506685860094,3.335831013667848,1.0,901.4772035119619,0.0,1.0,78.9782850505936,3451.10023985175,1.0,1.0,0.17125574255220896,13.909985072208013,0.03670263630779307,-45.88141142260993,1.0,902.1649549571216,0.0,1.0,-0.3238354001448056,12.832509720925813
0.625,0.625,1.0,17.2280087931847,-0.01368800188720007,5.686421111655506,-0.001971053812215531,0.024074357133704934,0.0005684654790737704,18.14221208669236,0.024161599233757637,1.0,0.0,45.14817025964911,0.08488048923289125,900.3762866562809,78.51423784724696,0.12421506685860094,3.335831013667848,1.0,901.4772035119619,0.0,1.0,78.84315346807196,3554.487542688305,1.0,1.0,0.17125574255220896,13.909985072208013,0.03670263630779307,-45.88141142260993,1.0,902.1649549571216,0.0,1.0,-0.3238354001448056,12.832509720925813
0.65,0.65,1.0,17.21505359976809,-0.005001897900720413,5.757999833841296,-0.003912898967988748,0.019361725643841685,0.0009369048559353213,18.152483509106606,0.019775363181245478,1.0,0.0,45.14817025964911,0.08488048923289125,900.3762866562809,78.51423784724696,0.12421506685860094,3.335831013667848,1.0,902.0297310045851,0.0,1.0,79.08023126655789,3475.8884805155985,1.0,1.0,0.7296355182643244,14.035009549530212,0.016939204661837008,-45.86650240788822,1.0,902.5279684474926,0.0,1.0,0.1438743116313154,13.67031640492189
0.675,0.675,1.0,17.13967475162334,0.04759233469202839,5.750462437305457,-0.0021233300287092985,0.01757591342724957,-0.002985818969655212,18.078676219917682,0.017953728808594145,1.0,0.0,45.14817025964911,0.08488048923289125,900.3762866562809,78.51423784724696,0.12421506685860094,3.335831013667848,1.0,902.0297310045851,0.0,1.0,79.82869448603502,3528.8920885151842,1.0,1.0,0.7296355182643244,14.035009549530212,0.016939204661837008,-45.86650240788822,1.0,902.5279684474926,0.0,1.0,0.1438743116313154,13.67031640492189
0.7000000000000001,0.7000000000000001,1.0,17.101317306646838,0.03485909602314629,5.78735538749121,-0.0017499082157690163,0.02009559330458857,-0.0008625375797976863,18.054078518725838,0.020190072315462472,1.0,0.0,45.14817025964911,0.08488048923289125,900.3762866562809,78.51423784724696,0.12421506685860094,3.335831013667848,1.0,901.4467212612357,0.0,1.0,81.46866272927682,3635.0570554557085,1.0,1.0,0.8787869574009572,14.06506038110504,0.057968095932936704,-45.91682355088595,1.0,902.8503799771023,0.0,1.0,-0.5259465552686466,12.95451414516701
0.7250000000000001,0.7250000000000001,1.0,17.06317311726422,0.0015386808741678448,5.892835235262918,-0.001028765208221306,0.01643827819933151,0.00016661661793533153,18.052074293754263,0.01647128134389175,1.0,0.0,45.14817025964911,0.08488048923289125,900.3762866562809,78.51423784724696,0.12421506685860094,3.335831013667848,1.0,901.4467212612357,0.0,1.0,79.32421572676661,3611.6989397801294,1.0,1.0,0.8787869574009572,14.06506038110504,0.057968095932936704,-45.91682355088595,1.0,902.8503799771023,0.0,1.0,-0.5259465552686466,12.95451414516701
0.75,0.75,1.0,17.153607457322558,-0.03299772309200197,5.977782166332571,0.002242887697950806,0.02006983143700206,0.0024090950440133446,18.16538513981372,0.020337955110246084,1.0,0.0,45.14817025964911,0.08488048923289125,900.3762866562809,78.51423784724696,0.12421506685860094,3.335831013667848,1.0,901.8668282260151,0.0,1.0,81.07061863059809,3693.235971220254,1.0,1.0,-0.5611969848171424,14.046732333463734,-0.004909454008617348,-45.90895945087607,1.0,902.8344309832797,0.0,1.0,0.2916895527804138,13.19501982953101
0.775,0.775,1.0,17.091902749781504,0.07979868380514983,6.013829096323328,0.001339333709113779,0.01612686940592382,-0.003165260548266207,18.119206600668548,0.016489045028700137,1.0,0.0,45.14817025964911,0.08488048923289125,900.3762866562809,78.51423784724696,0.12421506685860094,3.335831013667848,1.0,901.8668282260151,0.0,1.0,80.56874824899997,3726.3430437225284,1.0,1.0,-0.5611969848171424,14.046732333463734,-0.004909454008617348,-45.90895945087607,1.0,902.8344309832797,0.0,1.0,0.2916895527804138,13.19501982953101
0.8,0.8,1.0,17.08987874321627,-0.02135697958723223,6.084018829835575,0.0010824022145651804,0.01334251274897526,-0.00042749258783569984,18.140553924844916,0.013393169562255135,1.0,0.0,60.52403115453102,-2.189739807835618,902.2354299683118,81.4165175634896,-0.255011780218076,3.5765308142718126,1.0,902.4932786104312,0.0,1.0,81.79259844773813,3759.940121590616,1.0,1.0,-1.2164926452031213,14.134337612875752,-0.005418000616834761,-45.857126308443796,1.0,903.3019113059102,0.0,1.0,-0.06013121964549108,12.351154133962874
0.8250000000000001,0.8250000000000001,1.0,17.080693392353215,0.012780636383930967,6.12878541234195,-0.0013574750637685082,0.012772283184674254,-0.0030827515867952538,18.146962851639408,0.01320898609447957,1.0,0.0,60.52403115453102,-2.189739807835618,902.2354299683118,81.4165175634896,-0.255011780218076,3.5765308142718126,1.0,902.4932786104312,0.0,1.0,81.71841026366032,3771.414636794475,1.0,1.0,-1.2164926452031213,14.134337612875752,-0.005418000616834761,-45.857126308443796,1.0,903.3019113059102,0.0,1.0,-0.06013121964549108,12.351154133962874
0.8500000000000001,0.8500000000000001,1.0,17.080032297167648,-0.06524281724705698,6.248873544674335,0.0005798346308286623,0.012354591987276389,0.0007649707432584844,18.187363208415427,0.012391825192812542,1.0,0.0,60.52403115453102,-2.189739807835618,902.2354299683118,81.4165175634896,-0.255011780218076,3.5765308142718126,1.0,902.7461119491733,0.0,1.0,82.3505392110747,3859.5935595896426,1.0,1.0,-0.3620570521453154,14.19674442781202,0.03584852030826636,-45.89221628749748,1.0,903.4949831468457,0.0,1.0,-0.340713193310383,12.60600058954328
0.875,0.875,1.0,17.092566180594574,-0.028566168728226787,6.273011363351704,0.0014264886343193124,0.01039085832694834,0.0030093422963232436,18.207342096768016,0.01091150528804316,1.0,0.0,60.52403115453102,-2.189739807835618,902.2354299683118,81.4165175634896,-0.255011780218076,3.5765308142718126,1.0,902.7461119491733,0.0,1.0,82.70802769911815,3891.694046135877,1.0,1.0,-0.3620570521453154,14.19674442781202,0.03584852030826636,-45.89221628749748,1.0,903.4949831468457,0.0,1.0,-0.340713193310383,12.60600058954328
0.9,0.9,1.0,17.05612461805249,0.0686941069081946,6.3615456546705875,0.001824779335121172,0.010678761729513011,-0.001547121375082221,18.2039932153173,0.010943461803599137,1.0,0.0,60.52403115453102,-2.189739807835618,902.2354299683118,81.4165175634896,-0.255011780218076,3.5765308142718126,1.0,903.8134950435145,0.0,1.0,82.59912550235875,3807.979432770116,1.0,1.0,-0.09792438588057155,14.186546072652952,-0.008479319572511924,-45.89429717675456,1.0,903.1962932388042,0.0,1.0,0.45300573804182975,12.894427628877157
0.925,0.925,1.0,16.983000388638736,-0.000711636822999041,6.3782166996658525,0.0011630137542575766,0.010379298222099416,0.0014636401023279423,18.141222422285296,0.01054631096284435,1.0,0.0,60.52403115453102,-2.189739807835618,902.2354299683118,81.4165175634896,-0.255011780218076,3.5765308142718126,1.0,903.8134950435145,0.0,1.0,83.56614989605092,3866.720664424269,1.0,1.0,-0.09792438588057155,14.186546072652952,-0.008479319572511924,-45.89429717675456,1.0,903.1962932388042,0.0,1.0,0.45300573804182975,12.894427628877157
0.9500000000000001,0.9500000000000001,1.0,16.977753213275204,0.0619708909315009,6.467099530505779,0.0013932722437634255,0.0077771237399623565,0.004094771226037869,18.167865061687007,0.008898989414844549,1.0,0.0,60.52403115453102,-2.189739807835618,902.2354299683118,81.4165175634896,-0.255011780218076,3.5765308142718126,1.0,903.4893682157824,0.0,1.0,83.54627228294008,3960.507436260757,1.0,1.0,0.5515757550920114,14.233712233332966,0.08560475662243833,-45.84354249114226,1.0,903.5555408882835,0.0,1.0,0.08272463840641422,12.18602342495174
0.9750000000000001,0.9750000000000001,1.0,16.964919816529395,0.04368198903242653,6.561945235567232,-0.0014720525387692523,0.006522567960183124,-0.000986605134644812,18.189819619007253,0.006759010368671729,1.0,0.0,60.52403115453102,-2.189739807835618,902.2354299683118,81.4165175634896,-0.255011780218076,3.5765308142718126,1.0,903.4893682157824,0.0,1.0,84.10459362145144,3986.85156685022,1.0,1.0,0.5515757550920114,14.233712233332966,0.08560475662243833,-45.84354249114226,1.0,903.5555408882835,0.0,1.0,0.08272463840641422,12.18602342495174
1.0,1.0,1.0,17.06569969719655,-0.01874902409599158,6.611211989967906,0.003356340812989093,0.007257338280318927,9.794569403432961e-05,18.30154588162143,0.007996472717823692,1.0,0.0,77.8833894655996,-0.2857293032153698,903.7342917963517,84.80114374018427,-0.16945035377344445,3.4274930355874638,1.0,903.0631166536039,0.0,1.0,84.84047455610967,4038.0094138732497,1.0,1.0,-0.4946212838329261,14.277889361534085,0.009752712071119272,-45.82679494682949,1.0,903.820813440296,0.0,1.0,-0.7100255770478338,12.602271981572269
1.0250000000000001,1.0250000000000001,1.0,17.04346040783492,0.019281396550144627,6.586444900644158,2.5984999545419785e-05,0.007468365559600907,-0.0004879599629203926,18.2718682918554,0.007484334591494932,1.0,0.0,77.8833894655996,-0.2857293032153698,903.7342917963517,84.80114374018427,-0.16945035377344445,3.4274930355874638,1.0,903.0631166536039,0.0,1.0,85.91609138618568,4016.8998677337972,1.0,1.0,-0.4946212838329261,14.277889361534085,0.009752712071119272,-45.82679494682949,1.0,903.820813440296,0.0,1.0,-0.7100255770478338,12.602271981572269
1.05,1.05,1.0,16.940221164457594,0.00416058369218773,6.698775962817234,-0.0001623914970455043,0.008527184811021625,-0.0020564331413674545,18.21660533170798,0.008773150464032006,1.0,0.0,77.8833894655996,-0.2857293032153698,903.7342917963517,84.80114374018427,-0.16945035377344445,3.4274930355874638,1.0,902.2374736499594,0.0,1.0,85.1803258751412,4075.317986958655,1.0,1.0,0.9736716567738575,14.232102695881423,-0.004962835756417939,-45.867429631182574,1.0,903.6888811634797,0.0,1.0,0.11495443315012784,12.859472592294164
1.075,1.075,1.0,16.96762982814727,-0.03553336794665623,6.7139443217648145,0.0021523717840598792,0.005987914554037831,-0.0009714343281910296,18.247705964340522,0.006436731286706254,1.0,0.0,77.8833894655996,-0.2857293032153698,903.7342917963517,84.80114374018427,-0.16945035377344445,3.4274930355874638,1.0,902.2374736499594,0.0,1.0,86.32639015636698,4110.325123097951,1.0,1.0,0.9736716567738575,14.232102695881423,-0.004962835756417939,-45.867429631182574,1.0,903.6888811634797,0.0,1.0,0.11495443315012784,12.859472592294164
1.1,1.1,1.0,16.92694134838118,0.01166192622400793,6.768961620078042,0.0012816164945934781,0.006663513608619609,0.0020516741838696125,18.230203532219527,0.007089028241460873,1.0,0.0,77.8833894655996,-0.2857293032153698,903.7342917963517,84.80114374018427,-0.16945035377344445,3.4274930355874638,1.0,904.305235361443,0.0,1.0,85.81231206958564,4119.264706481199,1.0,1.0,-2.1377845376970277,14.249696382011768,-0.03740844855449062,-45.78073384556458,1.0,904.1547000452417,0.0,1.0,-0.3377341052652119,12.832760380718518
1.125,1.125,1.0,16.91927045500656,0.012054218073843822,6.827576412285449,0.0013611123147082215,0.004809290853447579,-0.0023193390234482413,18.244935124560676,0.005510103334057788,1.0,0.0,77.8833894655996,-0.2857293032153698,903.7342917963517,84.80114374018427,-0.16945035377344445,3.4274930355874638,1.0,904.305235361443,0.0,1.0,86.45841896178814,4276.364875515612,1.0,1.0,-2.1377845376970277,14.249696382011768,-0.03740844855449062,-45.78073384556458,1.0,904.1547000452417,0.0,1.0,-0.3377341052652119,12.832760380718518
1.1500000000000001,1.1500000000000001,1.0,16.900946929131116,-0.014661922395149666,6.922605943547567,-0.0013798204093905368,0.005441582156216924,-0.0024909742677004087,18.263753587992664,0.0061416344345275615,1.0,0.0,77.8833894655996,-0.2857293032153698,903.7342917963517,84.80114374018427,-0.16945035377344445,3.4274930355874638,1.0,904.6526530988251,0.0,1.0,87.1062689835292,4211.033807103654,1.0,1.0,1.6986705414800243,14.30799605421482,0.005958676378396754,-45.826725231421754,1.0,903.7079234254285,0.0,1.0,-0.09670573662507005,13.056397697526496
1.175,1.175,1.0,16.872702894551164,0.08203464053217376,6.9669334453596745,-0.002268595064723144,0.0023023017857962767,-0.001050308439118307,18.25467047859571,0.00339856806579625,1.0,0.0,77.8833894655996,-0.2857293032153698,903.7342917963517,84.80114374018427,-0.16945035377344445,3.4274930355874638,1.0,904.6526530988251,0.0,1.0,86.9381420605104,4317.425600765928,1.0,1.0,1.6986705414800243,14.30799605421482,0.005958676378396754,-45.826725231421754,1.0,903.7079234254285,0.0,1.0,-0.09670573662507005,13.056397697526496
1.2000000000000002,1.2000000000000002,1.0,16.941007377321103,-0.022284632975748692,7.056218318312102,-0.0008392729843754904,0.005834390077409362,-0.00014154485946724681,18.35179676541232,0.005896144644165114,1.0,0.0,95.39718642109877,-1.0230831237574762,905.3619322923197,87.62662820403679,-0.07595104250038326,3.537206138354983,1.0,904.6087600461411,0.0,1.0,87.48985418027654,4322.394847381009,1.0,1.0,-0.3642896828153875,14.257827918052124,-0.010037878890270031,-45.85261689723937,1.0,904.6401704021413,0.0,1.0,0.27259318327846466,12.66414490324613
1.225,1.225,1.0,16.78792420852038,0.009375575604820486,7.173122900656969,0.002088448290239597,0.0019137080575176587,0.000949137869980612,18.256181946956268,0.0029874332606175556,1.0,0.0,95.39718642109877,-1.0230831237574762,905.3619322923197,87.62662820403679,-0.07595104250038326,3.537206138354983,1.0,904.6087600461411,0.0,1.0,88.40936452937117,4378.91085656975,1.0,1.0,-0.3642896828153875,14.257827918052124,-0.010037878890270031,-45.85261689723937,1.0,904.6401704021413,0.0,1.0,0.27259318327846466,12.66414490324613
1.25,1.25,1.0,16.829056557595802,0.04311079032477059,7.165064484797954,-0.0002861348191982844,0.005236028417085604,-0.002638911712607669,18.290903537833053,0.0058704106965546754,1.0,0.0,95.39718642109877,-1.0230831237574762,905.3619322923197,87.62662820403679,-0.07595104250038326,3.537206138354983,1.0,905.3504042304336,0.0,1.0,88.05961405674691,4401.279381432491,1.0,1.0,0.735157290465571,14.23506738458076,0.02258465320520546,-45.79001270832423,1.0,904.7186988878004,0.0,1.0,0.02846006961117506,12.341164017475018
1.2750000000000001,1.2750000000000001,1.0,16.88078652370086,-0.009566038647204105,7.247317911497113,0.0015090322637258868,0.008099852439538896,-0.001665893554938218,18.370755620773004,0.008405949634137393,1.0,0.0,95.39718642109877,-1.0230831237574762,905.3619322923197,87.62662820403679,-0.07595104250038326,3.537206138354983,1.0,905.3504042304336,0.0,1.0,89.03521047267907,4452.954374078241,1.0,1.0,0.735157290465571,14.23506738458076,0.02258465320520546,-45.79001270832423,1.0,904.7186988878004,0.0,1.0,0.02846006961117506,12.341164017475018
1.3,1.3,1.0,16.815083048777165,0.003747088923836718,7.257329330248868,0.00044032854157194243,6.207931747538023e-05,0.004212423498267918,18.314362150663044,0.004235829882672439,1.0,0.0,95.39718642109877,-1.0230831237574762,905.3619322923197,87.62662820403679,-0.07595104250038326,3.537206138354983,1.0,904.5667121539467,0.0,1.0,89.0239599404708,4394.214097221723,1.0,1.0,-1.7938104791271714,14.268341487040706,-0.02630645483962334,-45.87981744922998,1.0,904.8571841819353,0.0,1.0,0.2436013705333076,12.829656542709262
1.3250000000000002,1.3250000000000002,1.0,16.79952626938928,0.018156019069513533,7.330181972812052,0.001344192212933266,0.0044451270529930215,0.0017012269051209737,18.329102003957196,0.004945723425876981,1.0,0.0,95.39718642109877,-1.0230831237574762,905.3619322923197,87.62662820403679,-0.07595104250038326,3.537206138354983,1.0,904.5667121539467,0.0,1.0,89.16614461353147,4476.688068452947,1.0,1.0,-1.7938104791271714,14.268341487040706,-0.02630645483962334,-45.87981744922998,1.0,904.8571841819353,0.0,1.0,0.2436013705333076,12.829656542709262
1.35,1.35,1.0,16.822154717750497,-0.022295262645026685,7.331131607308124,0.003811708652120523,0.0011072026700745274,0.0032993383248968544,18.35022825662787,0.005161458513192158,1.0,0.0,95.39718642109877,-1.0230831237574762,905.3619322923197,87.62662820403679,-0.07595104250038326,3.537206138354983,1.0,905.2166856005929,0.0,1.0,89.9337747448457,4590.132367581151,1.0,1.0,-0.7403709437107429,14.363891873664508,-0.01001143250965229,-45.81320968243702,1.0,904.9221542808665,0.0,1.0,0.28757818528973933,12.657105033734945
1.375,1.375,1.0,16.809270573585955,-0.0048234923783998605,7.435897746051992,-5.190867399413139e-05,0.00015274934982661699,0.0006444967914209957,18.380537961981485,0.0006643816587325705,1.0,0.0,95.39718642109877,-1.0230831237574762,905.3619322923197,87.62662820403679,-0.07595104250038326,3.537206138354983,1.0,905.2166856005929,0.0,1.0,90.49126018802438,4579.278581468135,1.0,1.0,-0.7403709437107429,14.363891873664508,-0.01001143250965229,-45.81320968243702,1.0,904.9221542808665,0.0,1.0,0.28757818528973933,12.657105033734945
1.4000000000000001,1.4000000000000001,1.0,16.69302476981697,0.04967441680519258,7.472942463247603,0.00039382330161914,-0.0006607558090966541,-0.00012219526631941234,18.289461790124307,0.0007788624495147048,1.0,0.0,111.09759481710398,0.19700913479482118,904.7961337338569,90.63239642044208,0.11858546813153745,3.6468827075083974,1.0,905.2781994022332,0.0,1.0,90.58909548111038,4632.370977245874,1.0,1.0,-0.34806676228943356,14.381315664762624,0.03858626470035354,-45.846341894690596,1.0,905.1832378563444,0.0,1.0,-0.5542728224159885,12.410876398365364
1.425,1.425,1.0,16.743634780116214,-0.05977179758853019,7.559800205020641,0.0020503964081430375,-0.0018269991370912226,-0.0010328140601333588,18.371267170708023,0.002934068192845404,1.0,0.0,111.09759481710398,0.19700913479482118,904.7961337338569,90.63239642044208,0.11858546813153745,3.6468827075083974,1.0,905.2781994022332,0.0,1.0,90.35184156037631,4637.265700307863,1.0,1.0,-0.34806676228943356,14.381315664762624,0.03858626470035354,-45.846341894690596,1.0,905.1832378563444,0.0,1.0,-0.5542728224159885,12.410876398365364
1.4500000000000002,1.4500000000000002,1.0,16.719602734392808,0.0349758230666811,7.656597978050008,-0.0020168550969292287,-0.0020679656357137375,0.002552908609085891,18.389394538744174,0.0038550653326301994,1.0,0.0,111.09759481710398,0.19700913479482118,904.7961337338569,90.63239642044208,0.11858546813153745,3.6468827075083974,1.0,905.1443069064965,0.0,1.0,91.3427937280718,4695.952610911633,1.0,1.0,1.8929826422346687,14.240170153451976,0.004449956134261949,-45.83526812894726,1.0,905.5010117176658,0.0,1.0,0.5147863080468554,12.712438715349835
1.475,1.475,1.0,16.734783074387256,-0.008251109505193454,7.755440714243819,-0.0002729059209816074,0.0007656627091191604,0.0010896527356273169,18.44450848626108,0.0013594337461246895,1.0,0.0,111.09759481710398,0.19700913479482118,904.7961337338569,90.63239642044208,0.11858546813153745,3.6468827075083974,1.0,905.1443069064965,0.0,1.0,90.95612808555062,4743.106612128494,1.0,1.0,1.8929826422346687,14.240170153451976,0.004449956134261949,-45.83526812894726,1.0,905.5010117176658,0.0,1.0,0.5147863080468554,12.712438715349835
1.5,1.5,1.0,16.775384172282887,-0.04049065644443487,7.757518779288938,0.0038306182274915695,0.00105762236437246,-0.002437233470911016,18.482268562921572,0.004661792365833168,1.0,0.0,111.09759481710398,0.19700913479482118,904.7961337338569,90.63239642044208,0.11858546813153745,3.6468827075083974,1.0,905.5060945174024,0.0,1.0,92.64173388729289,4821.808851528871,1.0,1.0,1.4917604615666717,14.304577853186956,-0.034985465742805505,-45.76898940679639,1.0,905.5106884847786,0.0,1.0,0.13604256625750963,13.098865246737537
1.5250000000000001,1.5250000000000001,1.0,16.722987038835296,0.0461295962616236,7.832941225489134,-0.0003597252657823848,-0.003721311146168853,9.257389993932397e-05,18.466602061090494,0.0037398033157363675,1.0,0.0,111.09759481710398,0.19700913479482118,904.7961337338569,90.63239642044208,0.11858546813153745,3.6468827075083974,1.0,905.5060945174024,0.0,1.0,92.28595476433313,4923.312607424998,1.0,1.0,1.4917604615666717,14.304577853186956,-0.034985465742805505,-45.76898940679639,1.0,905.5106884847786,0.0,1.0,0.13604256625750963,13.098865246737537
1.55,1.55,1.0,16.735191959511273,0.024676372662300525,7.872443902592963,5.9503225487104746e-05,-0.0008285208319698317,0.0007579651661209169,18.494394606056495,0.0011244992645191283,1.0,0.0,111.09759481710398,0.19700913479482118,904.7961337338569,90.63239642044208,0.11858546813153745,3.6468827075083974,1.0,905.9804642001351,0.0,1.0,92.45321677797666,4885.311568966708,1.0,1.0,1.130674115632398,14.28679549122691,-0.06654410235379032,-45.82274200176729,1.0,905.7188996019348,0.0,1.0,-0.29129571960736184,12.692362509000914
1.5750000000000002,1.5750000000000002,1.0,16.673568026092337,-0.04876632725773981,7.97664862312036,-0.0010932876634037192,-0.0008952698865520303,0.0033497550890211323,18.483429663677974,0.00363560796031979,1.0,0.0,111.09759481710398,0.19700913479482118,904.7961337338569,90.63239642044208,0.11858546813153745,3.6468827075083974,1.0,905.9804642001351,0.0,1.0,93.33716858692033,4923.152534653812,1.0,1.0,1.130674115632398,14.28679549122691,-0.06654410235379032,-45.82274200176729,1.0,905.7188996019348,0.0,1.0,-0.29129571960736184,12.692362509000914
1.6,1.6,1.0,16.661354363250155,-0.028696046080416975,8.036217496472885,0.00039775532377445523,0.0007102505138781839,-0.002582066544594588,18.49817137804363,0.0027073479146149243,1.0,0.0,129.9916221413708,-2.4708171847134515,908.1552432907047,93.53583168944516,-0.12890312187707062,4.094180147201862,1.0,906.0187938267032,0.0,1.0,93.540590817817,4904.926630309149,1.0,1.0,-0.5514971461177935,14.29024679920824,0.06429483918498549,-45.90215772117642,1.0,905.9271457795426,0.0,1.0,0.35469694593815315,13.04723185972234
1.625,1.625,1.0,16.658735689521542,-0.05734984144382985,8.107440380221005,-0.0015605808957864006,-0.000377779218151365,0.00397138001981148,18.526935885258805,0.004283688729555215,1.0,0.0,129.9916221413708,-2.4708171847134515,908.1552432907047,93.53583168944516,-0.12890312187707062,4.094180147201862,1.0,906.0187938267032,0.0,1.0,92.93336461077818,4905.880174409458,1.0,1.0,-0.5514971461177935,14.29024679920824,0.06429483918498549,-45.90215772117642,1.0,905.9271457795426,0.0,1.0,0.35469694593815315,13.04723185972234
1.6500000000000001,1.6500000000000001,1.0,16.64336140978422,-0.00718992667240433,8.078039583139384,-0.0014215114091069706,-0.0018366639441087355,-0.004016455144860638,18.500169032160404,0.004639605700971563,1.0,0.0,129.9916221413708,-2.4708171847134515,908.1552432907047,93.53583168944516,-0.12890312187707062,4.094180147201862,1.0,905.45059458761,0.0,1.0,94.81061191813423,4995.1495612725,1.0,1.0,-1.3369893678725424,14.283329712650987,-0.03853104404443647,-45.8426939012752,1.0,906.1562085176229,0.0,1.0,0.18918137699172557,12.792475708886839
1.675,1.675,1.0,16.635094709572975,-0.025197222101776755,8.140656196241428,-0.00307705410662801,-0.0026983235983812893,-0.0002928849669979628,18.52018612762486,0.004103046894758948,1.0,0.0,129.9916221413708,-2.4708171847134515,908.1552432907047,93.53583168944516,-0.12890312187707062,4.094180147201862,1.0,905.45059458761,0.0,1.0,94.84258915851288,4999.96787598371,1.0,1.0,-1.3369893678725424,14.283329712650987,-0.03853104404443647,-45.8426939012752,1.0,906.1562085176229,0.0,1.0,0.18918137699172557,12.792475708886839
1.7000000000000002,1.7000000000000002,1.0,16.58801108913337,0.030482044000902733,8.309590387324223,-0.0011378719285153117,-0.003062387143679356,0.0009561543279783381,18.552960234241038,0.0034039974504084846,1.0,0.0,129.9916221413708,-2.4708171847134515,908.1552432907047,93.53583168944516,-0.12890312187707062,4.094180147201862,1.0,905.5013595987609,0.0,1.0,95.18227715914864,5128.743854580685,1.0,1.0,0.15283006444675024,14.33479253395535,-0.06769133156011552,-45.84249765067905,1.0,905.9198973866249,0.0,1.0,0.3820940271456788,13.358915199848374
1.725,1.725,1.0,16.62766353780706,-0.0219316907953706,8.348007600797832,-0.002512312702131389,-0.0054481485615847395,0.0008586508632345581,18.605614922075485,0.006060636861528831,1.0,0.0,129.9916221413708,-2.4708171847134515,908.1552432907047,93.53583168944516,-0.12890312187707062,4.094180147201862,1.0,905.5013595987609,0.0,1.0,95.74551957038302,5027.64469139759,1.0,1.0,0.15283006444675024,14.33479253395535,-0.06769133156011552,-45.84249765067905,1.0,905.9198973866249,0.0,1.0,0.3820940271456788,13.358915199848374
1.75,1.75,1.0,16.548102304829012,0.01769463227217967,8.402531507242147,-0.0013853594973050958,-0.002682013359102148,-0.00044486177556643855,18.559163200998462,0.0030512814676027416,1.0,0.0,129.9916221413708,-2.4708171847134515,908.1552432907047,93.53583168944516,-0.12890312187707062,4.094180147201862,1.0,906.9441458584239,0.0,1.0,96.85614944586978,5055.185351954473,1.0,1.0,-0.2976509961586848,14.20932328487892,-0.04665431748890818,-45.84045662293799,1.0,906.719020289387,0.0,1.0,-0.49892644747214066,11.863657162100417
1.7750000000000001,1.7750000000000001,1.0,16.57037974320316,0.017892515118477743,8.433908961489946,-8.48808060690697e-07,-0.004918851918205236,0.0009057499942890872,18.59324138892289,0.005001548556783302,1.0,0.0,129.9916221413708,-2.4708171847134515,908.1552432907047,93.53583168944516,-0.12890312187707062,4.094180147201862,1.0,906.9441458584239,0.0,1.0,95.97846642156593,5220.026880776162,1.0,1.0,-0.2976509961586848,14.20932328487892,-0.04665431748890818,-45.84045662293799,1.0,906.719020289387,0.0,1.0,-0.49892644747214066,11.863657162100417
1.8,1.8,1.0,16.596502112174544,-0.04425570998127575,8.471716965102814,-0.0028492295727655563,-0.0021277905539205054,0.003580249287240684,18.63372827064114,0.005046165550045158,1.0,0.0,149.4359146381399,1.9246446568264215,905.7227563379435,96.58464531264822,-0.11484129528752073,4.40279778353896,1.0,906.1715293173664,0.0,1.0,96.53226908296391,5235.779103473823,1.0,1.0,0.14370057560970326,14.298831603400284,0.049366492341106294,-45.790358007147674,1.0,906.4512851852331,0.0,1.0,-0.12565110237059401,12.906975883517628
1.8250000000000002,1.8250000000000002,1.0,16.581250753958255,-0.036522262415027235,8.60677965503226,0.0001060482944636698,-0.012024972988325947,0.000872564604376772,18.681966343818587,0.012057055635582781,1.0,0.0,149.4359146381399,1.9246446568264215,905.7227563379435,96.58464531264822,-0.11484129528752073,4.40279778353896,1.0,906.1715293173664,0.0,1.0,96.83692951185203,5219.740166029711,1.0,1.0,0.14370057560970326,14.298831603400284,0.049366492341106294,-45.790358007147674,1.0,906.4512851852331,0.0,1.0,-0.12565110237059401,12.906975883517628
1.85,1.85,1.0,16.56899118869394,-0.049880028664421414,8.640452793217197,0.002422080609570427,-0.0040623530482502695,0.0003949293978545769,18.686663198658337,0.0047460674244236235,1.0,0.0,149.4359146381399,1.9246446568264215,905.7227563379435,96.58464531264822,-0.11484129528752073,4.40279778353896,1.0,906.007617806501,0.0,1.0,97.18831293038944,5261.637450969726,1.0,1.0,0.24182505435949653,14.282507158675717,-0.0255459889095549,-45.83945592704357,1.0,906.5747695432265,0.0,1.0,-0.13528230597350294,12.242672608993555
1.875,1.875,1.0,16.54801518943646,0.04710491974448733,8.68899538714012,0.0048979456112317275,-0.004298664935041501,0.001737571264933353,18.690576941898453,0.006744445517243177,1.0,0.0,149.4359146381399,1.9246446568264215,905.7227563379435,96.58464531264822,-0.11484129528752073,4.40279778353896,1.0,906.007617806501,0.0,1.0,97.65054312226053,5295.016938660678,1.0,1.0,0.24182505435949653,14.282507158675717,-0.0255459889095549,-45.83945592704357,1.0,906.5747695432265,0.0,1.0,-0.13528230597350294,12.242672608993555
1.9000000000000001,1.9000000000000001,1.0,16.475490194867934,0.07406069691336914,8.707984729025105,0.0020256840096397628,-0.006125258764994614,0.0013787279780990236,18.63534974689102,0.006597202549766575,1.0,0.0,149.4359146381399,1.9246446568264215,905.7227563379435,96.58464531264822,-0.11484129528752073,4.40279778353896,1.0,907.3303334821911,0.0,1.0,97.82178017559835,5353.475255714554,1.0,1.0,0.5785070491145471,14.26362053763943,0.08873786789797558,-45.898473262056676,1.0,906.7395821787735,0.0,1.0,-0.23518183020908812,12.700799461090243
1.925,1.925,1.0,16.5408278220128,0.002348795813503003,8.805998883784252,0.00116010179678548,-0.003033918832068549,0.0002555051497115307,18.73885287032064,0.003258187002001911,1.0,0.0,149.4359146381399,1.9246446568264215,905.7227563379435,96.58464531264822,-0.11484129528752073,4.40279778353896,1.0,907.3303334821911,0.0,1.0,98.25418185292978,5445.319971976351,1.0,1.0,0.5785070491145471,14.26362053763943,0.08873786789797558,-45.898473262056676,1.0,906.7395821787735,0.0,1.0,-0.23518183020908812,12.700799461090243
1.9500000000000002,1.9500000000000002,1.0,16.518659201517448,0.11068676432869218,8.809787007126278,0.00029454399622693984,-0.0050650336267891016,-0.0007443294197023542,18.72139686259029,0.00512789899386212,1.0,0.0,149.4359146381399,1.9246446568264215,905.7227563379435,96.58464531264822,-0.11484129528752073,4.40279778353896,1.0,906.293718562091,0.0,1.0,99.07151011055177,5469.250530349721,1.0,1.0,-0.19454050753195087,14.272300973893726,-0.018137208425175053,-45.81871312147469,1.0,907.2528070115435,0.0,1.0,0.4312757641318894,12.657271685433669
1.975,1.975,1.0,16.45698617001688,-0.015287435890573797,8.928295360873177,-0.0006646745614123067,-0.005058341259269179,0.0018092771801700056,18.722902701152204,0.0054131407225840224,1.0,0.0,149.4359146381399,1.9246446568264215,905.7227563379435,96.58464531264822,-0.11484129528752073,4.40279778353896,1.0,906.293718562091,0.0,1.0,99.27100371031514,5503.525830102644,1.0,1.0,-0.19454050753195087,14.272300973893726,-0.018137208425175053,-45.81871312147469,1.0,907.2528070115435,0.0,1.0,0.4312757641318894,12.657271685433669
2.0,2.0,1.0,16.54319753955022,0.05622660155979085,8.963522462015383,-0.00038832956445904686,-0.007249202825630919,0.0013678058198069742,18.815559550285975,0.007387329302154202,1.0,0.0,168.36576303234025,-0.03241523959397065,907.6950993441588,99.22646455031295,0.03993393107929061,5.002921421698349,1.0,907.3976239746878,0.0,1.0,99.80504249097261,5621.94543018714,1.0,1.0,0.7832093553117417,14.192740547420607,0.05087048598851233,-45.73471431077992,1.0,907.2771419181566,0.0,1.0,0.1638167027132807,12.613040928094192
2.025,2.025,1.0,16.448541756462127,0.007629518082771529,9.023644160099733,0.001553644195358347,-0.00522967070414138,0.0019955860386857327,18.76114969962466,0.005809098862760273,1.0,0.0,168.36576303234025,-0.03241523959397065,907.6950993441588,99.22646455031295,0.03993393107929061,5.002921421698349,1.0,907.3976239746878,0.0,1.0,99.64621321146932,5517.482588704239,1.0,1.0,0.7832093553117417,14.192740547420607,0.05087048598851233,-45.73471431077992,1.0,907.2771419181566,0.0,1.0,0.1638167027132807,12.613040928094192
2.0500000000000003,2.0500000000000003,1.0,16.425755875461988,-0.0008249636020387972,9.123174103527836,-0.00044502601816877844,-0.010141401002667581,-0.00021140000276493812,18.78929914829502,0.01015336163124919,1.0,0.0,168.36576303234025,-0.03241523959397065,907.6950993441588,99.22646455031295,0.03993393107929061,5.002921421698349,1.0,908.5764152972517,0.0,1.0,99.08985050528426,5602.752430030678,1.0,1.0,3.2624696940386513,14.235388952354,-0.04054829344328858,-45.821873078964764,1.0,907.9669009748029,0.0,1.0,-0.08377889435896818,13.238207740771788
2.075,2.075,1.0,16.44059579442457,-0.03275220445652551,9.139275504851613,-0.0034040290894533968,-0.005405441147208005,0.0008938480209301087,18.810120136142892,0.0064502071534404985,1.0,0.0,168.36576303234025,-0.03241523959397065,907.6950993441588,99.22646455031295,0.03993393107929061,5.002921421698349,1.0,908.5764152972517,0.0,1.0,100.30786407023936,5625.760439462549,1.0,1.0,3.2624696940386513,14.235388952354,-0.04054829344328858,-45.821873078964764,1.0,907.9669009748029,0.0,1.0,-0.08377889435896818,13.238207740771788
2.1,2.1,1.0,16.421521552719717,-0.09171856320830216,9.191916685077679,-0.0005118947152356505,-0.009631843007243252,0.00038108291195165675,18.81930165406476,0.009652961208947671,1.0,0.0,168.36576303234025,-0.03241523959397065,907.6950993441588,99.22646455031295,0.03993393107929061,5.002921421698349,1.0,907.3433665292046,0.0,1.0,100.0859443632578,5708.599203902648,1.0,1.0,-0.22325389695130374,14.189891414855357,-0.05285412494434853,-45.80175612539972,1.0,907.9250451064296,0.0,1.0,-0.1784822761561118,12.164171790456027
2.125,2.125,1.0,16.475462756686003,0.057570203109125764,9.213491700306779,-0.001463806889749301,-0.009335142909232562,0.0004132984377261238,18.87677453080519,0.009458247160277603,1.0,0.0,168.36576303234025,-0.03241523959397065,907.6950993441588,99.22646455031295,0.03993393107929061,5.002921421698349,1.0,907.3433665292046,0.0,1.0,100.71968504081624,5745.489193137603,1.0,1.0,-0.22325389695130374,14.189891414855357,-0.05285412494434853,-45.80175612539972,1.0,907.9250451064296,0.0,1.0,-0.1784822761561118,12.164171790456027
2.15,2.15,1.0,16.34756772319677,0.062334059897908,9.2516135416761,0.0014088207245657803,-0.010426435310725082,0.0035567166240103973,18.784014723270765,0.011106104729661647,1.0,0.0,168.36576303234025,-0.03241523959397065,907.6950993441588,99.22646455031295,0.03993393107929061,5.002921421698349,1.0,908.2823141418571,0.0,1.0,101.50642426197311,5639.46372168839,1.0,1.0,-1.7872123099639177,14.165386948834943,-0.021349195972424427,-45.8829101090694,1.0,908.3113973172035,0.0,1.0,0.03779120529700979,12.88342715100325
2.1750000000000003,2.1750000000000003,1.0,16.43080104175242,-0.01109758942176667,9.37096942034213,0.0006492350728247985,-0.007302726408933254,0.002322405795500892,18.915242898443857,0.00769057136125094,1.0,0.0,168.36576303234025,-0.03241523959397065,907.6950993441588,99.22646455031295,0.03993393107929061,5.002921421698349,1.0,908.2823141418571,0.0,1.0,101.97027877835016,5876.391753921046,1.0,1.0,-1.7872123099639177,14.165386948834943,-0.021349195972424427,-45.8829101090694,1.0,908.3113973172035,0.0,1.0,0.03779120529700979,12.88342715100325
2.2,2.2,1.0,16.366180654272895,0.03934266153242161,9.401364837356564,0.0011307744336373727,-0.007743511395789474,-0.0015278945024897884,18.87429675135996,0.007973398344948526,1.0,0.0,190.46944566187474,1.2922169931844878,911.1846237277481,101.95290393265333,0.04283770639830274,5.317653235534366,1.0,908.573150717165,0.0,1.0,102.22019236954611,5851.892942791316,1.0,1.0,-0.17439096541991375,14.087757939720822,0.012916095594845085,-45.83539429457608,1.0,908.3132798477453,0.0,1.0,0.43333009650725873,12.448911984868676
2.225,2.225,1.0,16.31599048596804,0.022929389437489397,9.517239569904199,0.00197531012138196,-0.012998713998361148,-0.0023048843525609614,18.88888351189794,0.013348442140021599,1.0,0.0,190.46944566187474,1.2922169931844878,911.1846237277481,101.95290393265333,0.04283770639830274,5.317653235534366,1.0,908.573150717165,0.0,1.0,103.19539558720354,6046.609986038022,1.0,1.0,-0.17439096541991375,14.087757939720822,0.012916095594845085,-45.83539429457608,1.0,908.3132798477453,0.0,1.0,0.43333009650725873,12.448911984868676
2.25,2.25,1.0,16.32947748116865,-0.017462315418346672,9.474720239174648,0.0008666390442219166,-0.011253962423119036,-0.000264903312821012,18.87915420115741,0.011290390038394982,1.0,0.0,190.46944566187474,1.2922169931844878,911.1846237277481,101.95290393265333,0.04283770639830274,5.317653235534366,1.0,909.4382115007717,0.0,1.0,102.67405636239349,5949.709297351464,1.0,1.0,-0.3610164305969021,14.159784673863886,0.0321641024469001,-45.92343521485897,1.0,908.7499969044172,0.0,1.0,0.3849678171044238,13.052618904891467
2.275,2.275,1.0,16.2802171234133,-0.05594943798196808,9.609689860184053,-0.0011835987795005857,-0.012790241813596701,-0.0024366417800528364,18.90488664694963,0.013073959418837575,1.0,0.0,190.46944566187474,1.2922169931844878,911.1846237277481,101.95290393265333,0.04283770639830274,5.317653235534366,1.0,909.4382115007717,0.0,1.0,103.22619288943426,6015.467064340039,1.0,1.0,-0.3610164305969021,14.159784673863886,0.0321641024469001,-45.92343521485897,1.0,908.7499969044172,0.0,1.0,0.3849678171044238,13.052618904891467
2.3000000000000003,2.3000000000000003,1.0,16.34651107251061,-0.04520897436114612,9.62330897822402,0.003451160615021733,-0.012408501543507193,-0.0017994938602136884,18.968883567185543,0.01300459912103577,1.0,0.0,190.46944566187474,1.2922169931844878,911.1846237277481,101.95290393265333,0.04283770639830274,5.317653235534366,1.0,908.385222768965,0.0,1.0,103.30973931357225,6053.730789277955,1.0,1.0,-0.7632333850056491,14.147428548847786,0.0030175913066461243,-45.87259552773902,1.0,909.2837903864572,0.0,1.0,-0.15057536392989848,13.56249817289342
2.325,2.325,1.0,16.2821306223042,0.00010391689411304849,9.75901017753508,0.0031978629434828414,-0.011483747439343554,-0.0004134841647121651,18.98278317997148,0.011927856128005489,1.0,0.0,190.46944566187474,1.2922169931844878,911.1846237277481,101.95290393265333,0.04283770639830274,5.317653235534366,1.0,908.385222768965,0.0,1.0,103.63774410269623,5981.753230878183,1.0,1.0,-0.7632333850056491,14.147428548847786,0.0030175913066461243,-45.87259552773902,1.0,909.2837903864572,0.0,1.0,-0.15057536392989848,13.56249817289342
2.35,2.35,1.0,16.255368839867508,-0.07384579997805028,9.80429646129453,0.001546331848930556,-0.008594415072365271,-0.004722843548015193,18.98332685340645,0.009927757239283456,1.0,0.0,190.46944566187474,1.2922169931844878,911.1846237277481,101.95290393265333,0.04283770639830274,5.317653235534366,1.0,908.6821654096198,0.0,1.0,103.93834694609026,6179.655628653802,1.0,1.0,-1.1430981180547253,14.028020572807328,-0.01614784306470688,-45.951737008204226,1.0,909.9015624905865,0.0,1.0,0.5436536319882551,12.483334648959156
2.375,2.375,1.0,16.235520472789677,-0.007512458886834205,9.825461316057307,0.002310040605383624,-0.01506022189886183,-0.0002596361405419495,18.9771407628428,0.015238568901539086,1.0,0.0,190.46944566187474,1.2922169931844878,911.1846237277481,101.95290393265333,0.04283770639830274,5.317653235534366,1.0,908.6821654096198,0.0,1.0,104.78599793578955,6143.415351621032,1.0,1.0,-1.1430981180547253,14.028020572807328,-0.01614784306470688,-45.951737008204226,1.0,909.9015624905865,0.0,1.0,0.5436536319882551,12.483334648959156
2.4000000000000004,2.4000000000000004,1.0,16.182318425851417,-0.03641801704974167,9.773160142952577,-0.0004858262009139639,-0.012789374002647446,0.001972797386637335,18.904587144061434,0.012949750731416104,1.0,0.0,211.22057636739888,0.9094522488777318,909.7822542668409,105.02945819048787,0.2315198801374731,5.905569665245656,1.0,909.1242808338274,0.0,1.0,104.64652788136536,6161.563951590336,1.0,1.0,0.5730385195276715,14.006343341568073,-0.055692786427280934,-45.90181684610947,1.0,909.8705833732932,0.0,1.0,-0.18408438782367612,13.28324653520239
2.4250000000000003,2.4250000000000003,1.0,16.270997707786556,-0.00276091304484451,9.97467234383946,0.0013055688641043623,-0.01658073935853482,0.0021477986565138626,19.08505861653016,0.016770165974238513,1.0,0.0,211.22057636739888,0.9094522488777318,909.7822542668409,105.02945819048787,0.2315198801374731,5.905569665245656,1.0,909.1242808338274,0.0,1.0,105.8945627891574,6164.9485063563525,1.0,1.0,0.5730385195276715,14.006343341568073,-0.055692786427280934,-45.90181684610947,1.0,909.8705833732932,0.0,1.0,-0.18408438782367612,13.28324653520239
2.45,2.45,1.0,16.207479427240685,-0.036069134003124934,9.920593274990964,0.0010945283300667615,-0.017377421433473705,0.006078232844581744,19.002680371322718,0.018442279752102837,1.0,0.0,211.22057636739888,0.9094522488777318,909.7822542668409,105.02945819048787,0.2315198801374731,5.905569665245656,1.0,909.6465748602212,0.0,1.0,105.44243006618615,6189.714994239975,1.0,1.0,-1.033806657202185,14.0014079294813,-0.07977236667270175,-45.90697912126156,1.0,909.9705258005085,0.0,1.0,0.32660421774361775,12.396139495583194
2.475,2.475,1.0,16.156569576653286,0.03849048969925363,9.938984529937047,0.0009792456981280245,-0.015534054715281376,0.00027183107330828695,18.968912343341245,0.015567262770541062,1.0,0.0,211.22057636739888,0.9094522488777318,909.7822542668409,105.02945819048787,0.2315198801374731,5.905569665245656,1.0,909.6465748602212,0.0,1.0,106.41652454331398,6313.191338853969,1.0,1.0,-1.033806657202185,14.0014079294813,-0.07977236667270175,-45.90697912126156,1.0,909.9705258005085,0.0,1.0,0.32660421774361775,12.396139495583194
2.5,2.5,1.0,16.16061237026711,0.020373507734397115,10.040644464402774,0.0040195122366275425,-0.015885503597196482,0.0010656922310533386,19.025781154065392,0.01642076134313718,1.0,0.0,211.22057636739888,0.9094522488777318,909.7822542668409,105.02945819048787,0.2315198801374731,5.905569665245656,1.0,910.5159411937015,0.0,1.0,106.1051645019998,6300.625050980629,1.0,1.0,-1.0905924273423888,13.864029305835311,0.03937927409754451,-45.92382234920104,1.0,910.3721038627231,0.0,1.0,-0.02409732491432169,13.288570029452945
2.5250000000000004,2.5250000000000004,1.0,16.124693975326696,-0.029811111796795766,10.11381934509137,-0.0007839520598062783,-0.017055342704287962,0.0017289766678407262,19.034074346956515,0.017160671779121024,1.0,0.0,211.22057636739888,0.9094522488777318,909.7822542668409,105.02945819048787,0.2315198801374731,5.905569665245656,1.0,910.5159411937015,0.0,1.0,106.37861008030836,6473.177104490859,1.0,1.0,-1.0905924273423888,13.864029305835311,0.03937927409754451,-45.92382234920104,1.0,910.3721038627231,0.0,1.0,-0.02409732491432169,13.288570029452945
2.5500000000000003,2.5500000000000003,1.0,16.134866759958047,0.023000386785866113,10.16322600533914,-0.0028529174911032648,-0.01157266110461708,-0.001230686137890335,19.068970009284538,0.01198249605146421,1.0,0.0,211.22057636739888,0.9094522488777318,909.7822542668409,105.02945819048787,0.2315198801374731,5.905569665245656,1.0,909.9204651726651,0.0,1.0,106.83853627705727,6401.015112008326,1.0,1.0,2.2360460980944152,13.92158594327572,0.028643417184441536,-45.98073269496393,1.0,910.5411060767359,0.0,1.0,0.10562736485976498,13.324979349797108
2.575,2.575,1.0,16.15954723914803,-0.003230411192177602,10.13567054159256,-0.001491060703802359,-0.02023144524450683,0.00017427816333300108,19.075187934526895,0.020287065129833744,1.0,0.0,211.22057636739888,0.9094522488777318,909.7822542668409,105.02945819048787,0.2315198801374731,5.905569665245656,1.0,909.9204651726651,0.0,1.0,107.5507214933076,6437.234145883439,1.0,1.0,2.2360460980944152,13.92158594327572,0.028643417184441536,-45.98073269496393,1.0,910.5411060767359,0.0,1.0,0.10562736485976498,13.324979349797108
2.6,2.6,1.0,16.084689956407043,-0.045155081611398966,10.23553075058546,-0.0017074973477875744,-0.01611914918493666,-0.0018777802672235715,19.065292542243288,0.016317738089910622,1.0,0.0,228.97009250867214,-1.2892588245801666,912.0440934592101,107.61568379124255,-0.006995555042271527,6.428250264883071,1.0,912.0334221886071,0.0,1.0,108.4031050351805,6515.064269346302,1.0,1.0,-2.3524162098922257,13.826211969744744,-0.01869441659544215,-45.93083096647984,1.0,911.1215350312443,0.0,1.0,-0.3215111095773704,12.660636856068514
2.625,2.625,1.0,16.121446298182647,0.027632015513170065,10.320620756393105,-0.0004952510932287822,-0.0172617738294688,0.0018830397917630173,19.142022021478308,0.017371239110738217,1.0,0.0,228.97009250867214,-1.2892588245801666,912.0440934592101,107.61568379124255,-0.006995555042271527,6.428250264883071,1.0,912.0334221886071,0.0,1.0,108.44007047158574,6534.403512527198,1.0,1.0,-2.3524162098922257,13.826211969744744,-0.01869441659544215,-45.93083096647984,1.0,911.1215350312443,0.0,1.0,-0.3215111095773704,12.660636856068514
2.6500000000000004,2.6500000000000004,1.0,16.04944398685275,-0.024981049355467393,10.360665553926706,-0.0013123678735658853,-0.013000313076670027,-0.0002961768117136205,19.10310621496604,0.01306974254646213,1.0,0.0,228.97009250867214,-1.2892588245801666,912.0440934592101,107.61568379124255,-0.006995555042271527,6.428250264883071,1.0,910.8140378333668,0.0,1.0,107.52162479548002,6589.029894644275,1.0,1.0,-1.0581171609019915,13.782868230585091,-0.07820662359489025,-45.88322797233009,1.0,911.1173856053725,0.0,1.0,0.4846772844908267,13.297888512941043
2.6750000000000003,2.6750000000000003,1.0,16.07596562978354,-0.005534070712834205,10.408566625032256,0.0010213870680117118,-0.017208970076570816,-0.0014603746253984732,19.15136968322777,0.01730099929730994,1.0,0.0,228.97009250867214,-1.2892588245801666,912.0440934592101,107.61568379124255,-0.006995555042271527,6.428250264883071,1.0,910.8140378333668,0.0,1.0,109.36326856222094,6696.690847806761,1.0,1.0,-1.0581171609019915,13.782868230585091,-0.07820662359489025,-45.88322797233009,1.0,911.1173856053725,0.0,1.0,0.4846772844908267,13.297888512941043
2.7,2.7,1.0,16.08471045582971,-0.047363321755342906,10.46420371260128,-0.0016046748749256815,-0.015748355262481757,-0.0025027949415269996,19.189051906515438,0.016026529800517882,1.0,0.0,228.97009250867214,-1.2892588245801666,912.0440934592101,107.61568379124255,-0.006995555042271527,6.428250264883071,1.0,910.6673022050469,0.0,1.0,109.49239759161549,6595.2942992311,1.0,1.0,0.8034034055504884,13.831875039992017,-0.03373762938658322,-45.94313834284781,1.0,911.4077323654842,0.0,1.0,0.05900824095621525,13.652442049498433
2.725,2.725,1.0,16.1162982949668,-0.027115290034011436,10.528290737463214,0.001719686868959467,-0.014044370176656665,0.0008283045487547271,19.250473028574053,0.014173487397663378,1.0,0.0,228.97009250867214,-1.2892588245801666,912.0440934592101,107.61568379124255,-0.006995555042271527,6.428250264883071,1.0,910.6673022050469,0.0,1.0,108.89650153381851,6719.03685457764,1.0,1.0,0.8034034055504884,13.831875039992017,-0.03373762938658322,-45.94313834284781,1.0,911.4077323654842,0.0,1.0,0.05900824095621525,13.652442049498433
2.75,2.75,1.0,15.995829562364351,-0.03195152890805964,10.599982236873943,0.0008978468364103028,-0.019536465865188726,0.0005543959269164206,19.18924718977928,0.019564942685505567,1.0,0.0,228.97009250867214,-1.2892588245801666,912.0440934592101,107.61568379124255,-0.006995555042271527,6.428250264883071,1.0,912.1092837060096,0.0,1.0,109.39598090346745,6800.940403694211,1.0,1.0,-0.773210730050424,13.723540192046574,-0.026211769996371564,-45.975103985551755,1.0,911.8951934272417,0.0,1.0,0.023994442396736537,13.748230609465425
2.7750000000000004,2.7750000000000004,1.0,16.034551828643025,-0.03183239977218365,10.587523390958063,-0.00034054959746163225,-0.019535682068817298,-0.004767543696362061,19.214669323233196,0.020111895008152827,1.0,0.0,228.97009250867214,-1.2892588245801666,912.0440934592101,107.61568379124255,-0.006995555042271527,6.428250264883071,1.0,912.1092837060096,0.0,1.0,109.89801005571603,6763.856372265133,1.0,1.0,-0.773210730050424,13.723540192046574,-0.026211769996371564,-45.975103985551755,1.0,911.8951934272417,0.0,1.0,0.023994442396736537,13.748230609465425
