time_s,x_m,y_m,altitude_m,vx_mps,vy_mps,vz_mps,speed_mps,mass_kg,roll_deg,pitch_deg,yaw_deg,p_dps,q_dps,r_dps,alpha_deg,beta_deg,qbar_pa,mach,airspeed_mps,load_factor_g,density_kgpm3,pressure_pa,temperature_k,wind_x_mps,wind_y_mps,wind_z_mps,thrust_n,mass_flow_kgps,propulsion_throttle_actual,propulsion_health,energy_j_per_kg,target_distance_m,guidance_mode,pitch_command_deg,heading_command_deg,roll_command_deg
0.0,0.0,0.0,900.0,70.0,0.0,4.0,70.11419257183242,18.0,0.0,18.000000000000004,0.0,0.0,0.0,0.0,14.72951207681644,0.0,2759.3556404685783,0.20816395637020318,70.1141925718324,1.4790299068951314,1.1226019692711875,90970.07887058289,282.29999999999995,0.0,0.0,0.0,273.59999999999997,0.14683913466882167,0.72,nominal,11283.984999999999,nan,fixed_pitch,26.0,0.0,0.0
0.025,1.7566489908610163,0.0,900.1000344673942,70.26595963444065,0.0,4.001378695766349,70.37979905353365,17.99632902163328,0.0,17.597888525492426,0.0,0.0,16.084525000226876,0.0,14.338632244457203,0.0,2780.273958365412,0.20895276340660923,70.37979905353365,1.496370955451231,1.1225909648889092,90968.97760007007,282.2993497759619,0.0,0.0,0.0,277.65,0.14901274028069567,0.72,nominal,11303.624060417558,nan,fixed_pitch,26.0,0.0,0.0
0.05,3.520191619805133,0.0,900.1999908120836,70.54170515776465,0.0,3.9982537875747504,70.65492339472782,17.992603703126264,0.0,16.9194824758874,0.0,0.0,27.136559020292346,0.0,13.67546922564409,0.0,2802.0259475092034,0.2097698299716331,70.65492339472782,1.5153726545082316,1.122579969183019,90967.87720038582,282.29870005972145,0.0,0.0,0.0,281.7,0.15118634589256968,0.72,nominal,11324.005339854746,nan,fixed_pitch,26.0,0.0,0.0
0.07500000000000001,5.290942347637728,0.0,900.2996771615408,70.8300291133038,0.0,3.9874539782872422,70.94217936756964,17.98882404447895,0.0,16.091319317393676,0.0,0.0,33.127103093295794,0.0,12.869191764542691,0.0,2824.8286060878195,0.21062291582226453,70.94217936756964,1.5363046317913078,1.1225690032600364,90966.77978376037,282.29805209844994,0.0,0.0,0.0,285.75,0.1533599515044437,0.72,nominal,11345.320235746434,nan,fixed_pitch,26.0,0.0,0.0
0.1,7.069250029685576,0.0,900.3988537615935,71.13230728191392,0.0,3.9670640021083425,71.24284340230567,17.984990045691337,0.0,15.237808270374112,0.0,0.0,34.141073231324675,0.0,12.045717114555803,0.0,2848.7957886086706,0.21151581013704132,71.24284340230567,1.5588606454431497,1.122558093492984,90965.68798944887,282.2974074505496,0.0,0.0,0.0,289.8,0.15553355711631772,0.72,nominal,11367.667787263854,nan,fixed_pitch,26.0,0.0,0.0
0.125,8.85546484340442,0.0,900.4972663122942,71.44859254875378,0.0,3.9365020280256475,71.55695232061301,17.98110170676343,0.0,14.478565154630989,0.0,0.0,30.370169039594128,0.0,11.325008964133323,0.0,2873.9440701132708,0.21244862173613643,71.55695232061301,1.5821144943404655,1.1225472678541675,90964.60461673017,282.2967677689701,0.0,0.0,0.0,293.84999999999997,0.15770716272819169,0.72,nominal,11391.060229388702,nan,fixed_pitch,26.0,0.0,0.0
0.15000000000000002,10.649909029896964,0.0,900.5946807464675,71.77776745970179,0.0,3.8965773669336037,71.88345579252241,17.977159027695222,0.0,13.925952164630063,0.0,0.0,22.104690956618246,0.0,10.81860408169769,0.0,2900.2029569079496,0.2134182317805842,71.88345579252243,1.6051489932274223,1.1225365520894464,90963.5322420479,282.29613457514796,0.0,0.0,0.0,297.9,0.1598807683400657,0.72,nominal,11415.432434280108,nan,fixed_pitch,26.0,0.0,0.0
0.17500000000000002,12.452849212232906,0.0,900.6909284472272,72.11760729343769,0.0,3.8499080303863247,72.22029544091419,17.97316200848672,0.0,13.670171827237782,0.0,0.0,10.231230487351404,0.0,10.614409079418866,0.0,2927.4192281241276,0.21441852872340958,72.22029544091417,1.6316298151345574,1.1225259647443748,90962.47272125883,282.295508965093,0.0,0.0,0.0,301.95,0.16205437395193972,0.72,nominal,11440.646230243465,nan,fixed_pitch,26.0,0.0,0.0
0.2,14.264450359295811,0.0,900.7860485254299,72.46404588251625,0.0,3.80480312810842,72.56386478480239,17.96911064913792,0.0,13.636756271264513,0.0,0.0,1.3366222768169396,0.0,10.63113940215226,0.0,2955.31080941773,0.21543880524574746,72.56386478480239,1.6576776587428226,1.1225155015139896,90961.42562346281,282.2948906845847,0.0,0.0,0.0,306.0,0.16422797956381371,0.72,nominal,11466.450739025448,nan,fixed_pitch,26.0,0.0,0.0
0.225,16.084817192716603,0.0,900.8801784696728,72.81467333683163,0.0,3.7651977697172523,72.911956271894,17.965004949648826,0.0,13.710941878886267,0.0,0.0,-2.967424719435121,0.0,10.750852072566529,0.0,2983.704759293944,0.21647250758697079,72.91195627189398,1.683016398288973,1.122505147272018,90960.38943483596,282.2942788399471,0.0,0.0,0.0,310.05,0.16640158517568773,0.72,nominal,11492.693285886908,nan,fixed_pitch,26.0,0.0,0.0
0.25,17.914028060916287,0.0,900.9734906065798,73.16843472798732,0.0,3.7324854762819095,73.263574089546,17.960844910019432,0.0,13.7801719925042,0.0,0.0,-2.769204881631074,0.0,10.859917473842026,0.0,3012.524427882586,0.2175166796582229,73.26357408954601,1.7067180828811948,1.1224948830605217,90959.36225811999,282.2936723110572,0.0,0.0,0.0,314.09999999999997,0.16857519078756172,0.72,nominal,11519.307325844213,nan,fixed_pitch,26.0,0.0,0.0
0.275,19.75217149045454,0.0,901.0661192628535,73.52573718153006,0.0,3.705146250945103,73.61903379444969,17.956630530249743,0.0,13.785139605398948,0.0,0.0,-0.19870451591434798,0.0,10.900301887631846,0.0,3041.800022131687,0.21857225867821298,73.61903379444968,1.7288932797187804,1.122484694102006,90958.34261442431,282.29307022479145,0.0,0.0,0.0,318.15,0.17074879639943571,0.72,nominal,11546.321126883224,nan,fixed_pitch,26.0,0.0,0.0
0.30000000000000004,21.59936264101535,0.0,901.1581366477682,73.8876460224324,0.0,3.680695396587841,73.9792656988344,17.952361810339756,0.0,13.724974035783804,0.0,0.0,2.4066230057510016,0.0,10.873155876781526,0.0,3071.613364944254,0.21964200690752264,73.9792656988344,1.7505102279878604,1.1224745724521163,90957.32970868483,282.2924721117895,0.0,0.0,0.0,322.2,0.17292240201130973,0.72,nominal,11573.808317426203,nan,fixed_pitch,26.0,0.0,0.0
0.325,23.4557390193732,0.0,901.2495715453297,74.25505513431408,0.0,3.657395902461114,74.34507218227286,17.948038750289474,0.0,13.629330630816987,0.0,0.0,3.8257370870526097,0.0,10.809534243334523,0.0,3102.037185237285,0.22072830668281465,74.34507218227286,1.7723488070063358,1.1224645149433368,90956.32322387623,282.2918777849553,0.0,0.0,0.0,326.25,0.17509600762318375,0.72,nominal,11601.833989688686,nan,fixed_pitch,26.0,0.0,0.0
0.35000000000000003,25.32144806970595,0.0,901.3404383463961,74.62836201330994,0.0,3.6346720426572925,74.71682044658563,17.943661350098893,0.0,13.53067056748667,0.0,0.0,3.9464035083320814,0.0,10.742361459988865,0.0,3133.1091299325367,0.22183224828367423,74.71682044658563,1.7947074607908935,1.122454519991423,90955.3230014185,282.2912871507484,0.0,0.0,0.0,330.3,0.17726961323505777,0.72,nominal,11630.431838533343,nan,fixed_pitch,26.0,0.0,0.0
0.375,27.196636016198802,0.0,901.4307590784101,75.00751785971401,0.0,3.612829280561688,75.0944756349347,17.939229609768017,0.0,13.448548939152763,0.0,0.0,3.2848656957056304,0.0,10.690958509118426,0.0,3164.833679932829,0.22295372831121815,75.0944756349347,1.817501309909109,1.1224445851721985,90954.32879867905,282.29070006599034,0.0,0.0,0.0,334.34999999999997,0.17944321884693173,0.72,nominal,11659.60608895919,nan,fixed_pitch,26.0,0.0,0.0
0.4,29.08144231298035,0.0,901.5205721213712,75.39225187126188,0.0,3.5925217184435922,75.47779709634668,17.934743529296842,0.0,13.387070059043143,0.0,0.0,2.459155440330054,0.0,10.65892828431701,0.0,3197.1979349723747,0.2240920324102188,75.47779709634669,1.8404965220481235,1.1224347062628823,90953.3401930372,282.29011628121106,0.0,0.0,0.0,338.4,0.18161682445880575,0.72,nominal,11689.345645852683,nan,fixed_pitch,26.0,0.0,0.0
0.42500000000000004,30.975999485498548,0.0,901.6099299949915,75.78228690072791,0.0,3.5743149448105695,75.86653237909937,17.930203108685372,0.0,13.340420959454827,0.0,0.0,1.8659640866100318,0.0,10.640033951146878,0.0,3230.187682664554,0.2252464112243428,75.86653237909937,1.8413203744274085,1.1224248774855428,90952.35660624888,282.28953545503254,0.0,0.0,0.0,338.37631578947367,0.18160411331487666,0.72,nominal,11719.63838759985,nan,fixed_pitch,26.0,0.0,0.0
0.45,32.88029771662446,0.0,901.6988595480213,76.17192924503662,0.0,3.5571821211939527,76.25494311553977,17.9256630058525,0.0,13.300222876287156,0.0,0.0,1.60792339266225,0.0,10.626487833772785,0.0,3263.3188252722402,0.22639982772413655,76.2549431155398,1.8420377997373427,1.122415095886019,90951.37774265477,282.28895741293786,0.0,0.0,0.0,338.35263157894735,0.18159140217094757,0.72,nominal,11750.053295763706,nan,fixed_pitch,26.0,0.0,0.0
0.47500000000000003,34.79432605594899,0.0,901.7873881305894,76.5611335729812,0.0,3.541143302722525,76.64298317439298,17.921123220798226,0.0,13.260526063411868,0.0,0.0,1.5878725785298957,0.0,10.612340755291823,0.0,3296.5869615472766,0.2275521449980029,76.642983174393,1.8426431680494466,1.1224053584550813,90950.40330108746,282.2883819771511,0.0,0.0,0.0,338.32894736842104,0.18157869102701849,0.72,nominal,11780.586724745986,nan,fixed_pitch,26.0,0.0,0.0
0.5,36.71807427705431,0.0,901.8755403735482,76.94992884421272,0.0,3.52608971835097,77.03067478499239,17.91658375352255,0.0,13.219325837249777,0.0,0.0,1.6480091174958147,0.0,10.595686869894545,0.0,3329.99352139775,0.22870342909018232,77.03067478499239,1.8431841419017665,1.1223956624826859,90949.4330103219,282.2878089875719,0.0,0.0,0.0,338.30526315789473,0.18156597988308942,0.72,nominal,11811.240196919887,nan,fixed_pitch,26.0,0.0,0.0
0.525,38.65153324711781,0.0,901.963338175768,77.33835880253984,0.0,3.51191208878652,77.4180551860466,17.91204460402547,0.0,13.17752757232863,0.0,0.0,1.671930670995287,0.0,10.577529224123829,0.0,3363.5412786180696,0.22985379060204258,77.4180551860466,1.8437167351161272,1.122386005559351,90948.4666292131,282.2872383018575,0.0,0.0,0.0,338.2815789473684,0.18155326873916033,0.72,nominal,11842.016404716273,nan,fixed_pitch,26.0,0.0,0.0
0.55,40.59469435523183,0.0,902.0508023668015,77.72644432456084,0.0,3.498567641342137,77.80514200796823,17.907505772306994,0.0,13.137043533203217,0.0,0.0,1.619361632389485,0.0,10.559826056441034,0.0,3397.2313597949365,0.23100328191675448,77.80514200796823,1.844276402405527,1.1223763853932756,90947.5039283945,282.28666978461575,0.0,0.0,0.0,338.25789473684205,0.18154055759523122,0.72,nominal,11872.916562470446,nan,fixed_pitch,26.0,0.0,0.0
0.5750000000000001,42.54754873137029,0.0,902.1379544451893,78.11417504553836,0.0,3.4860831355142436,78.19192489427999,17.902967258367113,0.0,13.099325255309914,0.0,0.0,1.5087311702187458,0.0,10.544022004089678,0.0,3431.062465814688,0.23215187232751874,78.19192489428,1.8448716623635752,1.122366799619143,90946.54467114469,282.28610329610626,0.0,0.0,0.0,338.2342105263158,0.18152784645130216,0.72,nominal,11903.939730296277,nan,fixed_pitch,26.0,0.0,0.0
0.6000000000000001,44.51008674325353,0.0,902.2248175059026,78.50152047532951,0.0,3.474522428530455,78.57837503438806,17.89842906220583,0.0,13.064823128397279,0.0,0.0,1.3800851182086007,0.0,10.530533013057864,0.0,3465.031651603637,0.23329947634251963,78.57837503438806,1.8454931994182942,1.1223572456961097,90945.58860317916,282.2855386862116,0.0,0.0,0.0,338.2105263157895,0.18151513530737307,0.72,nominal,11935.083518116728,nan,fixed_pitch,26.0,0.0,0.0
0.625,46.48229789544725,0.0,902.3114162744461,78.88844608774885,0.0,3.4639507417376807,78.9644596060838,17.893891183823147,0.0,13.033194561844999,0.0,0.0,1.2651426942183985,0.0,10.51898161406599,0.0,3499.135566181994,0.23444599656473086,78.9644596060838,1.8461271692412276,1.1223477209040633,90944.63545227604,282.28497579421605,0.0,0.0,0.0,338.1868421052631,0.18150242416344395,0.72,nominal,11966.345190848217,nan,fixed_pitch,26.0,0.0,0.0
0.65,48.46417100107907,0.0,902.3977766372683,79.27492422527283,0.0,3.4544145128885684,79.35015179915918,17.889353623219062,0.0,13.003805362743158,0.0,0.0,1.175567989848483,0.0,10.508713188116495,0.0,3533.371336922128,0.23559135345089846,79.35015179915918,1.8467645582041465,1.1223382223952787,90943.6849334454,282.28441445185774,0.0,0.0,0.0,338.16315789473686,0.1814897130195149,0.72,nominal,11997.722451534668,nan,fixed_pitch,26.0,0.0,0.0
0.675,50.4556944233688,0.0,902.4839251230447,79.66093689158899,0.0,3.445939431059414,79.73543356004438,17.884816380393573,0.0,12.97613902340377,0.0,0.0,1.1066535950781071,0.0,10.499206389887581,0.0,3567.73682844052,0.23673549345915587,79.7354335600444,1.8474039479639763,1.1223287472514654,90942.73675463817,282.2838544867002,0.0,0.0,0.0,338.1394736842105,0.18147700187558577,0.72,nominal,12029.213666812033,nan,fixed_pitch,26.0,0.0,0.0
0.7000000000000001,52.45685624425554,0.0,902.5698886014125,80.0464728354698,0.0,3.4385391347100027,80.1202930897069,17.880279455346685,0.0,12.949954038362966,0.0,0.0,1.0473994198621779,0.0,10.490223772791234,0.0,3602.23043670082,0.2378783816195911,80.1202930897069,1.8480493069966242,1.1223192925169123,90941.79062006294,282.2832957240908,0.0,0.0,0.0,338.1157894736842,0.18146429073165668,0.72,nominal,12060.81768044331,nan,fixed_pitch,26.0,0.0,0.0
0.7250000000000001,54.467644320306455,0.0,902.6556942327024,80.43152304203657,0.0,3.4322252516013925,80.50472078728917,17.875742848078392,0.0,12.925229478841786,0.0,0.0,0.9889823961939783,0.0,10.481749866566151,0.0,3636.850736079669,0.2390199894908068,80.50472078728917,1.8487060966049975,1.1223098552040114,90940.8462307388,282.2827379874874,0.0,0.0,0.0,338.0921052631579,0.18145157958772765,0.72,nominal,12092.533498366825,nan,fixed_pitch,26.0,0.0,0.0
0.75,56.48804626120612,0.0,902.7413695604222,80.81607763598669,0.0,3.427013108788281,80.8887064015344,17.8712065585887,0.0,12.90202666035398,0.0,0.0,0.9281127521962249,0.0,10.473848674615986,0.0,3671.596225512866,0.2401602867027464,80.88870640153442,1.8493783641840462,1.122300432283091,90939.90328347788,282.28218109785723,0.0,0.0,0.0,338.06842105263155,0.18143886844379853,0.72,nominal,12124.36006345653,nan,fixed_pitch,26.0,0.0,0.0
0.775,58.51804938849655,0.0,902.8269426170372,81.20012509161707,0.0,3.4229222645977435,81.27223825959108,17.866670586877603,0.0,12.88037746363632,0.0,0.0,0.8659678790092619,0.0,10.466551661960267,0.0,3706.465256755651,0.2412992386673017,81.27223825959106,1.8500678370948056,1.1222910206707803,90938.96146972114,282.28162487298925,0.0,0.0,0.0,338.04473684210524,0.18142615729986944,0.72,nominal,12156.296192677237,nan,fixed_pitch,26.0,0.0,0.0
0.8,60.55764071470872,0.0,902.912441968446,81.58365304848664,0.0,3.4199740563535577,81.65530397519792,17.862134932945107,0.0,12.860244324373351,0.0,0.0,0.8053255788053332,0.0,10.459819561107803,0.0,3741.456096254543,0.24243680868106599,81.65530397519794,1.850774581191813,1.122281617225118,90938.0204750488,282.28106912720506,0.0,0.0,0.0,338.0210526315789,0.18141344615594035,0.72,nominal,12188.340632670846,nan,fixed_pitch,26.0,0.0,0.0
0.8250000000000001,62.60680695292396,0.0,902.997896690408,81.96664952860968,0.0,3.418188878477946,82.03789155112946,17.857599596791207,0.0,12.841538584839595,0.0,0.0,0.7482295879961115,0.0,10.453562687695689,0.0,3776.5670251764213,0.2435729611984805,82.03789155112946,1.8514981874261036,1.1222722187481506,90937.07997944065,282.2805136715123,0.0,0.0,0.0,337.9973684210526,0.18140073501201126,0.72,nominal,12220.492148656427,nan,fixed_pitch,26.0,0.0,0.0
0.8500000000000001,64.66553454551757,0.0,903.0833363099217,82.34910370374477,0.0,3.41758478054809,82.41999009064696,17.853064578415907,0.0,12.824159556731187,0.0,0.0,0.6951611296660822,0.0,10.447680981751278,0.0,3811.7964061242924,0.24470766394402685,82.41999009064698,1.8522386380079858,1.1222628219923776,90936.13965792069,282.2799583139855,0.0,0.0,0.0,337.9736842105263,0.18138802386808217,0.72,nominal,12252.749583294864,nan,fixed_pitch,26.0,0.0,0.0
0.875,66.73380969545718,0.0,903.1687907482974,82.73100599758455,0.0,3.4181775350251504,82.80158990643429,17.848529877819203,0.0,12.808023391375176,0.0,0.0,0.6454466185064953,0.0,10.442092793761542,0.0,3847.1426956884143,0.24584088823554037,82.80158990643429,1.8529965448691272,1.1222534236670143,90935.1991811843,282.27940286013603,0.0,0.0,0.0,337.95,0.18137531272415308,0.72,nominal,12285.11186730845,nan,fixed_pitch,26.0,0.0,0.0
0.9,68.81161838956945,0.0,903.2542902850101,83.11234776449031,0.0,3.419981468511982,83.18268223717328,17.8439954950011,0.0,12.793070874423655,0.0,0.0,0.598100681455473,0.0,10.436742060339643,0.0,3882.6044206344945,0.24697260814264724,83.18268223717328,1.853772917685017,1.1222440204419728,90934.25821599629,282.27884711314744,0.0,0.0,0.0,337.9263157894737,0.18136260158022402,0.72,nominal,12317.577997908766,nan,fixed_pitch,26.0,0.0,0.0
0.925,70.89894641214828,0.0,903.3398655416831,83.4931209031534,0.0,3.4230102669188183,83.56325889669468,17.839461429961595,0.0,12.779259805196306,0.0,0.0,0.5524427717688631,0.0,10.43159009803016,0.0,3918.1801470276355,0.2481027994450649,83.56325889669469,1.8545687982086816,1.1222346089496171,90933.31642536687,282.278290873979,0.0,0.0,0.0,337.90263157894736,0.18134989043629493,0.72,nominal,12350.147011132358,nan,fixed_pitch,26.0,0.0,0.0
0.9500000000000001,72.99577935296186,0.0,903.4255474753533,83.87331763254349,0.0,3.4272773468027915,83.94331206654547,17.834927682700688,0.0,12.766553387861057,0.0,0.0,0.5082566954931553,0.0,10.42660372568447,0.0,3953.8684619600076,0.2492314390167308,83.94331206654547,1.8553850199593256,1.1222251857855141,90932.37346862652,282.2777339414102,0.0,0.0,0.0,337.87894736842105,0.18133717929236584,0.72,nominal,12382.817965499893,nan,fixed_pitch,26.0,0.0,0.0
0.9750000000000001,75.10210261452991,0.0,903.5113673706861,84.25293046272218,0.0,3.432795813316589,84.32283426600544,17.83039425321838,0.0,12.75491287874229,0.0,0.0,0.46562036635217374,0.0,10.421747936505573,0.0,3989.6679715373193,0.25035850473677984,84.32283426600544,1.8562255988287748,1.1222157475092827,90931.4290015114,282.2771761120905,0.0,0.0,0.0,337.85526315789474,0.18132446814843675,0.72,nominal,12415.589940151849,nan,fixed_pitch,26.0,0.0,0.0
1.0,77.21790116120762,0.0,903.5973572561126,84.63194186710818,0.0,3.4395954170589498,84.70180872230905,17.825861141514668,0.0,12.744211109065978,0.0,0.0,0.4280707882969903,0.0,10.416887672790972,0.0,4025.5763861308988,0.25148394689947134,84.70180872230907,1.8570948029445578,1.122206290598838,90930.4826715843,282.27661717783525,0.0,0.0,0.0,337.8315789473684,0.18131175700450766,0.72,nominal,12448.461223950972,nan,fixed_pitch,26.0,0.0,0.0
1.0250000000000001,79.34315926340741,0.0,903.6835503190359,85.0103240879917,0.0,3.4477225169360746,85.08020916816773,17.821328347589557,0.0,12.734190844056824,0.0,0.0,0.40081060138778674,0.0,10.411746465374721,0.0,4061.5904812170124,0.2526076876141351,85.08020916816771,1.8579835847784165,1.1221968114047236,90929.5341136653,282.2760569229263,0.0,0.0,0.0,337.80789473684206,0.18129904586057854,0.72,nominal,12481.42928478576,nan,fixed_pitch,26.0,0.0,0.0
1.05,81.4778611552812,0.0,903.7699798079062,85.38807567495147,0.0,3.4571795548105277,85.45803389936746,17.81679587144304,0.0,12.724765122314839,0.0,0.0,0.3770288705297824,0.0,10.406248560980123,0.0,4097.709343931699,0.2537297219208196,85.45803389936746,1.8588942597548495,1.1221873062708665,90928.58296191516,282.2754951312486,0.0,0.0,0.0,337.7842105263158,0.18128633471664948,0.72,nominal,12514.493651455921,nan,fixed_pitch,26.0,0.0,0.0
1.075,83.62199105504055,0.0,903.8566790266345,85.76519599037402,0.0,3.4679687491314906,85.83528208442156,17.812263713075126,0.0,12.715972516293462,0.0,0.0,0.3517042415452072,0.0,10.400443675651715,0.0,4133.932143220658,0.25485004745258705,85.83528208442155,1.859830591091276,1.1221777715351904,90927.62884989692,282.27493158632683,0.0,0.0,0.0,337.7605263157895,0.1812736235727204,0.72,nominal,12547.653926632656,nan,fixed_pitch,26.0,0.0,0.0
1.1,85.7755331361418,0.0,903.9436814170263,86.14168324404991,0.0,3.480095615668285,86.21195194178371,17.807731872485807,0.0,12.70788082486745,0.0,0.0,0.32366765757855276,0.0,10.394408298536135,0.0,4170.25795530913,0.255968659023799,86.21195194178371,1.860795072067812,1.1221682035205527,90926.67140966898,282.2743660707893,0.0,0.0,0.0,337.7368421052631,0.18126091242879128,0.72,nominal,12580.909632174493,nan,fixed_pitch,26.0,0.0,0.0
1.125,87.93847149335815,0.0,904.0310206330105,86.51753428865366,0.0,3.4935686393699825,86.5880405207691,17.803200349675087,0.0,12.700520750287696,0.0,0.0,0.2944029835949812,0.0,10.388179634338504,0.0,4206.685740383263,0.2570855479798642,86.58804052076911,1.8617881918487844,1.1221585985265767,90925.71027096776,282.2737983658854,0.0,0.0,0.0,337.71315789473687,0.18124820128486224,0.72,nominal,12614.260189103888,nan,fixed_pitch,26.0,0.0,0.0
1.1500000000000001,90.11079012971912,0.0,904.118730561356,86.89274545443857,0.0,3.5083971338177875,86.96354444857015,17.798669144642965,0.0,12.693874647196283,0.0,0.0,0.265844123954572,0.0,10.381745831317637,0.0,4243.214413026296,0.25820070441522985,86.96354444857013,1.8628092165546737,1.1221489528273838,90924.74506098086,282.27322825135116,0.0,0.0,0.0,337.6894736842105,0.18123549014093313,0.72,nominal,12647.704980588738,nan,fixed_pitch,26.0,0.0,0.0
1.175,92.2924729652661,0.0,904.2068452974505,87.2673134218792,0.0,3.5245894437829053,87.33846072962199,17.79413825738944,0.0,12.687900608473326,0.0,0.0,0.23896154913491074,0.0,10.375071283756682,0.0,4279.842919697368,0.2593141195466852,87.33846072962199,1.863857331855657,1.1221392626742526,90923.7754046132,282.27265550556655,0.0,0.0,0.0,337.6657894736842,0.18122277899700404,0.72,nominal,12681.243420746105,nan,fixed_pitch,26.0,0.0,0.0
1.2000000000000002,94.48350385477195,0.0,904.2953991080225,87.64123558023391,0.0,3.5421524228782255,87.71278708271082,17.789607687914515,0.0,12.682560227020506,0.0,0.0,0.21361525826736064,0.0,10.368124733370722,0.0,4316.570272733575,0.26042578671415983,87.7127870827108,1.8649322963460164,1.122129524299722,90922.8009248977,282.27207990579785,0.0,0.0,0.0,337.64210526315793,0.18121006785307497,0.72,nominal,12714.874984571168,nan,fixed_pitch,26.0,0.0,0.0
1.225,96.68386660209738,0.0,904.3844264056198,88.01450989301732,0.0,3.5610919038939377,88.08652182516927,17.785077436218188,0.0,12.677831207406243,0.0,0.0,0.1891607846780303,0.0,10.360891553969331,0.0,4353.39554042314,0.2615357010368299,88.08652182516927,1.8660344327356682,1.122119733920398,90921.82124327616,282.27150122836343,0.0,0.0,0.0,337.61842105263156,0.18119735670914586,0.72,nominal,12748.599198838681,nan,fixed_pitch,26.0,0.0,0.0
1.25,98.89354496670376,0.0,904.473961740725,88.38713458425478,0.0,3.5814134042065784,88.45966358734923,17.78054750230046,0.0,12.67370428494584,0.0,0.0,0.16507689848749105,0.0,10.353370195164453,0.0,4390.3178199271815,0.2626438585653511,88.45966358734923,1.867164265030633,1.1221098877378293,90920.83597968688,282.2709192486853,0.0,0.0,0.0,337.59473684210525,0.18118464556521677,0.72,nominal,12782.41561789818,nan,fixed_pitch,26.0,0.0,0.0
1.2750000000000001,101.11252266476387,0.0,904.5640398037549,88.75910792240484,0.0,3.603122521195037,88.83221111220779,17.77601788616133,0.0,12.67017390756876,0.0,0.0,0.14121509512770114,0.0,10.345562603219316,0.0,4427.336217960613,0.26375025568682625,88.83221111220779,1.8683221885819692,1.1220999819382784,90919.84475254186,282.2703337412756,0.0,0.0,0.0,337.57105263157894,0.18117193442128768,0.72,nominal,12816.323806483419,nan,fixed_pitch,26.0,0.0,0.0
1.3,103.34078336944265,0.0,904.6546954268495,89.13042818715087,0.0,3.6262249237827144,89.20416322135824,17.7714885878008,0.0,12.667231532654684,0.0,0.0,0.11769499658905455,0.0,10.337467527345446,0.0,4464.449847631555,0.26485488902401566,89.20416322135824,1.869508364623384,1.1220900126925368,90918.84717870844,282.26974447972543,0.0,0.0,0.0,337.5473684210526,0.18115922327735862,0.72,nominal,12850.323336919075,nan,fixed_pitch,26.0,0.0,0.0
1.3250000000000002,105.57831071316289,0.0,904.7459635804707,89.50109374881,0.0,3.6507261448516646,89.57551888556371,17.766959607218865,0.0,12.664864513190476,0.0,0.0,0.09468077858173055,0.0,10.329079545265278,0.0,4501.657835694796,0.2659577556446322,89.57551888556371,1.870722803331798,1.1220799761562972,90917.84287354651,282.26915123672694,0.0,0.0,0.0,337.5236842105263,0.18114651213342953,0.72,nominal,12884.413795555414,nan,fixed_pitch,26.0,0.0,0.0
1.35,107.82508829195976,0.0,904.8378793656835,89.87110315187445,0.0,3.67663140851313,89.94627730066945,17.76243094441553,0.0,12.663058562735754,0.0,0.0,0.07223801819488467,0.0,10.320391642080455,0.0,4538.959330530969,0.26705885328677137,89.94627730066945,1.871965496305663,1.1220698684710013,90916.83145099343,282.268553784123,0.0,0.0,0.0,337.5,0.18113380098950044,0.72,nominal,12918.594789805942,nan,fixed_pitch,26.0,0.0,0.0
1.375,110.08109967053859,0.0,904.9304780054966,90.24045514315357,0.0,3.70394559252245,90.31643791357074,17.757902599390793,0.0,12.661800448240774,0.0,0.0,0.050324579801142605,0.0,10.311397927140801,0.0,4576.35350525029,0.26815818043598993,90.31643791357074,1.8732364908731258,1.1220596857648018,90915.81252366038,282.2679518929643,0.0,0.0,0.0,337.4763157894737,0.18112108984557135,0.72,nominal,12952.865950830543,nan,fixed_pitch,26.0,0.0,0.0
1.4000000000000001,112.34632838677199,0.0,905.0237948377642,90.60914864933586,0.0,3.732673290701902,90.6860004016748,17.753374572144654,0.0,12.661079017278968,0.0,0.0,0.028857238472530335,0.0,10.302094620342483,0.0,4613.839556125728,0.26925573626430926,90.6860004016748,1.8745358850850133,1.1220494241533356,90914.78570290988,282.2673453335545,0.0,0.0,0.0,337.4526315789474,0.18110837870164226,0.72,nominal,12987.22693207204,nan,fixed_pitch,26.0,0.0,0.0
1.425,114.62075795526667,0.0,905.1178653100473,90.97718273978717,0.0,3.762818891324737,91.05496463827515,17.748846862677112,0.0,12.660884666462369,0.0,0.0,0.007774032664025093,0.0,10.292479470213191,0.0,4651.416699532803,0.27035152052739536,91.05496463827517,1.8758637835540455,1.1220390797403033,90913.75059891368,282.26673387548465,0.0,0.0,0.0,337.42894736842106,0.18109566755771317,0.72,nominal,13021.677406481544,nan,fixed_pitch,26.0,0.0,0.0
1.4500000000000002,116.90437187034958,0.0,905.2127249754628,91.34455660331655,0.0,3.7943866166246196,91.4233306703104,17.74431947098817,0.0,12.661208338990534,0.0,0.0,-0.012946901126526583,0.0,10.282550727062485,0.0,4689.084170071338,0.2714455334985127,91.4233306703104,1.877220261744878,1.1220286486179185,90912.70682069796,282.2661172876595,0.0,0.0,0.0,337.4052631578947,0.18108295641378405,0.72,nominal,13056.217064807082,nan,fixed_pitch,26.0,0.0,0.0
1.475,119.19715360897081,0.0,905.308409488471,91.7112695448491,0.0,3.827380520327631,91.79109871428356,17.739792397077824,0.0,12.662040932948237,0.0,0.0,-0.033303758308717527,0.0,10.272306554171449,0.0,4726.841220500848,0.27253777595639694,91.79109871428356,1.8786053589690068,1.1220181268673757,90911.65397619011,282.2654953383249,0.0,0.0,0.0,337.38157894736844,0.181070245269855,0.72,nominal,13090.84561549779,nan,fixed_pitch,26.0,0.0,0.0
1.5,121.49908663376831,0.0,905.4049546002094,92.07732099190048,0.0,3.8618044695330833,92.15826916129872,17.73526564094608,0.0,12.663373303566031,0.0,0.0,-0.05329482471415482,0.0,10.261745042866979,0.0,4764.687122607176,0.2736282492001969,92.15826916129873,1.8800190918321011,1.1220075105593699,90910.59167227088,282.2648677950986,0.0,0.0,0.0,337.35789473684207,0.18105753412592587,0.72,nominal,13125.562785433334,nan,fixed_pitch,26.0,0.0,0.0
1.5250000000000001,123.8101543962449,0.0,905.502396153587,92.4427104990634,0.0,3.8976621351033014,92.52484258042844,17.73073920259293,0.0,12.66519655255264,0.0,0.0,-0.07292995947056273,0.0,10.250864509067094,0.0,4802.621167906699,0.2747169550594587,92.52484258042844,1.8814614698135084,1.121996795754635,90909.51951482843,282.2642344250017,0.0,0.0,0.0,337.33421052631576,0.1810448229819968,0.72,nominal,13160.368320506106,nan,fixed_pitch,26.0,0.0,0.0
1.55,126.1303403398908,0.0,905.6007700785167,92.80743774583561,0.0,3.9349569971842886,92.8908197160346,17.72621308201838,0.0,12.667502249682085,0.0,0.0,-0.09222788519031226,0.0,10.239663712432444,0.0,4840.642667726961,0.275803895886158,92.8908197160346,1.882932501586629,1.1219859785044728,90908.43710881105,282.2635949944896,0.0,0.0,0.0,337.3105263157895,0.18103211183806775,0.72,nominal,13195.261985648905,nan,fixed_pitch,26.0,0.0,0.0
1.5750000000000002,128.45962790314266,0.0,905.7001123874844,93.1715025300748,0.0,3.9736923587067965,93.25620148104565,17.721687279222426,0.0,12.670282450429113,0.0,0.0,-0.11120802990291588,0.0,10.228141866625952,0.0,4878.750952855767,0.27688907453472605,93.25620148104565,1.8844321922817255,1.1219750548512444,90907.34405827678,282.26294926948134,0.0,0.0,0.0,337.28684210526313,0.18101940069413863,0.72,nominal,13230.243564481414,nan,fixed_pitch,26.0,0.0,0.0
1.6,130.79800052217885,0.0,905.8004591714198,93.53490476144717,0.0,4.0138713574140175,93.62098895016469,17.717161794205072,0.0,12.673529582180407,0.0,0.0,-0.12988527008646325,0.0,10.216298519232081,0.0,4916.945373164722,0.27797249434187177,93.6209889501647,1.885960538083703,1.1219640208288235,90906.23996643868,282.26229701538574,0.0,0.0,0.0,337.2631578947368,0.18100668955020954,0.72,nominal,13265.312858936832,nan,fixed_pitch,26.0,0.0,0.0
1.625,133.1454416336108,0.0,905.9018465957286,93.89764445727815,0.0,4.055496972350697,93.98518335524044,17.71263662696632,0.0,12.677236329936246,0.0,0.0,-0.14826991028543546,0.0,10.204133434757573,0.0,4955.225297442592,0.27905415911282544,93.98518335524044,1.8875175234753285,1.1219528724630397,90905.12443570928,282.26163799712776,0.0,0.0,0.0,337.2394736842105,0.18099397840628045,0.72,nominal,13300.469689077083,nan,fixed_pitch,26.0,0.0,0.0
1.6500000000000001,135.50193467712276,0.0,906.0043108963898,94.25972174047827,0.0,4.0985720264521195,94.34878608253743,17.70811177750616,0.0,12.681395590558205,0.0,0.0,-0.1663704249514045,0.0,10.191646548670146,0.0,4993.590113416822,0.2801340731132216,94.34878608253743,1.8891031221104162,1.1219416057721092,90903.99706774387,282.26097197917346,0.0,0.0,0.0,337.2157894736842,0.18098126726235136,0.72,nominal,13335.713893076285,nan,fixed_pitch,26.0,0.0,0.0
1.675,137.86746309807282,0.0,906.1078883761078,94.62113683800196,0.0,4.143099188717894,94.7117986705112,17.703587245824604,0.0,12.686000483147904,0.0,0.0,-0.18419570368707855,0.0,10.178837977847207,0.0,5032.039227820548,0.2812122410624809,94.71179867051119,1.8907172992494248,1.1219302167670615,90902.8574634832,282.2602987255553,0.0,0.0,0.0,337.1921052631579,0.18096855611842227,0.72,nominal,13371.04532724528,nan,fixed_pitch,26.0,0.0,0.0
1.7000000000000002,140.2420103500417,0.0,906.2126154005564,94.98189007875553,0.0,4.1890809779425755,95.07422280709191,17.699063031921643,0.0,12.691044369472833,0.0,0.0,-0.20175545312753074,0.0,10.16570804012706,0.0,5070.572066400319,0.28228866812573317,95.07422280709194,1.892360013512405,1.1219187014521577,90901.70522319552,282.25961799989636,0.0,0.0,0.0,337.1684210526316,0.1809558449744932,0.72,nominal,13406.463866004146,nan,fixed_pitch,26.0,0.0,0.0
1.725,142.6255598973139,0.0,906.3185283947506,95.34198189088828,0.0,4.236519767767651,95.43606032640469,17.69453913579728,0.0,12.696520854070247,0.0,0.0,-0.21905938406340852,0.0,10.152257252756751,0.0,5109.188073855355,0.28336335990406686,95.4360603264047,1.8940312172300984,1.1219070558252906,90900.53994651666,282.2589295654341,0.0,0.0,0.0,337.14473684210526,0.18094313383056412,0.72,nominal,13441.969401794957,nan,fixed_pitch,26.0,0.0,0.0
1.75,145.01809521728833,0.0,906.4256638395466,95.70141279897751,0.0,4.285417791841088,95.79731320538653,17.690015557451517,0.0,12.702423763943873,0.0,0.0,-0.2361163951538402,0.0,10.138486310409249,0.0,5147.88671375637,0.28443632242447364,95.79731320538653,1.8957308560257726,1.1218952758783745,90899.36123248926,282.2582331850429,0.0,0.0,0.0,337.12105263157895,0.18093042268663503,0.72,nominal,13477.561844977552,nan,fixed_pitch,26.0,0.0,0.0
1.7750000000000001,147.41959980282684,0.0,906.534058268253,96.0601834215407,0.0,4.335777148255822,96.15798356069756,17.68549229688435,0.0,12.708747123551749,0.0,0.0,-0.25293438457184053,0.0,10.124396058972568,0.0,5186.66746848651,0.28550756213066536,96.15798356069756,1.8974588685280007,1.1218833575977214,90898.16867960042,282.2575286212563,0.0,0.0,0.0,337.09736842105264,0.18091771154270594,0.72,nominal,13513.241123746053,nan,fixed_pitch,26.0,0.0,0.0
1.8,149.83005716455037,0.0,906.6437482633345,96.41829446894093,0.0,4.3875998032603345,96.51807364599117,17.680969354095783,0.0,12.715485137312541,0.0,0.0,-0.26952055074222214,0.0,10.109987477330915,0.0,5225.529839212338,0.286577085874957,96.51807364599117,1.8992151865926743,1.121871296964408,90896.9618858186,282.2568156362883,0.0,0.0,0.0,337.07368421052627,0.18090500039877683,0.72,nominal,13549.007184073114,nan,fixed_pitch,26.0,0.0,0.0
1.8250000000000002,152.249450833088,0.0,906.7547704532014,96.77574674150527,0.0,4.440887594676612,96.87758584938274,17.676446729085814,0.0,12.72263218087003,0.0,0.0,-0.2858817426702496,0.0,10.095261668102923,0.0,5264.473345868514,0.2876449009107403,96.87758584938274,1.9009997358480895,1.1218590899546306,90895.7404486292,282.25609399205416,0.0,0.0,0.0,337.05,0.18089228925484777,0.72,nominal,13584.859989667148,nan,fixed_pitch,26.0,0.0,0.0
1.85,154.6777643612799,0.0,906.8671615090857,97.13254112767724,0.0,4.495642235371403,97.23652269095376,17.671924421854442,0.0,12.730182795671947,0.0,0.0,-0.3020245925139757,0.0,10.080219851679065,0.0,5303.497527138987,0.2887110148850616,97.23652269095378,1.902812436212909,1.1218467325400576,90894.50396507006,282.25536345019094,0.0,0.0,0.0,337.0263157894737,0.18087957811091868,0.72,nominal,13620.799521927256,nan,fixed_pitch,26.0,0.0,0.0
1.875,157.11498132633383,0.0,906.9809581420063,97.48867860215682,0.0,4.551865316824011,97.5948868202486,17.66740243240167,0.0,12.73813168204706,0.0,0.0,-0.3179554555144536,0.0,10.064863358715295,0.0,5342.601940430065,0.28977543583117826,97.5948868202486,1.9046532022148022,1.1218342206881593,90893.25203176451,282.2546237720769,0.0,0.0,0.0,337.00263157894733,0.18086686696698956,0.72,nominal,13656.825779891873,nan,fixed_pitch,26.0,0.0,0.0
1.9000000000000001,159.56108533193589,0.0,907.0961970998226,97.84416022408192,0.0,4.609558312648622,97.95268101381157,17.662880760727493,0.0,12.74647368994324,0.0,0.0,-0.3336803164365852,0.0,10.049193620330547,0.0,5381.786161840822,0.2908381721612355,97.95268101381157,1.9065219431655958,1.1218215503625484,90891.98424495556,282.25387471885114,0.0,0.0,0.0,336.9789473684211,0.18085415582306053,0.72,nominal,13692.938780185736,nan,fixed_pitch,26.0,0.0,0.0
1.925,162.01606001031868,0.0,907.2129151643712,98.19898713531225,0.0,4.668722581947304,98.30990817282053,17.658359406831917,0.0,12.755203809166185,0.0,0.0,-0.3492047695934407,0.0,10.033212157919898,0.0,5421.049786136912,0.2918992326592289,98.30990817282054,1.9084185633286481,1.121808717523285,90890.70020053664,282.25311605143156,0.0,0.0,0.0,336.9552631578947,0.1808414446791314,0.72,nominal,13729.138556970884,nan,fixed_pitch,26.0,0.0,0.0
1.9500000000000002,164.4798890242894,0.0,907.3311491486833,98.55316055882905,0.0,4.72935937248055,98.66657132082987,17.65383837071494,0.0,12.764317160882706,0.0,0.0,-0.36453406942931754,0.0,10.01692057435188,0.0,5460.392426729833,0.2929586264742931,98.66657132082987,1.9103429621516663,1.121795718127198,90889.39949408386,282.25234753053354,0.0,0.0,0.0,336.9315789473684,0.18082873353520232,0.72,nominal,13765.425161903138,nan,fixed_pitch,26.0,0.0,0.0
1.975,166.95255606922004,0.0,907.4509358942762,98.90668179722499,0.0,4.791469823715106,99.0226736016004,17.64931765237656,0.0,12.773808990700633,0.0,0.0,-0.37967319358546914,0.0,10.00032054682345,0.0,5499.813715659272,0.29401636311424767,99.02267360160042,1.9122950345473257,1.121782548128183,90888.08172088588,282.2515689166872,0.0,0.0,0.0,336.9078947368421,0.18081602239127323,0.72,nominal,13801.798664092148,nan,fixed_pitch,26.0,0.0,0.0
2.0,169.43404487500143,0.0,907.5723122685213,99.25955223125538,0.0,4.855054969804205,99.37821827699034,17.64479725181678,0.0,12.783674662612098,0.0,0.0,-0.3946268774336026,0.0,9.983413820624376,0.0,5539.3133035760475,0.2950724524393249,99.37821827699034,1.913568470603478,1.1217692034774982,90886.7464759738,282.2507799702546,0.0,0.0,0.0,336.88421052631577,0.18080331124734414,0.72,nominal,13838.259150062662,nan,fixed_pitch,26.0,0.0,0.0
2.025,171.92433801310906,0.0,907.6953099688035,99.61172552430573,0.0,4.91990801128989,99.7331507412113,17.640277169035596,0.0,12.794490099997638,0.0,0.0,-0.4326174967062529,0.0,9.96690048982732,0.0,5578.884375566297,0.29612673247372706,99.7331507412113,1.9148835308045464,1.1217556806950106,90885.39341127904,282.24998048520274,0.0,0.0,0.0,336.86052631578946,0.18079060010341505,0.72,nominal,13874.800889890153,nan,fixed_pitch,26.0,0.0,0.0
2.0500000000000003,174.42341771824852,0.0,907.8199612973112,99.96318820557774,0.0,4.9860531403114905,100.08746036413235,17.63575740403301,0.0,12.806310780133677,0.0,0.0,-0.4728272071186135,0.0,9.950827227811622,0.0,5618.524967620888,0.29717917181644876,100.08746036413234,1.9162468351846131,1.1217419762342924,90884.02217210553,282.2491702515675,0.0,0.0,0.0,336.83684210526314,0.18077788895948596,0.72,nominal,13911.42248452716,nan,fixed_pitch,26.0,0.0,0.0
2.075,176.93126591771508,0.0,907.9462991800699,100.31392797866279,0.0,5.053515310345292,100.44113780468757,17.631237956809024,0.0,12.81885036422168,0.0,0.0,-0.5015833655222923,0.0,9.934898582624557,0.0,5658.233244535418,0.29822974289729687,100.44113780468757,1.9176254685305758,1.1217280864805244,90882.63239692031,282.2483490553295,0.0,0.0,0.0,336.81315789473683,0.18076517781555687,0.72,nominal,13948.122656604352,nan,fixed_pitch,26.0,0.0,0.0
2.1,179.44786439609246,0.0,908.0743566720931,100.6639391350949,0.0,5.12229968093048,100.79417937666516,17.626718827363636,0.0,12.831872417406538,0.0,0.0,-0.5208821296362937,0.0,9.918880528847854,0.0,5698.0079964004435,0.29927843493815426,100.79417937666517,1.9190005557664662,1.1217140078049155,90881.22372279884,282.2475166816314,0.0,0.0,0.0,336.7894736842105,0.1807524666716278,0.72,nominal,13984.900687966057,nan,fixed_pitch,26.0,0.0,0.0
2.125,181.97319490644597,0.0,908.2041666591796,101.01322041414055,0.0,5.19239948345774,101.1465852653047,17.622200015696844,0.0,12.845350156926811,0.0,0.0,-0.5391095832968906,0.0,9.902755510071243,0.0,5737.84844763284,0.3003252486567764,101.14658526530471,1.9203762794018566,1.1216997365974897,90879.79578870552,282.2466729167153,0.0,0.0,0.0,336.7657894736842,0.18073975552769872,0.72,nominal,14021.756246384019,nan,fixed_pitch,26.0,0.0,0.0
2.15,184.50723916351384,0.0,908.3357619053662,101.36177028271452,0.0,5.263809847466503,101.49835549877679,17.617681521808652,0.0,12.859368158137446,0.0,0.0,-0.56072005122229,0.0,9.886616099808675,0.0,5777.753805944376,0.3013701843054899,101.49835549877679,1.9217645967253458,1.1216852692618746,90878.34823497263,282.2458175476151,0.0,0.0,0.0,336.7421052631579,0.18072704438376963,0.72,nominal,14058.688983967295,nan,fixed_pitch,26.0,0.0,0.0
2.1750000000000003,187.04997878739917,0.0,908.4691752244529,101.70958495541251,0.0,5.336532763468994,101.84948823503166,17.613163345699057,0.0,12.873976072429823,0.0,0.0,-0.5843165748601431,0.0,9.870515894526678,0.0,5817.723066222744,0.3024132365850544,101.84948823503166,1.9231703903052284,1.1216706021964427,90876.88070141332,282.24495036104105,0.0,0.0,0.0,336.7184210526316,0.18071433323984054,0.72,nominal,14095.698364083806,nan,fixed_pitch,26.0,0.0,0.0
2.2,189.60139527637136,0.0,908.6044395527744,102.0566595588879,0.0,5.410573132859818,102.19998073358316,17.60864548736806,0.0,12.889145648990725,0.0,0.0,-0.6067830659805977,0.0,9.854428848479825,0.0,5857.755118224424,0.3034543975303111,102.19998073358316,1.9245899197916052,1.121655731786324,90875.3928265227,282.24407114290693,0.0,0.0,0.0,336.69473684210527,0.18070162209591145,0.72,nominal,14132.783758112599,nan,fixed_pitch,26.0,0.0,0.0
2.225,192.1614700236372,0.0,908.7415878953103,102.40298989063349,0.0,5.485933701437878,102.54983084880129,17.604127946815662,0.0,12.904818924407293,0.0,0.0,-0.626931020572261,0.0,9.838300370918686,0.0,5897.848916625114,0.3044936609438959,102.54983084880129,1.9260177032720804,1.1216406544093314,90873.88424807086,282.24317967868046,0.0,0.0,0.0,336.6710526315789,0.18068891095198233,0.72,nominal,14169.944596492423,nan,fixed_pitch,26.0,0.0,0.0
2.25,194.73018434639465,0.0,908.8806532438757,102.74857291029775,0.0,5.562613942614561,102.89903745408576,17.599610724041863,0.0,12.920960478035541,0.0,0.0,-0.6456621494003184,0.0,9.822100198246533,0.0,5938.003531201805,0.3055310236554299,102.89903745408576,1.9274517193147207,1.1216253664449607,90872.35460400349,282.2422757539148,0.0,0.0,0.0,336.64736842105265,0.18067619980805327,0.72,nominal,14207.180412622725,nan,fixed_pitch,26.0,0.0,0.0
2.275,197.30751949938613,0.0,909.0216685443334,103.09340611965962,0.0,5.640612018306416,103.2475999202603,17.59509381904666,0.0,12.937564860994966,0.0,0.0,-0.6641753230253572,0.0,9.805828689221443,0.0,5978.218088447806,0.30656648397264896,103.2475999202603,1.9288930356249603,1.1216098642780015,90870.80353280331,282.2413591544618,0.0,0.0,0.0,336.6236842105263,0.18066348866412416,0.72,nominal,14244.490790477354,nan,fixed_pitch,26.0,0.0,0.0
2.3000000000000003,199.89345667220448,0.0,909.1646667092423,103.43748691273343,0.0,5.7199265963589205,103.59551756272873,17.590577231830057,0.0,12.954634130602646,0.0,0.0,-0.6827707893570812,0.0,9.789493326006946,0.0,6018.491708304453,0.30760004003992286,103.59551756272872,1.9303428219602095,1.1215941442971502,90869.23067335157,282.2404296663899,0.0,0.0,0.0,336.59999999999997,0.18065077752019507,0.72,nominal,14281.875308329008,nan,fixed_pitch,26.0,0.0,0.0
2.325,202.48797698445577,0.0,909.3096806334711,103.7808124900519,0.0,5.800556969152199,103.94278956352717,17.586060962392054,0.0,12.97216033569263,0.0,0.0,-0.7010482090656315,0.0,9.773091138169699,0.0,6058.823494962078,0.3086316896068542,103.94278956352717,1.9318007062284324,1.1215782028932981,90867.63566475685,282.23948707588244,0.0,0.0,0.0,336.5763157894737,0.18063806637626603,0.72,nominal,14319.333530708076,nan,fixed_pitch,26.0,0.0,0.0
2.35,205.09106148781333,0.0,909.4567431886417,104.12338013430266,0.0,5.882502206824522,104.28941520022916,17.581545010732647,0.0,12.990126519411637,0.0,0.0,-0.7186473546489028,0.0,9.75661018590862,0.0,6099.21256338459,0.3096614307079229,104.28941520022916,1.9332653519256058,1.1215620364601497,90866.01814641694,282.2385311692738,0.0,0.0,0.0,336.55263157894734,0.18062535523233691,0.72,nominal,14356.865031993788,nan,fixed_pitch,26.0,0.0,0.0
2.375,207.70269117306893,0.0,909.6058872039359,104.46518741022415,0.0,5.965760611772799,104.63539401335589,17.57702937685184,0.0,13.008516257306047,0.0,0.0,-0.7355895220911711,0.0,9.740039402382198,0.0,6139.6580591579395,0.31068926215949483,104.63539401335589,1.9347356728426366,1.1215456413963356,90864.37775823074,282.2375617331744,0.0,0.0,0.0,336.52894736842103,0.18061264408840783,0.72,nominal,14394.469413913595,nan,fixed_pitch,26.0,0.0,0.0
2.4000000000000004,210.32284697635026,0.0,909.7571454503061,104.80623213125327,0.0,6.050329854805502,104.98072577812603,17.57251406074963,0.0,13.027318661268275,0.0,0.0,-0.7520961652385432,0.0,9.723373517494558,0.0,6180.15915568638,0.3117151834758798,104.98072577812603,1.9362112494663297,1.1215290141071557,90862.7141407725,282.236578554573,0.0,0.0,0.0,336.5052631578947,0.18059993294447874,0.72,nominal,14432.146302881292,nan,fixed_pitch,26.0,0.0,0.0
2.4250000000000003,212.9515097820689,0.0,909.9105506341836,105.1465122287464,0.0,6.136207355095989,105.32541039357335,17.56799906242602,0.0,13.046526315146059,0.0,0.0,-0.7683061623067904,0.0,9.70661077942724,0.0,6220.715041554321,0.3127391945400647,105.32541039357335,1.9376919319884074,1.1215121510052757,90861.02693536188,282.2355814208778,0.0,0.0,0.0,336.4815789473684,0.18058722180054965,0.72,nominal,14469.89533866404,nan,fixed_pitch,26.0,0.0,0.0
2.45,215.58866042423745,0.0,910.0661353953309,105.48602568674146,0.0,6.223390445895368,105.66944782587794,17.563484381881004,0.0,13.066131474267216,0.0,0.0,-0.7842063724976606,0.0,9.689749062138464,0.0,6261.324914052386,0.31376129543543324,105.66944782587794,1.9391773895975428,1.1214950485109652,90859.31578408786,282.2345701199303,0.0,0.0,0.0,336.4578947368421,0.18057451065662056,0.72,nominal,14507.71616858759,nan,fixed_pitch,26.0,0.0,0.0
2.475,218.23427968838516,0.0,910.2239323025447,105.82477056590825,0.0,6.311876288551112,106.0128381263755,17.55897001911459,0.0,13.086124933760825,0.0,0.0,-0.7997383878595044,0.0,9.672784782002779,0.0,6301.987981451757,0.314781486499215,106.01283812637548,1.9406670603836,1.121477703052582,90857.58032985734,282.2335444400334,0.0,0.0,0.0,336.4342105263158,0.18056179951269147,0.72,nominal,14545.608449519295,nan,fixed_pitch,26.0,0.0,0.0
2.5,220.888348314502,0.0,910.3839738463806,106.16274504467327,0.0,6.40166175344026,106.35558146437712,17.55445597412677,0.0,13.106497304813459,0.0,0.0,-0.8148948506906036,0.0,9.655714239839012,0.0,6342.7034670875355,0.31579976841990226,106.35558146437712,1.9421603594180532,1.1214601110673694,90855.82021647514,282.2325041699985,0.0,0.0,0.0,336.41052631578947,0.1805490883687624,0.72,nominal,14583.571851433488,nan,fixed_pitch,26.0,0.0,0.0
2.5250000000000004,223.55084700010343,0.0,910.5462924316806,106.49994742405748,0.0,6.492743412001207,106.69767813003756,17.549942246917553,0.0,13.12724025821771,0.0,0.0,-0.8297181452324643,0.0,9.638534868308103,0.0,6383.470609932834,0.31681614224572996,106.69767813003754,1.9436568207416818,1.12144226900229,90854.03508872759,282.23144909919404,0.0,0.0,0.0,336.38684210526316,0.18053637722483332,0.72,nominal,14621.606057845687,nan,fixed_pitch,26.0,0.0,0.0
2.5500000000000003,226.22175640270086,0.0,910.7109203718456,106.83637610389746,0.0,6.585117606598941,107.03912851339072,17.54542883748693,0.0,13.148346510228533,0.0,0.0,-0.8442500899798174,0.0,9.621245179040654,0.0,6424.288662316394,0.31783060932239765,107.03912851339072,1.9451560657647178,1.1214241733146562,90852.22459244564,282.230379017583,0.0,0.0,0.0,336.36315789473684,0.18052366608090423,0.72,nominal,14659.710763717647,nan,fixed_pitch,26.0,0.0,0.0
2.575,228.9010571417682,0.0,910.8778898844561,107.17202956269357,0.0,6.678780504418731,107.37993308627578,17.54091574583491,0.0,13.169809145171484,0.0,0.0,-0.8585054077570725,0.0,9.603844055850344,0.0,6465.156887938373,0.31884317123937644,107.37993308627578,1.9466577109110192,1.1214058204726167,90850.38837455395,282.229293715751,0.0,0.0,0.0,336.3394736842105,0.1805109549369751,0.72,nominal,14697.885673641933,nan,fixed_pitch,26.0,0.0,0.0
2.6,231.5887298006358,0.0,911.0472330869922,107.50690635470369,0.0,6.773728101441583,107.720092398546,17.536402971961483,0.0,13.19162123392684,0.0,0.0,-0.8724835607514047,0.0,9.586330371426712,0.0,6506.074561569304,0.3198538298186265,107.720092398546,1.9481613339918278,1.1213872069556403,90848.52608311916,282.22819298493454,0.0,0.0,0.0,336.3157894736842,0.18049824379304605,0.72,nominal,14736.130501528194,nan,fixed_pitch,26.0,0.0,0.0
2.625,234.28475492850419,0.0,911.2189819921725,107.84100511473514,0.0,6.8699562072158455,108.05960708074684,17.531890515866657,0.0,13.213775953632513,0.0,0.0,-0.8861887992685936,0.0,9.568703115699869,0.0,6547.040969523674,0.3208625871225221,108.05960708074684,1.9496665042776244,1.1213683292550198,90846.6373674008,282.22707661705084,0.0,0.0,0.0,336.2921052631579,0.18048553264911696,0.72,nominal,14774.444970976234,nan,fixed_pitch,26.0,0.0,0.0
2.6500000000000004,236.98911304246366,0.0,911.3931685032879,108.17432455837847,0.0,6.9674604446178865,108.39847784313541,17.527378377550427,0.0,13.236266819284246,0.0,0.0,-0.8996346376211677,0.0,9.550961627890691,0.0,6588.055409694291,0.3218694454509123,108.39847784313541,1.9511728153851842,1.1213491838744056,90844.72187790458,282.2259444047286,0.0,0.0,0.0,336.26842105263154,0.18047282150518784,0.72,nominal,14812.828815257126,nan,fixed_pitch,26.0,0.0,0.0
2.6750000000000003,239.70178462936838,0.0,911.5698244099543,108.50686347618915,0.0,7.066236266656026,108.73670546975643,17.522866557012797,0.0,13.259087717257337,0.0,0.0,-0.9128359309915104,0.0,9.533105621310044,0.0,6629.117190980487,0.3228744073235046,108.73670546975642,1.9526798860792756,1.1213297673302671,90842.77926642884,282.2247961413353,0.0,0.0,0.0,336.2447368421053,0.18046011036125878,0.72,nominal,14851.281776758156,nan,fixed_pitch,26.0,0.0,0.0
2.7,242.42275014755384,0.0,911.7489813842947,108.83862072741861,0.0,7.166278973615662,109.07429081215501,17.518355054253767,0.0,13.282232782693931,0.0,0.0,-0.9258026300532983,0.0,9.515135051984414,0.0,6670.225632657582,0.3238774754611714,109.07429081215501,1.9541873430754861,1.121310076152321,90840.80918610762,282.2236316210021,0.0,0.0,0.0,336.2210526315789,0.18044739921732966,0.72,nominal,14889.803606379573,nan,fixed_pitch,26.0,0.0,0.0
2.725,245.1519900284769,0.0,911.9306709773189,109.16959523692177,0.0,7.267583720967032,109.41123478571383,17.513843869273334,0.0,13.30569630242573,0.0,0.0,-0.9385408023882492,0.0,9.497050017907101,0.0,6711.380064053245,0.32487865277504935,109.41123478571383,1.955694811617326,1.1212901068839365,90838.81129145126,282.2224506386474,0.0,0.0,0.0,336.1973684210526,0.1804346880734006,0.72,nominal,14928.394063207023,nan,fixed_pitch,26.0,0.0,0.0
2.75,247.8894846783301,0.0,912.1149246153674,109.49978599412776,0.0,7.370145521940635,109.74753836772085,17.5093330020715,0.0,13.329472712520603,0.0,0.0,-0.9510564174430437,0.0,9.478850755826334,0.0,6752.57982442797,0.3258779423607772,109.74753836772085,1.9572019194535255,1.1212698560825336,90836.7852383865,282.2212529900001,0.0,0.0,0.0,336.1736842105263,0.1804219769294715,0.72,nominal,14967.052914366472,nan,fixed_pitch,26.0,0.0,0.0
2.7750000000000004,250.63521447962023,0.0,912.3017735966611,109.82919205160611,0.0,7.4739592517474644,110.08320259515237,17.504822452648263,0.0,13.35355663041179,0.0,0.0,-0.9633567298318828,0.0,9.46053767176035,0.0,6793.824262815294,0.3268753474918894,110.08320259515237,1.9587083033789863,1.1212493203199614,90834.7306842944,282.2200384716217,0.0,0.0,0.0,336.15,0.18040926578554242,0.72,nominal,15005.779934844377,nan,fixed_pitch,26.0,0.0,0.0
2.8000000000000003,253.38915979268464,0.0,912.4912490880331,110.15781252257639,0.0,7.579019654883259,110.41822856162923,17.500312221003625,0.0,13.377942856526827,0.0,0.0,-0.9754490593270405,0.0,9.442111339405441,0.0,6835.112737754096,0.3278708716107536,110.41822856162925,1.9602136100104972,1.1212284961828682,90832.64728804772,282.2188068809278,0.0,0.0,0.0,336.12631578947367,0.18039655464161333,0.72,nominal,15044.574907213257,nan,fixed_pitch,26.0,0.0,0.0
2.825,256.1513009571425,0.0,912.6833821218488,110.48564657831399,0.0,7.685321352626247,110.75261741431324,17.495802307137584,0.0,13.402626345102078,0.0,0.0,-0.9873395582804946,0.0,9.423572467679891,0.0,6876.444617005917,0.3288645183193326,110.75261741431325,1.9617174924751755,1.1212073802730433,90830.53471004519,282.217558016208,0.0,0.0,0.0,336.10263157894735,0.18038384349768424,0.72,nominal,15083.437621345849,nan,fixed_pitch,26.0,0.0,0.0
2.85,258.9216182932982,0.0,912.8782035930648,110.81269344622882,0.0,7.792858848637996,111.08637035137426,17.491292711050143,0.0,13.427602177520482,0.0,0.0,-0.999033312555681,0.0,9.404921871845369,0.0,6917.819277335869,0.3298562913716402,111.08637035137424,1.9632196082150455,1.121185969207748,90828.39261224464,282.216291676645,0.0,0.0,0.0,336.07894736842104,0.18037113235375515,0.72,nominal,15122.367874187268,nan,fixed_pitch,26.0,0.0,0.0
2.875,261.70009210351,0.0,913.0757442563952,111.13895240847116,0.0,7.9016265332188365,111.41948861991283,17.486783432741298,0.0,13.452865553728888,0.0,0.0,-1.0105350647084979,0.0,9.386160463452555,0.0,6959.236104344212,0.3308461946675504,111.41948861991283,1.9647196194750003,1.1211642596200324,90826.22065819522,282.2150076623334,0.0,0.0,0.0,336.05526315789473,0.18035842120982606,0.72,nominal,15161.365469573419,nan,fixed_pitch,26.0,0.0,0.0
2.9000000000000004,264.48670267352446,0.0,913.2760347235849,111.46442280057894,0.0,8.01161868758789,111.7519735139453,17.482274472211053,0.0,13.47841179156136,0.0,0.0,-1.0218495302272141,0.0,9.36728924820427,0.0,7000.694492300587,0.3318342322467921,111.75197351394529,1.9662171944552576,1.1211422481590378,90824.01851306752,282.21370577429667,0.0,0.0,0.0,336.0315789473684,0.18034571006589697,0.72,nominal,15200.430218052807,nan,fixed_pitch,26.0,0.0,0.0
2.9250000000000003,267.2814302737747,0.0,913.4791054607987,111.78910401000823,0.0,8.122829488553936,112.08382637232083,17.477765829459404,0.0,13.50423632126752,0.0,0.0,-1.0329812057340555,0.0,9.348309318842022,0.0,7042.1938439647665,0.33282040828274223,112.08382637232081,1.967712007377329,1.1211199314902927,90821.78584368345,282.2123858145048,0.0,0.0,0.0,336.00789473684205,0.18033299892196789,0.72,nominal,15239.56193669742,nan,fixed_pitch,26.0,0.0,0.0
2.95,270.08425516064256,0.0,913.6849867861251,112.11299547471589,0.0,8.235253013057346,112.41504857670407,17.473257504486355,0.0,13.530334674764365,0.0,0.0,-1.0439341579236172,0.0,9.329221842848137,0.0,7083.733570410524,0.3338047270764142,112.41504857670405,1.969203737737451,1.1210973062959904,90819.52231854432,282.2110475858902,0.0,0.0,0.0,335.9842105263158,0.18032028777803882,0.72,nominal,15278.760448917521,nan,fixed_pitch,26.0,0.0,0.0
2.975,272.89515757769107,0.0,913.8937088671798,112.43609668194061,0.0,8.34888324218783,112.74564154973966,17.468749497291903,0.0,13.55670247586196,0.0,0.0,-1.0547120625184874,0.0,9.310028051417502,0.0,7125.313090867587,0.33478719305098587,112.74564154973966,1.9706920697892731,1.1210743692752603,90817.22760785795,282.2096908923633,0.0,0.0,0.0,335.9605263157895,0.18030757663410973,0.72,nominal,15318.025584293518,nan,fixed_pitch,26.0,0.0,0.0
3.0,275.71411775686977,0.0,914.1053017187998,112.75840716714742,0.0,8.463714064797472,113.07560675337035,17.46424180787605,0.0,13.583335434321603,0.0,0.0,-1.0653183575676684,0.0,9.290729232489982,0.0,7166.931832578562,0.3357678107467849,113.07560675337034,1.9721766925638635,1.1210511171444264,90814.90138356481,282.2083155388278,0.0,0.0,0.0,335.9368421052631,0.18029486549018062,0.72,nominal,15357.357178422095,nan,fixed_pitch,26.0,0.0,0.0
3.0250000000000004,278.54111591969564,0.0,914.3197952008244,113.07992651303586,0.0,8.579739280984462,113.40494568722855,17.459734436238797,0.0,13.610229341672996,0.0,0.0,-1.0757563138070336,0.0,9.271326725622817,0.0,7208.589230661099,0.3367465848164918,113.40494568722855,1.9736573000103232,1.1210275466372557,90812.54331936306,282.2069213311946,0.0,0.0,0.0,335.91315789473686,0.18028215434625156,0.72,nominal,15396.755072767792,nan,fixed_pitch,26.0,0.0,0.0
3.0500000000000003,281.3761322784101,0.0,914.5372190159624,113.40065434857932,0.0,8.696952605519979,113.73365988707398,17.45522738238014,0.0,13.637380066399432,0.0,0.0,-1.086029009379912,0.0,9.251821916272807,0.0,7250.284727971974,0.3377235200204799,113.73365988707398,1.9751335909185546,1.121003654505199,90810.1530907328,282.2055080763962,0.0,0.0,0.0,335.8894736842105,0.18026944320232244,0.72,nominal,15436.219114517198,nan,fixed_pitch,26.0,0.0,0.0
3.075,284.21914703711326,0.0,914.7576027077405,113.72059034812595,0.0,8.815347671122804,114.06175092330052,17.450720646300084,0.0,13.664783548525941,0.0,0.0,-1.0961393059557782,0.0,9.23221622957103,0.0,7292.017774976253,0.3386986212223616,114.06175092330052,1.9766052687020481,1.1209794375176216,90807.73037495936,282.20407558239964,0.0,0.0,0.0,335.8657894736842,0.18025673205839335,0.72,nominal,15475.749156438385,nan,fixed_pitch,26.0,0.0,0.0
3.1,287.0701403928778,0.0,914.9809756585286,114.03973423058272,0.0,8.934918031521372,114.38922039952867,17.446214227998624,0.0,13.69243579480073,0.0,0.0,-1.106089872461136,0.0,9.212511124809662,0.0,7333.78782962381,0.33967189338478926,114.38922039952865,1.9780720412486428,1.1209548924620303,90805.27485115596,282.2026236582195,0.0,0.0,0.0,335.8421052631579,0.18024402091446431,0.72,nominal,15515.345056747683,nan,fixed_pitch,26.0,0.0,0.0
3.125,289.92909253684456,0.0,915.2073670876372,114.35808575866908,0.0,9.055657164342858,114.7160699512724,17.441708127475763,0.0,13.720332874874074,0.0,0.0,-1.1158832249786794,0.0,9.192708091022354,0.0,7375.5943572319375,0.34064334156547604,114.71606995127242,1.9795336208806122,1.1209300161442792,90802.78620028487,282.20115211393033,0.0,0.0,0.0,335.81842105263155,0.1802313097705352,0.72,nominal,15555.006678982587,nan,fixed_pitch,26.0,0.0,0.0
3.1500000000000004,292.7959836553,0.0,915.4368060494844,114.67564473821717,0.0,9.17755847388921,115.04230124466153,17.4372023447315,0.0,13.748470917977654,0.0,0.0,-1.1255217467645355,0.0,9.172808643128631,0.0,7417.436830371967,0.341612970913383,115.04230124466153,1.9809897243304078,1.1209048053887853,90800.26410517884,282.19966076067834,0.0,0.0,0.0,335.79473684210524,0.1802185986266061,0.72,nominal,15594.733891878903,nan,fixed_pitch,26.0,0.0,0.0
3.1750000000000003,295.6707939307378,0.0,915.6693214318298,114.99241101751143,0.0,9.30061529381483,115.36791597521308,17.432696879765835,0.0,13.776846109670382,0.0,0.0,-1.1350076909071578,0.0,9.15281431819947,0.0,7459.314728759114,0.3425807866650515,115.3679159752131,1.9824400726737503,1.1208792570387225,90797.70825056078,282.1981494106931,0.0,0.0,0.0,335.7710526315789,0.18020588748267702,0.72,nominal,15634.526569251366,nan,fixed_pitch,26.0,0.0,0.0
3.2,298.55350354290454,0.0,915.904941954072,115.30838448667099,0.0,9.424820889691873,115.69291586665416,17.428191732578767,0.0,13.805454688708009,0.0,0.0,-1.1443431852800574,0.0,9.132726671907339,0.0,7501.227539146052,0.34354679414108846,115.69291586665416,1.983884391246203,1.1208533679562218,90795.11832306394,282.19661787729854,0.0,0.0,0.0,335.7473684210526,0.18019317633874793,0.72,nominal,15674.38458987826,nan,fixed_pitch,26.0,0.0,0.0
3.225,301.44409266983143,0.0,916.1436961656085,115.62356507707561,0.0,9.550168461460702,116.01730266979584,17.4236869031703,0.0,13.834292944247403,0.0,0.0,-1.1535302459280776,0.0,9.112547275371558,0.0,7543.174755220238,0.34451099874280394,116.01730266979582,1.9853224095827218,1.1208271350225463,90792.49401124964,282.1950659749235,0.0,0.0,0.0,335.7236842105263,0.18018046519481884,0.72,nominal,15714.307837389972,nan,fixed_pitch,26.0,0.0,0.0
3.25,304.34254148885213,0.0,916.3856124442531,115.93795276082855,0.0,9.676651145781355,116.34107816145277,17.419182391540428,0.0,13.863357213401715,0.0,0.0,-1.1625707911018888,0.0,9.092277712406016,0.0,7585.155877504613,0.34547340594898435,116.34107816145277,1.9867538613801834,1.1208005551382796,90789.83500562633,282.19349351911234,0.0,0.0,0.0,335.7,0.18016775405088975,0.72,nominal,15754.296200161065,nan,fixed_pitch,26.0,0.0,0.0
3.2750000000000004,307.2488301776084,0.0,916.6307189947106,116.25154755025002,0.0,9.804262018301596,116.66424414340305,17.414678197689156,0.0,13.892643879017035,0.0,0.0,-1.1714666501188327,0.0,9.071919577030911,0.0,7627.170413260902,0.3464340213127847,116.66424414340305,1.9881784844616333,1.1207736252234974,90787.14099866673,282.1919003265344,0.0,0.0,0.0,335.6763157894737,0.18015504290696066,0.72,nominal,15794.349571205257,nan,fixed_pitch,26.0,0.0,0.0
3.3000000000000003,310.16293891504336,0.0,916.8790438471068,116.5643494973983,0.0,9.932994095846878,116.98680244138545,17.41017432161648,0.0,13.92214936759337,0.0,0.0,-1.1802195691354465,0.0,9.051474471167827,0.0,7669.217876395345,0.34739285045873375,116.98680244138544,1.9895960207344006,1.1207463422179305,90784.41168482449,282.19028621499376,0.0,0.0,0.0,335.65263157894736,0.18014233176303157,0.72,nominal,15834.467848073102,nan,fixed_pitch,26.0,0.0,0.0
3.325,313.08484788238377,0.0,917.1306148555701,116.87635869361753,0.0,10.062840338533368,117.30875490413305,17.405670763322405,0.0,13.95187014736703,0.0,0.0,-1.1888312176037175,0.0,9.030944002533827,0.0,7711.297787366909,0.3483498990798456,117.30875490413305,1.9910062161498343,1.120718703081132,90781.6467605511,282.1886510034388,0.0,0.0,0.0,335.62894736842105,0.1801296206191025,0.72,nominal,15874.650932752356,nan,fixed_pitch,26.0,0.0,0.0
