time_s,x_m,y_m,altitude_m,vx_mps,vy_mps,vz_mps,speed_mps,mass_kg,roll_deg,pitch_deg,yaw_deg,p_dps,q_dps,r_dps,alpha_deg,beta_deg,qbar_pa,mach,airspeed_mps,load_factor_g,density_kgpm3,pressure_pa,temperature_k,wind_x_mps,wind_y_mps,wind_z_mps,thrust_n,mass_flow_kgps,propulsion_throttle_actual,propulsion_health,energy_j_per_kg,target_distance_m,guidance_mode,pitch_command_deg,heading_command_deg,roll_command_deg,elevator_command_deg,aileron_command_deg,rudder_command_deg,elevator_deg,aileron_deg,rudder_deg,throttle,elevator_saturated,aileron_saturated,rudder_saturated,elevator_failed,aileron_failed,rudder_failed,elevator_raw_rad,aileron_raw_rad,rudder_raw_rad,elevator_effective_rad,aileron_effective_rad,rudder_effective_rad,sensor_time_s,imu_valid,imu_ax_mps2,imu_ay_mps2,imu_az_mps2,gyro_p_rps,gyro_q_rps,gyro_r_rps,imu_accel_norm_mps2,imu_gyro_norm_rps,gps_valid,gps_latency_s,gps_x_m,gps_y_m,gps_z_m,gps_vx_mps,gps_vy_mps,gps_vz_mps,baro_valid,baro_alt_m,baro_bias_m,pitot_valid,pitot_airspeed_mps,pitot_qbar_pa,pitot_compressibility_factor,mag_valid,mag_heading_deg,mag_x_ut,mag_y_ut,mag_z_ut,radar_valid,radar_agl_m,optical_flow_valid,optical_flow_x_radps,optical_flow_y_radps,optical_flow_quality,horizon_valid,horizon_roll_deg,horizon_pitch_deg
0.0,0.0,0.0,750.0,86.0,-1.0,9.0,86.47543003651384,18.0,0.0,7.000000000000002,0.0,0.0,0.0,0.0,1.4016805444688731,-6.99563488160828,4536.612575246487,0.2645041814014108,89.24453490674894,1.7205257729526313,1.139195935492775,92633.60556773993,283.275,-2.1576439091004773,9.86942436359809,0.3586780454497614,323.0,0.17335175620624782,0.85,nominal,11093.9875,nan,heading_hold,7.499999999999999,-2.0,0.0,-4.446966666666616,-0.0,-15.206289649367049,-2.66817999999997,0.0,-2.6999999999999997,0.85,0.0,0.0,0.0,0.0,0.0,0.0,-0.04656852603586177,0.0,-0.047123889803846894,-0.04656852603586177,0.0,-0.047123889803846894,0.0,1.0,16.814264143952194,1.260259370746404,0.8286042313486423,-0.0022319153689813204,-0.0039015279865140195,-0.0023592222364778276,16.881774709915998,0.005076346757751937,1.0,0.0,-0.7785414889531648,-0.7699426628116489,749.9804323702161,85.939862586848,-0.9434081530172551,9.010771297708263,1.0,749.8555948662996,0.0,1.0,88.65372415368083,4500.244903264226,1.0,1.0,-0.5737756339655435,18.843798690923343,0.06929347722390143,-44.11802215367801,1.0,750.0321065721554,1.0,-0.007201073526722839,0.11474759090463373,0.375,1.0,-0.5314886576265022,6.887296576438832
0.03,2.5949261975140976,-0.02888807630962151,750.2637386433568,86.49753991713659,-0.9629358769873837,8.791288111891413,86.94848132018241,17.994799447313813,0.06895755966087255,7.193403095234845,-0.10556200241299275,1.8638651003683908,-6.448876764840874,-3.487902836132251,1.7642640975343076,-6.948368298312302,4581.590222390552,0.2658163708117686,89.6870003205539,1.7505770503761238,1.139166595339428,92630.65919778285,283.27328569881814,-2.1128780731609975,10.04690527549587,0.38086315943698384,328.7375,0.17643103082306932,0.85,nominal,11137.593094509928,nan,heading_hold,7.499999999999999,-2.0,0.0,2.0844019119631545,-1.5641008147960367,-8.595707542266007,0.03182000000003022,-0.9384604888776221,-5.3999999999999995,0.85,0.0,0.0,0.0,0.0,0.0,0.0,0.0005553637679851231,-0.01637922543079013,-0.09424777960769379,0.0005553637679851231,-0.01637922543079013,-0.09424777960769379,0.03,1.0,17.06953998725059,1.042774012181997,1.4699931782750275,0.03213668082888313,-0.1159918628715981,-0.05889908910149277,17.164424049789847,0.13399992986605144,1.0,0.0,-0.7785414889531648,-0.7699426628116489,749.9804323702161,85.939862586848,-0.9434081530172551,9.010771297708263,1.0,749.8555948662996,0.0,1.0,89.18436850417089,4518.82341569258,1.0,1.0,-0.5737756339655435,18.843798690923343,0.06929347722390143,-44.11802215367801,1.0,750.0321065721554,1.0,-0.007201073526722839,0.11474759090463373,0.375,1.0,-0.5314886576265022,6.887296576438832
0.06,5.204946386852976,-0.05688311976914459,750.5218304773052,87.00067297796264,-0.933168115317436,8.603061131616217,87.42997519263155,17.98950651638912,0.18494455882132757,7.198533786137786,-0.27527318595832145,3.1576133819172494,-0.18345832338537457,-5.612095096322584,1.9185717725900073,-6.833908703143515,4627.920324505196,0.2671611463980131,90.14046350481533,1.780386736324566,1.1391378839367983,92627.77598491513,283.27160810189747,-2.0714349154906015,10.211129355173762,0.40139116939672026,334.47499999999997,0.17951030543989083,0.85,nominal,11182.10518994235,nan,heading_hold,7.499999999999999,-2.0,0.0,-0.10838432777095766,-2.5832609383839658,-9.30320785931437,-0.052302596662562505,-1.9253407585814282,-7.741924715588621,0.85,0.0,0.0,0.0,0.0,0.0,0.0,-0.0009128525191043134,-0.03360353546009119,-0.135122076728547,-0.0009128525191043134,-0.03360353546009119,-0.135122076728547,0.06,1.0,17.414514023811613,0.7765352234897894,1.6527133875059923,0.048147159834258775,-0.0045007807113480805,-0.09611908989955363,17.509990496287916,0.10759779491344502,1.0,0.0,-0.7785414889531648,-0.7699426628116489,749.9804323702161,85.939862586848,-0.9434081530172551,9.010771297708263,1.0,751.3524582582847,0.0,1.0,90.36330874981866,4667.2169070234595,1.0,1.0,-1.9250265679986285,18.58774956668884,-0.0026429666763115485,-44.18863542104368,1.0,749.9279462233048,1.0,-0.0017455409200198674,0.10652064095734959,0.37456514126891227,1.0,0.2120171273103045,7.276761013267143
0.09,7.830309348447956,-0.08421652811337613,750.7744272081844,87.51209871983265,-0.9111136114743847,8.419891029304829,87.92094241594614,17.984121207225925,0.32376749881051836,7.0261538217500625,-0.4707044853056926,3.8208516744162835,5.717252222393656,-6.489711802249133,1.888241303394115,-6.688737632570024,4675.748140322083,0.26854219332242113,90.60616766657452,1.8104636520424604,1.1391097843724656,92624.95422967679,283.26996622314675,-2.0334928398682965,10.361382077277707,0.42017275965971335,340.2125,0.18258958005671233,0.85,nominal,11227.6280942352,nan,heading_hold,7.499999999999999,-2.0,0.0,-2.274527930868466,-3.0300433281715877,-9.436499455789424,-1.3856377971861045,-2.588162300335524,-8.758669559709102,0.85,0.0,0.0,0.0,0.0,0.0,0.0,-0.024183941800978943,-0.04517195371684524,-0.1528676219111259,-0.024183941800978943,-0.04517195371684524,-0.1528676219111259,0.09,1.0,17.686526707783027,0.8210355155750776,1.413246262941204,0.07399098711411019,0.09849094532712407,-0.11599433097383713,17.761885916272384,0.16920347899384053,1.0,0.0,-0.7785414889531648,-0.7699426628116489,749.9804323702161,85.939862586848,-0.9434081530172551,9.010771297708263,1.0,751.3524582582847,0.0,1.0,90.15833614869628,4688.161863269871,1.0,1.0,-1.9250265679986285,18.58774956668884,-0.0026429666763115485,-44.18863542104368,1.0,749.9279462233048,1.0,-0.0017455409200198674,0.10652064095734959,0.37456514126891227,1.0,0.2120171273103045,7.276761013267143
0.12,10.471324252154156,-0.11104179922632103,751.0213766627526,88.03383012354003,-0.8941757037648299,8.231648485604483,88.42236613662892,17.978643519824224,0.46934984215024345,6.860632586498759,-0.6737980774329645,4.034354082852842,5.470737614294833,-6.758180848197887,1.866000375307086,-6.528499239613219,4725.177127458448,0.269961909050211,91.0849218493821,1.8415655099913268,1.1390823135395163,92622.19562738725,283.26836105169207,-1.999215508837867,10.497009704672017,0.4371262130840022,345.95,0.18566885467353383,0.85,nominal,11274.261200049814,nan,heading_hold,7.499999999999999,-2.0,0.0,-2.2857959061107307,-3.071478096842119,-9.289356662888299,-1.9257326625408802,-2.878151778239481,-9.07708182161662,0.85,0.0,0.0,0.0,0.0,0.0,0.0,-0.03361037547453523,-0.050233224902408634,-0.1584249642601346,-0.03361037547453523,-0.050233224902408634,-0.1584249642601346,0.12,1.0,17.95071858518559,0.6712358248492151,1.2922055621647732,0.06857418605174283,0.09941466500977968,-0.11330705180085521,18.00968213134196,0.16560248367541908,1.0,0.0,-0.7785414889531648,-0.7699426628116489,749.9804323702161,85.939862586848,-0.9434081530172551,9.010771297708263,1.0,752.092205277,0.0,1.0,90.78998199244496,4701.933278297039,1.0,1.0,-1.3586891894909838,18.774588110460506,-0.11167840860253428,-44.208327378553825,1.0,750.7851260233888,1.0,-0.008217499827641122,0.13769888093893198,0.3741488527810395,1.0,0.9532823601812825,7.158246413801593
0.15,13.12828778174632,-0.1374690222236821,751.2626108126553,88.56545098640542,-0.8809074332453688,8.041138330092025,88.93410488656758,17.973073454184018,0.6141537872975176,6.771866986368574,-0.8768664355606174,4.02342238889083,2.8951736801378054,-6.74879039728616,1.9206850241185776,-6.360232951682616,4776.199472672748,0.27141946486019203,91.57644649790369,1.8730741247733338,1.139055478970492,92619.50093337974,283.26679302971775,-1.968750550582154,10.61742213279545,0.45217776659943126,351.6875,0.18874812929035537,0.85,nominal,11322.006988313427,nan,heading_hold,7.499999999999999,-2.0,0.0,-1.4387548358999758,-2.9120794802339236,-9.01333344052376,-1.6335459665563374,-2.898508399436147,-9.038832792960903,0.85,0.0,0.0,0.0,0.0,0.0,0.0,-0.028510755599081266,-0.050588514966871716,-0.1577573927744027,-0.028510755599081266,-0.050588514966871716,-0.1577573927744027,0.15,1.0,18.308795611911687,0.5453685705951047,1.4285331161649493,0.06637107544272551,0.052326262911005166,-0.12411644671182813,18.372537399622555,0.15016008054747995,1.0,0.0,-0.7785414889531648,-0.7699426628116489,749.9804323702161,85.939862586848,-0.9434081530172551,9.010771297708263,1.0,752.092205277,0.0,1.0,91.62841780064123,4787.056016760341,1.0,1.0,-1.3586891894909838,18.774588110460506,-0.11167840860253428,-44.208327378553825,1.0,750.7851260233888,1.0,-0.008217499827641122,0.13769888093893198,0.3741488527810395,1.0,0.9532823601812825,7.158246413801593
0.18,15.801467029750293,-0.1635857349084276,751.4982229319357,89.10597493346582,-0.870557089491517,7.8537373093458624,89.45565285779158,17.96741101030531,0.7562135011750077,6.710569428664081,-1.0765265362990284,3.954086372868395,1.9640698185997851,-6.633297287776483,1.9997084050853273,-6.186502630167583,4828.774812308308,0.27291311631661974,92.08015293643135,1.9045230999626277,1.1390292702556026,92616.86910126395,283.2652615509424,-1.9422288013127906,10.722095457157224,0.46526193214465283,357.425,0.19182740390717687,0.85,nominal,11370.836962022324,nan,heading_hold,7.499999999999999,-2.0,0.0,-1.1515443868561188,-2.703112550656488,-8.68998862309747,-1.3443450187362065,-2.7812708901683516,-8.829526291042844,0.85,0.0,0.0,0.0,0.0,0.0,0.0,-0.02346324685973166,-0.04854233442331132,-0.15410430517010074,-0.02346324685973166,-0.04854233442331132,-0.15410430517010074,0.18,1.0,18.635012794973473,0.7460185485770611,1.4590473263905488,0.0692174839142881,0.02765360050358312,-0.11722762366684683,18.70692557969624,0.1389175923013798,1.0,0.0,-0.7785414889531648,-0.7699426628116489,749.9804323702161,85.939862586848,-0.9434081530172551,9.010771297708263,1.0,751.1467886899404,0.0,1.0,92.37052694106096,4720.738867785776,1.0,1.0,-2.53539941287477,19.00363572872349,-0.14455867183239315,-44.10547696482573,1.0,751.4265284949997,1.0,-0.0028508367461524448,0.13284945238806264,0.3737514808900535,1.0,0.6566427443683691,6.79115352845316
0.21,18.49112238907399,-0.1894690728099713,751.7283331400281,89.65517864412321,-0.8627779300514569,7.670340269743296,89.98682994371941,17.961656188188094,0.8961957982627642,6.628944802164572,-1.27164340722296,3.910672382191323,2.6273915253882034,-6.498450356452181,2.054613828318755,-6.007540289206924,4882.903717151526,0.2744422928070795,92.59584851355416,1.9357866209373302,1.1390036740004768,92614.29878499276,283.2637658345898,-1.9197639370894546,10.810574252802013,0.47632178160025157,363.16249999999997,0.19490667852399834,0.85,nominal,11420.751439847594,nan,heading_hold,7.499999999999999,-2.0,0.0,-1.4335012214518041,-2.520840249707906,-8.358954111628428,-1.397838740365565,-2.625012505892084,-8.547182983394194,0.85,0.0,0.0,0.0,0.0,0.0,0.0,-0.024396888431309275,-0.04581511113384392,-0.1491764848306605,-0.024396888431309275,-0.04581511113384392,-0.1491764848306605,0.21,1.0,18.990896948830393,0.7026822723390597,1.5328855716513774,0.06821061211248393,0.04722595607215663,-0.10857317006781096,19.065614793987947,0.13664227673111573,1.0,0.0,19.547356705088855,0.5170704268853823,749.4535979156396,89.71428102991936,-1.1980297088929197,7.818313581318107,1.0,751.1467886899404,0.0,1.0,93.06562279487424,4827.647483431277,1.0,1.0,-2.53539941287477,19.00363572872349,-0.14455867183239315,-44.10547696482573,1.0,751.4265284949997,1.0,-0.0028508367461524448,0.13284945238806264,0.3737514808900535,1.0,0.6566427443683691,6.79115352845316
0.24,21.19752377083322,-0.21519245396361888,751.9530032372306,90.21337939197441,-0.8574460384549198,7.489003240084009,90.5277537805902,17.955808987832373,1.0355774414750207,6.529942583470631,-1.462698722606895,3.916346523877429,3.192959752780906,-6.3813093219446575,2.089446641537428,-5.822643767114693,4938.6227466154605,0.2760074271038792,93.12367918150258,1.9670111142444222,1.1389786832993785,92611.78929013964,283.26230547895796,-1.9014521061876093,10.882473555826179,0.4853091944782724,368.9,0.19798595314081988,0.85,nominal,11471.77702147597,nan,heading_hold,7.499999999999999,-2.0,0.0,-1.6908945893965248,-2.3843350034429904,-8.033245872338938,-1.5736722497841409,-2.480606004422628,-8.23882071676104,0.85,0.0,0.0,0.0,0.0,0.0,0.0,-0.027465762105999884,-0.04329474222191588,-0.14379454798899932,-0.027465762105999884,-0.04329474222191588,-0.14379454798899932,0.24,1.0,19.269666179974838,0.49788982127075687,1.7032766660216427,0.075602275056237,0.05769712343546796,-0.11968986484052359,19.351203589513624,0.15287356145504477,1.0,0.0,19.547356705088855,0.5170704268853823,749.4535979156396,89.71428102991936,-1.1980297088929197,7.818313581318107,1.0,752.0398899443375,0.0,1.0,93.32451846732975,4988.115664448419,1.0,1.0,-1.1672663794846068,19.141778313373155,-0.13427609941743535,-44.10099823270477,1.0,752.0303747316599,1.0,0.004766701584895119,0.1077339200851813,0.3733724973023078,1.0,0.9514530296653076,6.388637532346549
0.27,23.920947027204825,-0.2408294009624594,752.1722620692863,90.78077521238681,-0.8545648999613501,7.308627735187292,91.07851266188804,17.94986940923815,1.175695910158462,6.434537463881783,-1.650848032400291,3.9625775122440614,3.0593380145437927,-6.291763196739912,2.12578370955751,-5.630975209411651,4995.966998724219,0.2776088871878527,93.66376906915897,1.9983064178217806,1.1389542949133147,92609.3402905164,283.2608802965496,-1.8873714723151238,10.937480538323786,0.4921850672904733,374.6375,0.20106522775764138,0.85,nominal,11523.937848172616,nan,heading_hold,7.499999999999999,-2.0,0.0,-1.701622734188484,-2.283643745701319,-7.714167186621056,-1.6504425404267469,-2.3624286491898423,-7.92402859867705,0.85,0.0,0.0,0.0,0.0,0.0,0.0,-0.02880565644542635,-0.04123215827180482,-0.1383003890691069,-0.02880565644542635,-0.04123215827180482,-0.1383003890691069,0.27,1.0,19.613473544899676,0.7231815449686176,1.7022440992333447,0.0720681799704529,0.050143084345488094,-0.10767559355128739,19.70048149200515,0.13893230336589962,1.0,0.0,19.547356705088855,0.5170704268853823,749.4535979156396,89.71428102991936,-1.1980297088929197,7.818313581318107,1.0,752.0398899443375,0.0,1.0,93.44064720330644,4954.14745060902,1.0,1.0,-1.1672663794846068,19.141778313373155,-0.13427609941743535,-44.10099823270477,1.0,752.0303747316599,1.0,0.004766701584895119,0.1077339200851813,0.3733724973023078,1.0,0.9514530296653076,6.388637532346549
0.3,26.66166574865253,-0.26645577928580055,752.386151181508,91.35729071492361,-0.854212610778039,7.129637074059853,91.63905265094837,17.943837452405422,1.3173562301185566,6.348731160117933,-1.8370176876465762,4.031174052882549,2.7253747494585663,-6.227854819910489,2.169349452043146,-5.431866430805197,5054.956877277487,0.2792466128112811,94.21609781257794,2.029633991893932,1.1389305041916835,92606.95131821599,283.25949001732016,-1.8775818058590168,10.975355869474885,0.49691948368436056,380.375,0.20414450237446288,0.85,nominal,11577.24563486578,nan,heading_hold,7.499999999999999,-2.0,0.0,-1.6369785672165493,-2.20110549678587,-7.400406852932728,-1.6423641565006284,-2.265634757747459,-7.609855551230457,0.85,0.0,0.0,0.0,0.0,0.0,0.0,-0.028664662047675395,-0.039542786170317264,-0.1328170349701395,-0.028664662047675395,-0.039542786170317264,-0.1328170349701395,0.3,1.0,19.843671990555418,0.6011758795283225,1.773886957896448,0.07362353567756806,0.05016268571053341,-0.11696789567682432,19.931869090636617,0.14703131864478516,1.0,0.0,19.547356705088855,0.5170704268853823,749.4535979156396,89.71428102991936,-1.1980297088929197,7.818313581318107,1.0,751.4266620419514,0.0,1.0,93.94035878300583,5079.210581549627,1.0,1.0,-1.5746914430149868,19.25820442650035,-0.28492614856653103,-43.98136898915936,1.0,752.1657142237814,1.0,-0.0008539732004298555,0.12098964923135454,0.37301154068207665,1.0,0.9097069271892898,5.699756785936627
0.32999999999999996,29.41994988076794,-0.2921508660750083,752.5947300561652,91.94280440384699,-0.8565028929735911,6.95262915524029,92.20928332342702,17.937713117334187,1.4608286362628178,6.265811496707831,-2.021693362404682,4.106129258310535,2.6148521697629716,-6.183811063927452,2.213115581564336,-5.2248774186333895,5115.609491227566,0.280920440822437,94.7806103128908,2.060929291726422,1.1389073044898377,92604.62170512992,283.2581342546349,-1.8721242157022364,10.995934756854064,0.49949184460675794,386.1125,0.20722377699128441,0.85,nominal,11631.70907501531,nan,heading_hold,7.499999999999999,-2.0,0.0,-1.6490464975775234,-2.1220376792000217,-7.089872373651077,-1.6463735611467654,-2.1794765106189966,-7.297865644682829,0.85,0.0,0.0,0.0,0.0,0.0,0.0,-0.028734639359795245,-0.038039041080178644,-0.12737178386789397,-0.028734639359795245,-0.038039041080178644,-0.12737178386789397,0.32999999999999996,1.0,20.2090082719579,0.5544020121369909,1.6720792892786045,0.07628816250484359,0.043015082167325844,-0.11093707496691045,20.285640884052906,0.14134077838487066,1.0,0.0,19.547356705088855,0.5170704268853823,749.4535979156396,89.71428102991936,-1.1980297088929197,7.818313581318107,1.0,751.4266620419514,0.0,1.0,94.16971552085174,5104.060528955057,1.0,1.0,-1.5746914430149868,19.25820442650035,-0.28492614856653103,-43.98136898915936,1.0,752.1657142237814,1.0,-0.0008539732004298555,0.12098964923135454,0.37301154068207665,1.0,0.9097069271892898,5.699756785936627
0.36,32.19606864858853,-0.3179976460756346,752.7980584192618,92.53729226068633,-0.86155933335421,6.777612103219866,92.78916299464221,17.93149640402445,1.606053806492061,6.1811899949548135,-2.2051656203753645,4.17785000668821,2.6570132328498324,-6.153015997673416,2.252583874018922,-5.009801063763964,5177.947946438463,0.28263036164845634,95.35730329074615,2.0921837415132463,1.1388846891371385,92602.35078057446,283.2568126202748,-1.8710209965139493,10.999127663428633,0.4998909579285791,391.84999999999997,0.2103030516081059,0.85,nominal,11687.341464220393,nan,heading_hold,7.499999999999999,-2.0,0.0,-1.7156239170619887,-2.0379274891648183,-6.779346330200587,-1.6879237746958993,-2.0945470977464895,-6.986754055993484,0.85,0.0,0.0,0.0,0.0,0.0,0.0,-0.02945982739113439,-0.03655674319376774,-0.12194186230415455,-0.02945982739113439,-0.03655674319376774,-0.12194186230415455,0.36,1.0,20.350857602800694,0.5533787031191523,1.8681693504488575,0.07199211186534978,0.043215042129745196,-0.10166880028842946,20.44391571789742,0.1318595805741746,1.0,0.0,19.547356705088855,0.5170704268853823,749.4535979156396,89.71428102991936,-1.1980297088929197,7.818313581318107,1.0,753.4461501851936,0.0,1.0,95.40710440589297,5235.983926982904,1.0,1.0,-0.8901071837176792,19.386559691583276,-0.3440143047754454,-43.872616009367015,1.0,752.7377298986928,1.0,-0.007828938965754425,0.13665700427458735,0.3726682846506152,1.0,1.5480230663095185,6.132000491358638
0.39,34.99029202686012,-0.34408282679143026,752.9961883495836,93.14077927571971,-0.8695060238598562,6.604331010728,93.37868061240279,17.925187312476208,1.7528570757782096,6.096290703968095,-2.387674445394967,4.242882319655381,2.6514870835259994,-6.129095776130983,2.289442885702461,-4.786663656615994,5241.999124398338,0.2843764544203808,95.94620340602266,2.123424299022538,1.1388626523145953,92600.13795941748,283.2555247757277,-1.8742755431939178,10.984920697126826,0.4981150871408533,397.5875,0.2133823262249274,0.85,nominal,11744.159066935008,nan,heading_hold,7.499999999999999,-2.0,0.0,-1.7657720409404423,-1.9458510063369845,-6.465396584318375,-1.7346327344426251,-2.0053294429007864,-6.673939572988418,0.85,0.0,0.0,0.0,0.0,0.0,0.0,-0.030275052528896253,-0.03499960136580235,-0.11648221962779232,-0.030275052528896253,-0.03499960136580235,-0.11648221962779232,0.39,1.0,20.82033084435085,0.6190653717428231,1.7707021048849765,0.07759125116485169,0.05183655227026612,-0.10628012607787313,20.904659871592326,0.1414315933860739,1.0,0.0,19.547356705088855,0.5170704268853823,749.4535979156396,89.71428102991936,-1.1980297088929197,7.818313581318107,1.0,753.4461501851936,0.0,1.0,96.01636215272096,5312.609556425421,1.0,1.0,-0.8901071837176792,19.386559691583276,-0.3440143047754454,-43.872616009367015,1.0,752.7377298986928,1.0,-0.007828938965754425,0.13665700427458735,0.3726682846506152,1.0,1.5480230663095185,6.132000491358638
0.42,37.802889902123745,-0.370496820761857,753.1891695019161,93.75326250878757,-0.8804664656808923,6.432705077750934,93.97781199227904,17.91878584268946,1.9010676589609936,6.013438142164091,-2.569337888643887,4.301620781675219,2.568372640605857,-6.1066639848089705,2.3261723200538174,-4.555702708411879,5307.788591825701,0.2861587470969116,96.54732005893614,2.132869169683189,1.1388411884738392,92597.98268373261,283.2542703982375,-1.8818723279268623,10.953375671281055,0.49417195891013177,399.47763157894735,0.21439674612793488,0.85,nominal,11802.177142524039,nan,heading_hold,7.499999999999999,-2.0,0.0,-1.7876938918507181,-1.8463983188370379,-6.145675850953705,-1.766469428887481,-1.909970768462537,-6.356981339767589,0.85,0.0,0.0,0.0,0.0,0.0,0.0,-0.030830707669910376,-0.03333527852651755,-0.11095025486678478,-0.030830707669910376,-0.03333527852651755,-0.11095025486678478,0.42,1.0,20.957196396476924,0.5685985552834533,1.952037146904478,0.07309428235432162,0.040704821454962826,-0.10671014448111345,21.05558914256428,0.1355976088939396,1.0,0.0,38.033222216935734,1.5599302869280463,751.9696341230111,93.63776425972534,-0.7804005904264095,6.268595558177665,1.0,753.7235185797233,0.0,1.0,97.0317051767497,5367.66909741875,1.0,1.0,-1.477326870250417,19.446014258851722,-0.3057697442787398,-43.77774343588297,1.0,752.9552040003731,1.0,-0.022475329987131816,0.11588553322711628,0.37234235874840327,1.0,2.476549556861317,6.543323514815611
0.44999999999999996,40.6339391695784,-0.39732504746662145,753.3770338869012,94.36830891515505,-0.8942742234921469,6.262146166172318,94.5800820918413,17.91235394030562,2.05055306947309,5.932674432472265,-2.7500925727463676,4.355865840084624,2.4839200171518576,-6.081710733067526,2.3630235085443867,-4.317619997924173,5374.630020726377,0.28795818285867,97.15422365816465,2.13140825872509,1.1388202940298695,92595.88459277281,283.25304927973514,-1.8937769902488433,10.904629835683219,0.4880787294604023,399.4440789473684,0.21437873867403534,0.85,nominal,11860.8008536167,nan,heading_hold,7.499999999999999,-2.0,0.0,-1.8080096013385782,-1.7414592380737726,-5.819340844182594,-1.7913935323581391,-1.8088638502292786,-6.034397042416592,0.85,0.0,0.0,0.0,0.0,0.0,0.0,-0.03126571533858111,-0.0315706299068025,-0.10532009676277745,-0.03126571533858111,-0.0315706299068025,-0.10532009676277745,0.44999999999999996,1.0,20.81877813747634,0.4176122058526731,1.9036974673730849,0.0739569494508238,0.03599909851731316,-0.10133333293080166,20.90980600434214,0.13051440468007974,1.0,0.0,38.033222216935734,1.5599302869280463,751.9696341230111,93.63776425972534,-0.7804005904264095,6.268595558177665,1.0,753.7235185797233,0.0,1.0,96.92966891992216,5371.421226397719,1.0,1.0,-1.477326870250417,19.446014258851722,-0.3057697442787398,-43.77774343588297,1.0,752.9552040003731,1.0,-0.022475329987131816,0.11588553322711628,0.37234235874840327,1.0,2.476549556861317,6.543323514815611
0.48,43.48341971518473,-0.42465052778235524,753.559805824718,94.98268485354443,-0.9108493438577921,6.092397927222567,95.18223248599799,17.9059225781454,2.201220119741328,5.853024749677627,-2.9297595844889903,4.40736550352452,2.432178339652851,-6.05165037549378,2.399170863995121,-4.07303481565011,5442.17535854835,0.2897651756012962,97.76367999660319,2.1299348668095193,1.1387999662538628,92593.8434117889,283.2518612621393,-1.90993647140736,10.838895279422252,0.4798619099277814,399.41052631578947,0.2143607312201358,0.85,nominal,11919.725960300257,nan,heading_hold,7.499999999999999,-2.0,0.0,-1.8391438836272826,-1.6328186265391333,-5.486070714625595,-1.820043743119625,-1.7032367160151916,-5.705401245741993,0.85,0.0,0.0,0.0,0.0,0.0,0.0,-0.03176575584775935,-0.029727088635320725,-0.09957803688558389,-0.03176575584775935,-0.029727088635320725,-0.09957803688558389,0.48,1.0,20.857585483635976,0.4563516695990937,1.9500094107884924,0.07337050157093723,0.03985968920754332,-0.10922357467113566,20.95351201483159,0.13748387028460465,1.0,0.0,38.033222216935734,1.5599302869280463,751.9696341230111,93.63776425972534,-0.7804005904264095,6.268595558177665,1.0,753.8594426971166,0.0,1.0,97.95136073425762,5418.629635091621,1.0,1.0,-1.5420720244929738,19.58208387158026,-0.46249159113170074,-43.83761125418133,1.0,753.3636766803535,1.0,-0.005256094990878059,0.12348932835718211,0.3720334951460683,1.0,3.0679051548258247,5.9101866820967155
0.51,46.35131080471162,-0.4525576689980265,753.737509853789,95.59636965089646,-0.930238040522376,5.923467635700924,95.78422992368874,17.899491756208796,2.353004243696765,5.774211152512167,-3.1081306825514554,4.457215529227206,2.3900237047130006,-6.014844237185912,2.4344504562533458,-3.82248908371925,5510.42714887863,0.29157965048964296,98.3756638888794,2.1284513352138066,1.1387802023935218,92591.85886369919,283.2507061859503,-1.930279233193799,10.75645800810207,0.46955725101275875,399.3769736842105,0.21434272376623625,0.85,nominal,11978.949302044693,nan,heading_hold,7.499999999999999,-2.0,0.0,-1.8731321276112736,-1.521577882535623,-5.145673329356336,-1.8518967738146141,-1.5942414159274505,-5.369564495910599,0.85,0.0,0.0,0.0,0.0,0.0,0.0,-0.032321696110125725,-0.02782476177959038,-0.09371657985182955,-0.032321696110125725,-0.02782476177959038,-0.09371657985182955,0.51,1.0,20.8709377706601,0.46886480075248155,2.0724022871736967,0.08276424313338976,0.03817809779894923,-0.1126204139399601,20.978816193199123,0.14488217533222278,1.0,0.0,38.033222216935734,1.5599302869280463,751.9696341230111,93.63776425972534,-0.7804005904264095,6.268595558177665,1.0,753.8594426971166,0.0,1.0,98.73235141611397,5550.032497401896,1.0,1.0,-1.5420720244929738,19.58208387158026,-0.46249159113170074,-43.83761125418133,1.0,753.3636766803535,1.0,-0.005256094990878059,0.12348932835718211,0.3720334951460683,1.0,3.0679051548258247,5.9101866820967155
0.54,49.2375911317104,-0.48113208155372156,753.9101705262827,96.20934423329267,-0.952480418523168,5.755355749792804,96.38604285141365,17.89306147449581,2.505855412161809,5.696549459817262,-3.2849902683319647,4.505896515435171,2.3377532372440255,-5.9702786795515745,2.4692917685977314,-3.566588024432236,5579.387268475317,0.2934015163893837,98.9901446508594,2.126963477894815,1.1387609996958088,92589.93067137203,283.24958389157916,-1.9547155693468476,10.657676699454912,0.457209587431864,399.3434210526316,0.21432471631233674,0.85,nominal,12038.467802068844,nan,heading_hold,7.499999999999999,-2.0,0.0,-1.9028784951762538,-1.4082309734185305,-4.798270882349626,-1.8824858066315981,-1.4826351504220985,-5.026788327774015,0.85,0.0,0.0,0.0,0.0,0.0,0.0,-0.03285557544778269,-0.025876864980667012,-0.08773400712047648,-0.03285557544778269,-0.025876864980667012,-0.08773400712047648,0.54,1.0,20.899755724531,0.4619716925122851,2.133811433997103,0.07145378564300608,0.03771527660374476,-0.10740382250024669,21.013480397725786,0.13440114084217492,1.0,0.0,38.033222216935734,1.5599302869280463,751.9696341230111,93.63776425972534,-0.7804005904264095,6.268595558177665,1.0,754.108741514039,0.0,1.0,98.76828719733697,5580.016690097594,1.0,1.0,-5.266985195581839,19.707140174621752,-0.5427588762991571,-43.67716632292242,1.0,754.1467520295089,1.0,-0.010548342974791472,0.11930898271566658,0.37174152456143106,1.0,2.103783878459366,6.045618232017203
0.57,52.14223865503087,-0.5104604272575057,754.0778133853717,96.82158411068227,-0.9776115234594707,5.588095302964547,96.98763675390661,17.88663173300644,2.659727554659397,5.620191073747105,-3.4601028924679,4.553555205439076,2.2809408926488732,-5.9174531381208615,2.503936359174782,-3.3059829143475556,5649.05626936966,0.29523064921510106,99.60708048041747,2.1254734895189022,1.1387423552982443,92588.05854671047,283.24849421299507,-1.9831379942308773,10.542981142764262,0.4428726428455327,399.3098684210526,0.21430670885843717,0.85,nominal,12098.278030189522,nan,heading_hold,7.499999999999999,-2.0,0.0,-1.930224953732459,-1.2929639386050995,-4.444369384363344,-1.9111292948921148,-1.368832423331899,-4.677336961727613,0.85,0.0,0.0,0.0,0.0,0.0,0.0,-0.03335549862718505,-0.023890632695194487,-0.08163493020737483,-0.03335549862718505,-0.023890632695194487,-0.08163493020737483,0.57,1.0,20.742787834584384,0.4637483733443716,2.266947923989374,0.07788605653774495,0.04576932286770442,-0.09885569364119424,20.871448502546276,0.13391608149901427,1.0,0.0,38.033222216935734,1.5599302869280463,751.9696341230111,93.63776425972534,-0.7804005904264095,6.268595558177665,1.0,754.108741514039,0.0,1.0,99.45094581521917,5606.040227529305,1.0,1.0,-5.266985195581839,19.707140174621752,-0.5427588762991571,-43.67716632292242,1.0,754.1467520295089,1.0,-0.010548342974791472,0.11930898271566658,0.37174152456143106,1.0,2.103783878459366,6.045618232017203
0.6,55.06523053311556,-0.5406302642033322,754.240465305157,97.43306260282293,-1.0056612315275466,5.421730659513488,97.5889758426766,17.880202531740686,2.8145755850769527,5.545001551163455,-3.633217442462095,4.6002464897949364,2.2292021631518515,-5.856260185376564,2.538329007885031,-3.0413566104893714,5719.43344207168,0.2970668946167595,100.22641936346916,2.1239810640524586,1.138724266191111,92586.24218685702,283.24743697551645,-2.015421709820437,10.41287036888731,0.4266087961109138,399.2763157894737,0.21428870140453765,0.85,nominal,12158.376362096078,nan,heading_hold,7.499999999999999,-2.0,0.0,-1.9585896834444056,-1.1758785919383132,-4.084711032145155,-1.9396055280234892,-1.2530601244957476,-4.3217614039781385,0.85,0.0,0.0,0.0,0.0,0.0,0.0,-0.03385250265389303,-0.021870024897900846,-0.07542896598503128,-0.03385250265389303,-0.021870024897900846,-0.07542896598503128,0.6,1.0,20.68569251683815,0.41922283031348273,2.237426894473185,0.07816975813398476,0.03676250744662671,-0.10198170506720348,20.810567070378976,0.13364977070277015,1.0,0.0,38.033222216935734,1.5599302869280463,751.9696341230111,93.63776425972534,-0.7804005904264095,6.268595558177665,1.0,755.5184037195024,0.0,1.0,100.31255360374786,5716.845637651836,1.0,1.0,-4.530135938811092,19.79971533505216,-0.6298206085021357,-43.66143022318442,1.0,754.8465686244472,1.0,-0.011947406592021925,0.12858730538031446,0.37146627891236916,1.0,2.4154738117199437,4.938769930308646
0.63,58.00654317281111,-0.5717298838299855,754.398154182402,98.0437546565183,-1.0366539875551102,5.25629590816516,98.19002558972913,17.87377387069855,2.970358618461765,5.470859307834664,-3.804087173077515,4.646080244416782,2.182176011912213,-5.786858543354524,2.572428870148813,-2.773413214212656,5790.516974845226,0.29891007304699446,100.84810078397446,2.122487184276441,1.138706729251727,92584.48127763502,283.2464119978144,-2.051425148973127,10.267910479013079,0.4084888098766347,399.24276315789473,0.2142706939506381,0.85,nominal,12218.759221368684,nan,heading_hold,7.499999999999999,-2.0,0.0,-1.987896881876283,-1.0571135191647196,-3.720119589425277,-1.9685803403351656,-1.135492161297131,-3.9607763152464215,0.85,0.0,0.0,0.0,0.0,0.0,0.0,-0.03435820852887917,-0.01981807684522146,-0.06912858763605893,-0.03435820852887917,-0.01981807684522146,-0.06912858763605893,0.63,1.0,20.67140229280522,0.291592160045668,2.3124164442854465,0.08054720374245503,0.030588681519340622,-0.09982873083157001,20.80238372279953,0.13186847601781962,1.0,0.0,58.892070651993265,0.300145089756893,755.3845974338865,98.12886718291023,-0.9546039092677694,5.104261427412436,1.0,755.5184037195024,0.0,1.0,100.77965456864204,5851.7167772550665,1.0,1.0,-4.530135938811092,19.79971533505216,-0.6298206085021357,-43.66143022318442,1.0,754.8465686244472,1.0,-0.011947406592021925,0.12858730538031446,0.37146627891236916,1.0,2.4154738117199437,4.938769930308646
0.6599999999999999,60.96615226354721,-0.6038481581039971,754.550908772158,98.65363635787007,-1.0706091424670519,5.091819658531666,98.79075259355912,17.86734574988003,3.1270445312692536,5.397763146979952,-3.9724809381300874,4.691277485218647,2.135900838131093,-5.709584482823749,2.6063138071569205,-2.502870829651807,5862.303804731414,0.3007599767468558,101.47205470716354,2.120994423847535,1.1386897412627197,92582.77549538335,283.24541909298097,-2.090990591440995,10.108732181603072,0.38859152270038405,399.20921052631576,0.21425268649673854,0.85,nominal,12279.423068511387,nan,heading_hold,7.499999999999999,-2.0,0.0,-2.016747202737676,-0.9368929990629539,-3.3514736195248283,-1.9974804577766718,-1.0163326639566248,-3.5951946978134655,0.85,0.0,0.0,0.0,0.0,0.0,0.0,-0.034862610732446495,-0.0177383512816082,-0.06274798472708755,-0.034862610732446495,-0.0177383512816082,-0.06274798472708755,0.6599999999999999,1.0,20.752634765816254,0.32400363854645986,2.356220378696124,0.08509104008597353,0.03650904444976311,-0.09254664074570057,20.888480139879487,0.13091323899003224,1.0,0.0,58.892070651993265,0.300145089756893,755.3845974338865,98.12886718291023,-0.9546039092677694,5.104261427412436,1.0,754.4118767263516,0.0,1.0,101.09351918708492,5735.162436646031,1.0,1.0,-2.9629499173194502,19.928074500244794,-0.6939104866650619,-43.62247044709468,1.0,754.7411918849815,1.0,0.006943435441736449,0.13360602799019386,0.37120757602320165,1.0,2.9855624359983093,5.5709373513711595
0.69,63.94403276450587,-0.6370744022763453,754.6987588232732,99.26268336528872,-1.1075414724116073,4.928335037175468,99.39112356357246,17.860918169285128,3.2846129475041406,5.325723948048784,-4.138182302249547,4.736158360789152,2.090017569265805,-5.624903528024628,2.640065943436935,-2.23045563494601,5934.789366018577,0.30261636424043414,102.09819972195608,2.1195051455262015,1.1386732988969561,92581.1245054431,283.2444580676487,-2.1339448497073206,9.936028048231078,0.36700350602888476,399.17565789473684,0.21423467904283902,0.85,nominal,12340.364304828916,nan,heading_hold,7.499999999999999,-2.0,0.0,-2.0449973768543948,-0.8155201045792579,-2.9797239232226227,-2.0259906092233053,-0.8958451283302046,-3.22591223305896,0.85,0.0,0.0,0.0,0.0,0.0,0.0,-0.03536020674543248,-0.0156354470773132,-0.05630278984724151,-0.03536020674543248,-0.0156354470773132,-0.05630278984724151,0.69,1.0,20.620359931201342,0.35710333891626095,2.517279811867715,0.07877704983028283,0.03239450273725937,-0.09985917724672429,20.776512318919067,0.1312519815772313,1.0,0.0,58.892070651993265,0.300145089756893,755.3845974338865,98.12886718291023,-0.9546039092677694,5.104261427412436,1.0,754.4118767263516,0.0,1.0,101.79277448519834,5913.352751823037,1.0,1.0,-2.9629499173194502,19.928074500244794,-0.6939104866650619,-43.62247044709468,1.0,754.7411918849815,1.0,0.006943435441736449,0.13360602799019386,0.37120757602320165,1.0,2.9855624359983093,5.5709373513711595
0.72,66.94015889477627,-0.6714982442660011,754.8417351957181,99.87087100901336,-1.1474613996551957,4.765879081495925,99.99110534033576,17.854491128913843,3.443056739302604,5.254703068137532,-4.3009888514209615,4.781100232284108,2.0462124462458604,-5.533375578958083,2.6737103072549395,-1.9568966654713875,6007.967461339958,0.3044789581460989,102.72644230237934,2.1180210149787873,1.138657398704486,92579.52796084643,283.2435287212278,-2.18010002214101,9.750549500261652,0.3438186875327065,399.1421052631579,0.21421667158893948,0.85,nominal,12401.57927604815,nan,heading_hold,7.499999999999999,-2.0,0.0,-2.073249743629158,-0.6933379284541372,-2.6058695609968,-2.054346089866817,-0.7743408084045642,-2.853886629821664,0.85,0.0,0.0,0.0,0.0,0.0,0.0,-0.035855103243647275,-0.013514796639214224,-0.049809718169032624,-0.035855103243647275,-0.013514796639214224,-0.049809718169032624,0.72,1.0,20.585978643782823,0.3543142805178307,2.5192907418113335,0.08045930311734827,0.03182796475945757,-0.09526533585612453,20.74258617370162,0.12869422292643445,1.0,0.0,58.892070651993265,0.300145089756893,755.3845974338865,98.12886718291023,-0.9546039092677694,5.104261427412436,1.0,754.681985419196,0.0,1.0,102.34015690273652,6004.41084246249,1.0,1.0,-4.788655198240749,20.007035634086474,-0.7647088472963991,-43.64731074954483,1.0,754.7882464174892,1.0,-0.016108036157827157,0.11860088707684538,0.37096522067023485,1.0,3.8961699847287394,5.552694357202538
0.75,69.95450414813362,-0.7072094957835087,754.9798698420257,100.47817511191157,-1.1903750505835864,4.604488210249848,100.5906654628517,17.848064628766174,3.6023828240414404,5.184650402048974,-4.460715870820242,4.826501680205495,2.0048909559972574,-5.435623865911233,2.7072555581045554,-1.6829213957319267,6081.830203132141,0.30634744484608173,103.35667669611577,2.1165437851192417,1.138642037114599,92577.98550252283,283.2426308460268,-2.229254310367442,9.553103539478077,0.3191379424347595,399.10855263157896,0.21419866413503993,0.85,nominal,12463.064329715973,nan,heading_hold,7.499999999999999,-2.0,0.0,-2.101667848850408,-0.5706933745494032,-2.2309172364093506,-2.0827391452569715,-0.6521523480914676,-2.4801049937742756,0.85,0.0,0.0,0.0,0.0,0.0,0.0,-0.036350655544906595,-0.011382205698808268,-0.04328599793651458,-0.036350655544906595,-0.011382205698808268,-0.04328599793651458,0.75,1.0,20.632743266271355,0.31656316753431485,2.584684291606863,0.08728110110251948,0.04354583871562132,-0.0973946889245813,20.7964155521615,0.1378403283144345,1.0,0.0,58.892070651993265,0.300145089756893,755.3845974338865,98.12886718291023,-0.9546039092677694,5.104261427412436,1.0,754.681985419196,0.0,1.0,103.68546082424704,6171.363008748155,1.0,1.0,-4.788655198240749,20.007035634086474,-0.7647088472963991,-43.64731074954483,1.0,754.7882464174892,1.0,-0.016108036157827157,0.11860088707684538,0.37096522067023485,1.0,3.8961699847287394,5.552694357202538
0.78,72.98704131372509,-0.7442980284241253,755.1131957748261,101.08457218638193,-1.236284421353888,4.444197760014241,101.18977234387108,17.841638668842123,3.762612497641786,5.115535273900668,-4.617199466046215,4.872765940713185,1.965416738083984,-5.332314001423681,2.740725263685332,-1.4092519509149732,6156.367919084601,0.30822147327465366,103.98878451568733,2.115075629653596,1.1386272104394293,92576.4967596608,283.2417642274636,-2.2811928971166324,9.344549236884514,0.2930686546105642,399.075,0.2141806566811404,0.85,nominal,12524.815834847426,nan,heading_hold,7.499999999999999,-2.0,0.0,-2.1300427614887716,-0.44792137065856624,-1.8558668145477224,-2.1111213149960517,-0.5296137616317268,-2.1055620862383435,0.85,0.0,0.0,0.0,0.0,0.0,0.0,-0.03684601785571344,-0.009243503904346048,-0.03674899101001988,-0.03684601785571344,-0.009243503904346048,-0.03674899101001988,0.78,1.0,20.582555903447915,0.215150960312948,2.6848327400367764,0.08098168752536791,0.0349634738951516,-0.09412177865764842,20.75803999168167,0.12899374961195847,1.0,0.0,58.892070651993265,0.300145089756893,755.3845974338865,98.12886718291023,-0.9546039092677694,5.104261427412436,1.0,754.1880052421307,0.0,1.0,103.58973195945069,6124.425352511284,1.0,1.0,-4.30264402907608,20.080171228000044,-0.9340251321912464,-43.57789172244919,1.0,754.9002091526164,1.0,-0.016551061602945144,0.14172031210176433,0.3707390035209783,1.0,3.6487964701045854,4.81491926997148
0.8099999999999999,76.03774249084456,-0.78285365721598,755.2417470865014,101.69003923731613,-1.285187626395156,4.285043722509077,101.78839514908243,17.835213249141688,3.923781444418504,5.0473337068791695,-4.770296858583336,4.920298176834865,1.9275681571926906,-5.224143268012855,2.774144303258872,-1.1366016121059856,6231.569034869672,0.3101006531929117,104.62263415636347,2.113618790569202,1.1386129148717645,92575.06134948797,283.2409286439377,-2.335688880630425,9.125793994959292,0.26572424936991146,399.0414473684211,0.21416264922724088,0.85,nominal,12586.830172578713,nan,heading_hold,7.499999999999999,-2.0,0.0,-2.1583093713176713,-0.32534379721868967,-1.4817135766412162,-2.1394341487890234,-0.40705178298390454,-1.7312529804800671,0.85,0.0,0.0,0.0,0.0,0.0,0.0,-0.03734017002597071,-0.0071043938391825625,-0.030216064694342293,-0.03734017002597071,-0.0071043938391825625,-0.030216064694342293,0.8099999999999999,1.0,20.576846235776117,0.15520217017261928,2.7061792074410755,0.08755589585213494,0.03267803171158696,-0.0943436114170497,20.754616224521868,0.13279535259271935,1.0,0.0,58.892070651993265,0.300145089756893,755.3845974338865,98.12886718291023,-0.9546039092677694,5.104261427412436,1.0,754.1880052421307,0.0,1.0,104.81712174103261,6334.888930544234,1.0,1.0,-4.30264402907608,20.080171228000044,-0.9340251321912464,-43.57789172244919,1.0,754.9002091526164,1.0,-0.016551061602945144,0.14172031210176433,0.3707390035209783,1.0,3.6487964701045854,4.81491926997148
0.84,79.10657910435246,-0.822966030208122,755.3655589749741,102.2945537835967,-1.3370790997380675,4.127062949087956,102.38650381222052,17.82878836966487,4.085939736269659,4.980014595500203,-4.919886209063797,4.969507692618756,1.891575436760346,-5.111833399599186,2.8075250738669766,-0.8656714915523025,6307.419987409468,0.311984554287137,105.25808049191447,2.1121753643712706,1.1385991464821692,92573.6788769815,283.24012386666266,-2.392504261632048,8.897789599621962,0.23722369995274525,399.0078947368421,0.2141446417733413,0.85,nominal,12649.103740366852,nan,heading_hold,7.499999999999999,-2.0,0.0,-2.186566995868101,-0.20327198769055455,-1.109443423967005,-2.16771385703647,-0.28478390580789453,-1.3581672465722299,0.85,0.0,0.0,0.0,0.0,0.0,0.0,-0.037833744046392045,-0.004970416813037162,-0.02370449024543108,-0.037833744046392045,-0.004970416813037162,-0.02370449024543108,0.84,1.0,20.55701001343717,0.022141984223992633,2.7722955270842116,0.08651779526083975,0.031222704319471963,-0.08720823568492517,20.74311388026187,0.1267496056526221,1.0,0.0,78.09740384285499,1.2016673722208275,754.7334656391452,102.35208499345907,-1.2731653354515962,4.082412790894985,1.0,755.2816915368377,0.0,1.0,105.8011726949966,6282.6980871955175,1.0,1.0,-3.5060499845626714,20.227066171646996,-1.0168195558284583,-43.57867623806154,1.0,754.9893648125181,1.0,0.004473332519132329,0.13805201031401151,0.3705287008541883,1.0,4.957978902987941,4.994026692899919
0.87,82.19352192607582,-0.8647245229021561,755.4846677431626,102.89809405744535,-1.3919497564678045,3.9702922729521,102.98406918311231,17.82236403041167,4.249151990637598,4.913544429340321,-5.0658673980344595,5.020810690396897,1.8575012795337478,-4.9961237696436225,2.8408729088935405,-0.5971474079688769,6383.9051712991195,0.3138727061188011,105.89496485771856,2.110747434328724,1.1385859012190362,92572.3489348735,283.2393496596694,-2.451390978612336,8.66152807909168,0.20769100988646,398.9743421052632,0.2141266343194418,0.85,nominal,12711.632969679516,nan,heading_hold,7.499999999999999,-2.0,0.0,-2.2148602030449354,-0.0820086430595227,-0.7400221534331285,-2.1960016646415492,-0.16311874815887145,-0.987280190688769,0.85,0.0,0.0,0.0,0.0,0.0,0.0,-0.03832745942727137,-0.002846959227103745,-0.017231289967236482,-0.03832745942727137,-0.002846959227103745,-0.017231289967236482,0.87,1.0,20.505817883721857,0.10044009528970599,2.9032240987952203,0.08519590974885066,0.038166571083959294,-0.0908928591422584,20.71056168868759,0.13029405983887238,1.0,0.0,78.09740384285499,1.2016673722208275,754.7334656391452,102.35208499345907,-1.2731653354515962,4.082412790894985,1.0,755.2816915368377,0.0,1.0,105.94442818268895,6384.123110159604,1.0,1.0,-3.5060499845626714,20.227066171646996,-1.0168195558284583,-43.57867623806154,1.0,754.9893648125181,1.0,0.004473332519132329,0.13805201031401151,0.3705287008541883,1.0,4.957978902987941,4.994026692899919
0.8999999999999999,85.29854109939349,-0.9082181384457972,755.5991107899049,103.50063911058893,-1.4497871847880388,3.814768224743846,103.58106311382434,17.815940231382086,4.413497597326551,4.84789352958162,-5.208162835422685,5.074632007037843,1.8251903297985286,-4.877766170596203,2.874192709212917,-0.3316969482639238,6461.006897888709,0.31576459838837206,106.53311513974005,2.1093371617292767,1.13857317490959,92571.07110375116,283.2386057798656,-2.512091986901474,8.418037387654675,0.17725467345683427,398.9407894736842,0.21410862686554225,0.85,nominal,12774.41433772285,nan,heading_hold,7.499999999999999,-2.0,0.0,-2.243157655808917,0.03815090958506908,-0.37438946398313133,-2.22429525934197,-0.06524749926354859,-0.6195457546653864,0.85,0.0,0.0,0.0,0.0,0.0,0.0,-0.03882127581201853,-0.0011387836908414981,-0.010813113285664012,-0.03882127581201853,-0.0011387836908414981,-0.010813113285664012,0.8999999999999999,1.0,20.569770388604347,0.06958747385753519,3.0323089613413914,0.09294257784714487,0.025477542698117837,-0.08441362058968405,20.792190694908832,0.12811357188005543,1.0,0.0,78.09740384285499,1.2016673722208275,754.7334656391452,102.35208499345907,-1.2731653354515962,4.082412790894985,1.0,754.9858972862818,0.0,1.0,106.45998562962788,6414.520907088377,1.0,1.0,-4.164948944199201,20.36927310961339,-1.260207768125179,-43.505541868280545,1.0,755.7270868803033,1.0,0.004030485695819149,0.15429960149520988,0.3703340743417459,1.0,4.911806753815605,4.579682218785125
0.9299999999999999,88.42160616420614,-0.9535354146463508,755.7089266073618,104.10216882708848,-1.5105758733517864,3.6605272485658036,104.17745847211995,17.80951697257612,4.578480269705323,4.783035090502416,-5.346717970785976,5.111716554543462,1.7945334298143583,-4.757521327066872,2.907488861214113,-0.06993642991594966,6538.70536768515,0.31765968151412094,107.1723459697643,2.107946682336733,1.1385609632601619,92569.84495208433,283.23789197705213,-2.57434237680886,8.16837693312039,0.1460471166400488,398.90723684210525,0.21409061941164267,0.85,nominal,12837.444371969224,nan,heading_hold,7.499999999999999,-2.0,0.0,-2.2714390316446704,0.17441210746540958,-0.01342983226701784,-2.2525815227235904,0.0785482647738263,-0.24781830186615456,0.85,0.0,0.0,0.0,0.0,0.0,0.0,-0.039314964241114116,0.001370925842031548,-0.004325245314265605,-0.039314964241114116,0.001370925842031548,-0.004325245314265605,0.9299999999999999,1.0,20.53938404572096,0.07415430127708529,2.979477862684668,0.0814000065116131,0.02944029811567752,-0.08108343789334331,20.754495517170312,0.1186052954712996,1.0,0.0,78.09740384285499,1.2016673722208275,754.7334656391452,102.35208499345907,-1.2731653354515962,4.082412790894985,1.0,754.9858972862818,0.0,1.0,106.23425427157848,6530.930664264557,1.0,1.0,-4.164948944199201,20.36927310961339,-1.260207768125179,-43.505541868280545,1.0,755.7270868803033,1.0,0.004030485695819149,0.15429960149520988,0.3703340743417459,1.0,4.911806753815605,4.579682218785125
0.96,91.5626861573296,-1.0007634769780167,755.8141548491104,104.70266643744847,-1.5742687443888645,3.5076080582848532,104.77323129254773,17.80309425399377,4.744852914427576,4.718926044960112,-5.481674360460565,5.173164475940497,1.7655523650406526,-4.641941615787066,2.9407534115050833,0.18766899188459465,6616.978669945742,0.31955736784677946,107.81245913505839,2.1065779523592734,1.1385492618486146,92568.67003546437,283.23720799348075,-2.637870525869851,7.913632967425933,0.1142041209282416,398.8736842105263,0.21407261195774313,0.85,nominal,12900.71987939188,nan,heading_hold,7.499999999999999,-2.0,0.0,-2.2998656889030866,0.28985050494787273,0.33973116020761557,-2.280952022431288,0.20532960887825416,0.1047113753781075,0.85,0.0,0.0,0.0,0.0,0.0,0.0,-0.039810122871449534,0.0035836777267577156,0.0018275582646396981,-0.039810122871449534,0.0035836777267577156,0.0018275582646396981,0.96,1.0,20.519261493103908,-0.20237671840883367,3.115293946346504,0.08881762596537877,0.025541594990084567,-0.07996432774583664,20.755387371250723,0.12220980921598322,1.0,0.0,78.09740384285499,1.2016673722208275,754.7334656391452,102.35208499345907,-1.2731653354515962,4.082412790894985,1.0,755.601105177605,0.0,1.0,107.90123268856922,6677.244297068844,1.0,1.0,-3.469617160126832,20.38236432217979,-1.2736206245361494,-43.3892275869539,1.0,756.0605632842517,1.0,-0.008829569338064787,0.1380153879267471,0.3701548709590746,1.0,4.62085496336684,4.739518605286054
0.99,94.7217494306718,-1.049990407237015,755.9148361049399,105.302109111407,-1.6408976752999431,3.356041860984277,105.36835267509952,17.796672075635037,4.912955884295601,4.655564314129241,-5.612884118570282,5.246034725203382,1.7376170002053763,-4.521360035170924,2.973999809325236,0.4403428676675198,6695.802814445769,0.3214570336039927,108.45324423122672,2.1052336603495547,1.1385380661493694,92567.54589911697,283.2365535653179,-2.702399280731596,7.654913860443975,0.08186423255549694,398.84013157894736,0.21405460450384362,0.85,nominal,12964.237100220584,nan,heading_hold,7.499999999999999,-2.0,0.0,-2.3280337605012984,0.3965832999948434,0.6884994453114556,-2.309201065273294,0.32008182354820763,0.45498421733811634,0.85,0.0,0.0,0.0,0.0,0.0,0.0,-0.04030316167957947,0.005586481696703742,0.0079409726371596,-0.04030316167957947,0.005586481696703742,0.0079409726371596,0.99,1.0,20.474682805759056,-0.09549952697271019,3.2263838244117915,0.0894378711717675,0.036299499762580865,-0.07052827473340349,20.72754951118254,0.11954507108041607,1.0,0.0,78.09740384285499,1.2016673722208275,754.7334656391452,102.35208499345907,-1.2731653354515962,4.082412790894985,1.0,755.601105177605,0.0,1.0,108.07605862192919,6731.566753747003,1.0,1.0,-3.469617160126832,20.38236432217979,-1.2736206245361494,-43.3892275869539,1.0,756.0605632842517,1.0,-0.008829569338064787,0.1380153879267471,0.3701548709590746,1.0,4.62085496336684,4.739518605286054
1.02,97.89876383759923,-1.1013032462839603,756.0110120918519,105.90048023091437,-1.7104279682315107,3.205866230398407,105.96279939327765,17.79025043749992,5.0828801577431975,4.5929176950260135,-5.740296506538028,5.321743426212175,1.7114833712826971,-4.3990908112143945,3.007213048391828,0.6874619029678231,6775.151722949028,0.3233580197763422,109.09447896757091,2.1039153886905244,1.138527371512157,92566.47207576814,283.23592842140295,-2.7676471624728882,7.393345277557336,0.04916815969466701,398.8065789473684,0.21403659704994404,0.85,nominal,13027.99281936056,nan,heading_hold,7.499999999999999,-2.0,0.0,-2.356287489292542,0.5026520374825527,1.030879022344745,-2.337452919684843,0.4296239519088147,0.8005211003420936,0.85,0.0,0.0,0.0,0.0,0.0,0.0,-0.04079624955885508,0.007498352506238593,0.013971728932657437,-0.04079624955885508,0.007498352506238593,0.013971728932657437,1.02,1.0,20.472310146183087,-0.12336361642129177,3.273089582573699,0.09279119669130527,0.03294391055106881,-0.07665475235626834,20.73267509799254,0.12478565015498438,1.0,0.0,78.09740384285499,1.2016673722208275,754.7334656391452,102.35208499345907,-1.2731653354515962,4.082412790894985,1.0,755.0309719670364,0.0,1.0,109.13459175162906,6731.658589436561,1.0,1.0,-5.375783373643766,20.424297314238576,-1.514552415902127,-43.440736138306434,1.0,756.0424664622191,1.0,-0.0013448813543802795,0.14048112375265884,0.3699908232567901,1.0,5.6139741844162,5.287984510406105
1.05,101.0936967575479,-1.1547880562281925,756.1027255986347,106.49776399828897,-1.7828269981410747,3.057116892762804,106.55654917665349,17.783829339588422,5.254648787773127,4.530952477261313,-5.863927264638484,5.397851716346502,1.6870243505868827,-4.277352491154568,3.0403754224982844,0.9284795747198498,6854.997381320888,0.32525963679909925,109.7359307432226,2.1026248478321325,1.1385171731681736,92565.44808626184,283.23533228360884,-2.833329591106493,7.130065281982219,0.016258160247777338,398.7730263157895,0.21401858959604453,0.85,nominal,13091.983880210137,nan,heading_hold,7.499999999999999,-2.0,0.0,-2.384645193197192,0.6103561193601961,1.3654609775008801,-2.3657682837922525,0.5380632523796435,1.1394850266373655,0.85,0.0,0.0,0.0,0.0,0.0,0.0,-0.041290445891430404,0.009390975338013993,0.019887765491997316,-0.041290445891430404,0.009390975338013993,0.019887765491997316,1.05,1.0,20.371301732517605,-0.13583894078960915,3.291622017600603,0.09564688785614667,0.029725114036123008,-0.0701792007843946,20.635967677864365,0.1222989361513958,1.0,0.0,102.46826254734201,-0.21313003505983275,757.0091694633243,106.4890293490509,-1.660823213087131,3.044094815392267,1.0,755.0309719670364,0.0,1.0,109.16592057938375,6839.025630960727,1.0,1.0,-5.375783373643766,20.424297314238576,-1.514552415902127,-43.440736138306434,1.0,756.0424664622191,1.0,-0.0013448813543802795,0.14048112375265884,0.3699908232567901,1.0,5.6139741844162,5.287984510406105
1.08,104.3065151226808,-1.21052995555197,756.1900204370178,107.09394550443024,-1.858063310792581,2.9098279461034253,107.14958078148841,17.77740878190054,5.428332025296332,4.469648297472541,-5.983837614148557,5.4758220328453024,1.6636596077098291,-4.157621687305298,3.073480849968903,1.1629007723845988,6935.309932897394,0.3271611676642409,110.37735769703085,2.101364095165623,1.138507466235496,92564.47344010365,283.23476486715936,-2.899160123557087,6.866219383149544,-0.016722577106306955,398.7394736842105,0.21400058214214498,0.85,nominal,13156.207194743036,nan,heading_hold,7.499999999999999,-2.0,0.0,-2.4129486208134066,0.7184438155705863,1.6912328234628993,-2.394076486004945,0.6462915902942092,1.4705337047326856,0.85,0.0,0.0,0.0,0.0,0.0,0.0,-0.041784517225362236,0.011279916178584178,0.025665654909135485,-0.041784517225362236,0.011279916178584178,0.025665654909135485,1.08,1.0,20.34557592293077,-0.08533138018221398,3.39643009034409,0.0953257094528577,0.031959828526127596,-0.07024256938440378,20.627299349133875,0.12264762564286723,1.0,0.0,102.46826254734201,-0.21313003505983275,757.0091694633243,106.4890293490509,-1.660823213087131,3.044094815392267,1.0,756.6538419700016,0.0,1.0,110.44727187024239,6871.617438784039,1.0,1.0,-5.486784214134122,20.525640296478716,-1.5481295406231745,-43.276432357135526,1.0,756.614491727013,1.0,0.0024741102937833707,0.14316048167907872,0.36984164963581856,1.0,5.353912087433928,4.07094715854111
1.1099999999999999,107.53718544068636,-1.2686131343552975,756.2729414299556,107.68901060018484,-1.936105960110916,2.7640330979284857,107.741873889876,17.770988764436275,5.604078126309099,4.4089853080688,-6.100119476038471,5.558187557012998,1.6412596820968637,-4.040922464300146,3.1065222216085053,1.3902690523952694,7016.05778145435,0.3290618711366189,111.01850979253159,2.100135045615843,1.1384982457203734,92563.54763558983,283.23422588070525,-2.96485169968297,6.602955552688385,-0.04963055591395179,398.7059210526316,0.21398257468824547,0.85,nominal,13220.659735725047,nan,heading_hold,7.499999999999999,-2.0,0.0,-2.4411912579246806,0.8247523259867444,2.007424056634761,-2.422345349156786,0.7533680317097303,1.792667915873931,0.85,0.0,0.0,0.0,0.0,0.0,0.0,-0.04227790196315757,0.013148752632603839,0.031287957526864814,-0.04227790196315757,0.013148752632603839,0.031287957526864814,1.1099999999999999,1.0,20.306859566747644,-0.2252242410619233,3.427907792119615,0.09806352272433433,0.024506534195536993,-0.07671438702358542,20.595383542280697,0.12689413652248677,1.0,0.0,102.46826254734201,-0.21313003505983275,757.0091694633243,106.4890293490509,-1.660823213087131,3.044094815392267,1.0,756.6538419700016,0.0,1.0,110.78217544931,6937.892930229585,1.0,1.0,-5.486784214134122,20.525640296478716,-1.5481295406231745,-43.276432357135526,1.0,756.614491727013,1.0,0.0024741102937833707,0.14316048167907872,0.36984164963581856,1.0,5.353912087433928,4.07094715854111
1.14,110.78567381940513,-1.329120855124152,756.3515343937643,108.28294595729265,-2.016924025628481,2.6197654602898313,108.3334091533265,17.764569287195627,5.782094065644203,4.348939332696283,-6.212887433025723,5.646863168743374,1.6198655067142973,-3.9280297916837683,3.139487170740351,1.6101624164942756,7097.207741993081,0.3309609859583318,111.65913023631396,2.098939371391693,1.1384895065192018,92562.6701600053,283.2337150264405,-3.0301178909852085,6.341419229696583,-0.0823225962879272,398.6723684210526,0.2139645672343459,0.85,nominal,13285.33854415363,nan,heading_hold,7.499999999999999,-2.0,0.0,-2.4694264394018255,0.9277449193194568,2.3134125793493516,-2.45059400330381,0.8579941642755662,2.1051147139591833,0.85,0.0,0.0,0.0,0.0,0.0,0.0,-0.042770933987280275,0.014974823129505738,0.03674118289076638,-0.042770933987280275,0.014974823129505738,0.03674118289076638,1.14,1.0,20.391196829628043,-0.30341013766924874,3.6129801393031866,0.09785848433859952,0.029371458826508524,-0.06742227714981724,20.71102583995473,0.1224121276945711,1.0,0.0,102.46826254734201,-0.21313003505983275,757.0091694633243,106.4890293490509,-1.660823213087131,3.044094815392267,1.0,756.7076551721099,0.0,1.0,111.76840617575556,7166.259437734882,1.0,1.0,-6.182878580632499,20.635504494349195,-1.7481206137986096,-43.337685800326206,1.0,756.5994546967382,1.0,-0.0013976220631678696,0.15530472258576675,0.36970705467186316,1.0,5.277063392943121,4.021669805618616
1.17,114.05194599431749,-1.3921354455531403,756.4258461046563,108.87573916374522,-2.100486347632943,2.4770570297371486,108.92416826800674,17.758150350178596,5.962615238016593,4.289487726395989,-6.322275591764419,5.7427645091268005,1.5993225799839015,-3.8195969185852787,3.1723641286370134,1.8221933817858917,7178.725224439387,0.33285773565453575,112.29895709930884,2.0977787102722756,1.1384812434222338,92561.84048999558,283.23323200031973,-3.0946741465854597,6.0827483370302255,-0.1146564578712218,398.6388157894737,0.21394655978044638,0.85,nominal,13350.24074014075,nan,heading_hold,7.499999999999999,-2.0,0.0,-2.4976382780193727,1.026832074112276,2.6086723270623864,-2.478820568133147,0.9592969101775921,2.4072492818211053,0.85,0.0,0.0,0.0,0.0,0.0,0.0,-0.04326358048007985,0.016742889586807284,0.04201442588404716,-0.04326358048007985,0.016742889586807284,0.04201442588404716,1.17,1.0,20.288395281414967,-0.2889505216096429,3.657726940820465,0.10422635377367095,0.024816907164609867,-0.06894346921573498,20.61750328901352,0.12740570493377554,1.0,0.0,102.46826254734201,-0.21313003505983275,757.0091694633243,106.4890293490509,-1.660823213087131,3.044094815392267,1.0,756.7076551721099,0.0,1.0,112.95808437829045,7202.898924455528,1.0,1.0,-6.182878580632499,20.635504494349195,-1.7481206137986096,-43.337685800326206,1.0,756.5994546967382,1.0,-0.0013976220631678696,0.15530472258576675,0.36970705467186316,1.0,5.277063392943121,4.021669805618616
