time_s,sensor_time_s,imu_valid,imu_ax_mps2,imu_ay_mps2,imu_az_mps2,gyro_p_rps,gyro_q_rps,gyro_r_rps,imu_accel_norm_mps2,imu_gyro_norm_rps,gps_valid,gps_latency_s,gps_x_m,gps_y_m,gps_z_m,gps_vx_mps,gps_vy_mps,gps_vz_mps,baro_valid,baro_alt_m,baro_bias_m,pitot_valid,pitot_airspeed_mps,pitot_qbar_pa,pitot_compressibility_factor,mag_valid,mag_heading_deg,mag_x_ut,mag_y_ut,mag_z_ut,radar_valid,radar_agl_m,optical_flow_valid,optical_flow_x_radps,optical_flow_y_radps,optical_flow_quality,horizon_valid,horizon_roll_deg,horizon_pitch_deg
0.0,0.0,1.0,16.814264143952194,1.260259370746404,0.8286042313486423,-0.0022319153689813204,-0.0039015279865140195,-0.0023592222364778276,16.881774709915998,0.005076346757751937,1.0,0.0,-0.7785414889531648,-0.7699426628116489,749.9804323702161,85.939862586848,-0.9434081530172551,9.010771297708263,1.0,749.8555948662996,0.0,1.0,88.65372415368083,4500.244903264226,1.0,1.0,-0.5737756339655435,18.843798690923343,0.06929347722390143,-44.11802215367801,1.0,750.0321065721554,1.0,-0.007201073526722839,0.11474759090463373,0.375,1.0,-0.5314886576265022,6.887296576438832
0.03,0.03,1.0,17.06953998725059,1.042774012181997,1.4699931782750275,0.03213668082888313,-0.1159918628715981,-0.05889908910149277,17.164424049789847,0.13399992986605144,1.0,0.0,-0.7785414889531648,-0.7699426628116489,749.9804323702161,85.939862586848,-0.9434081530172551,9.010771297708263,1.0,749.8555948662996,0.0,1.0,89.18436850417089,4518.82341569258,1.0,1.0,-0.5737756339655435,18.843798690923343,0.06929347722390143,-44.11802215367801,1.0,750.0321065721554,1.0,-0.007201073526722839,0.11474759090463373,0.375,1.0,-0.5314886576265022,6.887296576438832
0.06,0.06,1.0,17.414514023811613,0.7765352234897894,1.6527133875059923,0.048147159834258775,-0.0045007807113480805,-0.09611908989955363,17.509990496287916,0.10759779491344502,1.0,0.0,-0.7785414889531648,-0.7699426628116489,749.9804323702161,85.939862586848,-0.9434081530172551,9.010771297708263,1.0,751.3524582582847,0.0,1.0,90.36330874981866,4667.2169070234595,1.0,1.0,-1.9250265679986285,18.58774956668884,-0.0026429666763115485,-44.18863542104368,1.0,749.9279462233048,1.0,-0.0017455409200198674,0.10652064095734959,0.37456514126891227,1.0,0.2120171273103045,7.276761013267143
0.09,0.09,1.0,17.686526707783027,0.8210355155750776,1.413246262941204,0.07399098711411019,0.09849094532712407,-0.11599433097383713,17.761885916272384,0.16920347899384053,1.0,0.0,-0.7785414889531648,-0.7699426628116489,749.9804323702161,85.939862586848,-0.9434081530172551,9.010771297708263,1.0,751.3524582582847,0.0,1.0,90.15833614869628,4688.161863269871,1.0,1.0,-1.9250265679986285,18.58774956668884,-0.0026429666763115485,-44.18863542104368,1.0,749.9279462233048,1.0,-0.0017455409200198674,0.10652064095734959,0.37456514126891227,1.0,0.2120171273103045,7.276761013267143
0.12,0.12,1.0,17.95071858518559,0.6712358248492151,1.2922055621647732,0.06857418605174283,0.09941466500977968,-0.11330705180085521,18.00968213134196,0.16560248367541908,1.0,0.0,-0.7785414889531648,-0.7699426628116489,749.9804323702161,85.939862586848,-0.9434081530172551,9.010771297708263,1.0,752.092205277,0.0,1.0,90.78998199244496,4701.933278297039,1.0,1.0,-1.3586891894909838,18.774588110460506,-0.11167840860253428,-44.208327378553825,1.0,750.7851260233888,1.0,-0.008217499827641122,0.13769888093893198,0.3741488527810395,1.0,0.9532823601812825,7.158246413801593
0.15,0.15,1.0,18.308795611911687,0.5453685705951047,1.4285331161649493,0.06637107544272551,0.052326262911005166,-0.12411644671182813,18.372537399622555,0.15016008054747995,1.0,0.0,-0.7785414889531648,-0.7699426628116489,749.9804323702161,85.939862586848,-0.9434081530172551,9.010771297708263,1.0,752.092205277,0.0,1.0,91.62841780064123,4787.056016760341,1.0,1.0,-1.3586891894909838,18.774588110460506,-0.11167840860253428,-44.208327378553825,1.0,750.7851260233888,1.0,-0.008217499827641122,0.13769888093893198,0.3741488527810395,1.0,0.9532823601812825,7.158246413801593
0.18,0.18,1.0,18.635012794973473,0.7460185485770611,1.4590473263905488,0.0692174839142881,0.02765360050358312,-0.11722762366684683,18.70692557969624,0.1389175923013798,1.0,0.0,-0.7785414889531648,-0.7699426628116489,749.9804323702161,85.939862586848,-0.9434081530172551,9.010771297708263,1.0,751.1467886899404,0.0,1.0,92.37052694106096,4720.738867785776,1.0,1.0,-2.53539941287477,19.00363572872349,-0.14455867183239315,-44.10547696482573,1.0,751.4265284949997,1.0,-0.0028508367461524448,0.13284945238806264,0.3737514808900535,1.0,0.6566427443683691,6.79115352845316
0.21,0.21,1.0,18.990896948830393,0.7026822723390597,1.5328855716513774,0.06821061211248393,0.04722595607215663,-0.10857317006781096,19.065614793987947,0.13664227673111573,1.0,0.0,19.547356705088855,0.5170704268853823,749.4535979156396,89.71428102991936,-1.1980297088929197,7.818313581318107,1.0,751.1467886899404,0.0,1.0,93.06562279487424,4827.647483431277,1.0,1.0,-2.53539941287477,19.00363572872349,-0.14455867183239315,-44.10547696482573,1.0,751.4265284949997,1.0,-0.0028508367461524448,0.13284945238806264,0.3737514808900535,1.0,0.6566427443683691,6.79115352845316
0.24,0.24,1.0,19.269666179974838,0.49788982127075687,1.7032766660216427,0.075602275056237,0.05769712343546796,-0.11968986484052359,19.351203589513624,0.15287356145504477,1.0,0.0,19.547356705088855,0.5170704268853823,749.4535979156396,89.71428102991936,-1.1980297088929197,7.818313581318107,1.0,752.0398899443375,0.0,1.0,93.32451846732975,4988.115664448419,1.0,1.0,-1.1672663794846068,19.141778313373155,-0.13427609941743535,-44.10099823270477,1.0,752.0303747316599,1.0,0.004766701584895119,0.1077339200851813,0.3733724973023078,1.0,0.9514530296653076,6.388637532346549
0.27,0.27,1.0,19.613473544899676,0.7231815449686176,1.7022440992333447,0.0720681799704529,0.050143084345488094,-0.10767559355128739,19.70048149200515,0.13893230336589962,1.0,0.0,19.547356705088855,0.5170704268853823,749.4535979156396,89.71428102991936,-1.1980297088929197,7.818313581318107,1.0,752.0398899443375,0.0,1.0,93.44064720330644,4954.14745060902,1.0,1.0,-1.1672663794846068,19.141778313373155,-0.13427609941743535,-44.10099823270477,1.0,752.0303747316599,1.0,0.004766701584895119,0.1077339200851813,0.3733724973023078,1.0,0.9514530296653076,6.388637532346549
0.3,0.3,1.0,19.843671990555418,0.6011758795283225,1.773886957896448,0.07362353567756806,0.05016268571053341,-0.11696789567682432,19.931869090636617,0.14703131864478516,1.0,0.0,19.547356705088855,0.5170704268853823,749.4535979156396,89.71428102991936,-1.1980297088929197,7.818313581318107,1.0,751.4266620419514,0.0,1.0,93.94035878300583,5079.210581549627,1.0,1.0,-1.5746914430149868,19.25820442650035,-0.28492614856653103,-43.98136898915936,1.0,752.1657142237814,1.0,-0.0008539732004298555,0.12098964923135454,0.37301154068207665,1.0,0.9097069271892898,5.699756785936627
0.32999999999999996,0.32999999999999996,1.0,20.2090082719579,0.5544020121369909,1.6720792892786045,0.07628816250484359,0.043015082167325844,-0.11093707496691045,20.285640884052906,0.14134077838487066,1.0,0.0,19.547356705088855,0.5170704268853823,749.4535979156396,89.71428102991936,-1.1980297088929197,7.818313581318107,1.0,751.4266620419514,0.0,1.0,94.16971552085174,5104.060528955057,1.0,1.0,-1.5746914430149868,19.25820442650035,-0.28492614856653103,-43.98136898915936,1.0,752.1657142237814,1.0,-0.0008539732004298555,0.12098964923135454,0.37301154068207665,1.0,0.9097069271892898,5.699756785936627
0.36,0.36,1.0,20.350857602800694,0.5533787031191523,1.8681693504488575,0.07199211186534978,0.043215042129745196,-0.10166880028842946,20.44391571789742,0.1318595805741746,1.0,0.0,19.547356705088855,0.5170704268853823,749.4535979156396,89.71428102991936,-1.1980297088929197,7.818313581318107,1.0,753.4461501851936,0.0,1.0,95.40710440589297,5235.983926982904,1.0,1.0,-0.8901071837176792,19.386559691583276,-0.3440143047754454,-43.872616009367015,1.0,752.7377298986928,1.0,-0.007828938965754425,0.13665700427458735,0.3726682846506152,1.0,1.5480230663095185,6.132000491358638
0.39,0.39,1.0,20.82033084435085,0.6190653717428231,1.7707021048849765,0.07759125116485169,0.05183655227026612,-0.10628012607787313,20.904659871592326,0.1414315933860739,1.0,0.0,19.547356705088855,0.5170704268853823,749.4535979156396,89.71428102991936,-1.1980297088929197,7.818313581318107,1.0,753.4461501851936,0.0,1.0,96.01636215272096,5312.609556425421,1.0,1.0,-0.8901071837176792,19.386559691583276,-0.3440143047754454,-43.872616009367015,1.0,752.7377298986928,1.0,-0.007828938965754425,0.13665700427458735,0.3726682846506152,1.0,1.5480230663095185,6.132000491358638
0.42,0.42,1.0,20.957196396476924,0.5685985552834533,1.952037146904478,0.07309428235432162,0.040704821454962826,-0.10671014448111345,21.05558914256428,0.1355976088939396,1.0,0.0,38.033222216935734,1.5599302869280463,751.9696341230111,93.63776425972534,-0.7804005904264095,6.268595558177665,1.0,753.7235185797233,0.0,1.0,97.0317051767497,5367.66909741875,1.0,1.0,-1.477326870250417,19.446014258851722,-0.3057697442787398,-43.77774343588297,1.0,752.9552040003731,1.0,-0.022475329987131816,0.11588553322711628,0.37234235874840327,1.0,2.476549556861317,6.543323514815611
0.44999999999999996,0.44999999999999996,1.0,20.81877813747634,0.4176122058526731,1.9036974673730849,0.0739569494508238,0.03599909851731316,-0.10133333293080166,20.90980600434214,0.13051440468007974,1.0,0.0,38.033222216935734,1.5599302869280463,751.9696341230111,93.63776425972534,-0.7804005904264095,6.268595558177665,1.0,753.7235185797233,0.0,1.0,96.92966891992216,5371.421226397719,1.0,1.0,-1.477326870250417,19.446014258851722,-0.3057697442787398,-43.77774343588297,1.0,752.9552040003731,1.0,-0.022475329987131816,0.11588553322711628,0.37234235874840327,1.0,2.476549556861317,6.543323514815611
0.48,0.48,1.0,20.857585483635976,0.4563516695990937,1.9500094107884924,0.07337050157093723,0.03985968920754332,-0.10922357467113566,20.95351201483159,0.13748387028460465,1.0,0.0,38.033222216935734,1.5599302869280463,751.9696341230111,93.63776425972534,-0.7804005904264095,6.268595558177665,1.0,753.8594426971166,0.0,1.0,97.95136073425762,5418.629635091621,1.0,1.0,-1.5420720244929738,19.58208387158026,-0.46249159113170074,-43.83761125418133,1.0,753.3636766803535,1.0,-0.005256094990878059,0.12348932835718211,0.3720334951460683,1.0,3.0679051548258247,5.9101866820967155
0.51,0.51,1.0,20.8709377706601,0.46886480075248155,2.0724022871736967,0.08276424313338976,0.03817809779894923,-0.1126204139399601,20.978816193199123,0.14488217533222278,1.0,0.0,38.033222216935734,1.5599302869280463,751.9696341230111,93.63776425972534,-0.7804005904264095,6.268595558177665,1.0,753.8594426971166,0.0,1.0,98.73235141611397,5550.032497401896,1.0,1.0,-1.5420720244929738,19.58208387158026,-0.46249159113170074,-43.83761125418133,1.0,753.3636766803535,1.0,-0.005256094990878059,0.12348932835718211,0.3720334951460683,1.0,3.0679051548258247,5.9101866820967155
0.54,0.54,1.0,20.899755724531,0.4619716925122851,2.133811433997103,0.07145378564300608,0.03771527660374476,-0.10740382250024669,21.013480397725786,0.13440114084217492,1.0,0.0,38.033222216935734,1.5599302869280463,751.9696341230111,93.63776425972534,-0.7804005904264095,6.268595558177665,1.0,754.108741514039,0.0,1.0,98.76828719733697,5580.016690097594,1.0,1.0,-5.266985195581839,19.707140174621752,-0.5427588762991571,-43.67716632292242,1.0,754.1467520295089,1.0,-0.010548342974791472,0.11930898271566658,0.37174152456143106,1.0,2.103783878459366,6.045618232017203
0.57,0.57,1.0,20.742787834584384,0.4637483733443716,2.266947923989374,0.07788605653774495,0.04576932286770442,-0.09885569364119424,20.871448502546276,0.13391608149901427,1.0,0.0,38.033222216935734,1.5599302869280463,751.9696341230111,93.63776425972534,-0.7804005904264095,6.268595558177665,1.0,754.108741514039,0.0,1.0,99.45094581521917,5606.040227529305,1.0,1.0,-5.266985195581839,19.707140174621752,-0.5427588762991571,-43.67716632292242,1.0,754.1467520295089,1.0,-0.010548342974791472,0.11930898271566658,0.37174152456143106,1.0,2.103783878459366,6.045618232017203
0.6,0.6,1.0,20.68569251683815,0.41922283031348273,2.237426894473185,0.07816975813398476,0.03676250744662671,-0.10198170506720348,20.810567070378976,0.13364977070277015,1.0,0.0,38.033222216935734,1.5599302869280463,751.9696341230111,93.63776425972534,-0.7804005904264095,6.268595558177665,1.0,755.5184037195024,0.0,1.0,100.31255360374786,5716.845637651836,1.0,1.0,-4.530135938811092,19.79971533505216,-0.6298206085021357,-43.66143022318442,1.0,754.8465686244472,1.0,-0.011947406592021925,0.12858730538031446,0.37146627891236916,1.0,2.4154738117199437,4.938769930308646
0.63,0.63,1.0,20.67140229280522,0.291592160045668,2.3124164442854465,0.08054720374245503,0.030588681519340622,-0.09982873083157001,20.80238372279953,0.13186847601781962,1.0,0.0,58.892070651993265,0.300145089756893,755.3845974338865,98.12886718291023,-0.9546039092677694,5.104261427412436,1.0,755.5184037195024,0.0,1.0,100.77965456864204,5851.7167772550665,1.0,1.0,-4.530135938811092,19.79971533505216,-0.6298206085021357,-43.66143022318442,1.0,754.8465686244472,1.0,-0.011947406592021925,0.12858730538031446,0.37146627891236916,1.0,2.4154738117199437,4.938769930308646
0.6599999999999999,0.6599999999999999,1.0,20.752634765816254,0.32400363854645986,2.356220378696124,0.08509104008597353,0.03650904444976311,-0.09254664074570057,20.888480139879487,0.13091323899003224,1.0,0.0,58.892070651993265,0.300145089756893,755.3845974338865,98.12886718291023,-0.9546039092677694,5.104261427412436,1.0,754.4118767263516,0.0,1.0,101.09351918708492,5735.162436646031,1.0,1.0,-2.9629499173194502,19.928074500244794,-0.6939104866650619,-43.62247044709468,1.0,754.7411918849815,1.0,0.006943435441736449,0.13360602799019386,0.37120757602320165,1.0,2.9855624359983093,5.5709373513711595
0.69,0.69,1.0,20.620359931201342,0.35710333891626095,2.517279811867715,0.07877704983028283,0.03239450273725937,-0.09985917724672429,20.776512318919067,0.1312519815772313,1.0,0.0,58.892070651993265,0.300145089756893,755.3845974338865,98.12886718291023,-0.9546039092677694,5.104261427412436,1.0,754.4118767263516,0.0,1.0,101.79277448519834,5913.352751823037,1.0,1.0,-2.9629499173194502,19.928074500244794,-0.6939104866650619,-43.62247044709468,1.0,754.7411918849815,1.0,0.006943435441736449,0.13360602799019386,0.37120757602320165,1.0,2.9855624359983093,5.5709373513711595
0.72,0.72,1.0,20.585978643782823,0.3543142805178307,2.5192907418113335,0.08045930311734827,0.03182796475945757,-0.09526533585612453,20.74258617370162,0.12869422292643445,1.0,0.0,58.892070651993265,0.300145089756893,755.3845974338865,98.12886718291023,-0.9546039092677694,5.104261427412436,1.0,754.681985419196,0.0,1.0,102.34015690273652,6004.41084246249,1.0,1.0,-4.788655198240749,20.007035634086474,-0.7647088472963991,-43.64731074954483,1.0,754.7882464174892,1.0,-0.016108036157827157,0.11860088707684538,0.37096522067023485,1.0,3.8961699847287394,5.552694357202538
0.75,0.75,1.0,20.632743266271355,0.31656316753431485,2.584684291606863,0.08728110110251948,0.04354583871562132,-0.0973946889245813,20.7964155521615,0.1378403283144345,1.0,0.0,58.892070651993265,0.300145089756893,755.3845974338865,98.12886718291023,-0.9546039092677694,5.104261427412436,1.0,754.681985419196,0.0,1.0,103.68546082424704,6171.363008748155,1.0,1.0,-4.788655198240749,20.007035634086474,-0.7647088472963991,-43.64731074954483,1.0,754.7882464174892,1.0,-0.016108036157827157,0.11860088707684538,0.37096522067023485,1.0,3.8961699847287394,5.552694357202538
0.78,0.78,1.0,20.582555903447915,0.215150960312948,2.6848327400367764,0.08098168752536791,0.0349634738951516,-0.09412177865764842,20.75803999168167,0.12899374961195847,1.0,0.0,58.892070651993265,0.300145089756893,755.3845974338865,98.12886718291023,-0.9546039092677694,5.104261427412436,1.0,754.1880052421307,0.0,1.0,103.58973195945069,6124.425352511284,1.0,1.0,-4.30264402907608,20.080171228000044,-0.9340251321912464,-43.57789172244919,1.0,754.9002091526164,1.0,-0.016551061602945144,0.14172031210176433,0.3707390035209783,1.0,3.6487964701045854,4.81491926997148
0.8099999999999999,0.8099999999999999,1.0,20.576846235776117,0.15520217017261928,2.7061792074410755,0.08755589585213494,0.03267803171158696,-0.0943436114170497,20.754616224521868,0.13279535259271935,1.0,0.0,58.892070651993265,0.300145089756893,755.3845974338865,98.12886718291023,-0.9546039092677694,5.104261427412436,1.0,754.1880052421307,0.0,1.0,104.81712174103261,6334.888930544234,1.0,1.0,-4.30264402907608,20.080171228000044,-0.9340251321912464,-43.57789172244919,1.0,754.9002091526164,1.0,-0.016551061602945144,0.14172031210176433,0.3707390035209783,1.0,3.6487964701045854,4.81491926997148
0.84,0.84,1.0,20.55701001343717,0.022141984223992633,2.7722955270842116,0.08651779526083975,0.031222704319471963,-0.08720823568492517,20.74311388026187,0.1267496056526221,1.0,0.0,78.09740384285499,1.2016673722208275,754.7334656391452,102.35208499345907,-1.2731653354515962,4.082412790894985,1.0,755.2816915368377,0.0,1.0,105.8011726949966,6282.6980871955175,1.0,1.0,-3.5060499845626714,20.227066171646996,-1.0168195558284583,-43.57867623806154,1.0,754.9893648125181,1.0,0.004473332519132329,0.13805201031401151,0.3705287008541883,1.0,4.957978902987941,4.994026692899919
0.87,0.87,1.0,20.505817883721857,0.10044009528970599,2.9032240987952203,0.08519590974885066,0.038166571083959294,-0.0908928591422584,20.71056168868759,0.13029405983887238,1.0,0.0,78.09740384285499,1.2016673722208275,754.7334656391452,102.35208499345907,-1.2731653354515962,4.082412790894985,1.0,755.2816915368377,0.0,1.0,105.94442818268895,6384.123110159604,1.0,1.0,-3.5060499845626714,20.227066171646996,-1.0168195558284583,-43.57867623806154,1.0,754.9893648125181,1.0,0.004473332519132329,0.13805201031401151,0.3705287008541883,1.0,4.957978902987941,4.994026692899919
0.8999999999999999,0.8999999999999999,1.0,20.569770388604347,0.06958747385753519,3.0323089613413914,0.09294257784714487,0.025477542698117837,-0.08441362058968405,20.792190694908832,0.12811357188005543,1.0,0.0,78.09740384285499,1.2016673722208275,754.7334656391452,102.35208499345907,-1.2731653354515962,4.082412790894985,1.0,754.9858972862818,0.0,1.0,106.45998562962788,6414.520907088377,1.0,1.0,-4.164948944199201,20.36927310961339,-1.260207768125179,-43.505541868280545,1.0,755.7270868803033,1.0,0.004030485695819149,0.15429960149520988,0.3703340743417459,1.0,4.911806753815605,4.579682218785125
0.9299999999999999,0.9299999999999999,1.0,20.53938404572096,0.07415430127708529,2.979477862684668,0.0814000065116131,0.02944029811567752,-0.08108343789334331,20.754495517170312,0.1186052954712996,1.0,0.0,78.09740384285499,1.2016673722208275,754.7334656391452,102.35208499345907,-1.2731653354515962,4.082412790894985,1.0,754.9858972862818,0.0,1.0,106.23425427157848,6530.930664264557,1.0,1.0,-4.164948944199201,20.36927310961339,-1.260207768125179,-43.505541868280545,1.0,755.7270868803033,1.0,0.004030485695819149,0.15429960149520988,0.3703340743417459,1.0,4.911806753815605,4.579682218785125
0.96,0.96,1.0,20.519261493103908,-0.20237671840883367,3.115293946346504,0.08881762596537877,0.025541594990084567,-0.07996432774583664,20.755387371250723,0.12220980921598322,1.0,0.0,78.09740384285499,1.2016673722208275,754.7334656391452,102.35208499345907,-1.2731653354515962,4.082412790894985,1.0,755.601105177605,0.0,1.0,107.90123268856922,6677.244297068844,1.0,1.0,-3.469617160126832,20.38236432217979,-1.2736206245361494,-43.3892275869539,1.0,756.0605632842517,1.0,-0.008829569338064787,0.1380153879267471,0.3701548709590746,1.0,4.62085496336684,4.739518605286054
0.99,0.99,1.0,20.474682805759056,-0.09549952697271019,3.2263838244117915,0.0894378711717675,0.036299499762580865,-0.07052827473340349,20.72754951118254,0.11954507108041607,1.0,0.0,78.09740384285499,1.2016673722208275,754.7334656391452,102.35208499345907,-1.2731653354515962,4.082412790894985,1.0,755.601105177605,0.0,1.0,108.07605862192919,6731.566753747003,1.0,1.0,-3.469617160126832,20.38236432217979,-1.2736206245361494,-43.3892275869539,1.0,756.0605632842517,1.0,-0.008829569338064787,0.1380153879267471,0.3701548709590746,1.0,4.62085496336684,4.739518605286054
1.02,1.02,1.0,20.472310146183087,-0.12336361642129177,3.273089582573699,0.09279119669130527,0.03294391055106881,-0.07665475235626834,20.73267509799254,0.12478565015498438,1.0,0.0,78.09740384285499,1.2016673722208275,754.7334656391452,102.35208499345907,-1.2731653354515962,4.082412790894985,1.0,755.0309719670364,0.0,1.0,109.13459175162906,6731.658589436561,1.0,1.0,-5.375783373643766,20.424297314238576,-1.514552415902127,-43.440736138306434,1.0,756.0424664622191,1.0,-0.0013448813543802795,0.14048112375265884,0.3699908232567901,1.0,5.6139741844162,5.287984510406105
1.05,1.05,1.0,20.371301732517605,-0.13583894078960915,3.291622017600603,0.09564688785614667,0.029725114036123008,-0.0701792007843946,20.635967677864365,0.1222989361513958,1.0,0.0,102.46826254734201,-0.21313003505983275,757.0091694633243,106.4890293490509,-1.660823213087131,3.044094815392267,1.0,755.0309719670364,0.0,1.0,109.16592057938375,6839.025630960727,1.0,1.0,-5.375783373643766,20.424297314238576,-1.514552415902127,-43.440736138306434,1.0,756.0424664622191,1.0,-0.0013448813543802795,0.14048112375265884,0.3699908232567901,1.0,5.6139741844162,5.287984510406105
1.08,1.08,1.0,20.34557592293077,-0.08533138018221398,3.39643009034409,0.0953257094528577,0.031959828526127596,-0.07024256938440378,20.627299349133875,0.12264762564286723,1.0,0.0,102.46826254734201,-0.21313003505983275,757.0091694633243,106.4890293490509,-1.660823213087131,3.044094815392267,1.0,756.6538419700016,0.0,1.0,110.44727187024239,6871.617438784039,1.0,1.0,-5.486784214134122,20.525640296478716,-1.5481295406231745,-43.276432357135526,1.0,756.614491727013,1.0,0.0024741102937833707,0.14316048167907872,0.36984164963581856,1.0,5.353912087433928,4.07094715854111
1.1099999999999999,1.1099999999999999,1.0,20.306859566747644,-0.2252242410619233,3.427907792119615,0.09806352272433433,0.024506534195536993,-0.07671438702358542,20.595383542280697,0.12689413652248677,1.0,0.0,102.46826254734201,-0.21313003505983275,757.0091694633243,106.4890293490509,-1.660823213087131,3.044094815392267,1.0,756.6538419700016,0.0,1.0,110.78217544931,6937.892930229585,1.0,1.0,-5.486784214134122,20.525640296478716,-1.5481295406231745,-43.276432357135526,1.0,756.614491727013,1.0,0.0024741102937833707,0.14316048167907872,0.36984164963581856,1.0,5.353912087433928,4.07094715854111
1.14,1.14,1.0,20.391196829628043,-0.30341013766924874,3.6129801393031866,0.09785848433859952,0.029371458826508524,-0.06742227714981724,20.71102583995473,0.1224121276945711,1.0,0.0,102.46826254734201,-0.21313003505983275,757.0091694633243,106.4890293490509,-1.660823213087131,3.044094815392267,1.0,756.7076551721099,0.0,1.0,111.76840617575556,7166.259437734882,1.0,1.0,-6.182878580632499,20.635504494349195,-1.7481206137986096,-43.337685800326206,1.0,756.5994546967382,1.0,-0.0013976220631678696,0.15530472258576675,0.36970705467186316,1.0,5.277063392943121,4.021669805618616
1.17,1.17,1.0,20.288395281414967,-0.2889505216096429,3.657726940820465,0.10422635377367095,0.024816907164609867,-0.06894346921573498,20.61750328901352,0.12740570493377554,1.0,0.0,102.46826254734201,-0.21313003505983275,757.0091694633243,106.4890293490509,-1.660823213087131,3.044094815392267,1.0,756.7076551721099,0.0,1.0,112.95808437829045,7202.898924455528,1.0,1.0,-6.182878580632499,20.635504494349195,-1.7481206137986096,-43.337685800326206,1.0,756.5994546967382,1.0,-0.0013976220631678696,0.15530472258576675,0.36970705467186316,1.0,5.277063392943121,4.021669805618616
1.2,1.2,1.0,20.344144124115683,-0.3190312239968765,3.7630909965446553,0.09873688057165074,0.028651543464652925,-0.07191798945375433,20.691709327963967,0.12546744492097398,1.0,0.0,102.46826254734201,-0.21313003505983275,757.0091694633243,106.4890293490509,-1.660823213087131,3.044094815392267,1.0,756.6512779359939,0.0,1.0,112.82449680608501,7217.064162883814,1.0,1.0,-6.514662323610028,20.759021991159074,-2.0080203980488753,-43.2207718937511,1.0,756.4639019848229,1.0,0.00816633483213494,0.15250933382051496,0.3695867297762141,1.0,6.094978741164072,4.90910830299556
1.23,1.23,1.0,20.198357070025626,-0.29748288531264633,3.8041199844153315,0.10951900799891714,0.022171812667766796,-0.06685055269512104,20.55561853243867,0.13021136196847255,1.0,0.0,102.46826254734201,-0.21313003505983275,757.0091694633243,106.4890293490509,-1.660823213087131,3.044094815392267,1.0,756.6512779359939,0.0,1.0,113.40721591604111,7363.923157570715,1.0,1.0,-6.514662323610028,20.759021991159074,-2.0080203980488753,-43.2207718937511,1.0,756.4639019848229,1.0,0.00816633483213494,0.15250933382051496,0.3695867297762141,1.0,6.094978741164072,4.90910830299556
1.26,1.26,1.0,20.137399491235765,-0.36589837165843375,3.8073519791549253,0.10279787834304416,0.026005133232182176,-0.06036819657993337,20.49743078976435,0.12201635097218869,1.0,0.0,125.16843686181835,-3.3086477131752146,756.3162364005146,110.85062092430773,-2.2446395753673314,2.385209918155776,1.0,757.6265528581218,0.0,1.0,113.7735155922526,7528.1702946034,1.0,1.0,-7.086515630421715,20.772070716133765,-2.0246829087658553,-43.29411611677434,1.0,756.649673343431,1.0,-0.007507612730099088,0.14789144190305117,0.3694803539464785,1.0,6.890305804458137,4.329357328365951
1.29,1.29,1.0,20.12908600541063,-0.38169203227729354,4.144935969531653,0.10521504154404494,0.02860411988190415,-0.053644461825439686,20.554957708840934,0.1215159616094713,1.0,0.0,125.16843686181835,-3.3086477131752146,756.3162364005146,110.85062092430773,-2.2446395753673314,2.385209918155776,1.0,757.6265528581218,0.0,1.0,115.50960039389798,7558.073187939603,1.0,1.0,-7.086515630421715,20.772070716133765,-2.0246829087658553,-43.29411611677434,1.0,756.649673343431,1.0,-0.007507612730099088,0.14789144190305117,0.3694803539464785,1.0,6.890305804458137,4.329357328365951
1.3199999999999998,1.3199999999999998,1.0,20.16763241699149,-0.4806580611468766,4.073243163817146,0.11335203723161474,0.028864128640453797,-0.0563349796902934,20.580469852513442,0.12982854926184692,1.0,0.0,125.16843686181835,-3.3086477131752146,756.3162364005146,110.85062092430773,-2.2446395753673314,2.385209918155776,1.0,757.6841230880042,0.0,1.0,115.65033040351935,7400.1410750658915,1.0,1.0,-6.552471699796937,20.882136140040178,-2.3711589270198052,-43.1117737709954,1.0,756.4766542774813,1.0,-0.03393390645586526,0.14211284807287436,0.369387594577939,1.0,6.643447858124446,4.788339320752675
1.3499999999999999,1.3499999999999999,1.0,20.154915022833038,-0.5625644551442605,4.198123552234674,0.10546195313005703,0.019955544573918862,-0.057284599990424005,20.595177098137324,0.12166335813757113,1.0,0.0,125.16843686181835,-3.3086477131752146,756.3162364005146,110.85062092430773,-2.2446395753673314,2.385209918155776,1.0,757.6841230880042,0.0,1.0,116.2409591726847,7643.649409092207,1.0,1.0,-6.552471699796937,20.882136140040178,-2.3711589270198052,-43.1117737709954,1.0,756.4766542774813,1.0,-0.03393390645586526,0.14211284807287436,0.369387594577939,1.0,6.643447858124446,4.788339320752675
1.38,1.38,1.0,20.080636015107814,-0.4252079911456225,4.207390954732525,0.11943446621595342,0.02618005528342302,-0.05120278702892023,20.52108387130037,0.13255833589202065,1.0,0.0,125.16843686181835,-3.3086477131752146,756.3162364005146,110.85062092430773,-2.2446395753673314,2.385209918155776,1.0,756.5582710188042,0.0,1.0,116.5536303064495,7716.247997634524,1.0,1.0,-7.775730523130775,20.939327053662208,-2.658653065584294,-43.11119212822533,1.0,756.4880336594721,1.0,-0.028373646480767647,0.17189144419627184,0.3693081083945511,1.0,7.602617646188741,3.8166455035729476
1.41,1.41,1.0,20.056361588051885,-0.5358774463936421,4.339394597540834,0.1210443508031908,0.02349425909042627,-0.056732014406373064,20.52742434552867,0.13572853985134783,1.0,0.0,125.16843686181835,-3.3086477131752146,756.3162364005146,110.85062092430773,-2.2446395753673314,2.385209918155776,1.0,756.5582710188042,0.0,1.0,116.51527112388331,7785.294932981861,1.0,1.0,-7.775730523130775,20.939327053662208,-2.658653065584294,-43.11119212822533,1.0,756.4880336594721,1.0,-0.028373646480767647,0.17189144419627184,0.3693081083945511,1.0,7.602617646188741,3.8166455035729476
1.44,1.44,1.0,20.079548623583044,-0.5537516958648416,4.362580968686352,0.12474632678440202,0.031833542243325894,-0.0579214694604136,20.55546220778928,0.14117335826002034,1.0,0.0,125.16843686181835,-3.3086477131752146,756.3162364005146,110.85062092430773,-2.2446395753673314,2.385209918155776,1.0,757.4054793690833,0.0,1.0,117.76596225063375,7771.366176908109,1.0,1.0,-5.559014663661975,21.00982943003746,-2.7844232739943093,-43.04224328733856,1.0,757.2712520911812,1.0,0.008322419699669148,0.14273582736079218,0.3692415424698138,1.0,7.703018126618495,2.957760422776572
1.47,1.47,1.0,19.982269870587633,-0.6342442139374432,4.463724547462016,0.12495426098254821,0.02468544781501678,-0.060551882660108365,20.484584734368486,0.14103002930300418,1.0,0.0,148.69257621057795,-1.2391190334532602,758.1009084700596,114.77028354482628,-2.974714140188669,0.995969200588778,1.0,757.4054793690833,0.0,1.0,118.86060187745309,7963.726977756077,1.0,1.0,-5.559014663661975,21.00982943003746,-2.7844232739943093,-43.04224328733856,1.0,757.2712520911812,1.0,0.008322419699669148,0.14273582736079218,0.3692415424698138,1.0,7.703018126618495,2.957760422776572
1.5,1.5,1.0,20.06190173529096,-0.6995163382700151,4.565329624968625,0.1322162934625863,0.019105061251425595,-0.0476089157361291,20.58668159098482,0.14181946439038368,1.0,0.0,148.69257621057795,-1.2391190334532602,758.1009084700596,114.77028354482628,-2.974714140188669,0.995969200588778,1.0,757.4840959121501,0.0,1.0,119.5383894509966,8113.234062642,1.0,1.0,-7.902752262719856,21.14225297573747,-3.0513110885092725,-42.99540567826214,1.0,756.93192629766,1.0,-0.033977303362656114,0.13757908231406432,0.36918753532954707,1.0,8.197487881814462,3.3450177986992498
1.53,1.53,1.0,19.931306230787264,-0.7231452843840185,4.694190823000528,0.13597872974035718,0.01498061695527692,-0.046702109224022875,20.48939566337886,0.1445535223788559,1.0,0.0,148.69257621057795,-1.2391190334532602,758.1009084700596,114.77028354482628,-2.974714140188669,0.995969200588778,1.0,757.4840959121501,0.0,1.0,120.47540308058218,8132.034425098154,1.0,1.0,-7.902752262719856,21.14225297573747,-3.0513110885092725,-42.99540567826214,1.0,756.93192629766,1.0,-0.033977303362656114,0.13757908231406432,0.36918753532954707,1.0,8.197487881814462,3.3450177986992498
1.56,1.56,1.0,19.88621760106635,-0.5853387833757239,4.7082754139317275,0.1405727305031611,0.019954809978205555,-0.05773752868080185,20.444366689670748,0.1532726629916342,1.0,0.0,148.69257621057795,-1.2391190334532602,758.1009084700596,114.77028354482628,-2.974714140188669,0.995969200588778,1.0,755.4244066302267,0.0,1.0,120.44903690682833,8322.812475476008,1.0,1.0,-9.100832497960695,21.10404690705483,-3.382386591696066,-42.925481984969274,1.0,756.9111265854585,1.0,-0.02428013666407139,0.15113639430179235,0.3691457181180233,1.0,7.964969728300049,4.405158018054302
1.5899999999999999,1.5899999999999999,1.0,19.999468085183867,-0.6945979873338418,4.8540692569184705,0.14758093753346488,0.029562752261298224,-0.05092775467763178,20.591823095715867,0.1588953291982631,1.0,0.0,148.69257621057795,-1.2391190334532602,758.1009084700596,114.77028354482628,-2.974714140188669,0.995969200588778,1.0,755.4244066302267,0.0,1.0,121.86733901760822,8315.305683500123,1.0,1.0,-9.100832497960695,21.10404690705483,-3.382386591696066,-42.925481984969274,1.0,756.9111265854585,1.0,-0.02428013666407139,0.15113639430179235,0.3691457181180233,1.0,7.964969728300049,4.405158018054302
1.6199999999999999,1.6199999999999999,1.0,19.83051940794832,-0.7844732769373165,5.033641455122714,0.14053763592938084,0.02458372053533328,-0.05535541480057179,20.47443392648436,0.153034010519629,1.0,0.0,148.69257621057795,-1.2391190334532602,758.1009084700596,114.77028354482628,-2.974714140188669,0.995969200588778,1.0,757.3934171488278,0.0,1.0,121.78457894038029,8405.266534942564,1.0,1.0,-6.20269097851001,21.297896945867496,-3.5949684419561883,-42.91864359120721,1.0,757.1306285137443,1.0,-0.0365179940038319,0.14757677052074317,0.36911571581114877,1.0,9.034224457381557,3.6203621713106235
1.65,1.65,1.0,19.89990572294521,-0.8427938326945568,5.048658830312903,0.15299913238779966,0.02267631100237251,-0.050003504642479074,20.54763989394967,0.162552453283936,1.0,0.0,148.69257621057795,-1.2391190334532602,758.1009084700596,114.77028354482628,-2.974714140188669,0.995969200588778,1.0,757.3934171488278,0.0,1.0,121.9761498056224,8715.124469374787,1.0,1.0,-6.20269097851001,21.297896945867496,-3.5949684419561883,-42.91864359120721,1.0,757.1306285137443,1.0,-0.0365179940038319,0.14757677052074317,0.36911571581114877,1.0,9.034224457381557,3.6203621713106235
1.68,1.68,1.0,19.860892280583666,-0.741747863157222,5.197350059552126,0.15236873965800193,0.020229386585074696,-0.06334763007580492,20.543068897196754,0.166247956807888,1.0,0.0,171.29895879002066,-1.1015129225401388,759.1874396686547,118.67824109404465,-3.9780469542878505,0.4069233943104349,1.0,756.8149623449623,0.0,1.0,122.55150824203768,8657.96544693449,1.0,1.0,-8.25112425112203,21.328605254009606,-4.015896655621785,-42.87595902242138,1.0,757.1369466686697,1.0,-0.029308237859206325,0.17112537215338286,0.3690971484567821,1.0,9.741223870362374,2.8111461789778867
1.71,1.71,1.0,19.7767053797788,-0.8353123607393885,5.244509048786412,0.15255413295417936,0.025066579554627773,-0.05515343776709994,20.47732154314568,0.1641432258410297,1.0,0.0,171.29895879002066,-1.1015129225401388,759.1874396686547,118.67824109404465,-3.9780469542878505,0.4069233943104349,1.0,756.8149623449623,0.0,1.0,123.6410138113275,8454.890192869847,1.0,1.0,-8.25112425112203,21.328605254009606,-4.015896655621785,-42.87595902242138,1.0,757.1369466686697,1.0,-0.029308237859206325,0.17112537215338286,0.3690971484567821,1.0,9.741223870362374,2.8111461789778867
1.74,1.74,1.0,19.721244659209823,-0.7735749846287586,5.332810500413707,0.15625766373245986,0.019377368100514197,-0.06554728670778297,20.44418687545626,0.17055317840597878,1.0,0.0,171.29895879002066,-1.1015129225401388,759.1874396686547,118.67824109404465,-3.9780469542878505,0.4069233943104349,1.0,757.4032434051021,0.0,1.0,123.26860941299675,8822.599500770193,1.0,1.0,-7.997379963310096,21.290415197681543,-4.229958771827875,-42.84116097699077,1.0,756.8866474776547,1.0,-0.01930686338449889,0.14758058148352302,0.36908963241933235,1.0,10.463954314677755,2.478651033864767
1.77,1.77,1.0,19.811976751613887,-0.8670567066241142,5.455801804886604,0.17708995829741725,0.02150735111008945,-0.06131771791772049,20.567741331346884,0.18863531485962748,1.0,0.0,171.29895879002066,-1.1015129225401388,759.1874396686547,118.67824109404465,-3.9780469542878505,0.4069233943104349,1.0,757.4032434051021,0.0,1.0,124.19800223510421,8744.057937815931,1.0,1.0,-7.997379963310096,21.290415197681543,-4.229958771827875,-42.84116097699077,1.0,756.8866474776547,1.0,-0.01930686338449889,0.14758058148352302,0.36908963241933235,1.0,10.463954314677755,2.478651033864767
1.7999999999999998,1.7999999999999998,1.0,19.701980909227284,-0.748123483293375,5.560544220215907,0.17291158916082075,0.02305344558100869,-0.06255547648548906,20.485296983905016,0.1853188243476727,1.0,0.0,171.29895879002066,-1.1015129225401388,759.1874396686547,118.67824109404465,-3.9780469542878505,0.4069233943104349,1.0,757.4174383439408,0.0,1.0,124.48993311816723,8919.654884382411,1.0,1.0,-6.258505858208443,21.476332544745485,-4.663743071108142,-42.67719167492194,1.0,757.0886053817369,1.0,0.00395423982066709,0.16936999972370675,0.3690927816012045,1.0,11.591462015417294,2.401979740080126
1.8299999999999998,1.8299999999999998,1.0,19.744663713610773,-0.8350587696268628,5.6343435733908045,0.188536276037191,0.01585206109836635,-0.06700817533588893,20.549814982508213,0.20071699176921584,1.0,0.0,171.29895879002066,-1.1015129225401388,759.1874396686547,118.67824109404465,-3.9780469542878505,0.4069233943104349,1.0,757.4174383439408,0.0,1.0,125.57324533332061,9082.322296471728,1.0,1.0,-6.258505858208443,21.476332544745485,-4.663743071108142,-42.67719167492194,1.0,757.0886053817369,1.0,0.00395423982066709,0.16936999972370675,0.3690927816012045,1.0,11.591462015417294,2.401979740080126
1.8599999999999999,1.8599999999999999,1.0,19.57526631108614,-0.8439279847734898,5.823128442136918,0.1865816908480694,0.013656191592108232,-0.061453147947918965,20.440452305344216,0.1969154852245849,1.0,0.0,171.29895879002066,-1.1015129225401388,759.1874396686547,118.67824109404465,-3.9780469542878505,0.4069233943104349,1.0,756.7282297086089,0.0,1.0,125.87273438723807,9153.959158460355,1.0,1.0,-8.48422988712816,21.557847125644457,-5.1015234730253205,-42.60879354756867,1.0,757.2281357098944,1.0,0.0002653750957845192,0.15083777498854514,0.36910620860796783,1.0,11.308525436861409,3.0565671253016484
1.89,1.89,1.0,19.58988858498616,-0.8160814842765542,5.779044540933875,0.18791715028299344,0.013461400466472746,-0.07246031999618895,20.440818955395297,0.20185282422336825,1.0,0.0,200.2729787029263,-3.991688573161061,758.3242825048652,122.53860069210367,-4.981721593670148,-0.11322666684376959,1.0,756.7282297086089,0.0,1.0,127.02582857457926,9037.027882727281,1.0,1.0,-8.48422988712816,21.557847125644457,-5.1015234730253205,-42.60879354756867,1.0,757.2281357098944,1.0,0.0002653750957845192,0.15083777498854514,0.36910620860796783,1.0,11.308525436861409,3.0565671253016484
1.92,1.92,1.0,19.600208356219266,-0.850788334098327,5.9811259129650916,0.19383756886678055,0.01518777082051876,-0.06915457792465894,20.510140798721686,0.20636382225239533,1.0,0.0,200.2729787029263,-3.991688573161061,758.3242825048652,122.53860069210367,-4.981721593670148,-0.11322666684376959,1.0,757.1128862917665,0.0,1.0,127.46958666503043,9326.155022193003,1.0,1.0,-9.790580437824273,21.66833727522902,-5.489008981161254,-42.57974872592344,1.0,756.9966273287138,1.0,-0.023712890791833596,0.1467691749783704,0.3691295258180336,1.0,11.713637047753975,2.201553170253611
1.95,1.95,1.0,19.575498799841633,-0.9598083513098489,6.026822842477336,0.20444111967987,0.01881344807942997,-0.07795548621532361,20.504730647059276,0.21960686481907585,1.0,0.0,200.2729787029263,-3.991688573161061,758.3242825048652,122.53860069210367,-4.981721593670148,-0.11322666684376959,1.0,757.1128862917665,0.0,1.0,127.83229376927582,9211.289839394343,1.0,1.0,-9.790580437824273,21.66833727522902,-5.489008981161254,-42.57974872592344,1.0,756.9966273287138,1.0,-0.023712890791833596,0.1467691749783704,0.3691295258180336,1.0,11.713637047753975,2.201553170253611
1.98,1.98,1.0,19.49262727160996,-0.9084981683062678,6.058598561127006,0.21229560141820106,0.015982045315270515,-0.0813769666111135,20.432682236960922,0.2279189743062243,1.0,0.0,200.2729787029263,-3.991688573161061,758.3242825048652,122.53860069210367,-4.981721593670148,-0.11322666684376959,1.0,756.6121894833605,0.0,1.0,127.87355510745644,9558.045283212503,1.0,1.0,-7.296974885702749,21.576124291014608,-5.890630767236147,-42.48382019826674,1.0,756.9072970900154,1.0,-0.023075661783972717,0.15861928402723255,0.36916234631141565,1.0,12.312287145602959,2.8915558049180823
2.01,2.01,1.0,19.39601218298276,-0.9347906337007481,6.295593671694571,0.22406365244791673,0.009231581992755285,-0.07590537504398219,20.413564652219634,0.2367517020318067,1.0,0.0,200.2729787029263,-3.991688573161061,758.3242825048652,122.53860069210367,-4.981721593670148,-0.11322666684376959,1.0,756.6121894833605,0.0,1.0,129.30527496332252,9542.99731657367,1.0,1.0,-7.296974885702749,21.576124291014608,-5.890630767236147,-42.48382019826674,1.0,756.9072970900154,1.0,-0.023075661783972717,0.15861928402723255,0.36916234631141565,1.0,12.312287145602959,2.8915558049180823
2.04,2.04,1.0,19.367003080313303,-0.8735064761658182,6.373510835208777,0.2266943826909809,0.012846852972464953,-0.07506863215866501,20.407485446357477,0.239145738638835,1.0,0.0,200.2729787029263,-3.991688573161061,758.3242825048652,122.53860069210367,-4.981721593670148,-0.11322666684376959,1.0,757.2899200505354,0.0,1.0,129.5436676796631,9492.849984308039,1.0,1.0,-9.433758733421863,21.660609239506133,-6.339404510367243,-42.28665336122794,1.0,756.7015101547391,1.0,-0.02184700440558984,0.1741744704690184,0.3692042846064175,1.0,13.724000430295808,2.6656659263463216
2.07,2.07,1.0,19.33030473300731,-0.8257445743959025,6.529824705941825,0.24180164898013834,0.0033889702559104047,-0.08416384460520339,20.420116205922955,0.25605287599954485,1.0,0.0,200.2729787029263,-3.991688573161061,758.3242825048652,122.53860069210367,-4.981721593670148,-0.11322666684376959,1.0,757.2899200505354,0.0,1.0,129.6445907805698,9757.772123192606,1.0,1.0,-9.433758733421863,21.660609239506133,-6.339404510367243,-42.28665336122794,1.0,756.7015101547391,1.0,-0.02184700440558984,0.1741744704690184,0.3692042846064175,1.0,13.724000430295808,2.6656659263463216
2.1,2.1,1.0,19.359296877858537,-0.8220777209559451,6.5700688152167075,0.24620286271910236,0.005703236078955731,-0.0898301515746568,20.46030282329757,0.26214086412610166,1.0,0.0,225.18522644806455,-3.8742411376657717,756.0294317504087,126.9595834518538,-6.01897248736327,-1.0533216367956681,1.0,756.3456251756187,0.0,1.0,131.33738760801265,9778.434509391775,1.0,1.0,-9.895912457067757,21.74593028176604,-6.820432435574209,-42.27874128045951,1.0,756.5599714440842,1.0,-0.02719371760194237,0.17020404425213612,0.3692549571486644,1.0,14.662710493834183,2.095566852803035
2.13,2.13,1.0,19.31631168016549,-0.9309410923232272,6.821351522676205,0.25988905955495234,0.008979490536637756,-0.0957567692884478,20.50652054441686,0.2771142605338386,1.0,0.0,225.18522644806455,-3.8742411376657717,756.0294317504087,126.9595834518538,-6.01897248736327,-1.0533216367956681,1.0,756.3456251756187,0.0,1.0,130.86815518395562,9602.612722986356,1.0,1.0,-9.895912457067757,21.74593028176604,-6.820432435574209,-42.27874128045951,1.0,756.5599714440842,1.0,-0.02719371760194237,0.17020404425213612,0.3692549571486644,1.0,14.662710493834183,2.095566852803035
2.16,2.16,1.0,19.293836468856703,-0.8959114589291307,6.8497095738517695,0.26270609232914083,0.010173556598037583,-0.09590069478994079,20.49325021257834,0.27984805781333183,1.0,0.0,225.18522644806455,-3.8742411376657717,756.0294317504087,126.9595834518538,-6.01897248736327,-1.0533216367956681,1.0,756.395677782427,0.0,1.0,131.24368860581956,9889.37059712037,1.0,1.0,-9.065638617158113,21.836421828293645,-7.408198206046279,-42.134341697640764,1.0,757.0256818048343,1.0,-0.01324462014530366,0.15356074446201518,0.3693139824947722,1.0,16.265110332148975,2.378453206259658
2.19,2.19,1.0,19.26924829920788,-0.8274239745783013,6.8732343166114935,0.28095828325067557,0.0035532457207386034,-0.08871076159474986,20.475104649824836,0.2946519670815712,1.0,0.0,225.18522644806455,-3.8742411376657717,756.0294317504087,126.9595834518538,-6.01897248736327,-1.0533216367956681,1.0,756.395677782427,0.0,1.0,132.44503765398207,9890.526187488227,1.0,1.0,-9.065638617158113,21.836421828293645,-7.408198206046279,-42.134341697640764,1.0,757.0256818048343,1.0,-0.01324462014530366,0.15356074446201518,0.3693139824947722,1.0,16.265110332148975,2.378453206259658
2.2199999999999998,2.2199999999999998,1.0,19.195775517907546,-0.7985476633942977,6.959731172165781,0.2832976871158474,0.0014286540458348465,-0.10102369151001125,20.434121808715616,0.3007746778302342,1.0,0.0,225.18522644806455,-3.8742411376657717,756.0294317504087,126.9595834518538,-6.01897248736327,-1.0533216367956681,1.0,756.7570190972103,0.0,1.0,132.71041358164246,10071.337554543588,1.0,1.0,-9.829550805860142,21.79982067258317,-7.997853393745803,-42.02513348986682,1.0,756.8190998541096,1.0,-0.011151082254216519,0.17017768482142498,0.3693809811343889,1.0,15.067735912953163,2.5616241681936054
2.25,2.25,1.0,19.19254985320513,-0.811789866519063,7.057160431633457,0.29175565597988684,0.0031722842570219446,-0.1130439760150542,20.465006377056426,0.31290632255829154,1.0,0.0,225.18522644806455,-3.8742411376657717,756.0294317504087,126.9595834518538,-6.01897248736327,-1.0533216367956681,1.0,756.7570190972103,0.0,1.0,133.1239222190829,10028.005121335487,1.0,1.0,-9.829550805860142,21.79982067258317,-7.997853393745803,-42.02513348986682,1.0,756.8190998541096,1.0,-0.011151082254216519,0.17017768482142498,0.3693809811343889,1.0,15.067735912953163,2.5616241681936054
2.28,2.28,1.0,19.140185880969398,-0.9347115731210459,7.173858078286076,0.28520036942623583,-0.0037300709535335024,-0.1182298080407657,20.461784893072675,0.30875791756574616,1.0,0.0,225.18522644806455,-3.8742411376657717,756.0294317504087,126.9595834518538,-6.01897248736327,-1.0533216367956681,1.0,756.5503939099306,0.0,1.0,133.72613717027636,9981.632117123789,1.0,1.0,-9.517354932548315,21.880641155181895,-8.551539881244391,-41.86889559317108,1.0,756.8221092238801,1.0,-0.013507058143434395,0.1756467625593206,0.36945557513608795,1.0,17.355333908739475,2.137004270334998
2.31,2.31,1.0,19.124552573721992,-0.8945752216880531,7.367463655620842,0.29072336136605204,-0.006927563761776314,-0.11562400477662158,20.514099948308935,0.31294883681559477,1.0,0.0,251.29105410439374,-6.067059279468798,756.8856200077648,130.34351104972387,-7.312308122156358,-1.3157606730641556,1.0,756.5503939099306,0.0,1.0,133.6318094802436,10230.920363174155,1.0,1.0,-9.517354932548315,21.880641155181895,-8.551539881244391,-41.86889559317108,1.0,756.8221092238801,1.0,-0.013507058143434395,0.1756467625593206,0.36945557513608795,1.0,17.355333908739475,2.137004270334998
2.34,2.34,1.0,19.076391759291287,-1.046880614192822,7.477866810913167,0.28289865502114475,-0.005680252726194476,-0.1207847450307846,20.51641229884226,0.3076570638161226,1.0,0.0,251.29105410439374,-6.067059279468798,756.8856200077648,130.34351104972387,-7.312308122156358,-1.3157606730641556,1.0,756.9734227830419,0.0,1.0,135.1228679882929,10131.840323287513,1.0,1.0,-11.969805982578285,22.01510395713618,-9.130456799234464,-41.727595264724904,1.0,756.1064325514615,1.0,-0.007467739401394715,0.17102421992613992,0.36953739240067296,1.0,18.526401542263123,2.5457466909076576
2.37,2.37,1.0,18.957046412361564,-0.9828755575513628,7.598489406055298,0.28451465087172445,0.001185266642137025,-0.12766397126463197,20.446826020094097,0.3118462457313363,1.0,0.0,251.29105410439374,-6.067059279468798,756.8856200077648,130.34351104972387,-7.312308122156358,-1.3157606730641556,1.0,756.9734227830419,0.0,1.0,134.83774235780456,10369.375143822586,1.0,1.0,-11.969805982578285,22.01510395713618,-9.130456799234464,-41.727595264724904,1.0,756.1064325514615,1.0,-0.007467739401394715,0.17102421992613992,0.36953739240067296,1.0,18.526401542263123,2.5457466909076576
2.4,2.4,1.0,19.045585952409436,-0.9281876942888684,7.793554182234949,0.2838146002342698,-0.005946114324466768,-0.13261308810679723,20.599402016997406,0.3133246155649428,1.0,0.0,251.29105410439374,-6.067059279468798,756.8856200077648,130.34351104972387,-7.312308122156358,-1.3157606730641556,1.0,756.5528233083012,0.0,1.0,135.71713876878943,10551.969047981176,1.0,1.0,-11.507164284959027,22.042940674060265,-9.69709616978347,-41.45348721696921,1.0,756.4538075372427,1.0,-0.03583588853449249,0.16647796913472607,0.36962606891411887,1.0,19.316505181492573,1.8441595991822388
2.4299999999999997,2.4299999999999997,1.0,19.02872946965211,-0.9876947339341234,7.86386235866624,0.28414517037224485,-0.009980939683156779,-0.14429461170582075,20.613306801983413,0.31884013544433903,1.0,0.0,251.29105410439374,-6.067059279468798,756.8856200077648,130.34351104972387,-7.312308122156358,-1.3157606730641556,1.0,756.5528233083012,0.0,1.0,136.92907032299814,10742.500279908716,1.0,1.0,-11.507164284959027,22.042940674060265,-9.69709616978347,-41.45348721696921,1.0,756.4538075372427,1.0,-0.03583588853449249,0.16647796913472607,0.36962606891411887,1.0,19.316505181492573,1.8441595991822388
2.46,2.46,1.0,18.869589376573966,-0.93108514151396,7.969080410211086,0.2888101439247618,-0.014418958412221893,-0.1421563863757867,20.5045011001407,0.32222297215275786,1.0,0.0,251.29105410439374,-6.067059279468798,756.8856200077648,130.34351104972387,-7.312308122156358,-1.3157606730641556,1.0,756.8884268589944,0.0,1.0,137.27679516922856,10713.515493146875,1.0,1.0,-11.183505396312617,22.10766781639146,-10.221283044508665,-41.366812820560746,1.0,756.405241139971,1.0,-0.018725751550986887,0.1800390121489613,0.3697212412095747,1.0,20.726408013496744,2.1420888310794077
2.4899999999999998,2.4899999999999998,1.0,18.99399240656089,-1.0304745980023648,8.121793001748676,0.2899453316403746,-0.012139057998336047,-0.15109193006787963,20.683257649627503,0.32717644077893326,1.0,0.0,251.29105410439374,-6.067059279468798,756.8856200077648,130.34351104972387,-7.312308122156358,-1.3157606730641556,1.0,756.8884268589944,0.0,1.0,137.55352552245853,10868.363960490478,1.0,1.0,-11.183505396312617,22.10766781639146,-10.221283044508665,-41.366812820560746,1.0,756.405241139971,1.0,-0.018725751550986887,0.1800390121489613,0.3697212412095747,1.0,20.726408013496744,2.1420888310794077
2.52,2.52,1.0,18.90679577132148,-0.9784682003168548,8.35138219680528,0.28392923835397793,-0.02271344188002919,-0.15523325825167736,20.692266936094928,0.324390316288479,1.0,0.0,280.02312444030207,-9.007142599855493,754.6811873444424,134.12243532794753,-8.835621362259554,-1.85412714598721,1.0,755.5559660647041,0.0,1.0,137.7169478166216,10814.310061922111,1.0,1.0,-11.115789594778265,22.066411216365157,-10.663080151120473,-41.269389101061705,1.0,756.317275608341,1.0,-0.009105523904439743,0.1748985944255726,0.3698225049102941,1.0,21.400939084069744,1.6900542849412945
2.55,2.55,1.0,18.84473757386383,-1.1684695632271769,8.367327614186506,0.283726869426191,-0.026224874761995393,-0.16513851923610343,20.651915813093748,0.32933176437471395,1.0,0.0,280.02312444030207,-9.007142599855493,754.6811873444424,134.12243532794753,-8.835621362259554,-1.85412714598721,1.0,755.5559660647041,0.0,1.0,138.62920084444355,10876.215105340903,1.0,1.0,-11.115789594778265,22.066411216365157,-10.663080151120473,-41.269389101061705,1.0,756.317275608341,1.0,-0.009105523904439743,0.1748985944255726,0.3698225049102941,1.0,21.400939084069744,1.6900542849412945
2.58,2.58,1.0,18.890422022858345,-1.0636140108015193,8.647760848011805,0.28117321347002927,-0.03394430987203259,-0.17230975986334057,20.802958603286957,0.33151356758044354,1.0,0.0,280.02312444030207,-9.007142599855493,754.6811873444424,134.12243532794753,-8.835621362259554,-1.85412714598721,1.0,756.0824756333034,0.0,1.0,138.42747660189244,11024.129444610018,1.0,1.0,-11.895814028977155,22.146252497585174,-11.167553390219824,-41.0483602401648,1.0,755.9776335172224,1.0,-0.01406676796894591,0.18003831360043662,0.36992940102824423,1.0,22.39197428934988,2.253063229043736
2.61,2.61,1.0,18.80315208633021,-1.1199765624261526,8.914396120524538,0.2906568654046635,-0.04010222665735905,-0.18833820806441404,20.839369809945573,0.3486558225623909,1.0,0.0,280.02312444030207,-9.007142599855493,754.6811873444424,134.12243532794753,-8.835621362259554,-1.85412714598721,1.0,756.0824756333034,0.0,1.0,139.54102185532122,11141.751515889815,1.0,1.0,-11.895814028977155,22.146252497585174,-11.167553390219824,-41.0483602401648,1.0,755.9776335172224,1.0,-0.01406676796894591,0.18003831360043662,0.36992940102824423,1.0,22.39197428934988,2.253063229043736
2.6399999999999997,2.6399999999999997,1.0,18.772172667823984,-1.1441212312934013,9.016121727757337,0.28199062344995224,-0.0433845115057217,-0.19669731357314585,20.856508122699545,0.3465411385668018,1.0,0.0,280.02312444030207,-9.007142599855493,754.6811873444424,134.12243532794753,-8.835621362259554,-1.85412714598721,1.0,756.4884689432364,0.0,1.0,139.61678843165865,11137.544567600698,1.0,1.0,-13.56249389217188,22.202453618973774,-11.634165560242987,-40.939091379458404,1.0,755.5679146305459,1.0,-0.018579004729323632,0.18350952833620485,0.37004141289258186,1.0,23.31199438783404,1.6120346566931432
2.67,2.67,1.0,18.637774689480807,-1.1166787049535312,9.112472906196444,0.2801711637764363,-0.04836731283174356,-0.19881706302807992,20.77620704488941,0.34693443546802605,1.0,0.0,280.02312444030207,-9.007142599855493,754.6811873444424,134.12243532794753,-8.835621362259554,-1.85412714598721,1.0,756.4884689432364,0.0,1.0,140.27014886753543,11277.791868727236,1.0,1.0,-13.56249389217188,22.202453618973774,-11.634165560242987,-40.939091379458404,1.0,755.5679146305459,1.0,-0.018579004729323632,0.18350952833620485,0.37004141289258186,1.0,23.31199438783404,1.6120346566931432
2.6999999999999997,2.6999999999999997,1.0,18.688097978552385,-1.268884243999453,9.4519118727837,0.281218500345699,-0.040594272597583754,-0.20896240416317197,20.980793868000163,0.3526996261099006,1.0,0.0,280.02312444030207,-9.007142599855493,754.6811873444424,134.12243532794753,-8.835621362259554,-1.85412714598721,1.0,755.2605777999142,0.0,1.0,141.44295844178234,11155.657186697714,1.0,1.0,-14.063401710704335,22.193296239836627,-12.059824483802993,-40.85514179049769,1.0,755.5097119535706,1.0,-0.034865527388510384,0.1787508766014952,0.3701579595219704,1.0,24.056908024258735,1.4232536059097227
2.73,2.73,1.0,18.702723414407508,-1.2856732040444323,9.540764945691512,0.28297166111057803,-0.04578154982186337,-0.2190588209630915,21.03499499530154,0.36077094996342396,1.0,0.0,306.6311008789507,-9.020288209074085,757.8571105559366,137.57964420257332,-10.463626733944466,-2.4796277430402003,1.0,755.2605777999142,0.0,1.0,141.40791188853208,11388.862688545776,1.0,1.0,-14.063401710704335,22.193296239836627,-12.059824483802993,-40.85514179049769,1.0,755.5097119535706,1.0,-0.034865527388510384,0.1787508766014952,0.3701579595219704,1.0,24.056908024258735,1.4232536059097227
2.76,2.76,1.0,18.49788483214549,-1.2811433290874015,9.855965632731216,0.28382314180145324,-0.053009902610815944,-0.2231079293605789,20.99888401907497,0.3648873439027738,1.0,0.0,306.6311008789507,-9.020288209074085,757.8571105559366,137.57964420257332,-10.463626733944466,-2.4796277430402003,1.0,755.6303004802807,0.0,1.0,141.68507373075747,11645.821143704543,1.0,1.0,-15.658973583400167,22.264528361761005,-12.368193608068417,-40.645064535979344,1.0,755.5859917932357,1.0,-0.03513237489601333,0.16804143934873442,0.37027838997285445,1.0,25.28850911648145,0.9895981992295357
2.79,2.79,1.0,18.48443677270016,-1.447673006209842,10.170330389161222,0.27699272599862085,-0.0490313493148317,-0.23023665638368593,21.147240485736074,0.36350785605612373,1.0,0.0,306.6311008789507,-9.020288209074085,757.8571105559366,137.57964420257332,-10.463626733944466,-2.4796277430402003,1.0,755.6303004802807,0.0,1.0,142.22573402636672,11759.741246273408,1.0,1.0,-15.658973583400167,22.264528361761005,-12.368193608068417,-40.645064535979344,1.0,755.5859917932357,1.0,-0.03513237489601333,0.16804143934873442,0.37027838997285445,1.0,25.28850911648145,0.9895981992295357
2.82,2.82,1.0,18.40039746537531,-1.4375062194627293,10.3537229884476,0.2745833875285685,-0.06311201556485212,-0.2467125509837405,21.162245408658613,0.3744946542051394,1.0,0.0,306.6311008789507,-9.020288209074085,757.8571105559366,137.57964420257332,-10.463626733944466,-2.4796277430402003,1.0,756.8004683759866,0.0,1.0,142.73719390842678,11398.149893619393,1.0,1.0,-16.218623226995128,22.337104190266775,-12.73246733676192,-40.54861548958454,1.0,755.0731783970145,1.0,-0.03182002045243374,0.1775108011516726,0.3704019784653997,1.0,26.97869184952391,1.2372224596862316
2.85,2.85,1.0,18.30240720429601,-1.6918519433911878,10.660294308874542,0.2841280708079163,-0.06581666944663743,-0.25331131172919863,21.248113968586626,0.38629938551341686,1.0,0.0,306.6311008789507,-9.020288209074085,757.8571105559366,137.57964420257332,-10.463626733944466,-2.4796277430402003,1.0,756.8004683759866,0.0,1.0,143.83670558031756,11566.96721598492,1.0,1.0,-16.218623226995128,22.337104190266775,-12.73246733676192,-40.54861548958454,1.0,755.0731783970145,1.0,-0.03182002045243374,0.1775108011516726,0.3704019784653997,1.0,26.97869184952391,1.2372224596862316
2.88,2.88,1.0,18.25472519313314,-1.6433305110971914,10.993837778020392,0.27783556456306474,-0.07085595633611032,-0.2624856491922333,21.372879921408373,0.3887311198196638,1.0,0.0,306.6311008789507,-9.020288209074085,757.8571105559366,137.57964420257332,-10.463626733944466,-2.4796277430402003,1.0,755.4614147641356,0.0,1.0,143.75991849745796,11747.200265164322,1.0,1.0,-16.28794055784418,22.270405690755403,-13.081348744617882,-40.45091587236982,1.0,755.2340765915981,1.0,-0.032726773025018294,0.18542079500857822,0.3705279192172075,1.0,27.016280391073426,1.0433621714867845
2.9099999999999997,2.9099999999999997,1.0,18.377626683372952,-1.648240803802642,11.25188613583187,0.2682371601569056,-0.07914303881896975,-0.2767467741475536,21.611543255271403,0.39345085040398553,1.0,0.0,306.6311008789507,-9.020288209074085,757.8571105559366,137.57964420257332,-10.463626733944466,-2.4796277430402003,1.0,755.4614147641356,0.0,1.0,144.2588109483664,11961.434722793498,1.0,1.0,-16.28794055784418,22.270405690755403,-13.081348744617882,-40.45091587236982,1.0,755.2340765915981,1.0,-0.032726773025018294,0.18542079500857822,0.3705279192172075,1.0,27.016280391073426,1.0433621714867845
2.94,2.94,1.0,18.258352476091037,-1.8394177492457715,11.65946005725092,0.27162469168177666,-0.0841168608110534,-0.2801850326787908,21.741524822883274,0.3991982864957481,1.0,0.0,334.95502818894425,-12.624434172175835,756.0034867169479,141.05626122247577,-12.830337697832524,-2.696988802158944,1.0,755.1604030460174,0.0,1.0,144.67510070223256,11821.351361009398,1.0,1.0,-17.37403427650886,22.30368195784969,-13.308463019319454,-40.36437770401847,1.0,754.8732785385074,1.0,-0.03224272268179541,0.17529004486363933,0.37065532085721964,1.0,26.861721320353713,0.2756439581517246
2.9699999999999998,2.9699999999999998,1.0,18.060459006185802,-1.9912248966782966,12.081157416005972,0.27785587634765774,-0.08955244069949153,-0.2913884389760413,21.81970486999275,0.4124690897813495,1.0,0.0,334.95502818894425,-12.624434172175835,756.0034867169479,141.05626122247577,-12.830337697832524,-2.696988802158944,1.0,755.1604030460174,0.0,1.0,146.15504795678075,12157.750001891896,1.0,1.0,-17.37403427650886,22.30368195784969,-13.308463019319454,-40.36437770401847,1.0,754.8732785385074,1.0,-0.03224272268179541,0.17529004486363933,0.37065532085721964,1.0,26.861721320353713,0.2756439581517246
3.0,3.0,1.0,18.14866331815624,-2.1019271261107346,12.357175469658996,0.268631687103446,-0.0940922322245377,-0.3078367448727502,22.056560553885365,0.4192610081737756,1.0,0.0,334.95502818894425,-12.624434172175835,756.0034867169479,141.05626122247577,-12.830337697832524,-2.696988802158944,1.0,755.0052914303515,0.0,1.0,146.67100285798193,12272.787021870749,1.0,1.0,-19.25487438380955,22.335029597691733,-13.715353569090336,-40.209821932454055,1.0,755.148228358017,1.0,-0.040969973525168256,0.17157637515297514,0.3707832007681977,1.0,28.729326801463117,0.9133550366842249
3.03,3.03,1.0,18.023169000346414,-2.1709834189174875,12.797382627827773,0.2597590752122521,-0.10286909487034232,-0.31764599372440927,22.21082600767677,0.4230316834041339,1.0,0.0,334.95502818894425,-12.624434172175835,756.0034867169479,141.05626122247577,-12.830337697832524,-2.696988802158944,1.0,755.0052914303515,0.0,1.0,146.7562376110744,12241.60807983417,1.0,1.0,-19.25487438380955,22.335029597691733,-13.715353569090336,-40.209821932454055,1.0,755.148228358017,1.0,-0.040969973525168256,0.17157637515297514,0.3707832007681977,1.0,28.729326801463117,0.9133550366842249
3.06,3.06,1.0,17.90861805106273,-2.2732522480967643,13.327349501418901,0.26793195094071265,-0.10698790930517693,-0.32618790067791925,22.43890641308746,0.435468126986416,1.0,0.0,334.95502818894425,-12.624434172175835,756.0034867169479,141.05626122247577,-12.830337697832524,-2.696988802158944,1.0,755.2534121222883,0.0,1.0,147.13043872615705,12204.947519284095,1.0,1.0,-20.190477527128994,22.4100477510073,-13.814123360750267,-40.081519457142605,1.0,754.9390518318551,1.0,-0.03924307841929014,0.1872434060082056,0.3709104796211311,1.0,30.176950471838296,0.5970138740362301
