time_s,x_m,y_m,altitude_m,vx_mps,vy_mps,vz_mps,speed_mps,mass_kg,roll_deg,pitch_deg,yaw_deg,p_dps,q_dps,r_dps,alpha_deg,beta_deg,qbar_pa,mach,airspeed_mps,load_factor_g,density_kgpm3,pressure_pa,temperature_k,wind_x_mps,wind_y_mps,wind_z_mps,thrust_n,mass_flow_kgps,propulsion_throttle_actual,propulsion_health,energy_j_per_kg,target_distance_m,guidance_mode,pitch_command_deg,heading_command_deg,roll_command_deg
0.0,0.0,0.0,750.0,86.0,-1.0,9.0,86.47543003651384,18.0,0.0,7.000000000000002,0.0,0.0,0.0,0.0,1.4016805444688731,-6.99563488160828,4536.612575246487,0.2645041814014108,89.24453490674894,1.7205257729526313,1.139195935492775,92633.60556773993,283.275,-2.1576439091004773,9.86942436359809,0.3586780454497614,323.0,0.17335175620624782,0.85,nominal,11093.9875,nan,heading_hold,7.499999999999999,-2.0,0.0
0.03,2.5949261975140976,-0.02888807630962151,750.2637386433568,86.49753991713659,-0.9629358769873837,8.791288111891413,86.94848132018241,17.994799447313813,0.06895755966087255,7.193403095234845,-0.10556200241299275,1.8638651003683908,-6.448876764840874,-3.487902836132251,1.7642640975343076,-6.948368298312302,4581.590222390552,0.2658163708117686,89.6870003205539,1.7505770503761238,1.139166595339428,92630.65919778285,283.27328569881814,-2.1128780731609975,10.04690527549587,0.38086315943698384,328.7375,0.17643103082306932,0.85,nominal,11137.593094509928,nan,heading_hold,7.499999999999999,-2.0,0.0
0.06,5.204946386852976,-0.05688311976914459,750.5218304773052,87.00067297796264,-0.933168115317436,8.603061131616217,87.42997519263155,17.98950651638912,0.18494455882132757,7.198533786137786,-0.27527318595832145,3.1576133819172494,-0.18345832338537457,-5.612095096322584,1.9185717725900073,-6.833908703143515,4627.920324505196,0.2671611463980131,90.14046350481533,1.780386736324566,1.1391378839367983,92627.77598491513,283.27160810189747,-2.0714349154906015,10.211129355173762,0.40139116939672026,334.47499999999997,0.17951030543989083,0.85,nominal,11182.10518994235,nan,heading_hold,7.499999999999999,-2.0,0.0
0.09,7.830309348447956,-0.08421652811337613,750.7744272081844,87.51209871983265,-0.9111136114743847,8.419891029304829,87.92094241594614,17.984121207225925,0.32376749881051836,7.0261538217500625,-0.4707044853056926,3.8208516744162835,5.717252222393656,-6.489711802249133,1.888241303394115,-6.688737632570024,4675.748140322083,0.26854219332242113,90.60616766657452,1.8104636520424604,1.1391097843724656,92624.95422967679,283.26996622314675,-2.0334928398682965,10.361382077277707,0.42017275965971335,340.2125,0.18258958005671233,0.85,nominal,11227.6280942352,nan,heading_hold,7.499999999999999,-2.0,0.0
0.12,10.471324252154156,-0.11104179922632103,751.0213766627526,88.03383012354003,-0.8941757037648299,8.231648485604483,88.42236613662892,17.978643519824224,0.46934984215024345,6.860632586498759,-0.6737980774329645,4.034354082852842,5.470737614294833,-6.758180848197887,1.866000375307086,-6.528499239613219,4725.177127458448,0.269961909050211,91.0849218493821,1.8415655099913268,1.1390823135395163,92622.19562738725,283.26836105169207,-1.999215508837867,10.497009704672017,0.4371262130840022,345.95,0.18566885467353383,0.85,nominal,11274.261200049814,nan,heading_hold,7.499999999999999,-2.0,0.0
0.15,13.12828778174632,-0.1374690222236821,751.2626108126553,88.56545098640542,-0.8809074332453688,8.041138330092025,88.93410488656758,17.973073454184018,0.6141537872975176,6.771866986368574,-0.8768664355606174,4.02342238889083,2.8951736801378054,-6.74879039728616,1.9206850241185776,-6.360232951682616,4776.199472672748,0.27141946486019203,91.57644649790369,1.8730741247733338,1.139055478970492,92619.50093337974,283.26679302971775,-1.968750550582154,10.61742213279545,0.45217776659943126,351.6875,0.18874812929035537,0.85,nominal,11322.006988313427,nan,heading_hold,7.499999999999999,-2.0,0.0
0.18,15.801467029750293,-0.1635857349084276,751.4982229319357,89.10597493346582,-0.870557089491517,7.8537373093458624,89.45565285779158,17.96741101030531,0.7562135011750077,6.710569428664081,-1.0765265362990284,3.954086372868395,1.9640698185997851,-6.633297287776483,1.9997084050853273,-6.186502630167583,4828.774812308308,0.27291311631661974,92.08015293643135,1.9045230999626277,1.1390292702556026,92616.86910126395,283.2652615509424,-1.9422288013127906,10.722095457157224,0.46526193214465283,357.425,0.19182740390717687,0.85,nominal,11370.836962022324,nan,heading_hold,7.499999999999999,-2.0,0.0
0.21,18.49112238907399,-0.1894690728099713,751.7283331400281,89.65517864412321,-0.8627779300514569,7.670340269743296,89.98682994371941,17.961656188188094,0.8961957982627642,6.628944802164572,-1.27164340722296,3.910672382191323,2.6273915253882034,-6.498450356452181,2.054613828318755,-6.007540289206924,4882.903717151526,0.2744422928070795,92.59584851355416,1.9357866209373302,1.1390036740004768,92614.29878499276,283.2637658345898,-1.9197639370894546,10.810574252802013,0.47632178160025157,363.16249999999997,0.19490667852399834,0.85,nominal,11420.751439847594,nan,heading_hold,7.499999999999999,-2.0,0.0
0.24,21.19752377083322,-0.21519245396361888,751.9530032372306,90.21337939197441,-0.8574460384549198,7.489003240084009,90.5277537805902,17.955808987832373,1.0355774414750207,6.529942583470631,-1.462698722606895,3.916346523877429,3.192959752780906,-6.3813093219446575,2.089446641537428,-5.822643767114693,4938.6227466154605,0.2760074271038792,93.12367918150258,1.9670111142444222,1.1389786832993785,92611.78929013964,283.26230547895796,-1.9014521061876093,10.882473555826179,0.4853091944782724,368.9,0.19798595314081988,0.85,nominal,11471.77702147597,nan,heading_hold,7.499999999999999,-2.0,0.0
0.27,23.920947027204825,-0.2408294009624594,752.1722620692863,90.78077521238681,-0.8545648999613501,7.308627735187292,91.07851266188804,17.94986940923815,1.175695910158462,6.434537463881783,-1.650848032400291,3.9625775122440614,3.0593380145437927,-6.291763196739912,2.12578370955751,-5.630975209411651,4995.966998724219,0.2776088871878527,93.66376906915897,1.9983064178217806,1.1389542949133147,92609.3402905164,283.2608802965496,-1.8873714723151238,10.937480538323786,0.4921850672904733,374.6375,0.20106522775764138,0.85,nominal,11523.937848172616,nan,heading_hold,7.499999999999999,-2.0,0.0
0.3,26.66166574865253,-0.26645577928580055,752.386151181508,91.35729071492361,-0.854212610778039,7.129637074059853,91.63905265094837,17.943837452405422,1.3173562301185566,6.348731160117933,-1.8370176876465762,4.031174052882549,2.7253747494585663,-6.227854819910489,2.169349452043146,-5.431866430805197,5054.956877277487,0.2792466128112811,94.21609781257794,2.029633991893932,1.1389305041916835,92606.95131821599,283.25949001732016,-1.8775818058590168,10.975355869474885,0.49691948368436056,380.375,0.20414450237446288,0.85,nominal,11577.24563486578,nan,heading_hold,7.499999999999999,-2.0,0.0
0.32999999999999996,29.41994988076794,-0.2921508660750083,752.5947300561652,91.94280440384699,-0.8565028929735911,6.95262915524029,92.20928332342702,17.937713117334187,1.4608286362628178,6.265811496707831,-2.021693362404682,4.106129258310535,2.6148521697629716,-6.183811063927452,2.213115581564336,-5.2248774186333895,5115.609491227566,0.280920440822437,94.7806103128908,2.060929291726422,1.1389073044898377,92604.62170512992,283.2581342546349,-1.8721242157022364,10.995934756854064,0.49949184460675794,386.1125,0.20722377699128441,0.85,nominal,11631.70907501531,nan,heading_hold,7.499999999999999,-2.0,0.0
0.36,32.19606864858853,-0.3179976460756346,752.7980584192618,92.53729226068633,-0.86155933335421,6.777612103219866,92.78916299464221,17.93149640402445,1.606053806492061,6.1811899949548135,-2.2051656203753645,4.17785000668821,2.6570132328498324,-6.153015997673416,2.252583874018922,-5.009801063763964,5177.947946438463,0.28263036164845634,95.35730329074615,2.0921837415132463,1.1388846891371385,92602.35078057446,283.2568126202748,-1.8710209965139493,10.999127663428633,0.4998909579285791,391.84999999999997,0.2103030516081059,0.85,nominal,11687.341464220393,nan,heading_hold,7.499999999999999,-2.0,0.0
0.39,34.99029202686012,-0.34408282679143026,752.9961883495836,93.14077927571971,-0.8695060238598562,6.604331010728,93.37868061240279,17.925187312476208,1.7528570757782096,6.096290703968095,-2.387674445394967,4.242882319655381,2.6514870835259994,-6.129095776130983,2.289442885702461,-4.786663656615994,5241.999124398338,0.2843764544203808,95.94620340602266,2.123424299022538,1.1388626523145953,92600.13795941748,283.2555247757277,-1.8742755431939178,10.984920697126826,0.4981150871408533,397.5875,0.2133823262249274,0.85,nominal,11744.159066935008,nan,heading_hold,7.499999999999999,-2.0,0.0
0.42,37.802889902123745,-0.370496820761857,753.1891695019161,93.75326250878757,-0.8804664656808923,6.432705077750934,93.97781199227904,17.91878584268946,1.9010676589609936,6.013438142164091,-2.569337888643887,4.301620781675219,2.568372640605857,-6.1066639848089705,2.3261723200538174,-4.555702708411879,5307.788591825701,0.2861587470969116,96.54732005893614,2.132869169683189,1.1388411884738392,92597.98268373261,283.2542703982375,-1.8818723279268623,10.953375671281055,0.49417195891013177,399.47763157894735,0.21439674612793488,0.85,nominal,11802.177142524039,nan,heading_hold,7.499999999999999,-2.0,0.0
0.44999999999999996,40.6339391695784,-0.39732504746662145,753.3770338869012,94.36830891515505,-0.8942742234921469,6.262146166172318,94.5800820918413,17.91235394030562,2.05055306947309,5.932674432472265,-2.7500925727463676,4.355865840084624,2.4839200171518576,-6.081710733067526,2.3630235085443867,-4.317619997924173,5374.630020726377,0.28795818285867,97.15422365816465,2.13140825872509,1.1388202940298695,92595.88459277281,283.25304927973514,-1.8937769902488433,10.904629835683219,0.4880787294604023,399.4440789473684,0.21437873867403534,0.85,nominal,11860.8008536167,nan,heading_hold,7.499999999999999,-2.0,0.0
0.48,43.48341971518473,-0.42465052778235524,753.559805824718,94.98268485354443,-0.9108493438577921,6.092397927222567,95.18223248599799,17.9059225781454,2.201220119741328,5.853024749677627,-2.9297595844889903,4.40736550352452,2.432178339652851,-6.05165037549378,2.399170863995121,-4.07303481565011,5442.17535854835,0.2897651756012962,97.76367999660319,2.1299348668095193,1.1387999662538628,92593.8434117889,283.2518612621393,-1.90993647140736,10.838895279422252,0.4798619099277814,399.41052631578947,0.2143607312201358,0.85,nominal,11919.725960300257,nan,heading_hold,7.499999999999999,-2.0,0.0
0.51,46.35131080471162,-0.4525576689980265,753.737509853789,95.59636965089646,-0.930238040522376,5.923467635700924,95.78422992368874,17.899491756208796,2.353004243696765,5.774211152512167,-3.1081306825514554,4.457215529227206,2.3900237047130006,-6.014844237185912,2.4344504562533458,-3.82248908371925,5510.42714887863,0.29157965048964296,98.3756638888794,2.1284513352138066,1.1387802023935218,92591.85886369919,283.2507061859503,-1.930279233193799,10.75645800810207,0.46955725101275875,399.3769736842105,0.21434272376623625,0.85,nominal,11978.949302044693,nan,heading_hold,7.499999999999999,-2.0,0.0
0.54,49.2375911317104,-0.48113208155372156,753.9101705262827,96.20934423329267,-0.952480418523168,5.755355749792804,96.38604285141365,17.89306147449581,2.505855412161809,5.696549459817262,-3.2849902683319647,4.505896515435171,2.3377532372440255,-5.9702786795515745,2.4692917685977314,-3.566588024432236,5579.387268475317,0.2934015163893837,98.9901446508594,2.126963477894815,1.1387609996958088,92589.93067137203,283.24958389157916,-1.9547155693468476,10.657676699454912,0.457209587431864,399.3434210526316,0.21432471631233674,0.85,nominal,12038.467802068844,nan,heading_hold,7.499999999999999,-2.0,0.0
0.57,52.14223865503087,-0.5104604272575057,754.0778133853717,96.82158411068227,-0.9776115234594707,5.588095302964547,96.98763675390661,17.88663173300644,2.659727554659397,5.620191073747105,-3.4601028924679,4.553555205439076,2.2809408926488732,-5.9174531381208615,2.503936359174782,-3.3059829143475556,5649.05626936966,0.29523064921510106,99.60708048041747,2.1254734895189022,1.1387423552982443,92588.05854671047,283.24849421299507,-1.9831379942308773,10.542981142764262,0.4428726428455327,399.3098684210526,0.21430670885843717,0.85,nominal,12098.278030189522,nan,heading_hold,7.499999999999999,-2.0,0.0
0.6,55.06523053311556,-0.5406302642033322,754.240465305157,97.43306260282293,-1.0056612315275466,5.421730659513488,97.5889758426766,17.880202531740686,2.8145755850769527,5.545001551163455,-3.633217442462095,4.6002464897949364,2.2292021631518515,-5.856260185376564,2.538329007885031,-3.0413566104893714,5719.43344207168,0.2970668946167595,100.22641936346916,2.1239810640524586,1.138724266191111,92586.24218685702,283.24743697551645,-2.015421709820437,10.41287036888731,0.4266087961109138,399.2763157894737,0.21428870140453765,0.85,nominal,12158.376362096078,nan,heading_hold,7.499999999999999,-2.0,0.0
0.63,58.00654317281111,-0.5717298838299855,754.398154182402,98.0437546565183,-1.0366539875551102,5.25629590816516,98.19002558972913,17.87377387069855,2.970358618461765,5.470859307834664,-3.804087173077515,4.646080244416782,2.182176011912213,-5.786858543354524,2.572428870148813,-2.773413214212656,5790.516974845226,0.29891007304699446,100.84810078397446,2.122487184276441,1.138706729251727,92584.48127763502,283.2464119978144,-2.051425148973127,10.267910479013079,0.4084888098766347,399.24276315789473,0.2142706939506381,0.85,nominal,12218.759221368684,nan,heading_hold,7.499999999999999,-2.0,0.0
0.6599999999999999,60.96615226354721,-0.6038481581039971,754.550908772158,98.65363635787007,-1.0706091424670519,5.091819658531666,98.79075259355912,17.86734574988003,3.1270445312692536,5.397763146979952,-3.9724809381300874,4.691277485218647,2.135900838131093,-5.709584482823749,2.6063138071569205,-2.502870829651807,5862.303804731414,0.3007599767468558,101.47205470716354,2.120994423847535,1.1386897412627197,92582.77549538335,283.24541909298097,-2.090990591440995,10.108732181603072,0.38859152270038405,399.20921052631576,0.21425268649673854,0.85,nominal,12279.423068511387,nan,heading_hold,7.499999999999999,-2.0,0.0
0.69,63.94403276450587,-0.6370744022763453,754.6987588232732,99.26268336528872,-1.1075414724116073,4.928335037175468,99.39112356357246,17.860918169285128,3.2846129475041406,5.325723948048784,-4.138182302249547,4.736158360789152,2.090017569265805,-5.624903528024628,2.640065943436935,-2.23045563494601,5934.789366018577,0.30261636424043414,102.09819972195608,2.1195051455262015,1.1386732988969561,92581.1245054431,283.2444580676487,-2.1339448497073206,9.936028048231078,0.36700350602888476,399.17565789473684,0.21423467904283902,0.85,nominal,12340.364304828916,nan,heading_hold,7.499999999999999,-2.0,0.0
0.72,66.94015889477627,-0.6714982442660011,754.8417351957181,99.87087100901336,-1.1474613996551957,4.765879081495925,99.99110534033576,17.854491128913843,3.443056739302604,5.254703068137532,-4.3009888514209615,4.781100232284108,2.0462124462458604,-5.533375578958083,2.6737103072549395,-1.9568966654713875,6007.967461339958,0.3044789581460989,102.72644230237934,2.1180210149787873,1.138657398704486,92579.52796084643,283.2435287212278,-2.18010002214101,9.750549500261652,0.3438186875327065,399.1421052631579,0.21421667158893948,0.85,nominal,12401.57927604815,nan,heading_hold,7.499999999999999,-2.0,0.0
0.75,69.95450414813362,-0.7072094957835087,754.9798698420257,100.47817511191157,-1.1903750505835864,4.604488210249848,100.5906654628517,17.848064628766174,3.6023828240414404,5.184650402048974,-4.460715870820242,4.826501680205495,2.0048909559972574,-5.435623865911233,2.7072555581045554,-1.6829213957319267,6081.830203132141,0.30634744484608173,103.35667669611577,2.1165437851192417,1.138642037114599,92577.98550252283,283.2426308460268,-2.229254310367442,9.553103539478077,0.3191379424347595,399.10855263157896,0.21419866413503993,0.85,nominal,12463.064329715973,nan,heading_hold,7.499999999999999,-2.0,0.0
0.78,72.98704131372509,-0.7442980284241253,755.1131957748261,101.08457218638193,-1.236284421353888,4.444197760014241,101.18977234387108,17.841638668842123,3.762612497641786,5.115535273900668,-4.617199466046215,4.872765940713185,1.965416738083984,-5.332314001423681,2.740725263685332,-1.4092519509149732,6156.367919084601,0.30822147327465366,103.98878451568733,2.115075629653596,1.1386272104394293,92576.4967596608,283.2417642274636,-2.2811928971166324,9.344549236884514,0.2930686546105642,399.075,0.2141806566811404,0.85,nominal,12524.815834847426,nan,heading_hold,7.499999999999999,-2.0,0.0
0.8099999999999999,76.03774249084456,-0.78285365721598,755.2417470865014,101.69003923731613,-1.285187626395156,4.285043722509077,101.78839514908243,17.835213249141688,3.923781444418504,5.0473337068791695,-4.770296858583336,4.920298176834865,1.9275681571926906,-5.224143268012855,2.774144303258872,-1.1366016121059856,6231.569034869672,0.3101006531929117,104.62263415636347,2.113618790569202,1.1386129148717645,92575.06134948797,283.2409286439377,-2.335688880630425,9.125793994959292,0.26572424936991146,399.0414473684211,0.21416264922724088,0.85,nominal,12586.830172578713,nan,heading_hold,7.499999999999999,-2.0,0.0
0.84,79.10657910435246,-0.822966030208122,755.3655589749741,102.2945537835967,-1.3370790997380675,4.127062949087956,102.38650381222052,17.82878836966487,4.085939736269659,4.980014595500203,-4.919886209063797,4.969507692618756,1.891575436760346,-5.111833399599186,2.8075250738669766,-0.8656714915523025,6307.419987409468,0.311984554287137,105.25808049191447,2.1121753643712706,1.1385991464821692,92573.6788769815,283.24012386666266,-2.392504261632048,8.897789599621962,0.23722369995274525,399.0078947368421,0.2141446417733413,0.85,nominal,12649.103740366852,nan,heading_hold,7.499999999999999,-2.0,0.0
0.87,82.19352192607582,-0.8647245229021561,755.4846677431626,102.89809405744535,-1.3919497564678045,3.9702922729521,102.98406918311231,17.82236403041167,4.249151990637598,4.913544429340321,-5.0658673980344595,5.020810690396897,1.8575012795337478,-4.9961237696436225,2.8408729088935405,-0.5971474079688769,6383.9051712991195,0.3138727061188011,105.89496485771856,2.110747434328724,1.1385859012190362,92572.3489348735,283.2393496596694,-2.451390978612336,8.66152807909168,0.20769100988646,398.9743421052632,0.2141266343194418,0.85,nominal,12711.632969679516,nan,heading_hold,7.499999999999999,-2.0,0.0
0.8999999999999999,85.29854109939349,-0.9082181384457972,755.5991107899049,103.50063911058893,-1.4497871847880388,3.814768224743846,103.58106311382434,17.815940231382086,4.413497597326551,4.84789352958162,-5.208162835422685,5.074632007037843,1.8251903297985286,-4.877766170596203,2.874192709212917,-0.3316969482639238,6461.006897888709,0.31576459838837206,106.53311513974005,2.1093371617292767,1.13857317490959,92571.07110375116,283.2386057798656,-2.512091986901474,8.418037387654675,0.17725467345683427,398.9407894736842,0.21410862686554225,0.85,nominal,12774.41433772285,nan,heading_hold,7.499999999999999,-2.0,0.0
0.9299999999999999,88.42160616420614,-0.9535354146463508,755.7089266073618,104.10216882708848,-1.5105758733517864,3.6605272485658036,104.17745847211995,17.80951697257612,4.578480269705323,4.783035090502416,-5.346717970785976,5.111716554543462,1.7945334298143583,-4.757521327066872,2.907488861214113,-0.06993642991594966,6538.70536768515,0.31765968151412094,107.1723459697643,2.107946682336733,1.1385609632601619,92569.84495208433,283.23789197705213,-2.57434237680886,8.16837693312039,0.1460471166400488,398.90723684210525,0.21409061941164267,0.85,nominal,12837.444371969224,nan,heading_hold,7.499999999999999,-2.0,0.0
0.96,91.5626861573296,-1.0007634769780167,755.8141548491104,104.70266643744847,-1.5742687443888645,3.5076080582848532,104.77323129254773,17.80309425399377,4.744852914427576,4.718926044960112,-5.481674360460565,5.173164475940497,1.7655523650406526,-4.641941615787066,2.9407534115050833,0.18766899188459465,6616.978669945742,0.31955736784677946,107.81245913505839,2.1065779523592734,1.1385492618486146,92568.67003546437,283.23720799348075,-2.637870525869851,7.913632967425933,0.1142041209282416,398.8736842105263,0.21407261195774313,0.85,nominal,12900.71987939188,nan,heading_hold,7.499999999999999,-2.0,0.0
0.99,94.7217494306718,-1.049990407237015,755.9148361049399,105.302109111407,-1.6408976752999431,3.356041860984277,105.36835267509952,17.796672075635037,4.912955884295601,4.655564314129241,-5.612884118570282,5.246034725203382,1.7376170002053763,-4.521360035170924,2.973999809325236,0.4403428676675198,6695.802814445769,0.3214570336039927,108.45324423122672,2.1052336603495547,1.1385380661493694,92567.54589911697,283.2365535653179,-2.702399280731596,7.654913860443975,0.08186423255549694,398.84013157894736,0.21405460450384362,0.85,nominal,12964.237100220584,nan,heading_hold,7.499999999999999,-2.0,0.0
1.02,97.89876383759923,-1.1013032462839603,756.0110120918519,105.90048023091437,-1.7104279682315107,3.205866230398407,105.96279939327765,17.79025043749992,5.0828801577431975,4.5929176950260135,-5.740296506538028,5.321743426212175,1.7114833712826971,-4.3990908112143945,3.007213048391828,0.6874619029678231,6775.151722949028,0.3233580197763422,109.09447896757091,2.1039153886905244,1.138527371512157,92566.47207576814,283.23592842140295,-2.7676471624728882,7.393345277557336,0.04916815969466701,398.8065789473684,0.21403659704994404,0.85,nominal,13027.99281936056,nan,heading_hold,7.499999999999999,-2.0,0.0
1.05,101.0936967575479,-1.1547880562281925,756.1027255986347,106.49776399828897,-1.7828269981410747,3.057116892762804,106.55654917665349,17.783829339588422,5.254648787773127,4.530952477261313,-5.863927264638484,5.397851716346502,1.6870243505868827,-4.277352491154568,3.0403754224982844,0.9284795747198498,6854.997381320888,0.32525963679909925,109.7359307432226,2.1026248478321325,1.1385171731681736,92565.44808626184,283.23533228360884,-2.833329591106493,7.130065281982219,0.016258160247777338,398.7730263157895,0.21401858959604453,0.85,nominal,13091.983880210137,nan,heading_hold,7.499999999999999,-2.0,0.0
1.08,104.3065151226808,-1.21052995555197,756.1900204370178,107.09394550443024,-1.858063310792581,2.9098279461034253,107.14958078148841,17.77740878190054,5.428332025296332,4.469648297472541,-5.983837614148557,5.4758220328453024,1.6636596077098291,-4.157621687305298,3.073480849968903,1.1629007723845988,6935.309932897394,0.3271611676642409,110.37735769703085,2.101364095165623,1.138507466235496,92564.47344010365,283.23476486715936,-2.899160123557087,6.866219383149544,-0.016722577106306955,398.7394736842105,0.21400058214214498,0.85,nominal,13156.207194743036,nan,heading_hold,7.499999999999999,-2.0,0.0
1.1099999999999999,107.53718544068636,-1.2686131343552975,756.2729414299556,107.68901060018484,-1.936105960110916,2.7640330979284857,107.741873889876,17.770988764436275,5.604078126309099,4.4089853080688,-6.100119476038471,5.558187557012998,1.6412596820968637,-4.040922464300146,3.1065222216085053,1.3902690523952694,7016.05778145435,0.3290618711366189,111.01850979253159,2.100135045615843,1.1384982457203734,92563.54763558983,283.23422588070525,-2.96485169968297,6.602955552688385,-0.04963055591395179,398.7059210526316,0.21398257468824547,0.85,nominal,13220.659735725047,nan,heading_hold,7.499999999999999,-2.0,0.0
1.14,110.78567381940513,-1.329120855124152,756.3515343937643,108.28294595729265,-2.016924025628481,2.6197654602898313,108.3334091533265,17.764569287195627,5.782094065644203,4.348939332696283,-6.212887433025723,5.646863168743374,1.6198655067142973,-3.9280297916837683,3.139487170740351,1.6101624164942756,7097.207741993081,0.3309609859583318,111.65913023631396,2.098939371391693,1.1384895065192018,92562.6701600053,283.2337150264405,-3.0301178909852085,6.341419229696583,-0.0823225962879272,398.6723684210526,0.2139645672343459,0.85,nominal,13285.33854415363,nan,heading_hold,7.499999999999999,-2.0,0.0
1.17,114.05194599431749,-1.3921354455531403,756.4258461046563,108.87573916374522,-2.100486347632943,2.4770570297371486,108.92416826800674,17.758150350178596,5.962615238016593,4.289487726395989,-6.322275591764419,5.7427645091268005,1.5993225799839015,-3.8195969185852787,3.1723641286370134,1.8221933817858917,7178.725224439387,0.33285773565453575,112.29895709930884,2.0977787102722756,1.1384812434222338,92561.84048999558,283.23323200031973,-3.0946741465854597,6.0827483370302255,-0.1146564578712218,398.6388157894737,0.21394655978044638,0.85,nominal,13350.24074014075,nan,heading_hold,7.499999999999999,-2.0,0.0
1.2,117.33596735534884,-1.4577382904528762,756.4959242685431,109.46737870104491,-2.1867614966578626,2.3359387962281275,109.51413395348095,17.751731953385182,6.145885830926114,4.2306104813849785,-6.428436234634372,5.8461584473629165,1.5794358320018047,-3.7162274772665675,3.205143087910013,2.0260105259637156,7260.574432329686,0.3347513335028875,112.93772499327059,2.096654666630478,1.1384734511169168,92561.0580919018,283.23277649225446,-3.1582390310232773,5.828068330295633,-0.14649145871304595,398.60526315789474,0.21392855232654684,0.85,nominal,13415.363523518594,nan,heading_hold,7.499999999999999,-2.0,0.0
1.23,120.63770297215494,-1.5260098273484721,756.5618174946599,110.05785389353656,-2.2757178965198683,2.19644087055557,110.10328990585808,17.745314096815385,6.33215348210199,4.1722875514941915,-6.531539137518358,5.95713739531035,1.5600937927540286,-3.6185101860255924,3.237812768874483,2.2213001516768465,7342.718582512071,0.33664098779790597,113.57516684674596,2.0955687085910055,1.138466124190818,92560.32242205372,283.2323481862847,-3.2205354484866735,5.578487301085346,-0.17768908736433178,398.57171052631577,0.21391054487264727,0.85,nominal,13480.70417158072,nan,heading_hold,7.499999999999999,-2.0,0.0
1.26,123.95711761870415,-1.5970295485470134,756.6235752642258,110.64715488497374,-2.367324039951376,2.058592318866074,110.69162077404411,17.738896780469204,6.521672430005579,4.114498805691746,-6.631771492113523,6.075900888782977,1.5411790876203308,-3.5270303288037415,3.270360875673612,2.4077876533541542,7425.12014920991,0.338525907475091,114.21101580241724,2.0945221842794495,1.1384592571350933,92559.63292711765,283.23194676078253,-3.2812918481627915,5.335091155763481,-0.20811360552956487,398.5381578947368,0.21389253741874772,0.85,nominal,13546.260039157318,nan,heading_hold,7.499999999999999,-2.0,0.0
1.29,127.29417579657573,-1.6708760121421202,756.6812478951714,111.2352725957195,-2.461548786503563,1.922421031518462,111.27911212125476,17.73248000434664,6.714708342795262,4.0572250350121415,-6.729337935294667,6.202811206243094,1.5225324331944132,-3.4423692656942695,3.302775555020912,2.5852385938326967,7507.741124890112,0.34040530791049484,114.84500717364055,2.093516366511833,1.1384528443483917,92558.98904448806,283.23157188868134,-3.3402434054629517,5.0989388907771644,-0.23763263865285444,398.5046052631579,0.2138745299648482,0.85,nominal,13612.028556918576,nan,heading_hold,7.499999999999999,-2.0,0.0
1.3199999999999998,130.64884175599403,-1.7476268637904127,756.7348865064731,111.82219864727702,-2.5583617216097485,1.7879537100578269,111.86575035943302,17.726063768447695,6.911541114661095,4.0004475933618755,-6.824460267703344,6.338326301130572,1.503998360278385,-3.365098971914536,3.335045415538894,2.7534595655814407,7590.543293185843,0.3422784167837189,115.4768804223806,2.0925524386245717,1.1384468801408096,92558.3902026842,283.2312232377079,-3.3971331739775854,4.87105798505082,-0.26611775186864745,398.4710526315789,0.21385652251094864,0.85,nominal,13678.007226498199,nan,heading_hold,7.499999999999999,-2.0,0.0
1.3499999999999999,134.02107951438649,-1.827358870053131,756.7845429810942,112.4079252797491,-2.657733542090607,1.6552158207035375,112.45152267840359,17.719648072772365,7.112465177323235,3.9441478837384842,-6.917376938374294,6.48291746857812,1.485430740598922,-3.2957750300811472,3.3671593190822477,2.91229883993362,7673.4885132261525,0.3441444799898904,116.1063811536714,2.091631482592767,1.1384413587379922,92557.83582176127,283.2309004706229,-3.4517132031507236,4.652439929510539,-0.29344500881118263,398.4375,0.21383851505704912,0.85,nominal,13744.193614771306,nan,heading_hold,7.499999999999999,-2.0,0.0
1.38,137.4108528723611,-1.9101479635877956,756.8302699265387,112.99244526582025,-2.7596364511554916,1.5242315148140042,113.0364169734811,17.713232917320653,7.3177884668459825,3.888307449913546,-7.008342399923594,6.637024722211405,1.4666729392384235,-3.2349299538881704,3.399106715032151,3.061646766365143,7756.539012383105,0.34600276753530274,116.73326310457051,2.090754494994739,1.1384362742855092,92557.32531374939,283.2306032454775,-3.5037456168128696,4.444035913189289,-0.3194955108513388,398.40394736842103,0.21382050760314958,0.85,nominal,13810.585347676431,nan,heading_hold,7.499999999999999,-2.0,0.0
1.41,140.8181254267494,-1.996069300358952,756.8721206339604,113.57575181294347,-2.8640445590385455,1.3950235807240157,113.62042176432134,17.706818302092557,7.5278312315250675,3.8329079748638133,-7.097626297190795,6.801051745043398,1.4475613390890414,-3.1830678524596774,3.4308778290839723,3.2014359019309864,7839.657682941528,0.3478525793215437,117.35729009549705,2.0899223956395447,1.1384316208533818,92556.85808310765,283.23033121587923,-3.5530036478784863,4.246752684682293,-0.3441559144147134,398.3703947368421,0.21380250014925004,0.85,nominal,13877.18010276616,nan,heading_hold,7.499999999999999,-2.0,0.0
1.44,144.2428605804567,-2.0851973288876278,756.9101490362234,114.15783845691007,-2.9709342842891897,1.2676134087671747,114.20352610768911,17.70040422708808,7.742925248347787,3.7779310565060253,-7.1855125153125075,6.9753796816356655,1.4279330685162066,-3.1406605899863558,3.462463625483731,3.3316408852237203,7922.808379334272,0.34969325075266244,117.97823792187404,2.0891360271618287,1.1384273924407302,92556.43352719027,283.23008403126454,-3.5992726247058995,4.061448606959062,-0.36731892413011724,398.33684210526314,0.2137844926953505,0.85,nominal,13943.975600760894,nan,heading_hold,7.499999999999999,-2.0,0.0
1.47,147.68502154897914,-2.177605871481544,756.9444096646367,114.73869895074779,-3.080284753130536,1.1420209471098817,114.78571950776079,17.693990692307217,7.963413450755684,3.7233580892066236,-7.272298165525115,7.160380832205671,1.4076225335113595,-3.108145202307198,3.4938559014838426,3.4522780923671923,8005.95621265951,0.3515241581047515,118.59589616562407,2.0883961626000795,1.1384235829805702,92556.0510367276,283.22986133717984,-3.642350904828718,3.8889299226973084,-0.38888375966283645,398.30328947368423,0.21376648524145098,0.85,nominal,14010.969596494877,nan,heading_hold,7.499999999999999,-2.0,0.0
1.5,151.14457136338478,-2.273368217447501,756.9749576045435,115.31832714685494,-3.1920781988652243,1.018264663560593,115.36699182219232,17.687577697749973,8.189649734482128,3.6691701974098208,-7.358292533553536,7.356424509259883,1.3864596043294928,-3.0859223066129964,3.525047453017548,3.5634051187370837,8089.067838493553,0.3533447235848229,119.21006990185107,2.0877035164526063,1.138420186344732,92555.70999631967,283.22966277557043,-3.6820507519962127,3.7299472463878893,-0.40875659420151383,398.2697368421052,0.21374847778755138,0.85,nominal,14078.159869043491,nan,heading_hold,7.499999999999999,-2.0,0.0
1.53,154.62147286952836,-2.3725572283254124,757.0018484501028,115.89671687145257,-3.3063003625970446,0.8963615186430514,115.94733316312822,17.681165243416345,8.421998744331725,3.6153480983554647,-7.443815995471628,7.5638763127837025,1.364271834666707,-3.074355215695456,3.5560321822784804,3.665120120723666,8172.111734154724,0.35515442001212805,119.8205812781551,2.08705875312906,1.1384171963488758,92555.40978493904,283.2294879850743,-3.718199152706498,3.5851922984733933,-0.42685096269082584,398.2361842105263,0.21373047033365186,0.85,nominal,14145.544210923927,nan,heading_hold,7.499999999999999,-2.0,0.0
1.56,158.11568872330403,-2.4752454551695435,757.025138258372,116.47386179252275,-3.4229408948043742,0.7763269423066771,116.52673379424296,17.674753329306334,8.660835575145242,3.5618719585206913,-7.529198922402816,7.783095138194079,1.3408844406916367,-3.0737694790171415,3.586805218066034,3.7575610366197316,8255.058461905423,0.3569527750649512,120.42727094736136,2.0864624971838084,1.1384146067575782,92555.1497764412,283.22933660132054,-3.7506385686799772,3.4552948957298595,-0.44308813803376756,398.2026315789473,0.21371246287975232,0.85,nominal,14213.120416478647,nan,heading_hold,7.499999999999999,-2.0,0.0
1.5899999999999999,161.6271813817379,-2.5815052678999697,757.0448835028346,117.04975528112917,-3.5419937576808675,0.6581748154245471,117.10518402376273,17.66834195541994,8.906545413709201,3.5087212695017906,-7.614780586004473,8.014431056242119,1.3161193669989268,-3.0844526777613983,3.617363081529487,3.8409046949951784,8337.880914577376,0.35873937503796743,121.02999933513948,2.0859153465143603,1.1384124112894827,92554.92934008114,283.22920825723156,-3.7792276219991985,3.3408202109861977,-0.4573974736267253,398.1690789473684,0.21369445542585278,0.85,nominal,14280.88626942274,nan,heading_hold,7.499999999999999,-2.0,0.0
1.6199999999999999,165.15591308970392,-2.691408996745179,757.0611410266215,117.62439026553434,-3.6634576281736417,0.5419174595630709,117.68267409294,17.661931121757164,9.159523172442997,3.455874703713728,-7.700908064423772,8.258224895330681,1.2897956525724872,-3.1066543871630725,3.647703864963228,3.915365814630116,8420.554540238032,0.36051386805992863,121.62864772556519,2.085417886226352,1.138410603622484,92554.74784103339,283.22910258332695,-3.8038417099340496,3.242266314104071,-0.4697167107369911,398.13552631578943,0.21367644797195323,0.85,nominal,14348.839529481284,nan,heading_hold,7.499999999999999,-2.0,0.0
1.65,168.7018458620477,-2.8050290857765097,757.0739679956434,118.1977590781261,-3.7873363010443666,0.42756563406469783,118.25919405999426,17.655520828318004,9.420173147158827,3.4033099523724957,-7.7879351525864795,8.51480890109194,1.2617296899753245,-3.1405862568835343,3.677827435146447,3.9811958994105088,8503.057542832992,0.3622759667296368,122.22311915044136,2.084970703873408,1.1384091773989282,92554.6046409135,283.2290192080283,-3.824373546777228,3.160062004917228,-0.4799922493853465,398.1019736842105,0.21365844051805372,0.85,nominal,14416.977918104167,nan,heading_hold,7.499999999999999,-2.0,0.0
1.68,172.264941460896,-2.922438258515765,757.0834218518615,118.76985329494441,-3.9136390913085046,0.31512854060372775,118.8347336793277,17.64911107510246,9.688908705332986,3.351003557556254,-7.876221281776855,8.7845076099641,1.2317350684124053,-3.186422192644121,3.7077356799082115,4.038682032339384,8585.37105600748,0.36402545013479626,122.81333907043273,2.0845744071418095,1.1384081262307837,92554.49909829699,283.22895775796286,-3.8407336303324624,3.0945649475589807,-0.4881793815551274,398.06842105263155,0.21364043306415414,0.85,nominal,14485.299103221927,nan,heading_hold,7.499999999999999,-2.0,0.0
1.71,175.84516136791368,-3.0437096955830913,757.0895602669715,119.34066356725505,-4.042381235577552,0.20461383699774227,119.4092822754948,17.642701862110535,9.966151997672629,3.2989307281347693,-7.9661304501428924,9.067638489420032,1.1996227472097487,-3.2442986432219794,3.7374327923507944,4.088145573479647,8667.479287601767,0.3657621652250255,123.39925583832502,2.0842296435993455,1.1384074437047849,92554.43056923509,283.22891785826465,-3.8528506310257393,3.046060114295215,-0.49424248571309815,398.03486842105264,0.21362242561025463,0.85,nominal,14553.800682966494,nan,heading_hold,7.499999999999999,-2.0,0.0
1.74,179.44246675125413,-3.1689172243351287,757.0924410968012,119.91017944468143,-4.173584291734573,0.09602766099008733,119.98282861146252,17.636293189342226,10.252333685617016,3.2470651355857183,-8.058030166666162,9.364512339417665,1.1652013546898272,-3.3143149978022937,3.766925593508483,4.129940766472612,8749.369632693968,0.36748602751842424,123.98084093745655,2.0839371227446306,1.1384071233874786,92554.39840776096,283.22889913287077,-3.860671701946376,3.014758545633688,-0.498155181795789,398.00131578947367,0.21360441815635509,0.85,nominal,14622.48016828574,nan,heading_hold,7.499999999999999,-2.0,0.0
1.77,183.05681842693411,-3.298135520427927,757.0921223367402,120.4783891893326,-4.3072765364266035,-0.010625335365692448,120.55536075063314,17.629885056797534,10.547892682896327,3.19537869191057,-8.152290412207176,9.675433636974963,1.1282774071642785,-3.3965340974998086,3.796223900442914,4.164453257642095,8831.032753457148,0.36919702112906166,124.55808899105946,2.0836976410385994,1.1384071588301676,92554.4019663857,283.22890120481117,-3.86416270846882,3.00079643210428,-0.499900445986965,397.96776315789475,0.21358641070245554,0.85,nominal,14691.33496437124,nan,heading_hold,7.499999999999999,-2.0,0.0
1.7999999999999998,186.68817681433927,-3.431440321229333,757.0886620785545,121.04527958017225,-4.443493360046881,-0.11534193952369884,121.12686591192664,17.62347746447646,10.853275913606247,3.1438413060894437,-8.249282620298644,10.000700971502699,1.0886556464717225,-3.4909828653656017,3.825340940468282,4.192098531100565,8912.462624499136,0.3708951981105125,125.13101754086499,2.083512110194221,1.138407543573695,92554.44059657809,283.22892369648935,-3.8633083764558456,3.0042345217052913,-0.4994706847868386,397.9342105263158,0.213568403248556,0.85,nominal,14760.362350795585,nan,heading_hold,7.499999999999999,-2.0,0.0
1.8299999999999998,190.3365018855429,-3.5689086509998895,757.0821184689704,121.61083570678808,-4.582277659018542,-0.2181203194700393,121.69733031714996,17.617070412379,11.16893809043041,3.0924206158995715,-8.349378680285746,10.340607611594635,1.0461394865533533,-3.59765305661403,3.8542938121806314,4.213320262796667,8993.656542786033,0.37258067711861576,125.69966659604293,2.0833815891236407,1.138408271153038,92554.51364922548,283.22896622995165,-3.8581123583980603,3.025057855593936,-0.496867768050758,397.9006578947368,0.21355039579465646,0.85,nominal,14829.559460244483,nan,heading_hold,7.499999999999999,-2.0,0.0
1.8599999999999999,194.0017531080915,-3.7106190577610048,757.0725496704387,122.17504075161948,-4.723680225370504,-0.31895995105913666,122.26673902980244,17.61066390050516,11.49534151572282,3.0410816941672785,-8.452949965638599,10.695442173675863,1.0005314961506349,-3.7165021286505118,3.8831039955413726,4.228588596053501,9074.6151016908,0.37425364140453216,126.26409795621059,2.0833073201598267,1.138409335101651,92554.62047506923,283.2290284271421,-3.848597217201585,3.063175833171029,-0.4921030208536214,397.8671052631579,0.2135323883407569,0.85,nominal,14898.923255716516,nan,heading_hold,7.499999999999999,-2.0,0.0
1.89,197.6838893808782,-3.856651861776061,757.0600138245196,122.73787575955765,-4.867760133835207,-0.41786153063468684,122.83507578435383,17.604257928854935,11.832955906892364,2.9897867272459013,-8.560366389831454,11.065489352526377,0.9516339635429747,-3.8474542301091432,3.9117979110391796,4.238398340810738,9155.342129147033,0.3759143361567627,126.8243943148049,2.0832907700930177,1.138410728955525,92554.76042511199,283.2291099101406,-3.8348043276940507,3.11842260627668,-0.485197174215415,397.8335526315789,0.21351438088685737,0.85,nominal,14968.4505060462,nan,heading_hold,7.499999999999999,-2.0,0.0
1.92,201.38286896268974,-4.007089415584064,757.0445690183597,123.29931939371771,-5.014585126933431,-0.5148268719987394,123.40232280495131,17.597852497428327,12.182258246906649,2.9384946635415377,-8.671995491934727,11.451030694935826,0.8992495446276135,-3.9904013075259033,3.940407527122558,4.243267098442493,9235.844590325505,0.37756306521813127,127.3806581515892,2.083333676615653,1.1384124462568959,92554.93285098964,283.22921030138065,-3.816793696276989,3.190557800781887,-0.4761802749022641,397.8,0.21349637343295785,0.85,nominal,15038.137759592599,nan,heading_hold,7.499999999999999,-2.0,0.0
1.95,205.09864939297174,-4.162016375547139,757.0262732547524,123.85934767606625,-5.164231998769176,-0.6098587869110923,123.9684606124386,17.591447606225337,12.54373266074297,2.8871608307167906,-8.788201553958459,11.852345418719638,0.8431819685002562,-4.145204328026334,3.9689710150493362,4.243733313692991,9316.132455677918,0.37920018721067345,127.93301042540577,2.0834381008787464,1.1384144805575673,92555.13710530422,283.2293292238441,-3.794643699508762,3.279267562436437,-0.4650915546954454,397.76644736842104,0.21347836597905828,0.85,nominal,15107.981315922589,nan,heading_hold,7.499999999999999,-2.0,0.0
1.98,208.8311874043155,-4.3215199849037,757.0051844263012,124.41793371145832,-5.316786978552044,-0.7029609483745004,124.53346781849076,17.585043255245964,12.917870318833783,2.8357365200550904,-8.909344751693654,12.269711286675395,0.7832368062751688,-4.311694616835021,3.9975334492195334,4.240354255009291,9396.218535599084,0.3808261111077752,128.4815890804452,2.083606486883711,1.1384168254217621,92555.37254191005,283.229466301229,-3.768450742754865,3.3841659224227327,-0.4519792596971584,397.7328947368421,0.21346035852515877,0.85,nominal,15177.977195303723,nan,heading_hold,7.499999999999999,-2.0,0.0
2.01,212.58043882612083,-4.485690368359011,756.9813602942174,124.97504739351093,-5.472346115177014,-0.7941377361242523,125.09732090559947,17.578639444490207,13.305169368680424,2.784168536651652,-9.035780340562406,12.703405541876084,0.7192222967380715,-4.489675308710197,4.026147550300677,4.233703924379394,9476.11828334191,0.3824412912987162,129.0265473812643,2.0838417284934256,1.1384194744284708,92555.63851614905,283.2296211580876,-3.738328840390148,3.504796476674106,-0.4369004404157367,397.69934210526316,0.21344235107125922,0.85,nominal,15248.121105808554,nan,heading_hold,7.499999999999999,-2.0,0.0
2.04,216.34635847883914,-4.654620838294829,756.954858472299,125.53065509061045,-5.6310156645272595,-0.883394063948607,125.659993991581,17.572236173958068,13.706134895773797,2.7323987145231583,-9.167857877804174,13.15370590526784,0.6509502131305717,-4.678922912585865,4.054874467913537,4.224370897711618,9555.849568171698,0.38404622219592033,129.56805209352038,2.084147244929232,1.138422421173217,92555.93438502752,283.22979341993005,-3.704409119378781,3.640634371651082,-0.41992070354361477,397.66578947368424,0.2134243436173597,0.85,nominal,15318.408407819457,nan,heading_hold,7.499999999999999,-2.0,0.0
2.07,220.12890005814546,-4.828408212740639,756.925736416638,126.08471931021123,-5.792912481527021,-0.9707351887014584,126.22145857721645,17.565833443649545,14.121278914841463,2.680363395913171,-9.305920482089892,13.62089163381083,0.578236762502803,-4.879188988848396,4.0837845988347965,4.21295609681609,9635.432421061669,0.38564143243958665,130.10628152886477,2.084527065683741,1.1384256592691897,92556.25950732955,283.2299827132918,-3.6668392483911445,3.791088587935594,-0.4011139265080508,397.6322368421052,0.2134063361634601,0.85,nominal,15388.834075710205,nan,heading_hold,7.499999999999999,-2.0,0.0
2.1,223.9280160083286,-5.007153145321125,756.8940514216027,126.63719833943834,-5.958164419349511,-1.0561665011722583,126.78168327557592,17.559431253564643,14.55112039232801,2.627992874368719,-9.450304131437811,14.105244637586118,0.5009035041091279,-5.0902019385601,4.112958435988353,4.200070494159221,9714.88875550548,0.38722747875793406,130.64142347363884,2.084985925863344,1.1384291823476815,92556.61324366051,283.23018866575956,-3.625782794940724,3.9555045117074887,-0.3805619360365639,397.5986842105263,0.2133883287095606,0.85,nominal,15459.392656467882,nan,heading_hold,7.499999999999999,-2.0,0.0
2.13,227.7436573841242,-5.190960467478476,756.8598606226225,127.18804585985305,-6.126910738578368,-1.1396932993412696,127.34063352152428,17.553029603703358,14.99618530094106,2.5752108015274047,-9.601337000096779,14.60705065549299,0.41877826994611944,-5.311668903641489,4.1424874428986245,4.186332751749197,9794.242066250394,0.38880493954396506,131.1736730219182,2.0855293730745452,1.138432984057759,92556.99495641369,283.2304109059529,-3.5814185133373284,4.1331667829149525,-0.35835415213563093,397.56513157894733,0.21337032125566102,0.85,nominal,15530.078225006417,nan,heading_hold,7.499999999999999,-2.0,0.0
2.16,231.5757737001464,-5.379939543364283,756.8232210062733,127.7372105340737,-6.299302529526902,-1.2213205449715745,127.89827125985066,17.54662849406569,15.457006707043378,2.5219335578611215,-9.759338834834566,15.126600489872109,0.3316960713301528,-5.543277776593467,4.172474947651192,4.172366795768177,9873.51710893374,0.39037440821140856,131.70323033404188,2.086163887074925,1.138437058065139,92557.40400965702,283.2306490634592,-3.5339395665538857,4.323302407746816,-0.334587199031648,397.5315789473684,0.2133523138017615,0.85,nominal,15600.884335910341,nan,heading_hold,7.499999999999999,-2.0,0.0
2.19,235.4243127669994,-5.574204637904198,756.7841894281237,128.2846355617663,-6.475503151330502,-1.3010526049889657,128.4545546104109,17.54022792465164,15.934124891619799,2.468069587971594,-9.924620370844465,15.66419130027124,0.23949997278658036,-5.784699317756225,4.20303704986716,4.158799328888266,9952.739563730634,0.3919364863932812,132.23029834202688,2.0868970135368183,1.138441398050182,92557.83976893127,283.23090276871716,-3.4835526853916887,4.525084121864502,-0.30936448476693723,397.49802631578945,0.21333430634786196,0.85,nominal,15671.803971334826,nan,heading_hold,7.499999999999999,-2.0,0.0
2.2199999999999998,239.28922051306915,-5.773875298659362,756.7428226387333,128.83025820232515,-6.655688691838811,-1.3788929796785527,129.00943750861737,17.533827895461204,16.42808750548515,2.4135187013967965,-10.097482787259208,16.22012795606026,0.14204191282536058,-6.035589377398506,4.234303533730096,4.146257282582581,10031.935686193567,0.39349177704631755,132.75508042320507,2.087737513418498,1.1384459977050008,92558.3016009595,283.2311716528482,-3.4304772686017513,4.737633989760596,-0.2827957512799255,397.46447368421053,0.21331629889396245,0.85,nominal,15742.829484775059,nan,heading_hold,7.499999999999999,-2.0,0.0
2.25,243.17044079090974,-5.979076752241521,756.6991773181217,129.374009261353,-6.840048452738613,-1.454844020388615,129.56286931955515,17.527428406494387,16.935565569480506,2.3581774529038224,-10.278219106840197,16.665246004124096,0.03918345071450085,-6.295591219159669,4.266145112480206,4.135654209908077,10111.13194848021,0.39504087752333483,133.2777780630193,2.0886848557014113,1.138450850729609,92558.78887325981,283.2314553474322,-3.37494442787696,4.960027224583431,-0.25499659692707105,397.43092105263156,0.21329829144006288,0.85,nominal,15813.95254040482,nan,heading_hold,7.499999999999999,-2.0,0.0
2.28,247.06791532075584,-6.189939897249764,756.6533098366945,129.9158176615367,-7.028771500274784,-1.5289160475739043,130.1147988960105,17.521029457751187,17.443321294928552,2.302007883662174,-10.467125952881041,16.66928619464424,-0.0707101690560921,-6.564055485318321,4.297818508835379,4.128645976708316,10190.355271316315,0.39658438428727694,133.79859244586737,2.0897167174212576,1.1384559508584966,92559.30095681352,283.23175348606145,-3.317195982292958,5.191296211808001,-0.2260879735239999,397.39736842105265,0.21328028398616336,0.85,nominal,15885.164626784648,nan,heading_hold,7.499999999999999,-2.0,0.0
2.31,250.98158399085935,-6.406600221091584,756.6052755430012,130.45562233678382,-7.222010794727336,-1.6011431231079698,130.66518472224115,17.514631049231603,17.94596381105965,2.2450883023044996,-10.664494532077512,16.493862503342996,-0.1905058064302928,-6.83951750351038,4.329302283250789,4.126300939903128,10269.634043780918,0.39812291276479456,134.31773115442533,2.0908430873587083,1.1384612919398192,92559.83723401584,283.2320657089705,-3.2574834068738654,5.430434719246531,-0.19619566009418363,397.3638157894737,0.21326227653226382,0.85,nominal,15956.458374652473,nan,heading_hold,7.499999999999999,-2.0,0.0
2.34,254.91138478251966,-6.629197538096448,756.5551291191924,130.99335972201067,-7.419910566828787,-1.6715474602930673,131.21398338207646,17.508233180935637,18.446121539240124,2.1873465483676506,-10.870535595833879,16.406433473905086,-0.31460119258484476,-7.12081570658237,4.361004626467846,4.129063387074368,10348.996212553686,0.39965706017206554,134.83539562746788,2.0920777315295105,1.1384668678958583,92560.39709470564,283.2323916607252,-3.196066737550888,5.676402275081294,-0.16544971561483818,397.33026315789476,0.21324426907836427,0.85,nominal,16027.826074472647,nan,heading_hold,7.499999999999999,-2.0,0.0
2.37,258.85725346814263,-6.857876456848746,756.5029249087645,131.52895618743244,-7.6226306250765985,-1.7401403475977295,131.76114336871558,17.501835852863287,18.9472026609318,2.1286843714522123,-11.085437573319394,16.433063203186517,-0.442444825264898,-7.407464888405338,4.3933738736757535,4.137295445740349,10428.468168062085,0.4011873845148498,135.35177407450323,2.0934409181047067,1.1384726726865761,92560.97993250596,283.232730988093,-3.133213438919045,5.928128694871233,-0.13398391314109595,397.29671052631574,0.2132262616244647,0.85,nominal,16099.258859472146,nan,heading_hold,7.499999999999999,-2.0,0.0
2.4,262.8191232540759,-7.092787016527942,756.4487173030574,132.06232619777697,-7.830351989306549,-1.8069201902380871,132.3066036659485,17.495439065014555,19.449707403134877,2.0690153502721986,-11.309391113933543,16.476860026754924,-0.5748485599391203,-7.699353629336974,4.42667639724065,4.15156697010417,10508.074271001973,0.4027143963284085,135.86703868842565,2.0949343180683475,1.1384787002666292,92561.58514050732,283.2330833375301,-3.0691972395864893,6.184518737835698,-0.1019351577705377,397.2631578947368,0.2132082541705652,0.85,nominal,16170.746500349218,nan,heading_hold,7.499999999999999,-2.0,0.0
2.4299999999999997,266.7969246157977,-7.334084549852786,756.3925608646491,132.59337872406,-8.043251110828141,-1.8718812802765077,132.8502988683928,17.48904281738944,19.952410009917454,2.008586494934942,-11.542803931239431,16.480056736366567,-0.724843631673164,-7.999487656428554,4.461463297808805,4.172670598774418,10587.837185475748,0.4042385659842173,136.38134811044765,2.096476891980155,1.138484944571634,92562.21210988883,283.23344835437973,-3.0042969406639486,6.444456872156311,-0.06944289098046108,397.22960526315785,0.21319024671666562,0.85,nominal,16242.278061713958,nan,heading_hold,7.499999999999999,-2.0,0.0
2.46,270.79058575866173,-7.5819258494616415,756.3345105485104,133.12203809546799,-8.261376653628522,-1.9350105379569902,133.39217232164094,17.48264710998794,20.454508279812046,1.9500592694310332,-11.787930385123408,16.454497609008687,-0.9893113534508234,-8.337415527477692,4.501264512630739,4.202288812490485,10667.7787243483,0.4057603405644018,136.89485312282116,2.098568085518125,1.1384913994935728,92562.86022744812,283.23382568143467,-2.93879520203639,6.706812128563379,-0.036648483929577653,397.19605263157894,0.2131722392627661,0.85,nominal,16313.843646213725,nan,heading_hold,7.499999999999999,-2.0,0.0
2.4899999999999998,274.8000290920006,-7.83647733108828,756.2746333343468,133.64811111129666,-8.485049387554605,-1.9959071387832583,133.93206230038192,17.47625194281006,20.95597726348071,1.8901015003684636,-12.045043425868466,16.428577276265926,-1.1589747710209093,-8.719101931407112,4.54323029325505,4.242155572377877,10747.904805693483,0.4072798595830288,137.40760072088196,2.1007571702061987,1.138498057587306,92563.52874572617,283.23421488332673,-2.8729772947261236,6.970443021089426,-0.0036946223638218215,397.16249999999997,0.21315423180886656,0.85,nominal,16385.419289004964,nan,heading_hold,7.499999999999999,-2.0,0.0
2.52,278.82517284087413,-8.097913934644932,756.2129941076471,134.17145829578476,-8.714553451888396,-2.0546408899910977,134.4698673021958,17.469857315855794,21.45705141973594,1.8299849361202125,-12.315773024113655,16.409659272824623,-1.3944838714663044,-9.133751969113371,4.58956044277044,4.293611134270521,10828.228645997791,0.40879739819861116,137.91968366533075,2.1033963477692357,1.1385049116405208,92564.21694063976,283.23461553830026,-2.8071298804435294,7.234202513580002,0.02927531419750026,397.12894736842105,0.213136224354967,0.85,nominal,16456.988764800833,nan,heading_hold,7.499999999999999,-2.0,0.0
2.55,282.86592896006994,-8.366422668637878,756.149664100051,134.6918706398604,-8.950291133098187,-2.111000253201019,135.0054222981474,17.463463229125146,21.957671260960872,1.7689603976171826,-12.600663589136492,16.389227687392353,-1.6207697835291597,-9.571039107873164,4.6400741243534975,4.357685038448777,10908.752613295168,0.4103130236373009,138.4311245533635,2.106431741010334,1.1385119537351738,92564.92401724376,283.23502718334964,-2.741539751261708,7.4969430103528625,0.062117876294107824,397.0953947368421,0.21311821690106747,0.85,nominal,16528.527128397323,nan,heading_hold,7.499999999999999,-2.0,0.0
2.58,286.92220309641897,-8.642202272716476,756.0847187661069,135.20913787830025,-9.192653469286629,-2.164844464806374,135.53856423600035,17.457069682618116,22.457548653120032,1.7064780608331398,-12.900062074916663,16.360044333647224,-1.8421029473815707,-10.022707920606852,4.69474763068728,4.435164825089801,10989.477220689041,0.41182676750263464,138.9419339554183,2.1098704031974886,1.1385191754835684,92565.649133434,283.2354493280203,-2.6764925845279266,7.757521349291653,0.0946901686614566,397.06184210526317,0.21310020944716795,0.85,nominal,16600.00940486584,nan,heading_hold,7.499999999999999,-2.0,0.0
2.61,290.99389440913575,-8.925462980865213,756.0182372681754,135.7230437572259,-9.442023604957905,-2.216049931049401,136.06912689430817,17.4506766763347,22.95639783362576,1.6426131946648257,-13.214414531761761,16.322202473063484,-2.0793366500696018,-10.484005342494427,4.754204604343562,4.526683916505795,11070.400185284081,0.4133386088542582,139.45210470694306,2.1138247280489333,1.13852656808561,92566.3914056954,283.2358814577568,-2.61227170018537,8.014803775649469,0.12685047195618362,397.0282894736842,0.21308220199326838,0.85,nominal,16671.409893395623,nan,heading_hold,7.499999999999999,-2.0,0.0
2.6399999999999997,295.08089484615056,-9.216427129840351,755.9503045289017,136.2333479004944,-9.698804965837933,-2.2644246424563805,136.59692352649773,17.444284210274905,23.454004366330704,1.576765219297664,-13.543854006027397,16.278509434212125,-2.307881062827876,-10.953927841714346,4.81832051185172,4.632827665026527,11151.513771683613,0.41484842581037706,139.96159557655986,2.1182827501300525,1.1385341221005552,92567.14988618343,283.2363230205621,-2.5491568244762055,8.267670874921768,0.1584588593652209,396.9947368421052,0.21306419453936884,0.85,nominal,16742.69981236029,nan,heading_hold,7.499999999999999,-2.0,0.0
2.67,299.1830889902799,-9.515328937227977,755.8810099881387,136.73980480431158,-9.963393579587505,-2.309818025434149,137.12176591939595,17.437892284438725,23.950181729747705,1.5087745783800601,-13.88870295032988,16.229861343100165,-2.5439395786179766,-11.432694047185764,4.8874874779706685,4.7541675711580975,11232.807426550151,0.4163560461795817,140.4703483499528,2.1233313782227707,1.138541827585212,92567.92357659945,283.23677343507705,-2.4874228741862754,8.515022443326066,0.18937780541575827,396.9611842105263,0.21304618708546932,0.85,nominal,16813.849851026986,nan,heading_hold,7.499999999999999,-2.0,0.0
2.6999999999999997,303.30035340547454,-9.822415149839657,755.8104485736355,137.24214717315496,-10.236207087056,-2.3520471501045472,137.64344888887135,17.43150089882616,24.444708452089742,1.4382870567919164,-14.249236939445256,16.175280413835246,-2.7811511613973905,-11.92146975208127,4.9618990239807825,4.891291437068104,11314.265471644952,0.41786120579168917,140.97827376973103,2.12902112424167,1.1385496739859784,92568.71141735,283.23723208427134,-2.4273387584652073,8.755782274697358,0.21947278433716985,396.92763157894734,0.21302817963156975,0.85,nominal,16884.82804651631,nan,heading_hold,7.499999999999999,-2.0,0.0
2.73,307.43255611184156,-10.137945477692146,755.7387206285485,137.74009021223358,-10.517677595082962,-2.3909315028982068,138.1617550088298,17.425110053437216,24.937328296901907,1.364968079850755,-14.625772667414642,16.113746553271998,-3.0208965873382656,-12.421328375572774,5.041795197438684,5.044797300639759,11395.867701778921,0.41936356114615314,141.48525580259022,2.1354175212271063,1.138557650146874,92569.5122883523,283.23769831591443,-2.369166208314195,8.988902842971928,0.24861285537149103,396.8940789473684,0.21301017217767024,0.85,nominal,16955.60039821191,nan,heading_hold,7.499999999999999,-2.0,0.0
2.76,311.5795559744858,-10.462193138173104,755.6659320325747,138.23332875480725,-10.80825534936531,-2.426286532462844,138.67645232219243,17.418719748271887,25.427772923424726,1.2885255830557178,-15.018670421060962,16.045008436819323,-3.265300971372338,-12.93305301852333,5.1274822095306725,5.215280583446426,11477.588984114964,0.42086268347474154,141.99114963570273,2.1426022572976207,1.1385657442960464,92570.32500767866,283.23817144178827,-2.3131586369795443,9.213369859886374,0.2766712324857966,396.86052631578946,0.2129921647237707,0.85,nominal,17026.130526701905,nan,heading_hold,7.499999999999999,-2.0,0.0
2.79,315.74120199739025,-10.795445484663155,755.5921945404677,138.72153409681465,-11.108411549668373,-2.457916403565735,139.18729174165804,17.412329983330174,25.91576971666484,1.2086033492828485,-15.428278380414579,15.969141794912536,-3.5124922855987473,-13.457228334494863,5.219208596980929,5.403326209666008,11559.398811166575,0.4223580520790872,142.49577942809165,2.150650782909058,1.1385739440081017,92571.14832777326,283.23865073548694,-2.25956003617386,9.428206688061755,0.3035258360077193,396.82697368421054,0.21297415726987115,0.85,nominal,17096.379285778992,nan,heading_hold,7.499999999999999,-2.0,0.0
2.82,319.9173326345941,-11.138004526943448,755.5176258415204,139.2043545734625,-11.418634742676444,-2.485623298243889,139.69400801316317,17.40594075861208,26.401036535345483,1.124887305735322,-15.854974983069404,15.88603559863512,-3.7644063065180773,-13.994214998307582,5.317281338571005,5.609501145367243,11641.261374825091,0.42384905727258315,142.9989393027705,2.159656838372842,1.1385822361974622,92571.98093478438,283.2391354320301,-2.208603913669757,9.63247859027185,0.32905982378398124,396.7934210526316,0.2129561498159716,0.85,nominal,17166.304862849596,nan,heading_hold,7.499999999999999,-2.0,0.0
2.85,324.1077750076694,-11.490187516983735,755.442349863809,139.68141243584216,-11.739433001342904,-2.509199257044539,140.19631717051774,17.3995520741176,26.88327468704888,1.0370330709447748,-16.299134199794146,15.795388599088266,-4.020294286626919,-14.544364085336982,5.421979677600174,5.834354151629047,11723.135140409311,0.4253349941770167,143.50039125303692,2.169714744646114,1.1385906070845053,92572.82144516375,283.2396247258852,-2.1605122761024544,9.82529679640733,0.35316209955091615,396.75986842105266,0.2129381423620721,0.85,nominal,17235.86239438013,nan,heading_hold,7.499999999999999,-2.0,0.0
2.88,328.31234410879244,-11.852327466107386,755.366496939351,140.15230337076864,-12.071331637455053,-2.528430815266182,140.6939165352254,17.39316392984674,27.362168891178776,0.944705132389001,-16.76114455805256,15.696907777135344,-4.28085018169754,-15.108028655757579,5.533598760645854,6.078415194873722,11804.972793802599,0.4268150633661676,143.99986535902278,2.1809298543307913,1.138599042177171,92573.6684038187,283.2401177698942,-2.1154946619807755,10.005822370440791,0.37572779630509884,396.7263157894737,0.21292013490817252,0.85,nominal,17305.003932220774,nan,heading_hold,7.499999999999999,-2.0,0.0
2.9099999999999997,332.530841942115,-12.22477366910613,755.2902040365287,140.6165944440853,-12.414873433291424,-2.5430967607442985,141.18648326433913,17.386776325799495,27.837389312460306,0.8475620270408393,-17.241404189600225,15.590392872291536,-4.546242822499813,-15.685628789681465,5.652431578981044,6.342196820027724,11886.720984083779,0.42828836778343354,144.49705874705575,2.1934145441437676,1.1386075262450903,92574.52028151379,283.24061367376254,-2.0737472288032386,10.173269860567874,0.3966587325709843,396.6927631578948,0.212902127454273,0.85,nominal,17373.67820769058,nan,heading_hold,7.499999999999999,-2.0,0.0
