time_s,x_m,y_m,altitude_m,vx_mps,vy_mps,vz_mps,speed_mps,mass_kg,roll_deg,pitch_deg,yaw_deg,p_dps,q_dps,r_dps,alpha_deg,beta_deg,qbar_pa,mach,airspeed_mps,load_factor_g,density_kgpm3,pressure_pa,temperature_k,wind_x_mps,wind_y_mps,wind_z_mps,thrust_n,mass_flow_kgps,propulsion_throttle_actual,propulsion_health,energy_j_per_kg,target_distance_m,guidance_mode,pitch_command_deg,heading_command_deg,roll_command_deg,elevator_command_deg,aileron_command_deg,rudder_command_deg,elevator_deg,aileron_deg,rudder_deg,throttle,elevator_saturated,aileron_saturated,rudder_saturated,elevator_failed,aileron_failed,rudder_failed,elevator_raw_rad,aileron_raw_rad,rudder_raw_rad,elevator_effective_rad,aileron_effective_rad,rudder_effective_rad,sensor_time_s,imu_valid,imu_ax_mps2,imu_ay_mps2,imu_az_mps2,gyro_p_rps,gyro_q_rps,gyro_r_rps,imu_accel_norm_mps2,imu_gyro_norm_rps,gps_valid,gps_latency_s,gps_x_m,gps_y_m,gps_z_m,gps_vx_mps,gps_vy_mps,gps_vz_mps,baro_valid,baro_alt_m,baro_bias_m,pitot_valid,pitot_airspeed_mps,pitot_qbar_pa,pitot_compressibility_factor,mag_valid,mag_heading_deg,mag_x_ut,mag_y_ut,mag_z_ut,radar_valid,radar_agl_m,optical_flow_valid,optical_flow_x_radps,optical_flow_y_radps,optical_flow_quality,horizon_valid,horizon_roll_deg,horizon_pitch_deg
0.0,0.0,0.0,20.0,85.0,0.0,8.0,85.37564055396598,18.0,0.0,6.000000000000002,0.0,0.0,0.0,0.0,0.5564869907880661,0.0,4456.930974865101,0.2509722163221767,85.38506895236425,1.7466904897941358,1.2226496753673843,101084.96761777384,288.02,0.0,0.0,-0.1,326.8,0.17539118863220368,0.86,nominal,3840.633,nan,pitch_program,13.0,0.0,0.0,-20.05352282957881,-0.0,0.0,-2.6999999999999997,0.0,0.0,0.86,0.0,0.0,0.0,0.0,0.0,0.0,-0.047123889803846894,0.0,0.0,-0.047123889803846894,0.0,0.0,0.0,1.0,17.096536509746663,-0.04331266066330364,0.12548432820521357,0.0016677683591043149,0.0011681274632859406,0.0012765720485123657,17.097051878388257,0.00240324973008537,1.0,0.0,-1.885154541229685,1.8645638091475825,21.162662438547994,85.32748210022089,0.18147237523479218,7.846341299741817,1.0,20.771163472887363,0.0,1.0,85.63642665807238,4466.505573608554,1.0,1.0,-0.8198733225718878,19.523475325297145,-0.00615746722134172,-43.81279554351524,1.0,20.39618647858491,1.0,-0.0077448575321814855,4.273240466216326,0.95,1.0,0.17459483210835952,5.697481511065039
0.03,2.5653186933952696,0.0,20.23290578365111,85.51062311317565,0.0,7.763526121703686,85.86232586557358,17.994738264341034,0.0,6.271740387320408,0.0,0.0,-9.058029889823821,0.0,1.0176185009243097,0.0,4507.748426489432,0.25240242663909496,85.87142544682885,1.7745817221101465,1.2226223252837,101082.17508596799,288.01848611240626,0.0,0.0,-0.1,332.605,0.1785066900092231,0.86,nominal,3884.586527026215,nan,pitch_program,12.985,0.0,0.0,-1.3760501111980945,-0.0,0.0,-1.9056300667188568,0.0,0.0,0.86,0.0,0.0,0.0,0.0,0.0,0.0,-0.033259518989243265,0.0,0.0,-0.033259518989243265,0.0,0.0,0.03,1.0,17.40254162842955,-0.024205067786461216,0.5883394915294113,0.001972178925766813,-0.15877170581150923,0.0016995476198838452,17.41250080751823,0.1587930493381997,1.0,0.0,-1.885154541229685,1.8645638091475825,21.162662438547994,85.32748210022089,0.18147237523479218,7.846341299741817,1.0,20.771163472887363,0.0,1.0,85.45774571051679,4494.743988359959,1.0,1.0,-0.8198733225718878,19.523475325297145,-0.00615746722134172,-43.81279554351524,1.0,20.39618647858491,1.0,-0.0077448575321814855,4.273240466216326,0.95,1.0,0.17459483210835952,5.697481511065039
0.06,5.1461403027615695,0.0,20.459215293598337,86.02738697887666,0.0,7.543650331574299,86.35750095236926,17.98938306364076,0.0,6.654585568108502,0.0,0.0,-12.761553507692943,0.0,1.5771111048489665,0.0,4559.754415459882,0.2538576445390089,86.36629377717198,1.8030578724981061,1.2225957502475924,101079.46170308103,288.0170151005916,0.0,0.0,-0.1,338.40999999999997,0.18162219138624247,0.86,nominal,3929.445349028196,nan,pitch_program,12.97,0.0,0.0,-0.23117277971847103,-0.0,0.0,-0.9009556945186254,0.0,0.0,0.86,0.0,0.0,0.0,0.0,0.0,0.0,-0.01572464328394224,0.0,0.0,-0.01572464328394224,0.0,0.0,0.06,1.0,17.702144194936395,-0.048625240197861,1.1866148792851143,-0.003446139225741984,-0.22420008488034746,-0.00034689119184351384,17.74193699639488,0.22422683663963416,1.0,0.0,-1.885154541229685,1.8645638091475825,21.162662438547994,85.32748210022089,0.18147237523479218,7.846341299741817,1.0,20.52585165520112,0.0,1.0,85.94732710677027,4526.811613390563,1.0,1.0,0.07665381874344163,18.992075623679472,-0.026858555853548426,-44.04245503413943,1.0,20.444201535828316,1.0,0.00018197912592243334,4.219026884396885,0.9488519617660042,1.0,-0.15907090264631085,6.475597943176462
0.09,7.742616734337785,0.0,20.679557958111594,86.54921438587387,0.0,7.344755483775197,86.86030131152206,17.983934397899173,0.0,6.964387428463059,0.0,0.0,-10.326753838191623,0.0,2.0480436847996817,0.0,4612.872834570607,0.25533534488552895,86.8688142835227,1.8326938127329635,1.2225698763098225,101076.81991754075,288.01558287327225,0.0,0.0,-0.1,344.215,0.18473769276326188,0.86,nominal,3975.153159014116,nan,pitch_program,12.955,0.0,0.0,-0.6615724424090829,-0.0,0.0,-0.7573257432528999,0.0,0.0,0.86,0.0,0.0,0.0,0.0,0.0,0.0,-0.013217827729876334,0.0,0.0,-0.013217827729876334,0.0,0.0,0.09,1.0,17.962778250861277,-0.01094183278357201,1.5303360812549847,0.0004011470069548937,-0.18192686083605222,0.0025448602353110453,18.0278520832325,0.18194510140753659,1.0,0.0,-1.885154541229685,1.8645638091475825,21.162662438547994,85.32748210022089,0.18147237523479218,7.846341299741817,1.0,20.52585165520112,0.0,1.0,87.23931188542652,4644.882701449,1.0,1.0,0.07665381874344163,18.992075623679472,-0.026858555853548426,-44.04245503413943,1.0,20.444201535828316,1.0,0.00018197912592243334,4.219026884396885,0.9488519617660042,1.0,-0.15907090264631085,6.475597943176462
0.12,10.354920853023005,0.0,20.894410195003807,87.07680395617398,0.0,7.161741229740382,87.37082078510949,17.978392267116273,0.0,7.1448498361718435,0.0,0.0,-6.015418563229246,0.0,2.377718133703213,0.0,4667.126952916022,0.25683578642914306,87.37907457114471,1.8628011953519754,1.2225446474938946,101074.24401299885,288.0141863337324,0.0,0.0,-0.1,350.02,0.1878531941402813,0.86,nominal,4021.7343300706934,nan,pitch_program,12.94,0.0,0.0,-1.6334193562386192,-0.0,0.0,-1.2829819110443317,0.0,0.0,0.86,0.0,0.0,0.0,0.0,0.0,0.0,-0.022392258591252587,0.0,0.0,-0.022392258591252587,0.0,0.0,0.12,1.0,18.21940168689191,-0.01413003862604277,1.7400148654709107,0.0017811967641120853,-0.10431251693922641,-0.0028376729027249836,18.302307210250053,0.10436630797154674,1.0,0.0,-1.885154541229685,1.8645638091475825,21.162662438547994,85.32748210022089,0.18147237523479218,7.846341299741817,1.0,20.834985370765775,0.0,1.0,87.27138095827415,4713.453406026995,1.0,1.0,-1.8951218293581098,18.627181571338284,-0.005790965511073151,-44.17207183255982,1.0,20.159302211127283,1.0,-0.013840283315854317,4.180370390516183,0.9477639745124905,1.0,0.28335723464815654,7.75158973543637
0.15,12.983262725440634,0.0,21.10405572557242,87.61139574725428,0.0,6.9881843522870595,87.88965459781689,17.972756671292064,0.0,7.240857655860157,0.0,0.0,-3.2002614050880065,0.0,2.61542733153219,0.0,4722.594279951445,0.25836069695206654,87.89766221119885,1.8932712160872656,1.2225200304543482,101071.73058389412,288.01282363778375,0.0,0.0,-0.1,355.825,0.1909686955173007,0.86,nominal,4069.255780742962,nan,pitch_program,12.925,0.0,0.0,-2.2784536961235227,-0.0,0.0,-1.880264982091846,0.0,0.0,0.86,0.0,0.0,0.0,0.0,0.0,0.0,-0.03281681474745493,0.0,0.0,-0.03281681474745493,0.0,0.0,0.15,1.0,18.517733868852975,-0.03605765477427094,1.8824612759907382,-0.00013304420042076212,-0.05598823834639602,-0.0016289172586783655,18.613205748815464,0.05601208713597214,1.0,0.0,-1.885154541229685,1.8645638091475825,21.162662438547994,85.32748210022089,0.18147237523479218,7.846341299741817,1.0,20.834985370765775,0.0,1.0,87.54587960764351,4740.429589841322,1.0,1.0,-1.8951218293581098,18.627181571338284,-0.005790965511073151,-44.17207183255982,1.0,20.159302211127283,1.0,-0.013840283315854317,4.180370390516183,0.9477639745124905,1.0,0.28335723464815654,7.75158973543637
0.18,15.627873943664248,0.0,21.30868740670299,88.15370727412048,0.0,6.821056037685757,88.41720936356548,17.967027610426545,0.0,7.311958344680329,0.0,0.0,-2.3700232648125525,0.0,2.8228048098906906,0.0,4779.3341382297995,0.2599112614600511,88.42498019704674,1.9242021193602905,1.2224960025177563,101069.2773143724,288.0114935318564,0.0,0.0,-0.1,361.63,0.19408419689432013,0.86,nominal,4117.768295177229,nan,pitch_program,12.91,0.0,0.0,-2.441155559278525,-0.0,0.0,-2.2167993284038534,0.0,0.0,0.86,0.0,0.0,0.0,0.0,0.0,0.0,-0.038690447136646294,0.0,0.0,-0.038690447136646294,0.0,0.0,0.18,1.0,18.726541086217058,-0.04780444576139571,2.042516914859756,0.00013974800767314763,-0.043933488635540315,-0.0008869940367906495,18.837661788722567,0.04394266391123894,1.0,0.0,-1.885154541229685,1.8645638091475825,21.162662438547994,85.32748210022089,0.18147237523479218,7.846341299741817,1.0,20.08279459753335,0.0,1.0,88.0353903690645,4843.642367688118,1.0,1.0,-0.5428950996559269,18.527824954756106,0.02966309435753329,-44.306256282851265,1.0,21.362321228060193,1.0,0.006974051956994979,4.137727015407284,0.9467282814832425,1.0,-0.5040599611879599,6.954216382182611
0.21,18.288988687007663,0.0,21.508500060528224,88.70382477811384,0.0,6.6604217941745025,88.95352578027831,17.961205084519715,0.0,7.382882037396585,0.0,0.0,-2.364123392416303,0.0,3.024600075516931,0.0,4837.367750871306,0.2614875999878349,88.96106919940583,1.95552968488198,1.222472540781974,101066.88186529107,288.01019474960657,0.0,0.0,-0.1,367.435,0.19719969827133954,0.86,nominal,4167.291206489898,nan,pitch_program,12.895,0.0,0.0,-2.39782052966756,-0.0,0.0,-2.325412049162077,0.0,0.0,0.86,0.0,0.0,0.0,0.0,0.0,0.0,-0.040586096723426494,0.0,0.0,-0.040586096723426494,0.0,0.0,0.21,1.0,19.01970148331745,0.06045326675660328,2.2179594355024164,-0.0011844703614280934,-0.03955173181893041,0.0010356537480328346,19.148682543963798,0.03958301452137657,1.0,0.0,18.158147900970494,-0.8507156713177079,22.529725592859048,88.78478587516788,-0.10696639449047544,6.7199992958234125,1.0,20.08279459753335,0.0,1.0,88.81421078457595,4833.888881531733,1.0,1.0,-0.5428950996559269,18.527824954756106,0.02966309435753329,-44.306256282851265,1.0,21.362321228060193,1.0,0.006974051956994979,4.137727015407284,0.9467282814832425,1.0,-0.5040599611879599,6.954216382182611
0.24,20.96683761055286,0.0,21.703712509519228,89.26163078483994,0.0,6.507081633033478,89.49849630998303,17.955289093571576,0.0,7.4474927456543965,0.0,0.0,-2.153690503486713,0.0,3.2142203021466114,0.0,4896.700586408625,0.2630893993646273,89.50582248141544,1.987070923061891,1.2224496195287837,101064.54161004926,288.0089258686881,0.0,0.0,-0.1,373.24,0.20031519964835895,0.86,nominal,4217.8311331555,nan,pitch_program,12.88,0.0,0.0,-2.4091062412163122,-0.0,0.0,-2.375628564394618,0.0,0.0,0.86,0.0,0.0,0.0,0.0,0.0,0.0,-0.04146254025311222,0.0,0.0,-0.04146254025311222,0.0,0.0,0.24,1.0,19.32056768893592,-0.05931437453800777,2.433917549789983,0.0004014737785476082,-0.037545018927224894,0.0011573760834501412,19.473361514051888,0.03756499895965763,1.0,0.0,18.158147900970494,-0.8507156713177079,22.529725592859048,88.78478587516788,-0.10696639449047544,6.7199992958234125,1.0,22.18756318799064,0.0,1.0,89.45878652241241,4891.296091138702,1.0,1.0,-0.9874075351661772,18.452711197336015,-0.01105574941250553,-44.37474280528169,1.0,21.60002106536209,1.0,0.015553992101837083,4.124627453577544,0.9457407187262019,1.0,-0.5929147826834491,7.404227691337363
0.27,23.661651844063414,0.0,21.89454366274509,89.82714111701844,0.0,6.361038440862023,90.0520854356126,17.949279637582126,0.0,7.493616941202342,0.0,0.0,-1.53747326796222,0.0,3.37956184318163,0.0,4957.345932571837,0.2647165554250719,90.05920441016032,2.0186653012997517,1.222427213031848,101062.25392128107,288.00768546619213,0.0,0.0,-0.1,379.045,0.20343070102537836,0.86,nominal,4269.401172261694,nan,pitch_program,12.865,0.0,0.0,-2.532153794126902,-0.0,0.0,-2.4695437022339886,0.0,0.0,0.86,0.0,0.0,0.0,0.0,0.0,0.0,-0.04310166862587354,0.0,0.0,-0.04310166862587354,0.0,0.0,0.27,1.0,19.53277524064824,-0.02835453910261265,2.591074404615516,0.0019072580176267414,-0.024721961336969935,-0.002090558849283284,19.703902637594975,0.024883396910284464,1.0,0.0,18.158147900970494,-0.8507156713177079,22.529725592859048,88.78478587516788,-0.10696639449047544,6.7199992958234125,1.0,22.18756318799064,0.0,1.0,90.12876823144643,4961.814250827634,1.0,1.0,-0.9874075351661772,18.452711197336015,-0.01105574941250553,-44.37474280528169,1.0,21.60002106536209,1.0,0.015553992101837083,4.124627453577544,0.9457407187262019,1.0,-0.5929147826834491,7.404227691337363
0.3,26.373668064412357,0.0,22.081188589200195,90.40054067829804,0.0,6.221497548503469,90.61437406214675,17.943176716551363,0.0,7.518228916913366,0.0,0.0,-0.8203992029825903,0.0,3.5181810198484413,0.0,5019.330061146707,0.26636930352422,90.62129488251838,2.0502688576442076,1.222405298365911,101060.01645766877,288.00647227417016,0.0,0.0,-0.1,384.84999999999997,0.20654620240239774,0.86,nominal,4322.024881415607,nan,pitch_program,12.850000000000001,0.0,0.0,-2.6924386490194867,-0.0,0.0,-2.603280670305287,0.0,0.0,0.86,0.0,0.0,0.0,0.0,0.0,0.0,-0.04543581905035224,0.0,0.0,-0.04543581905035224,0.0,0.0,0.3,1.0,19.914818530725718,-0.023144794989114953,2.7239680719489865,-0.0006483740193760299,-0.016575780659254205,0.0011196854561373627,20.100262059243633,0.016626201876958943,1.0,0.0,18.158147900970494,-0.8507156713177079,22.529725592859048,88.78478587516788,-0.10696639449047544,6.7199992958234125,1.0,22.0875509081546,0.0,1.0,90.39751222773555,5033.47817767583,1.0,1.0,-0.032100222264470346,18.291100397323888,-0.006038005167106243,-44.37120876451131,1.0,21.918177969711778,1.0,0.0042634016461290366,4.08948238097634,0.9447970285269995,1.0,0.49262759900427344,8.112604669214031
0.32999999999999996,29.103129634975655,0.0,22.26381508840265,90.98205235210995,0.0,6.087549973415216,91.18548193040877,17.93698033047929,0.0,7.526617924570381,0.0,0.0,-0.27963358906668406,0.0,3.6360105874076836,0.0,5082.684067020155,0.26804799277939473,91.19221252319514,2.0819191023945534,1.2223838558091895,101057.82720501778,288.00528520192535,0.0,0.0,-0.1,390.655,0.20966170377941715,0.86,nominal,4375.729499677136,nan,pitch_program,12.835,0.0,0.0,-2.8177172344270334,-0.0,0.0,-2.731942608778335,0.0,0.0,0.86,0.0,0.0,0.0,0.0,0.0,0.0,-0.04768139349870529,0.0,0.0,-0.04768139349870529,0.0,0.0,0.32999999999999996,1.0,20.15662388152098,-0.05396740755448139,2.8947272695729276,-0.0008335127957680589,-0.0043876433152707384,0.0009767482210283772,20.36349294073561,0.004571673055898812,1.0,0.0,18.158147900970494,-0.8507156713177079,22.529725592859048,88.78478587516788,-0.10696639449047544,6.7199992958234125,1.0,22.0875509081546,0.0,1.0,90.88648608592422,5072.80066879844,1.0,1.0,-0.032100222264470346,18.291100397323888,-0.006038005167106243,-44.37120876451131,1.0,21.918177969711778,1.0,0.0042634016461290366,4.08948238097634,0.9447970285269995,1.0,0.49262759900427344,8.112604669214031
0.36,31.850284642350488,0.0,22.442573731850114,91.57183357916108,0.0,5.958621448248777,91.76549392126162,17.930690479365907,0.0,7.525130950707058,0.0,0.0,0.049565795446821104,0.0,3.7398158759820057,0.0,5147.435798185292,0.2697528709472199,91.77204148815015,2.1136464132480492,1.2223628676641247,101055.6843558492,288.004123270743,0.0,0.0,-0.1,396.46,0.21277720515643656,0.86,nominal,4430.539402994,nan,pitch_program,12.82,0.0,0.0,-2.895626707222852,-0.0,0.0,-2.8301530678450453,0.0,0.0,0.86,0.0,0.0,0.0,0.0,0.0,0.0,-0.049395489369314496,0.0,0.0,-0.049395489369314496,0.0,0.0,0.36,1.0,20.548452313459748,0.04056869726443273,2.9632077603756617,-0.0017116473741721086,0.0003525834621977363,0.0002472742290717788,20.761048589338582,0.0017649918911113048,1.0,0.0,18.158147900970494,-0.8507156713177079,22.529725592859048,88.78478587516788,-0.10696639449047544,6.7199992958234125,1.0,23.005605007031765,0.0,1.0,91.38717063257334,5124.949066587035,1.0,1.0,0.24703569469091746,18.400826527048608,0.05777323077028381,-44.396408425117606,1.0,22.240636160009508,1.0,0.008474791280591054,4.084371818922384,0.9438935656703747,1.0,-0.12522865530984933,7.311194562752346
0.39,34.61538375680834,0.0,22.617607283579225,92.16997048192847,0.0,5.8344517243037295,92.35444919202754,17.924307163211214,0.0,7.516889033299348,0.0,0.0,0.2747305807308335,0.0,3.8329305214267655,0.0,5213.6085103329215,0.27148405241945817,92.360820567531,2.1454380221540994,1.2223423171511412,101053.58619644954,288.0029855526567,0.0,0.0,-0.1,402.265,0.21589270653345596,0.86,nominal,4486.4751012489105,nan,pitch_program,12.805,0.0,0.0,-2.9513062437543858,-0.0,0.0,-2.9028449733906494,0.0,0.0,0.86,0.0,0.0,0.0,0.0,0.0,0.0,-0.050664202460634016,0.0,0.0,-0.050664202460634016,0.0,0.0,0.39,1.0,20.81960855352016,-0.03998306635079582,3.101828185583899,-0.004200210305302578,0.004906420515046769,0.0021403138457621635,21.04944267813966,0.006804092315482132,1.0,0.0,18.158147900970494,-0.8507156713177079,22.529725592859048,88.78478587516788,-0.10696639449047544,6.7199992958234125,1.0,23.005605007031765,0.0,1.0,91.53794240591417,5180.668514833373,1.0,1.0,0.24703569469091746,18.400826527048608,0.05777323077028381,-44.396408425117606,1.0,22.240636160009508,1.0,0.008474791280591054,4.084371818922384,0.9438935656703747,1.0,-0.12522865530984933,7.311194562752346
0.42,37.39867943490016,0.0,22.78905343993589,92.77652260306066,0.0,5.714871878555577,92.95236902255117,17.91783038201521,0.0,7.502328470659132,0.0,0.0,0.4853520906192289,0.0,3.915942897664451,0.0,5281.223844756318,0.2732415993374085,92.95857077903167,2.1553661916929117,1.222322188086883,101051.53107401615,288.0018711526404,0.0,0.0,-0.1,404.1773684210526,0.21691906078826353,0.86,nominal,4543.555724369012,nan,pitch_program,12.79,0.0,0.0,-3.0068881386880744,-0.0,0.0,-2.9652708725691044,0.0,0.0,0.86,0.0,0.0,0.0,0.0,0.0,0.0,-0.05175373993981608,0.0,0.0,-0.05175373993981608,0.0,0.0,0.42,1.0,20.86395643985055,-0.028261817516269515,3.239658860048689,-4.435109278206495e-05,0.009671943058447435,0.001005012113417697,21.11399693529869,0.009724119440514744,1.0,0.0,38.98571882934841,0.8561697855581142,23.117603382200095,92.79678987442773,-0.01429878191719496,5.703234774353666,1.0,23.18799283597139,0.0,1.0,93.14827209923494,5283.32233049627,1.0,1.0,1.0151129233973093,18.356019040356475,0.018258774712861983,-44.310960374541246,1.0,22.723024722181297,1.0,0.016688064665782515,4.059421358226504,0.9430273664001603,1.0,0.4032278623625569,7.131411472364247
0.44999999999999996,40.200232231290734,0.0,22.95701791435071,93.38509321301919,0.0,5.59881581382736,93.55277854196233,17.911322810191564,0.0,7.481474805580464,0.0,0.0,0.6951221769625886,0.0,3.9893363449356007,0.0,5349.560844674051,0.27500647740658485,93.55881645298966,2.154379761882623,1.2223024680441095,101049.51771926961,288.0007793835567,0.0,0.0,-0.1,404.14342105263154,0.21690084148196515,0.86,nominal,4601.19262619049,nan,pitch_program,12.775,0.0,0.0,-3.065784826569314,-0.0,0.0,-3.0255792449692303,0.0,0.0,0.86,0.0,0.0,0.0,0.0,0.0,0.0,-0.05280631960471715,0.0,0.0,-0.05280631960471715,0.0,0.0,0.44999999999999996,1.0,20.89407528341973,0.03480239865722864,3.3529352370417635,0.003273383298076893,0.014189755432207211,0.0006495057299919682,21.16142168806151,0.014576901424351994,1.0,0.0,38.98571882934841,0.8561697855581142,23.117603382200095,92.79678987442773,-0.01429878191719496,5.703234774353666,1.0,23.18799283597139,0.0,1.0,93.13930216103633,5386.229228356371,1.0,1.0,1.0151129233973093,18.356019040356475,0.018258774712861983,-44.310960374541246,1.0,22.723024722181297,1.0,0.016688064665782515,4.059421358226504,0.9430273664001603,1.0,0.4032278623625569,7.131411472364247
0.48,43.02000785419968,0.0,23.12158608040946,93.99252076363165,0.0,5.485605535291686,94.15246054984728,17.904815784947104,0.0,7.455094504883466,0.0,0.0,0.8793433721009061,0.0,4.054231427174012,0.0,5418.254652923512,0.27676922826901823,94.1583397724153,2.153426976556508,1.2222831469844917,101047.54510685886,287.9997096904773,0.0,0.0,-0.1,404.1094736842105,0.2168826221756668,0.86,nominal,4659.088215930722,nan,pitch_program,12.76,0.0,0.0,-3.121396035076082,-0.0,0.0,-3.0830693190333416,0.0,0.0,0.86,0.0,0.0,0.0,0.0,0.0,0.0,-0.05380971068435129,0.0,0.0,-0.05380971068435129,0.0,0.0,0.48,1.0,20.84872451693441,0.012525986310875077,3.4323781027135194,-0.0009259558692904829,0.015584685661731157,0.002863435715449263,21.1293797903143,0.015872589125386968,1.0,0.0,38.98571882934841,0.8561697855581142,23.117603382200095,92.79678987442773,-0.01429878191719496,5.703234774353666,1.0,24.517177334021145,0.0,1.0,94.01041747325644,5361.127442445491,1.0,1.0,-0.341560527222041,18.368573008446916,-0.01746976429002118,-44.31518704111083,1.0,23.27382775796992,1.0,0.007915542794734144,4.076725734473292,0.9421960347989764,1.0,0.636746191090788,7.804334622581448
0.51,45.85797391718126,0.0,23.28283652562536,94.59886876605266,0.0,5.375014840529922,94.75144725202233,17.898309306281835,0.0,7.4244243953420614,0.0,0.0,1.022337009125132,0.0,4.11206248622034,0.0,5487.307380846711,0.2785299456172926,94.75717260092175,2.15250958667802,1.2222642156671928,101045.6122928782,287.99866156258344,0.0,0.0,-0.1,404.0755263157895,0.21686440286936848,0.86,nominal,4717.245006990409,nan,pitch_program,12.745,0.0,0.0,-3.1691120488185534,-0.0,0.0,-3.1346949569044686,0.0,0.0,0.86,0.0,0.0,0.0,0.0,0.0,0.0,-0.05471074804364473,0.0,0.0,-0.05471074804364473,0.0,0.0,0.51,1.0,20.796579342950906,0.06853486531179354,3.5936783979069955,0.0007061520466158617,0.018786583433943946,-0.0019268357040249766,21.104903075422996,0.018898334944216177,1.0,0.0,38.98571882934841,0.8561697855581142,23.117603382200095,92.79678987442773,-0.01429878191719496,5.703234774353666,1.0,24.517177334021145,0.0,1.0,93.76678071892695,5482.8674710416735,1.0,1.0,-0.341560527222041,18.368573008446916,-0.01746976429002118,-44.31518704111083,1.0,23.27382775796992,1.0,0.007915542794734144,4.076725734473292,0.9421960347989764,1.0,0.636746191090788,7.804334622581448
0.54,48.714099525600346,0.0,23.440842768129855,95.20418694730274,0.0,5.266874750149831,95.34976235906797,17.891803374195753,0.0,7.390530762172777,0.0,0.0,1.1297878052558432,0.0,4.164053283196927,0.0,5556.720254058693,0.28028869836872605,95.35533837641584,2.1516269816323947,1.2222456654472502,101043.71839428095,287.99763452200716,0.0,0.0,-0.1,404.0415789473684,0.2168461835630701,0.86,nominal,4775.664731697449,nan,pitch_program,12.73,0.0,0.0,-3.2097588618353843,-0.0,0.0,-3.1797332998630177,0.0,0.0,0.86,0.0,0.0,0.0,0.0,0.0,0.0,-0.05549681541791382,0.0,0.0,-0.05549681541791382,0.0,0.0,0.54,1.0,20.80958033641797,-0.011959623866143985,3.6659018830955854,0.00258475109658373,0.02125128093383771,-0.000786372376342729,21.13001688184182,0.021422330897324406,1.0,0.0,38.98571882934841,0.8561697855581142,23.117603382200095,92.79678987442773,-0.01429878191719496,5.703234774353666,1.0,23.617938775276265,0.0,1.0,95.00969318819644,5540.508804796558,1.0,1.0,0.6010780516446778,18.43173576712957,-0.00910350250981173,-44.25072133958109,1.0,23.634713320087652,1.0,-0.0028495226081697673,4.0454588300141365,0.9413978930796754,1.0,0.0064165621930257054,7.270371302335929
0.57,51.588354940802105,0.0,23.595674537020344,95.8085138400586,0.0,5.161058963016308,95.94742234088642,17.885297988688862,0.0,7.35407383176489,0.0,0.0,1.215231054596981,0.0,4.210991550750904,0.0,5626.493726018685,0.28204553430490853,95.95285334815756,2.150773786612296,1.222227488125213,101041.86257352629,287.99662811550934,0.0,0.0,-0.1,404.0076315789474,0.21682796425677175,0.86,nominal,4834.348448628685,nan,pitch_program,12.715,0.0,0.0,-3.246352108886123,-0.0,0.0,-3.2197045852768813,0.0,0.0,0.86,0.0,0.0,0.0,0.0,0.0,0.0,-0.05619444595464012,0.0,0.0,-0.05619444595464012,0.0,0.0,0.57,1.0,20.785646516795126,0.012149172236429435,3.7137777542030523,0.0034063518963941427,0.023898525560524977,-0.0048126073959461535,21.114814560662303,0.024615116232848653,1.0,0.0,38.98571882934841,0.8561697855581142,23.117603382200095,92.79678987442773,-0.01429878191719496,5.703234774353666,1.0,23.617938775276265,0.0,1.0,96.34008145170066,5657.691055727122,1.0,1.0,0.6010780516446778,18.43173576712957,-0.00910350250981173,-44.25072133958109,1.0,23.634713320087652,1.0,-0.0028495226081697673,4.0454588300141365,0.9413978930796754,1.0,0.0064165621930257054,7.270371302335929
0.6,54.48071140479735,0.0,23.747398325289307,96.41188213317477,0.0,5.057459608965438,96.54444009966345,17.878793149761158,0.0,7.31547528418765,0.0,0.0,1.286618301233881,0.0,4.2534120223369944,0.0,5696.62788171819,0.2838004907898836,96.5497302227163,2.149943953419166,1.2222096758821837,101040.04403194587,287.9956419108856,0.0,0.0,-0.1,403.9736842105263,0.21680974495047337,0.86,nominal,4893.29688086545,nan,pitch_program,12.7,0.0,0.0,-3.2806448201036784,-0.0,0.0,-3.2562687261729595,0.0,0.0,0.86,0.0,0.0,0.0,0.0,0.0,0.0,-0.0568326106014398,0.0,0.0,-0.0568326106014398,0.0,0.0,0.6,1.0,20.778206192080756,0.03723658218695693,3.852538307749259,-0.00218884881802764,0.026995265815910857,0.0005021721522843135,21.13237541158948,0.027088514401686855,1.0,0.0,38.98571882934841,0.8561697855581142,23.117603382200095,92.79678987442773,-0.01429878191719496,5.703234774353666,1.0,23.9499933792342,0.0,1.0,96.60347009327911,5724.294325317085,1.0,1.0,-2.0884129315731466,18.52173839050456,-0.05198653732366435,-44.32715308361926,1.0,23.325081032560753,1.0,0.0059601927122216744,4.0492464125401595,0.9406315041867768,1.0,-0.031199227627410092,7.260586445022758
0.63,57.39114104113269,0.0,23.896077649788175,97.01432121117823,0.0,4.955977483295559,97.14082680768472,17.872288857412645,0.0,7.2751274902063,0.0,0.0,1.3449265216241828,0.0,4.2918119734278,0.0,5767.122641518006,0.2855536001404445,97.14597999082235,2.149134149819551,1.2221922212492544,101038.26200662236,287.99467549527634,0.0,0.0,-0.1,403.9397368421053,0.21679152564417503,0.86,nominal,4952.510586324594,nan,pitch_program,12.685,0.0,0.0,-3.3126625616066536,-0.0,0.0,-3.2901050274331762,0.0,0.0,0.86,0.0,0.0,0.0,0.0,0.0,0.0,-0.05742316546512728,0.0,0.0,-0.05742316546512728,0.0,0.0,0.63,1.0,20.748318054087246,0.0482501784753116,3.945830079606603,0.000997562163779802,0.021488424333909295,0.0018119332194381364,21.120241598296502,0.021587742184315008,1.0,0.0,57.71324141454991,-1.4405247638228156,24.36637445366215,97.22520432653643,0.11105817103984193,4.922333647631534,1.0,23.9499933792342,0.0,1.0,97.36390322103921,5767.483367009445,1.0,1.0,-2.0884129315731466,18.52173839050456,-0.05198653732366435,-44.32715308361926,1.0,23.325081032560753,1.0,0.0059601927122216744,4.0492464125401595,0.9406315041867768,1.0,-0.031199227627410092,7.260586445022758
0.6599999999999999,60.31961674514772,0.0,24.04177340364166,97.61585680050096,0.0,4.856525128449448,97.73659158789593,17.86578511164332,0.0,7.233442824072741,0.0,0.0,1.3894889324073914,0.0,4.326698988398392,0.0,5837.977716861609,0.2873048886959119,97.7416116106383,2.14834348115482,1.2221751170661024,101036.51576616094,287.9937284728763,0.0,0.0,-0.1,403.9057894736842,0.21677330633787664,0.86,nominal,5011.989924758407,nan,pitch_program,12.67,0.0,0.0,-3.3420085102153716,-0.0,0.0,-3.3212471171024935,0.0,0.0,0.86,0.0,0.0,0.0,0.0,0.0,0.0,-0.05796669746580818,0.0,0.0,-0.05796669746580818,0.0,0.0,0.6599999999999999,1.0,20.648481134922,0.01932912714719676,3.9600789036091144,0.0011141667637941386,0.020595708936661794,0.002382543117453245,21.02480372600886,0.02076297439886101,1.0,0.0,57.71324141454991,-1.4405247638228156,24.36637445366215,97.22520432653643,0.11105817103984193,4.922333647631534,1.0,23.98277076077819,0.0,1.0,98.4041506367155,5694.397637807091,1.0,1.0,-1.670335623109286,18.63341989433761,0.0066186895430424015,-44.247514290118964,1.0,24.08244454730801,1.0,0.005384943889153253,4.043394540649923,0.9398955664908959,1.0,-0.05654672738215016,7.687397451941971
0.69,63.26611205251032,0.0,24.184544323551698,98.2165102454201,0.0,4.75903066366789,98.33174084519425,17.859281912453184,0.0,7.190797114916795,0.0,0.0,1.421523704157877,0.0,4.358532475581824,0.0,5909.192522657885,0.28905437486366664,98.33663134244114,2.147571530197321,1.2221583564260983,101034.80460508431,287.9928004618969,0.0,0.0,-0.1,403.8718421052631,0.21675508703157828,0.86,nominal,5071.734990413779,nan,pitch_program,12.655,0.0,0.0,-3.368777320926908,-0.0,0.0,-3.3497652393971418,0.0,0.0,0.86,0.0,0.0,0.0,0.0,0.0,0.0,-0.0584644325963362,0.0,0.0,-0.0584644325963362,0.0,0.0,0.69,1.0,20.68413031854212,0.03405703130360546,4.124386796844171,-0.00024342411824013636,0.02551678337632652,0.002091143341679508,21.091348306018684,0.02560348354523589,1.0,0.0,57.71324141454991,-1.4405247638228156,24.36637445366215,97.22520432653643,0.11105817103984193,4.922333647631534,1.0,23.98277076077819,0.0,1.0,97.58361871559772,5918.192461921368,1.0,1.0,-1.670335623109286,18.63341989433761,0.0066186895430424015,-44.247514290118964,1.0,24.08244454730801,1.0,0.005384943889153253,4.043394540649923,0.9398955664908959,1.0,-0.05654672738215016,7.687397451941971
0.72,66.23060101718148,0.0,24.324447418364603,98.81629882237206,0.0,4.663436493763516,98.92627837376526,17.852779259842237,0.0,7.147487988490135,0.0,0.0,1.4436376162923286,0.0,4.387683134481864,0.0,5980.766179982851,0.29080206943004794,98.93104285401245,2.1468173377128013,1.222141932625964,101033.12783869219,287.9918910917806,0.0,0.0,-0.1,403.8378947368421,0.21673686772527995,0.86,nominal,5131.745618717153,nan,pitch_program,12.64,0.0,0.0,-3.393454416188873,-0.0,0.0,-3.375978745472181,0.0,0.0,0.86,0.0,0.0,0.0,0.0,0.0,0.0,-0.05892194458583716,0.0,0.0,-0.05892194458583716,0.0,0.0,0.72,1.0,20.622231947121797,-0.007930072127170567,4.2084579799272275,0.0025088031883426986,0.025319206743148314,-0.0021429161886015883,21.047271365565372,0.025533280504696144,1.0,0.0,57.71324141454991,-1.4405247638228156,24.36637445366215,97.22520432653643,0.11105817103984193,4.922333647631534,1.0,23.581256803907667,0.0,1.0,98.81104764907279,5963.2707728343785,1.0,1.0,0.2874945668536168,18.59511588242958,-0.004236792949381907,-44.20915250787136,1.0,24.902135792444284,1.0,0.005990995406906327,4.060217443106048,0.9391888814540885,1.0,-0.44453082773386493,6.799609860991357
0.75,69.21305811781811,0.0,24.461538277347472,99.41523668788749,0.0,4.569695299429026,99.52020599274458,17.84627715381048,0.0,7.103746744562703,0.0,0.0,1.4580415350628588,0.0,4.414447495815265,0.0,6052.697583257655,0.29254797741600963,99.52484785167069,2.146079743321065,1.2221258391295617,101031.4847993635,287.9910000011972,0.0,0.0,-0.1,403.80394736842106,0.21671864841898159,0.86,nominal,5192.021444766707,nan,pitch_program,12.625,0.0,0.0,-3.416463243914511,-0.0,0.0,-3.4002694445375785,0.0,0.0,0.86,0.0,0.0,0.0,0.0,0.0,0.0,-0.059345897262139465,0.0,0.0,-0.059345897262139465,0.0,0.0,0.75,1.0,20.5744156755508,0.011625204899593356,4.202250146111992,0.0011903280909354376,0.029190699457773913,0.0013521571613500842,20.999181456100562,0.029246233001655828,1.0,0.0,57.71324141454991,-1.4405247638228156,24.36637445366215,97.22520432653643,0.11105817103984193,4.922333647631534,1.0,23.581256803907667,0.0,1.0,99.94545829938666,6036.180452312682,1.0,1.0,0.2874945668536168,18.59511588242958,-0.004236792949381907,-44.20915250787136,1.0,24.902135792444284,1.0,0.005990995406906327,4.060217443106048,0.9391888814540885,1.0,-0.44453082773386493,6.799609860991357
0.78,72.21345818631887,0.0,24.59587129336681,100.01333561669217,0.0,4.477767200644585,100.11352406283717,17.83977559435791,0.0,7.059768914656708,0.0,0.0,1.4659277355035512,0.0,4.439080366325504,0.0,6124.985455831873,0.29429209958659963,100.11804659361071,2.145357986277096,1.22211006954167,101029.87483387854,287.9901268365931,0.0,0.0,-0.1,403.77,0.21670042911268322,0.86,nominal,5252.561951359234,nan,pitch_program,12.61,0.0,0.0,-3.437992517134469,-0.0,0.0,-3.422903288095713,0.0,0.0,0.86,0.0,0.0,0.0,0.0,0.0,0.0,-0.05974093235461021,0.0,0.0,-0.05974093235461021,0.0,0.0,0.78,1.0,20.579829536860732,-0.06683260163433906,4.308364640997737,0.0007836953734760417,0.024848409310643402,-0.0002538655740981199,21.026075626295228,0.024862060884757512,1.0,0.0,57.71324141454991,-1.4405247638228156,24.36637445366215,97.22520432653643,0.11105817103984193,4.922333647631534,1.0,23.544948376221747,0.0,1.0,100.15914063656649,6212.3193089025635,1.0,1.0,0.02320020698432135,18.73584652969385,0.020512500027092834,-44.23349331424316,1.0,24.40317314568478,1.0,0.02958593775135763,4.060332842825389,0.938510321766583,1.0,-0.3641198977541506,6.53987082654559
0.8099999999999999,75.23177634531564,0.0,24.727499860873152,100.61060529989211,0.0,4.387618916878167,100.70623167694453,17.83327458148453,0.0,7.015728991570414,0.0,0.0,1.4679975084853774,0.0,4.461810229099342,0.0,6197.628367958907,0.29603443300838583,100.71063807936976,2.1446517834041767,1.2220946175847238,101028.29730104363,287.9892712509043,0.0,0.0,-0.1,403.73605263157896,0.21668220980638486,0.86,nominal,5313.366485795845,nan,pitch_program,12.595,0.0,0.0,-3.4581198798369686,-0.0,0.0,-3.444033243140466,0.0,0.0,0.86,0.0,0.0,0.0,0.0,0.0,0.0,-0.06010971964093954,0.0,0.0,-0.06010971964093954,0.0,0.0,0.8099999999999999,1.0,20.616343064215396,-0.01909293271997271,4.45907654697351,0.001127163187817565,0.025069892184016992,0.0027680952868012225,21.093063540729954,0.025247422491949917,1.0,0.0,57.71324141454991,-1.4405247638228156,24.36637445366215,97.22520432653643,0.11105817103984193,4.922333647631534,1.0,23.544948376221747,0.0,1.0,99.8910096181057,6148.930412472287,1.0,1.0,0.02320020698432135,18.73584652969385,0.020512500027092834,-44.23349331424316,1.0,24.40317314568478,1.0,0.02958593775135763,4.060332842825389,0.938510321766583,1.0,-0.3641198977541506,6.53987082654559
0.84,78.26798794975372,0.0,24.85647656653695,101.20705348126923,0.0,4.2992235221266535,101.29832672484623,17.82677411519034,0.0,6.971778638089165,0.0,0.0,1.4650118545438366,0.0,4.48283775755952,0.0,6270.624740091445,0.2977749712385463,101.30262011398385,2.1439610343290774,1.2220794770764167,101026.75156940384,287.98843290231747,0.0,0.0,-0.1,403.7021052631579,0.2166639905000865,0.86,nominal,5374.434264548078,nan,pitch_program,12.58,0.0,0.0,-3.476950597228193,-0.0,0.0,-3.4637836555931023,0.0,0.0,0.86,0.0,0.0,0.0,0.0,0.0,0.0,-0.06045442936686494,0.0,0.0,-0.06045442936686494,0.0,0.0,0.84,1.0,20.50504931957199,0.05166430092585032,4.440879107484177,0.0012661216670166629,0.029365901756836565,-5.870225580505489e-05,20.98049389421897,0.029393242353008667,1.0,0.0,77.86201107399724,0.11040984545368764,24.96137774308056,101.2160288281279,0.017043018975863612,4.247004813123689,1.0,26.002791984038193,0.0,1.0,101.06124855415376,6288.866504188364,1.0,1.0,-0.2524767918030103,18.6841013897072,0.042477749502781575,-44.16353711583663,1.0,24.684840640759756,1.0,-0.015716378217716927,4.06579086076539,0.9378588085836577,1.0,0.559642409700591,7.411031720726239
0.87,81.32206853494978,0.0,24.98285335844991,101.80268617320228,0.0,4.212559730431888,101.8898060237724,17.82027419547534,0.0,6.928043719870587,0.0,0.0,1.4578306780702543,0.0,4.50233340744568,0.0,6343.972854623576,0.2995137047062921,101.89398943759173,2.143285612291918,1.2220646419098222,101025.2370152132,287.9876114531701,0.0,0.0,-0.1,403.66815789473685,0.21664577119378817,0.86,nominal,5435.764384668626,nan,pitch_program,12.565,0.0,0.0,-3.4946290313431874,-0.0,0.0,-3.4822908810431534,0.0,0.0,0.86,0.0,0.0,0.0,0.0,0.0,0.0,-0.060777441386377216,0.0,0.0,-0.060777441386377216,0.0,0.0,0.87,1.0,20.46950112736804,-0.0032009294677551336,4.551231764701566,-0.0007627910474587565,0.025048468875559077,0.001423801640237294,20.969363300427112,0.025100495100748063,1.0,0.0,77.86201107399724,0.11040984545368764,24.96137774308056,101.2160288281279,0.017043018975863612,4.247004813123689,1.0,26.002791984038193,0.0,1.0,101.65525218487014,6282.658076532057,1.0,1.0,-0.2524767918030103,18.6841013897072,0.042477749502781575,-44.16353711583663,1.0,24.684840640759756,1.0,-0.015716378217716927,4.06579086076539,0.9378588085836577,1.0,0.559642409700591,7.411031720726239
0.8999999999999999,84.39399377321908,0.0,25.10668168361411,102.3975079423099,0.0,4.127610838806706,102.48066551321793,17.813774822339525,0.0,6.884627518253528,0.0,0.0,1.447206789816735,0.0,4.520441360986648,0.0,6417.670876227294,0.3012506212821607,102.48474191897941,2.1426253819906984,1.22205010603724,101023.75302078473,287.9868065690565,0.0,0.0,-0.1,403.6342105263158,0.2166275518874898,0.86,nominal,5497.355841948641,nan,pitch_program,12.55,0.0,0.0,-3.5112853560584214,-0.0,0.0,-3.499687566052314,0.0,0.0,0.86,0.0,0.0,0.0,0.0,0.0,0.0,-0.06108107081871941,0.0,0.0,-0.06108107081871941,0.0,0.0,0.8999999999999999,1.0,20.501154060664124,-0.010573689704318741,4.577446687732016,0.00044742135249231185,0.025209543240509554,0.00382627890876341,21.00596219650573,0.025502189446191374,1.0,0.0,77.86201107399724,0.11040984545368764,24.96137774308056,101.2160288281279,0.017043018975863612,4.247004813123689,1.0,25.09276952471394,0.0,1.0,101.95408224724956,6551.796565163713,1.0,1.0,-2.017714388591032,18.91402754231042,-0.03530780576572019,-44.087406840596934,1.0,25.246945194387404,1.0,0.0004759712891396072,4.067861541290182,0.9372332957909647,1.0,0.18807463782397235,6.665377888882563
0.9299999999999999,87.48373943790057,0.0,25.22801259909437,102.99152215604957,0.0,4.044363849342059,103.07090042764696,17.8072759957829,0.0,6.841616547697037,0.0,0.0,1.4336990858767886,0.0,4.53728594873155,0.0,6491.716870290503,0.3029857067828964,103.07487272723543,2.14198028337224,1.2220358634571302,101022.29897315643,287.98601791810586,0.0,0.0,-0.1,403.6002631578947,0.21660933258119142,0.86,nominal,5559.207547237866,nan,pitch_program,12.535000000000002,0.0,0.0,-3.527010604136611,-0.0,0.0,-3.516081388902893,0.0,0.0,0.86,0.0,0.0,0.0,0.0,0.0,0.0,-0.06136719700445069,0.0,0.0,-0.06136719700445069,0.0,0.0,0.9299999999999999,1.0,20.44424071606889,-0.03394187802056017,4.637542913533169,-0.0007921764512016805,0.026165683795511208,-0.001474918900734763,20.963657476273415,0.02621919025790577,1.0,0.0,77.86201107399724,0.11040984545368764,24.96137774308056,101.2160288281279,0.017043018975863612,4.247004813123689,1.0,25.09276952471394,0.0,1.0,102.96092063337652,6454.025321125891,1.0,1.0,-2.017714388591032,18.91402754231042,-0.03530780576572019,-44.087406840596934,1.0,25.246945194387404,1.0,0.0004759712891396072,4.067861541290182,0.9372332957909647,1.0,0.18807463782397235,6.665377888882563
0.96,90.59128137246805,0.0,25.346896866765256,103.58473115224952,0.0,3.9628089223628438,103.66050541280883,17.800777715805463,0.0,6.799084243664256,0.0,0.0,1.4177435328636085,0.0,4.552975735493541,0.0,6566.108815013647,0.30471894531159716,103.66437644737675,2.1413503395845765,1.222021908202986,101020.87426295462,287.985245170366,0.0,0.0,-0.1,403.56631578947366,0.21659111327489305,0.86,nominal,5621.318337377948,nan,pitch_program,12.520000000000001,0.0,0.0,-3.5418723561513845,-0.0,0.0,-3.5315559692519876,0.0,0.0,0.86,0.0,0.0,0.0,0.0,0.0,0.0,-0.06163727938190681,0.0,0.0,-0.06163727938190681,0.0,0.0,0.96,1.0,20.41764482153555,0.0403044881716855,4.781727590286406,0.005810731508932576,0.024344704574426432,-0.0017345670483146591,20.970139800627233,0.025088602279323975,1.0,0.0,77.86201107399724,0.11040984545368764,24.96137774308056,101.2160288281279,0.017043018975863612,4.247004813123689,1.0,25.06447095221658,0.0,1.0,103.16548611610718,6580.508494363293,1.0,1.0,0.32106353464181236,18.949129363935796,0.01749869089294133,-44.134913634963574,1.0,25.496044745703475,1.0,0.008488511521670595,4.064928194957934,0.9366327578330869,1.0,-0.2852912671137542,6.58177470526806
0.99,93.71659546352616,0.0,25.46338503597893,104.17713636860368,0.0,3.8829389737891216,104.24947461276157,17.794279982407215,0.0,6.757092249374964,0.0,0.0,1.3997332056307985,0.0,4.567605110751131,0.0,6640.84461030575,0.3064503195122121,104.25324716684645,2.140735605568985,1.2220082343336083,101019.4782834008,287.9844879972661,0.0,0.0,-0.1,403.53236842105264,0.21657289396859472,0.86,nominal,5683.686983381493,nan,pitch_program,12.505,0.0,0.0,-3.555934036407876,-0.0,0.0,-3.5461828095455203,0.0,0.0,0.86,0.0,0.0,0.0,0.0,0.0,0.0,-0.06189256590419233,0.0,0.0,-0.06189256590419233,0.0,0.0,0.99,1.0,20.49128706498058,0.02423630645272609,4.846396427627573,-0.0014060586879246736,0.02475587989471,0.003593470265315887,21.056613956467743,0.025054812291112952,1.0,0.0,77.86201107399724,0.11040984545368764,24.96137774308056,101.2160288281279,0.017043018975863612,4.247004813123689,1.0,25.06447095221658,0.0,1.0,103.56613179314677,6597.074192482498,1.0,1.0,0.32106353464181236,18.949129363935796,0.01749869089294133,-44.134913634963574,1.0,25.496044745703475,1.0,0.008488511521670595,4.064928194957934,0.9366327578330869,1.0,-0.2852912671137542,6.58177470526806
1.02,96.85965761755328,0.0,25.577527513786464,104.76873846757084,0.0,3.8047492602511572,104.83780175594889,17.787782795588157,0.0,6.715691369498706,0.0,0.0,1.3800293892542161,0.0,4.581255541663532,0.0,6715.922086944234,0.3081798108212457,104.84147856107185,2.1401361320438417,1.2219948359248565,101018.11042946913,287.98374607116034,0.0,0.0,-0.1,403.49842105263156,0.21655467466229633,0.86,nominal,5746.3121987028935,nan,pitch_program,12.49,0.0,0.0,-3.5692571608748205,-0.0,0.0,-3.5600274203431006,0.0,0.0,0.86,0.0,0.0,0.0,0.0,0.0,0.0,-0.06213419994626726,0.0,0.0,-0.06213419994626726,0.0,0.0,1.02,1.0,20.374620155998354,-0.003617189695431459,4.935875076594181,-0.0012687287302588265,0.025001845832499713,0.0009741654625859581,20.96396962307042,0.02505296321738334,1.0,0.0,77.86201107399724,0.11040984545368764,24.96137774308056,101.2160288281279,0.017043018975863612,4.247004813123689,1.0,25.40693809873352,0.0,1.0,105.01312976671215,6836.954528535777,1.0,1.0,0.20716255069020592,18.959739408797013,-0.02774534788802444,-44.07734336286566,1.0,25.636417849568403,1.0,0.004000979885722656,4.1128036959600935,0.9360561812155338,1.0,-0.2350183702845472,6.370482194288262
1.05,100.02044374125934,0.0,25.689374622722546,105.35953745686889,0.0,3.728236964536118,105.42548024073255,17.781286155348287,0.0,6.674923152903233,0.0,0.0,1.3589406105171182,0.0,4.593997444239311,0.0,6791.3390160463305,0.30990739971788406,105.42906397849694,2.139551966184739,1.2219817070628565,101016.77009719254,287.98301906495226,0.0,0.0,-0.1,403.46447368421053,0.216536455355998,0.86,nominal,5809.192647638468,nan,pitch_program,12.475,0.0,0.0,-3.581895214270158,-0.0,0.0,-3.573148096699335,0.0,0.0,0.86,0.0,0.0,0.0,0.0,0.0,0.0,-0.062363198948772125,0.0,0.0,-0.062363198948772125,0.0,0.0,1.05,1.0,20.407596598603053,0.023065120251563386,4.97659744194674,-0.0009619480502852831,0.025238743678918575,-0.000216186253064102,21.005643361494023,0.025257994042235693,1.0,0.0,100.94761160171173,-0.5143213134600304,25.151191619905404,105.47031941051132,-0.10413279965858194,3.7148343581158487,1.0,25.40693809873352,0.0,1.0,105.07121212536039,6693.581059296544,1.0,1.0,0.20716255069020592,18.959739408797013,-0.02774534788802444,-44.07734336286566,1.0,25.636417849568403,1.0,0.004000979885722656,4.1128036959600935,0.9360561812155338,1.0,-0.2350183702845472,6.370482194288262
1.08,103.1989297250332,0.0,25.79897664813703,105.94953279246165,0.0,3.6534008471495065,106.0125032092482,17.774790061687607,0.0,6.634821581164687,0.0,0.0,1.3367191125193523,0.0,4.6058921140844,0.0,6867.093117413218,0.3116330659400052,106.01599651401806,2.138983160735819,1.2219688418384296,101015.45668309386,287.9823066517871,0.0,0.0,-0.1,403.43052631578945,0.21651823604969964,0.86,nominal,5872.326952691883,nan,pitch_program,12.46,0.0,0.0,-3.5938918276874325,-0.0,0.0,-3.5855943352921935,0.0,0.0,0.86,0.0,0.0,0.0,0.0,0.0,0.0,-0.06258042679170629,0.0,0.0,-0.06258042679170629,0.0,0.0,1.08,1.0,20.319928368571166,-0.022853924830118926,5.118336838584332,6.010971362783861e-05,0.02348001511098408,0.0015833385952579505,20.954650634142123,0.02353341632438747,1.0,0.0,100.94761160171173,-0.5143213134600304,25.151191619905404,105.47031941051132,-0.10413279965858194,3.7148343581158487,1.0,26.216790566435247,0.0,1.0,105.8321108321481,6858.656580941122,1.0,1.0,0.7264451323418568,19.051371437141768,-0.02658840919779483,-44.00645481214171,1.0,25.743618228567808,1.0,-0.0045325187658295995,4.105768321385023,0.9355025583796575,1.0,-0.808246265656688,6.706878353591974
1.1099999999999999,106.39509142888241,0.0,25.90638387735156,106.53872346164057,0.0,3.580240973817581,106.59886360682522,17.768294514606115,0.0,6.595414288735789,0.0,0.0,1.3135764660789322,0.0,4.616993139191226,0.0,6943.182066328034,0.31335678865798805,106.60226906807044,2.1384297704886355,1.2219562343424866,101014.16958371509,287.9816085047972,0.0,0.0,-0.1,403.3965789473684,0.21650001674340127,0.86,nominal,5935.713700584092,nan,pitch_program,12.445,0.0,0.0,-3.605284001960479,-0.0,0.0,-3.5974081352931644,0.0,0.0,0.86,0.0,0.0,0.0,0.0,0.0,0.0,-0.06278661649889535,0.0,0.0,-0.06278661649889535,0.0,0.0,1.1099999999999999,1.0,20.35477529255948,-0.051319635676952136,5.166847030454104,-0.0009535318708432641,0.02360037355021043,0.002824344071052272,21.000376643091624,0.023787891335086304,1.0,0.0,100.94761160171173,-0.5143213134600304,25.151191619905404,105.47031941051132,-0.10413279965858194,3.7148343581158487,1.0,26.216790566435247,0.0,1.0,107.12215877361466,6985.684494432463,1.0,1.0,0.7264451323418568,19.051371437141768,-0.02658840919779483,-44.00645481214171,1.0,25.743618228567808,1.0,-0.0045325187658295995,4.105768321385023,0.9355025583796575,1.0,-0.808246265656688,6.706878353591974
1.14,109.60890467048281,0.0,26.011646631918047,107.12710805334673,0.0,3.508758485549638,107.18455423233024,17.761799514103814,0.0,6.556723386263589,0.0,0.0,1.2896967980826557,0.0,4.6273473862256855,0.0,7019.603499431696,0.31507854662197216,107.18787439668935,2.1378918418475616,1.221943878662237,101012.90819523027,287.9809242968925,0.0,0.0,-0.1,403.3626315789474,0.21648179743710294,0.86,nominal,5999.351447434571,nan,pitch_program,12.43,0.0,0.0,-3.616104957007342,-0.0,0.0,-3.608626228321671,0.0,0.0,0.86,0.0,0.0,0.0,0.0,0.0,0.0,-0.06298240915803781,0.0,0.0,-0.06298240915803781,0.0,0.0,1.14,1.0,20.303867166378005,0.00532466447862414,5.186752652449665,0.00121304139877298,0.019111820409918177,0.0019481353936812015,20.955893045624858,0.019249113754358033,1.0,0.0,100.94761160171173,-0.5143213134600304,25.151191619905404,105.47031941051132,-0.10413279965858194,3.7148343581158487,1.0,26.73064751896859,0.0,1.0,106.96417264951116,6957.344685272621,1.0,1.0,-0.7598756353801139,19.12441408595707,0.06539829339394247,-44.07446434349711,1.0,26.06603051897766,1.0,0.0038094536017736326,4.115097308034629,0.9349708834202048,1.0,-0.20272584193111715,6.851521461105346
1.17,112.84034521511387,0.0,26.11481529360094,107.71468482103515,0.0,3.4389553894298386,107.76956778360683,17.7553050601807,0.0,6.518766193853825,0.0,0.0,1.265239793265934,0.0,4.636995880002441,0.0,7096.355020176997,0.3167983182947724,107.77280515669672,2.1373694071937845,1.221931768878123,101011.67191313203,287.98025370059156,0.0,0.0,-0.1,403.3286842105263,0.21646357813080455,0.86,nominal,6063.238723531706,nan,pitch_program,12.415,0.0,0.0,-3.6263844745201306,-0.0,0.0,-3.6192811760407464,0.0,0.0,0.86,0.0,0.0,0.0,0.0,0.0,0.0,-0.06316837307736353,0.0,0.0,-0.06316837307736353,0.0,0.0,1.17,1.0,20.214313135878797,-0.02730403298349267,5.21353488934695,-0.0008634720567739232,0.02431329471135394,-0.001090500165282645,20.875826860462727,0.024353050616390183,1.0,0.0,100.94761160171173,-0.5143213134600304,25.151191619905404,105.47031941051132,-0.10413279965858194,3.7148343581158487,1.0,26.73064751896859,0.0,1.0,107.84033379504368,7016.516857574364,1.0,1.0,-0.7598756353801139,19.12441408595707,0.06539829339394247,-44.07446434349711,1.0,26.06603051897766,1.0,0.0038094536017736326,4.115097308034629,0.9349708834202048,1.0,-0.20272584193111715,6.851521461105346
1.2,116.08938876726046,0.0,26.215940324779172,108.30145173821982,0.0,3.3708343726077667,108.35389689795892,17.748811152836776,0.0,6.481555972725428,0.0,0.0,1.2403407478750776,0.0,4.645974663975494,0.0,7173.434203828958,0.31851608197029563,108.3570539459616,2.1368624849058726,1.2219198990614222,101010.46013198663,287.97959638788893,0.0,0.0,-0.1,403.2947368421053,0.21644535882450622,0.86,nominal,6127.374037672752,nan,pitch_program,12.4,0.0,0.0,-3.6361485040904937,-0.0,0.0,-3.6294015728705946,0.0,0.0,0.86,0.0,0.0,0.0,0.0,0.0,0.0,-0.06334500732365278,0.0,0.0,-0.06334500732365278,0.0,0.0,1.2,1.0,20.187356820731903,0.05991784686592215,5.410310323470434,-0.00012476373930662816,0.021195370244378578,-0.0010175630330780644,20.899866586946786,0.021220148922974635,1.0,0.0,100.94761160171173,-0.5143213134600304,25.151191619905404,105.47031941051132,-0.10413279965858194,3.7148343581158487,1.0,26.903893219473378,0.0,1.0,107.75855289859358,7201.809010506484,1.0,1.0,2.06342647402825,19.162738304236907,0.08539920361413032,-44.008847594017936,1.0,26.460821037786893,1.0,-5.519108586433316e-05,4.120910072137198,0.9344601491880521,1.0,-0.11770425331794655,6.083081541835214
1.23,119.35601096363534,0.0,26.315072284133457,108.8874065458295,0.0,3.3043986451427827,108.93753418671993,17.74231779207204,0.0,6.445102567382659,0.0,0.0,1.2151135524145877,0.0,4.654315551584534,0.0,7250.838601858735,0.32023181587465954,108.94061333778052,2.136371079571678,1.2219082632723917,101009.2722452443,287.9789520301531,0.0,0.0,-0.1,403.26078947368416,0.2164271395182078,0.86,nominal,6191.755880956584,nan,pitch_program,12.385,0.0,0.0,-3.645419551328277,-0.0,0.0,-3.639012359945204,0.0,0.0,0.86,0.0,0.0,0.0,0.0,0.0,0.0,-0.06351274720181282,0.0,0.0,-0.06351274720181282,0.0,0.0,1.23,1.0,20.235588224456347,-0.0034837575534648673,5.407845753768782,0.0002589862009826061,0.022050890194476532,0.0025757760128478453,20.945735571301334,0.02220232992930073,1.0,0.0,100.94761160171173,-0.5143213134600304,25.151191619905404,105.47031941051132,-0.10413279965858194,3.7148343581158487,1.0,26.903893219473378,0.0,1.0,109.27635701307193,7293.231487341219,1.0,1.0,2.06342647402825,19.162738304236907,0.08539920361413032,-44.008847594017936,1.0,26.460821037786893,1.0,-5.519108586433316e-05,4.120910072137198,0.9344601491880521,1.0,-0.11770425331794655,6.083081541835214
1.26,122.64018736740535,0.0,26.412261838372885,109.4725467923336,0.0,3.239651807980915,109.52047226448863,17.735824977886494,0.0,6.409412913360916,0.0,0.0,1.1896551725243076,0.0,4.662046726252886,0.0,7328.565745778024,0.32194549825170765,109.52347590995376,2.1358951802347046,1.2218968555588894,101008.10764509812,287.97832029805056,0.0,0.0,-0.1,403.22684210526313,0.21640892021190947,0.86,nominal,6256.382730075591,nan,pitch_program,12.37,0.0,0.0,-3.6542175154908034,-0.0,0.0,-3.6481354532725634,0.0,0.0,0.86,0.0,0.0,0.0,0.0,0.0,0.0,-0.06367197521834198,0.0,0.0,-0.06367197521834198,0.0,0.0,1.26,1.0,20.2258736171108,0.00794684442405135,5.471850007852549,-0.0014282419835606125,0.021364492912811672,-0.00016546531227039135,20.95297518817103,0.021412818855880467,1.0,0.0,120.33108561702021,-0.9886792019865726,28.328748936529777,109.51819703571256,-0.10364898284714909,3.203865416613702,1.0,25.686431332181993,0.0,1.0,110.1229442054722,7439.005807863624,1.0,1.0,0.9629097954391108,19.26326466823698,0.023134658006696746,-43.93003032135466,1.0,26.786000947020963,1.0,0.0006925181714708218,4.132624996130964,0.9339693454040678,1.0,-0.16193324251844712,6.279795229175736
1.29,125.94189346345739,0.0,26.507559770536993,110.0568698684015,0.0,3.1765977388035704,110.10270377435985,17.729332710280136,0.0,6.374491453585427,0.0,0.0,1.1640486952183726,0.0,4.669193237545609,0.0,7406.613150564431,0.3236571074368043,110.1056342698783,2.13543475853058,1.2218856699553862,101006.96572238291,287.9777008614915,0.0,0.0,-0.1,403.1928947368421,0.21639070090561113,0.86,nominal,6321.253050235953,nan,pitch_program,12.355,0.0,0.0,-3.662560219373927,-0.0,0.0,-3.6567903129333814,0.0,0.0,0.86,0.0,0.0,0.0,0.0,0.0,0.0,-0.06382303101572129,0.0,0.0,-0.06382303101572129,0.0,0.0,1.29,1.0,20.21504386089851,-0.049476832008403165,5.554971824056048,-0.003389608958674506,0.019170571550078976,-0.0003681181865630906,20.964449866882095,0.019471409128481235,1.0,0.0,120.33108561702021,-0.9886792019865726,28.328748936529777,109.51819703571256,-0.10364898284714909,3.203865416613702,1.0,25.686431332181993,0.0,1.0,110.02141835673703,7335.984875865451,1.0,1.0,0.9629097954391108,19.26326466823698,0.023134658006696746,-43.93003032135466,1.0,26.786000947020963,1.0,0.0006925181714708218,4.132624996130964,0.9339693454040678,1.0,-0.16193324251844712,6.279795229175736
1.3199999999999998,129.26110465457054,0.0,26.601016985304977,110.64037303710474,0.0,3.115240492266092,110.6842214098936,17.72284098925297,0.0,6.340340508006383,0.0,0.0,1.1383648863370748,0.0,4.675777440456965,0.0,7484.97831775741,0.32536662192108373,110.68708107639662,2.1349897681165144,1.2218747004823363,101005.84586651085,287.9770933895955,0.0,0.0,-0.1,403.158947368421,0.21637248159931274,0.86,nominal,6386.365297776115,nan,pitch_program,12.34,0.0,0.0,-3.6704635929565232,-0.0,0.0,-3.664994280947267,0.0,0.0,0.86,0.0,0.0,0.0,0.0,0.0,0.0,-0.06396621726929189,0.0,0.0,-0.06396621726929189,0.0,0.0,1.3199999999999998,1.0,20.09547529200567,0.03567348886726788,5.623899131725935,-0.0005986024000608491,0.022075752721071335,0.00022732488971947352,20.86762183990418,0.02208503700790952,1.0,0.0,120.33108561702021,-0.9886792019865726,28.328748936529777,109.51819703571256,-0.10364898284714909,3.203865416613702,1.0,26.44772584738169,0.0,1.0,111.21560904197501,7374.153776983596,1.0,1.0,1.6927284296326035,19.23141830564973,-0.030682723420617862,-43.89553507837778,1.0,26.59816384226977,1.0,0.013162503591316774,4.139409941274573,0.9334974575367375,1.0,-0.7218941598180079,6.458333531553127
1.3499999999999999,132.59779625837012,0.0,26.6926845117295,111.22305345998583,0.0,3.0555842141507994,111.26501793399683,17.71634981480499,0.0,6.306960600320459,0.0,0.0,1.1126636210016758,0.0,4.681819382282986,0.0,7563.6587382316675,0.3270740204066641,111.26780905857481,2.1345601447893854,1.2218639411458516,101004.74746543782,287.97649755067374,0.0,0.0,-0.1,403.125,0.2163542622930144,0.86,nominal,6451.71792249327,nan,pitch_program,12.325,0.0,0.0,-3.6779418491241964,-0.0,0.0,-3.672762821853424,0.0,0.0,0.86,0.0,0.0,0.0,0.0,0.0,0.0,-0.0641018038861802,0.0,0.0,-0.0641018038861802,0.0,0.0,1.3499999999999999,1.0,20.138455157652643,-0.08324399002846977,5.710354708192321,-0.002692286164653651,0.021063571204277064,0.00011597472438910492,20.93256927832884,0.021235251041763846,1.0,0.0,120.33108561702021,-0.9886792019865726,28.328748936529777,109.51819703571256,-0.10364898284714909,3.203865416613702,1.0,26.44772584738169,0.0,1.0,110.50071699882695,7545.34812755392,1.0,1.0,1.6927284296326035,19.23141830564973,-0.030682723420617862,-43.89553507837778,1.0,26.59816384226977,1.0,0.013162503591316774,4.139409941274573,0.9334974575367375,1.0,-0.7218941598180079,6.458333531553127
1.38,135.95194350495137,0.0,26.782613503780727,111.80490821937504,0.0,2.9976330683741974,111.84508619494862,17.7098591869362,0.0,6.274350733543041,0.0,0.0,1.0869955885899136,0.0,4.6873371297590865,0.0,7642.651894663464,0.32877928185349947,111.84781103163871,2.1341458064290184,1.2218533859376277,101003.66990565562,287.9759130122254,0.0,0.0,-0.1,403.0910526315789,0.21633604298671602,0.86,nominal,6517.309369694594,nan,pitch_program,12.31,0.0,0.0,-3.6850077565086816,-0.0,0.0,-3.6801097826465785,0.0,0.0,0.86,0.0,0.0,0.0,0.0,0.0,0.0,-0.06423003254203567,0.0,0.0,-0.06423003254203567,0.0,0.0,1.38,1.0,20.067271020443204,0.016192227366680224,5.76176486285941,0.000628780306154169,0.019108517869961743,0.0021791237596503594,20.87806415190422,0.019242645354002847,1.0,0.0,120.33108561702021,-0.9886792019865726,28.328748936529777,109.51819703571256,-0.10364898284714909,3.203865416613702,1.0,26.624599263720594,0.0,1.0,111.80649038707347,7754.470269978716,1.0,1.0,0.008506569961628012,19.294319565200468,-0.03420361459673876,-43.93939755897106,1.0,26.960610217379717,1.0,-0.0009266132384222408,4.169320259498919,0.9330434662405482,1.0,-0.06537621353699231,6.8532183009472885
1.41,139.32352153507793,0.0,26.870855239020106,112.38593433755224,0.0,2.941391174645905,112.42441914000219,17.703369105646598,0.0,6.242508620170314,0.0,0.0,1.061403806409486,0.0,4.692347043661031,0.0,7721.955263734557,0.3304823855191383,112.42707991049939,2.133746652806961,1.2218430288350894,101002.61257220685,287.97533944094636,0.0,0.0,-0.1,403.0571052631579,0.2163178236804177,0.86,nominal,6583.138082013182,nan,pitch_program,12.295,0.0,0.0,-3.691672889786282,-0.0,0.0,-3.687047646930401,0.0,0.0,0.86,0.0,0.0,0.0,0.0,0.0,0.0,-0.06435112111684489,0.0,0.0,-0.06435112111684489,0.0,0.0,1.41,1.0,20.13326633968022,-0.07625831548021851,5.768121449251379,-0.003819351200820914,0.015101612748972797,-0.0006470055900708794,20.943386877210052,0.015590534546600154,1.0,0.0,120.33108561702021,-0.9886792019865726,28.328748936529777,109.51819703571256,-0.10364898284714909,3.203865416613702,1.0,26.624599263720594,0.0,1.0,112.43777328329507,7651.492804985636,1.0,1.0,0.008506569961628012,19.294319565200468,-0.03420361459673876,-43.93939755897106,1.0,26.960610217379717,1.0,-0.0009266132384222408,4.169320259498919,0.9330434662405482,1.0,-0.06537621353699231,6.8532183009472885
1.44,142.7125053988764,0.0,26.957461115666977,112.96612879328255,0.0,2.886862554895749,113.00300982695708,17.696879570936186,0.0,6.211430879522312,0.0,0.0,1.035924713664784,0.0,4.696864014693472,0.0,7801.566318115537,0.3321833109925405,113.00560872125922,2.133362565625742,1.2218328638017348,101001.57484871947,287.9747765027481,0.0,0.0,-0.1,403.02315789473687,0.21629960437411935,0.86,nominal,6649.202501025635,nan,pitch_program,12.28,0.0,0.0,-3.697947793315249,-0.0,0.0,-3.69358773476131,0.0,0.0,0.86,0.0,0.0,0.0,0.0,0.0,0.0,-0.06446526718286387,0.0,0.0,-0.06446526718286387,0.0,0.0,1.44,1.0,20.139227702237694,0.027761547359216102,5.851307552128422,-0.00031388330610222076,0.01759135055242591,0.001718790116999069,20.972054339422378,0.017677906449986625,1.0,0.0,120.33108561702021,-0.9886792019865726,28.328748936529777,109.51819703571256,-0.10364898284714909,3.203865416613702,1.0,27.271252308453914,0.0,1.0,113.36707304001054,7686.188441712871,1.0,1.0,1.430724974756069,19.357223799948848,0.04184226310548753,-43.90002374647866,1.0,26.76584668195523,1.0,0.00636477619432341,4.189208046399985,0.9326063472108326,1.0,-0.3017590074810985,5.828519238185993
1.47,146.11887005495834,0.0,27.042482648289564,113.54548853606477,0.0,2.834051087419534,113.58085143394426,17.690390582804962,0.0,6.181113208810506,0.0,0.0,1.0105890473066004,0.0,4.700901667966365,0.0,7881.4825282515285,0.333882038222659,113.58339061093925,2.132993408800814,1.2218228847876313,101000.55611745738,287.9742238627861,0.0,0.0,-0.1,402.9892105263158,0.21628138506782096,0.86,nominal,6715.501068692709,nan,pitch_program,12.265,0.0,0.0,-3.703842104853777,-0.0,0.0,-3.69974035681679,0.0,0.0,0.86,0.0,0.0,0.0,0.0,0.0,0.0,-0.06457265069536282,0.0,0.0,-0.06457265069536282,0.0,0.0,1.47,1.0,20.000906394090325,-0.014612581059159788,5.977376339866856,0.0003055854345507461,0.017911804563007,-0.0003411062948706504,20.874996958588724,0.01791765829190769,1.0,0.0,145.7732989167973,-1.2389951447554337,26.83484252993493,113.82027200385627,-0.12167131273932834,3.1968641558457063,1.0,27.271252308453914,0.0,1.0,113.38346723260996,7937.045298753284,1.0,1.0,1.430724974756069,19.357223799948848,0.04184226310548753,-43.90002374647866,1.0,26.76584668195523,1.0,0.00636477619432341,4.189208046399985,0.9326063472108326,1.0,-0.3017590074810985,5.828519238185993
