time_s,sensor_time_s,imu_valid,imu_ax_mps2,imu_ay_mps2,imu_az_mps2,gyro_p_rps,gyro_q_rps,gyro_r_rps,imu_accel_norm_mps2,imu_gyro_norm_rps,gps_valid,gps_latency_s,gps_x_m,gps_y_m,gps_z_m,gps_vx_mps,gps_vy_mps,gps_vz_mps,baro_valid,baro_alt_m,baro_bias_m,pitot_valid,pitot_airspeed_mps,pitot_qbar_pa,pitot_compressibility_factor,mag_valid,mag_heading_deg,mag_x_ut,mag_y_ut,mag_z_ut,radar_valid,radar_agl_m,optical_flow_valid,optical_flow_x_radps,optical_flow_y_radps,optical_flow_quality,horizon_valid,horizon_roll_deg,horizon_pitch_deg
0.0,0.0,1.0,17.096536509746663,-0.04331266066330364,0.12548432820521357,0.0016677683591043149,0.0011681274632859406,0.0012765720485123657,17.097051878388257,0.00240324973008537,1.0,0.0,-1.885154541229685,1.8645638091475825,21.162662438547994,85.32748210022089,0.18147237523479218,7.846341299741817,1.0,20.771163472887363,0.0,1.0,85.63642665807238,4466.505573608554,1.0,1.0,-0.8198733225718878,19.523475325297145,-0.00615746722134172,-43.81279554351524,1.0,20.39618647858491,1.0,-0.0077448575321814855,4.273240466216326,0.95,1.0,0.17459483210835952,5.697481511065039
0.03,0.03,1.0,17.40254162842955,-0.024205067786461216,0.5883394915294113,0.001972178925766813,-0.15877170581150923,0.0016995476198838452,17.41250080751823,0.1587930493381997,1.0,0.0,-1.885154541229685,1.8645638091475825,21.162662438547994,85.32748210022089,0.18147237523479218,7.846341299741817,1.0,20.771163472887363,0.0,1.0,85.45774571051679,4494.743988359959,1.0,1.0,-0.8198733225718878,19.523475325297145,-0.00615746722134172,-43.81279554351524,1.0,20.39618647858491,1.0,-0.0077448575321814855,4.273240466216326,0.95,1.0,0.17459483210835952,5.697481511065039
0.06,0.06,1.0,17.702144194936395,-0.048625240197861,1.1866148792851143,-0.003446139225741984,-0.22420008488034746,-0.00034689119184351384,17.74193699639488,0.22422683663963416,1.0,0.0,-1.885154541229685,1.8645638091475825,21.162662438547994,85.32748210022089,0.18147237523479218,7.846341299741817,1.0,20.52585165520112,0.0,1.0,85.94732710677027,4526.811613390563,1.0,1.0,0.07665381874344163,18.992075623679472,-0.026858555853548426,-44.04245503413943,1.0,20.444201535828316,1.0,0.00018197912592243334,4.219026884396885,0.9488519617660042,1.0,-0.15907090264631085,6.475597943176462
0.09,0.09,1.0,17.962778250861277,-0.01094183278357201,1.5303360812549847,0.0004011470069548937,-0.18192686083605222,0.0025448602353110453,18.0278520832325,0.18194510140753659,1.0,0.0,-1.885154541229685,1.8645638091475825,21.162662438547994,85.32748210022089,0.18147237523479218,7.846341299741817,1.0,20.52585165520112,0.0,1.0,87.23931188542652,4644.882701449,1.0,1.0,0.07665381874344163,18.992075623679472,-0.026858555853548426,-44.04245503413943,1.0,20.444201535828316,1.0,0.00018197912592243334,4.219026884396885,0.9488519617660042,1.0,-0.15907090264631085,6.475597943176462
0.12,0.12,1.0,18.21940168689191,-0.01413003862604277,1.7400148654709107,0.0017811967641120853,-0.10431251693922641,-0.0028376729027249836,18.302307210250053,0.10436630797154674,1.0,0.0,-1.885154541229685,1.8645638091475825,21.162662438547994,85.32748210022089,0.18147237523479218,7.846341299741817,1.0,20.834985370765775,0.0,1.0,87.27138095827415,4713.453406026995,1.0,1.0,-1.8951218293581098,18.627181571338284,-0.005790965511073151,-44.17207183255982,1.0,20.159302211127283,1.0,-0.013840283315854317,4.180370390516183,0.9477639745124905,1.0,0.28335723464815654,7.75158973543637
0.15,0.15,1.0,18.517733868852975,-0.03605765477427094,1.8824612759907382,-0.00013304420042076212,-0.05598823834639602,-0.0016289172586783655,18.613205748815464,0.05601208713597214,1.0,0.0,-1.885154541229685,1.8645638091475825,21.162662438547994,85.32748210022089,0.18147237523479218,7.846341299741817,1.0,20.834985370765775,0.0,1.0,87.54587960764351,4740.429589841322,1.0,1.0,-1.8951218293581098,18.627181571338284,-0.005790965511073151,-44.17207183255982,1.0,20.159302211127283,1.0,-0.013840283315854317,4.180370390516183,0.9477639745124905,1.0,0.28335723464815654,7.75158973543637
0.18,0.18,1.0,18.726541086217058,-0.04780444576139571,2.042516914859756,0.00013974800767314763,-0.043933488635540315,-0.0008869940367906495,18.837661788722567,0.04394266391123894,1.0,0.0,-1.885154541229685,1.8645638091475825,21.162662438547994,85.32748210022089,0.18147237523479218,7.846341299741817,1.0,20.08279459753335,0.0,1.0,88.0353903690645,4843.642367688118,1.0,1.0,-0.5428950996559269,18.527824954756106,0.02966309435753329,-44.306256282851265,1.0,21.362321228060193,1.0,0.006974051956994979,4.137727015407284,0.9467282814832425,1.0,-0.5040599611879599,6.954216382182611
0.21,0.21,1.0,19.01970148331745,0.06045326675660328,2.2179594355024164,-0.0011844703614280934,-0.03955173181893041,0.0010356537480328346,19.148682543963798,0.03958301452137657,1.0,0.0,18.158147900970494,-0.8507156713177079,22.529725592859048,88.78478587516788,-0.10696639449047544,6.7199992958234125,1.0,20.08279459753335,0.0,1.0,88.81421078457595,4833.888881531733,1.0,1.0,-0.5428950996559269,18.527824954756106,0.02966309435753329,-44.306256282851265,1.0,21.362321228060193,1.0,0.006974051956994979,4.137727015407284,0.9467282814832425,1.0,-0.5040599611879599,6.954216382182611
0.24,0.24,1.0,19.32056768893592,-0.05931437453800777,2.433917549789983,0.0004014737785476082,-0.037545018927224894,0.0011573760834501412,19.473361514051888,0.03756499895965763,1.0,0.0,18.158147900970494,-0.8507156713177079,22.529725592859048,88.78478587516788,-0.10696639449047544,6.7199992958234125,1.0,22.18756318799064,0.0,1.0,89.45878652241241,4891.296091138702,1.0,1.0,-0.9874075351661772,18.452711197336015,-0.01105574941250553,-44.37474280528169,1.0,21.60002106536209,1.0,0.015553992101837083,4.124627453577544,0.9457407187262019,1.0,-0.5929147826834491,7.404227691337363
0.27,0.27,1.0,19.53277524064824,-0.02835453910261265,2.591074404615516,0.0019072580176267414,-0.024721961336969935,-0.002090558849283284,19.703902637594975,0.024883396910284464,1.0,0.0,18.158147900970494,-0.8507156713177079,22.529725592859048,88.78478587516788,-0.10696639449047544,6.7199992958234125,1.0,22.18756318799064,0.0,1.0,90.12876823144643,4961.814250827634,1.0,1.0,-0.9874075351661772,18.452711197336015,-0.01105574941250553,-44.37474280528169,1.0,21.60002106536209,1.0,0.015553992101837083,4.124627453577544,0.9457407187262019,1.0,-0.5929147826834491,7.404227691337363
0.3,0.3,1.0,19.914818530725718,-0.023144794989114953,2.7239680719489865,-0.0006483740193760299,-0.016575780659254205,0.0011196854561373627,20.100262059243633,0.016626201876958943,1.0,0.0,18.158147900970494,-0.8507156713177079,22.529725592859048,88.78478587516788,-0.10696639449047544,6.7199992958234125,1.0,22.0875509081546,0.0,1.0,90.39751222773555,5033.47817767583,1.0,1.0,-0.032100222264470346,18.291100397323888,-0.006038005167106243,-44.37120876451131,1.0,21.918177969711778,1.0,0.0042634016461290366,4.08948238097634,0.9447970285269995,1.0,0.49262759900427344,8.112604669214031
0.32999999999999996,0.32999999999999996,1.0,20.15662388152098,-0.05396740755448139,2.8947272695729276,-0.0008335127957680589,-0.0043876433152707384,0.0009767482210283772,20.36349294073561,0.004571673055898812,1.0,0.0,18.158147900970494,-0.8507156713177079,22.529725592859048,88.78478587516788,-0.10696639449047544,6.7199992958234125,1.0,22.0875509081546,0.0,1.0,90.88648608592422,5072.80066879844,1.0,1.0,-0.032100222264470346,18.291100397323888,-0.006038005167106243,-44.37120876451131,1.0,21.918177969711778,1.0,0.0042634016461290366,4.08948238097634,0.9447970285269995,1.0,0.49262759900427344,8.112604669214031
0.36,0.36,1.0,20.548452313459748,0.04056869726443273,2.9632077603756617,-0.0017116473741721086,0.0003525834621977363,0.0002472742290717788,20.761048589338582,0.0017649918911113048,1.0,0.0,18.158147900970494,-0.8507156713177079,22.529725592859048,88.78478587516788,-0.10696639449047544,6.7199992958234125,1.0,23.005605007031765,0.0,1.0,91.38717063257334,5124.949066587035,1.0,1.0,0.24703569469091746,18.400826527048608,0.05777323077028381,-44.396408425117606,1.0,22.240636160009508,1.0,0.008474791280591054,4.084371818922384,0.9438935656703747,1.0,-0.12522865530984933,7.311194562752346
0.39,0.39,1.0,20.81960855352016,-0.03998306635079582,3.101828185583899,-0.004200210305302578,0.004906420515046769,0.0021403138457621635,21.04944267813966,0.006804092315482132,1.0,0.0,18.158147900970494,-0.8507156713177079,22.529725592859048,88.78478587516788,-0.10696639449047544,6.7199992958234125,1.0,23.005605007031765,0.0,1.0,91.53794240591417,5180.668514833373,1.0,1.0,0.24703569469091746,18.400826527048608,0.05777323077028381,-44.396408425117606,1.0,22.240636160009508,1.0,0.008474791280591054,4.084371818922384,0.9438935656703747,1.0,-0.12522865530984933,7.311194562752346
0.42,0.42,1.0,20.86395643985055,-0.028261817516269515,3.239658860048689,-4.435109278206495e-05,0.009671943058447435,0.001005012113417697,21.11399693529869,0.009724119440514744,1.0,0.0,38.98571882934841,0.8561697855581142,23.117603382200095,92.79678987442773,-0.01429878191719496,5.703234774353666,1.0,23.18799283597139,0.0,1.0,93.14827209923494,5283.32233049627,1.0,1.0,1.0151129233973093,18.356019040356475,0.018258774712861983,-44.310960374541246,1.0,22.723024722181297,1.0,0.016688064665782515,4.059421358226504,0.9430273664001603,1.0,0.4032278623625569,7.131411472364247
0.44999999999999996,0.44999999999999996,1.0,20.89407528341973,0.03480239865722864,3.3529352370417635,0.003273383298076893,0.014189755432207211,0.0006495057299919682,21.16142168806151,0.014576901424351994,1.0,0.0,38.98571882934841,0.8561697855581142,23.117603382200095,92.79678987442773,-0.01429878191719496,5.703234774353666,1.0,23.18799283597139,0.0,1.0,93.13930216103633,5386.229228356371,1.0,1.0,1.0151129233973093,18.356019040356475,0.018258774712861983,-44.310960374541246,1.0,22.723024722181297,1.0,0.016688064665782515,4.059421358226504,0.9430273664001603,1.0,0.4032278623625569,7.131411472364247
0.48,0.48,1.0,20.84872451693441,0.012525986310875077,3.4323781027135194,-0.0009259558692904829,0.015584685661731157,0.002863435715449263,21.1293797903143,0.015872589125386968,1.0,0.0,38.98571882934841,0.8561697855581142,23.117603382200095,92.79678987442773,-0.01429878191719496,5.703234774353666,1.0,24.517177334021145,0.0,1.0,94.01041747325644,5361.127442445491,1.0,1.0,-0.341560527222041,18.368573008446916,-0.01746976429002118,-44.31518704111083,1.0,23.27382775796992,1.0,0.007915542794734144,4.076725734473292,0.9421960347989764,1.0,0.636746191090788,7.804334622581448
0.51,0.51,1.0,20.796579342950906,0.06853486531179354,3.5936783979069955,0.0007061520466158617,0.018786583433943946,-0.0019268357040249766,21.104903075422996,0.018898334944216177,1.0,0.0,38.98571882934841,0.8561697855581142,23.117603382200095,92.79678987442773,-0.01429878191719496,5.703234774353666,1.0,24.517177334021145,0.0,1.0,93.76678071892695,5482.8674710416735,1.0,1.0,-0.341560527222041,18.368573008446916,-0.01746976429002118,-44.31518704111083,1.0,23.27382775796992,1.0,0.007915542794734144,4.076725734473292,0.9421960347989764,1.0,0.636746191090788,7.804334622581448
0.54,0.54,1.0,20.80958033641797,-0.011959623866143985,3.6659018830955854,0.00258475109658373,0.02125128093383771,-0.000786372376342729,21.13001688184182,0.021422330897324406,1.0,0.0,38.98571882934841,0.8561697855581142,23.117603382200095,92.79678987442773,-0.01429878191719496,5.703234774353666,1.0,23.617938775276265,0.0,1.0,95.00969318819644,5540.508804796558,1.0,1.0,0.6010780516446778,18.43173576712957,-0.00910350250981173,-44.25072133958109,1.0,23.634713320087652,1.0,-0.0028495226081697673,4.0454588300141365,0.9413978930796754,1.0,0.0064165621930257054,7.270371302335929
0.57,0.57,1.0,20.785646516795126,0.012149172236429435,3.7137777542030523,0.0034063518963941427,0.023898525560524977,-0.0048126073959461535,21.114814560662303,0.024615116232848653,1.0,0.0,38.98571882934841,0.8561697855581142,23.117603382200095,92.79678987442773,-0.01429878191719496,5.703234774353666,1.0,23.617938775276265,0.0,1.0,96.34008145170066,5657.691055727122,1.0,1.0,0.6010780516446778,18.43173576712957,-0.00910350250981173,-44.25072133958109,1.0,23.634713320087652,1.0,-0.0028495226081697673,4.0454588300141365,0.9413978930796754,1.0,0.0064165621930257054,7.270371302335929
0.6,0.6,1.0,20.778206192080756,0.03723658218695693,3.852538307749259,-0.00218884881802764,0.026995265815910857,0.0005021721522843135,21.13237541158948,0.027088514401686855,1.0,0.0,38.98571882934841,0.8561697855581142,23.117603382200095,92.79678987442773,-0.01429878191719496,5.703234774353666,1.0,23.9499933792342,0.0,1.0,96.60347009327911,5724.294325317085,1.0,1.0,-2.0884129315731466,18.52173839050456,-0.05198653732366435,-44.32715308361926,1.0,23.325081032560753,1.0,0.0059601927122216744,4.0492464125401595,0.9406315041867768,1.0,-0.031199227627410092,7.260586445022758
0.63,0.63,1.0,20.748318054087246,0.0482501784753116,3.945830079606603,0.000997562163779802,0.021488424333909295,0.0018119332194381364,21.120241598296502,0.021587742184315008,1.0,0.0,57.71324141454991,-1.4405247638228156,24.36637445366215,97.22520432653643,0.11105817103984193,4.922333647631534,1.0,23.9499933792342,0.0,1.0,97.36390322103921,5767.483367009445,1.0,1.0,-2.0884129315731466,18.52173839050456,-0.05198653732366435,-44.32715308361926,1.0,23.325081032560753,1.0,0.0059601927122216744,4.0492464125401595,0.9406315041867768,1.0,-0.031199227627410092,7.260586445022758
0.6599999999999999,0.6599999999999999,1.0,20.648481134922,0.01932912714719676,3.9600789036091144,0.0011141667637941386,0.020595708936661794,0.002382543117453245,21.02480372600886,0.02076297439886101,1.0,0.0,57.71324141454991,-1.4405247638228156,24.36637445366215,97.22520432653643,0.11105817103984193,4.922333647631534,1.0,23.98277076077819,0.0,1.0,98.4041506367155,5694.397637807091,1.0,1.0,-1.670335623109286,18.63341989433761,0.0066186895430424015,-44.247514290118964,1.0,24.08244454730801,1.0,0.005384943889153253,4.043394540649923,0.9398955664908959,1.0,-0.05654672738215016,7.687397451941971
0.69,0.69,1.0,20.68413031854212,0.03405703130360546,4.124386796844171,-0.00024342411824013636,0.02551678337632652,0.002091143341679508,21.091348306018684,0.02560348354523589,1.0,0.0,57.71324141454991,-1.4405247638228156,24.36637445366215,97.22520432653643,0.11105817103984193,4.922333647631534,1.0,23.98277076077819,0.0,1.0,97.58361871559772,5918.192461921368,1.0,1.0,-1.670335623109286,18.63341989433761,0.0066186895430424015,-44.247514290118964,1.0,24.08244454730801,1.0,0.005384943889153253,4.043394540649923,0.9398955664908959,1.0,-0.05654672738215016,7.687397451941971
0.72,0.72,1.0,20.622231947121797,-0.007930072127170567,4.2084579799272275,0.0025088031883426986,0.025319206743148314,-0.0021429161886015883,21.047271365565372,0.025533280504696144,1.0,0.0,57.71324141454991,-1.4405247638228156,24.36637445366215,97.22520432653643,0.11105817103984193,4.922333647631534,1.0,23.581256803907667,0.0,1.0,98.81104764907279,5963.2707728343785,1.0,1.0,0.2874945668536168,18.59511588242958,-0.004236792949381907,-44.20915250787136,1.0,24.902135792444284,1.0,0.005990995406906327,4.060217443106048,0.9391888814540885,1.0,-0.44453082773386493,6.799609860991357
0.75,0.75,1.0,20.5744156755508,0.011625204899593356,4.202250146111992,0.0011903280909354376,0.029190699457773913,0.0013521571613500842,20.999181456100562,0.029246233001655828,1.0,0.0,57.71324141454991,-1.4405247638228156,24.36637445366215,97.22520432653643,0.11105817103984193,4.922333647631534,1.0,23.581256803907667,0.0,1.0,99.94545829938666,6036.180452312682,1.0,1.0,0.2874945668536168,18.59511588242958,-0.004236792949381907,-44.20915250787136,1.0,24.902135792444284,1.0,0.005990995406906327,4.060217443106048,0.9391888814540885,1.0,-0.44453082773386493,6.799609860991357
0.78,0.78,1.0,20.579829536860732,-0.06683260163433906,4.308364640997737,0.0007836953734760417,0.024848409310643402,-0.0002538655740981199,21.026075626295228,0.024862060884757512,1.0,0.0,57.71324141454991,-1.4405247638228156,24.36637445366215,97.22520432653643,0.11105817103984193,4.922333647631534,1.0,23.544948376221747,0.0,1.0,100.15914063656649,6212.3193089025635,1.0,1.0,0.02320020698432135,18.73584652969385,0.020512500027092834,-44.23349331424316,1.0,24.40317314568478,1.0,0.02958593775135763,4.060332842825389,0.938510321766583,1.0,-0.3641198977541506,6.53987082654559
0.8099999999999999,0.8099999999999999,1.0,20.616343064215396,-0.01909293271997271,4.45907654697351,0.001127163187817565,0.025069892184016992,0.0027680952868012225,21.093063540729954,0.025247422491949917,1.0,0.0,57.71324141454991,-1.4405247638228156,24.36637445366215,97.22520432653643,0.11105817103984193,4.922333647631534,1.0,23.544948376221747,0.0,1.0,99.8910096181057,6148.930412472287,1.0,1.0,0.02320020698432135,18.73584652969385,0.020512500027092834,-44.23349331424316,1.0,24.40317314568478,1.0,0.02958593775135763,4.060332842825389,0.938510321766583,1.0,-0.3641198977541506,6.53987082654559
0.84,0.84,1.0,20.50504931957199,0.05166430092585032,4.440879107484177,0.0012661216670166629,0.029365901756836565,-5.870225580505489e-05,20.98049389421897,0.029393242353008667,1.0,0.0,77.86201107399724,0.11040984545368764,24.96137774308056,101.2160288281279,0.017043018975863612,4.247004813123689,1.0,26.002791984038193,0.0,1.0,101.06124855415376,6288.866504188364,1.0,1.0,-0.2524767918030103,18.6841013897072,0.042477749502781575,-44.16353711583663,1.0,24.684840640759756,1.0,-0.015716378217716927,4.06579086076539,0.9378588085836577,1.0,0.559642409700591,7.411031720726239
0.87,0.87,1.0,20.46950112736804,-0.0032009294677551336,4.551231764701566,-0.0007627910474587565,0.025048468875559077,0.001423801640237294,20.969363300427112,0.025100495100748063,1.0,0.0,77.86201107399724,0.11040984545368764,24.96137774308056,101.2160288281279,0.017043018975863612,4.247004813123689,1.0,26.002791984038193,0.0,1.0,101.65525218487014,6282.658076532057,1.0,1.0,-0.2524767918030103,18.6841013897072,0.042477749502781575,-44.16353711583663,1.0,24.684840640759756,1.0,-0.015716378217716927,4.06579086076539,0.9378588085836577,1.0,0.559642409700591,7.411031720726239
0.8999999999999999,0.8999999999999999,1.0,20.501154060664124,-0.010573689704318741,4.577446687732016,0.00044742135249231185,0.025209543240509554,0.00382627890876341,21.00596219650573,0.025502189446191374,1.0,0.0,77.86201107399724,0.11040984545368764,24.96137774308056,101.2160288281279,0.017043018975863612,4.247004813123689,1.0,25.09276952471394,0.0,1.0,101.95408224724956,6551.796565163713,1.0,1.0,-2.017714388591032,18.91402754231042,-0.03530780576572019,-44.087406840596934,1.0,25.246945194387404,1.0,0.0004759712891396072,4.067861541290182,0.9372332957909647,1.0,0.18807463782397235,6.665377888882563
0.9299999999999999,0.9299999999999999,1.0,20.44424071606889,-0.03394187802056017,4.637542913533169,-0.0007921764512016805,0.026165683795511208,-0.001474918900734763,20.963657476273415,0.02621919025790577,1.0,0.0,77.86201107399724,0.11040984545368764,24.96137774308056,101.2160288281279,0.017043018975863612,4.247004813123689,1.0,25.09276952471394,0.0,1.0,102.96092063337652,6454.025321125891,1.0,1.0,-2.017714388591032,18.91402754231042,-0.03530780576572019,-44.087406840596934,1.0,25.246945194387404,1.0,0.0004759712891396072,4.067861541290182,0.9372332957909647,1.0,0.18807463782397235,6.665377888882563
0.96,0.96,1.0,20.41764482153555,0.0403044881716855,4.781727590286406,0.005810731508932576,0.024344704574426432,-0.0017345670483146591,20.970139800627233,0.025088602279323975,1.0,0.0,77.86201107399724,0.11040984545368764,24.96137774308056,101.2160288281279,0.017043018975863612,4.247004813123689,1.0,25.06447095221658,0.0,1.0,103.16548611610718,6580.508494363293,1.0,1.0,0.32106353464181236,18.949129363935796,0.01749869089294133,-44.134913634963574,1.0,25.496044745703475,1.0,0.008488511521670595,4.064928194957934,0.9366327578330869,1.0,-0.2852912671137542,6.58177470526806
0.99,0.99,1.0,20.49128706498058,0.02423630645272609,4.846396427627573,-0.0014060586879246736,0.02475587989471,0.003593470265315887,21.056613956467743,0.025054812291112952,1.0,0.0,77.86201107399724,0.11040984545368764,24.96137774308056,101.2160288281279,0.017043018975863612,4.247004813123689,1.0,25.06447095221658,0.0,1.0,103.56613179314677,6597.074192482498,1.0,1.0,0.32106353464181236,18.949129363935796,0.01749869089294133,-44.134913634963574,1.0,25.496044745703475,1.0,0.008488511521670595,4.064928194957934,0.9366327578330869,1.0,-0.2852912671137542,6.58177470526806
1.02,1.02,1.0,20.374620155998354,-0.003617189695431459,4.935875076594181,-0.0012687287302588265,0.025001845832499713,0.0009741654625859581,20.96396962307042,0.02505296321738334,1.0,0.0,77.86201107399724,0.11040984545368764,24.96137774308056,101.2160288281279,0.017043018975863612,4.247004813123689,1.0,25.40693809873352,0.0,1.0,105.01312976671215,6836.954528535777,1.0,1.0,0.20716255069020592,18.959739408797013,-0.02774534788802444,-44.07734336286566,1.0,25.636417849568403,1.0,0.004000979885722656,4.1128036959600935,0.9360561812155338,1.0,-0.2350183702845472,6.370482194288262
1.05,1.05,1.0,20.407596598603053,0.023065120251563386,4.97659744194674,-0.0009619480502852831,0.025238743678918575,-0.000216186253064102,21.005643361494023,0.025257994042235693,1.0,0.0,100.94761160171173,-0.5143213134600304,25.151191619905404,105.47031941051132,-0.10413279965858194,3.7148343581158487,1.0,25.40693809873352,0.0,1.0,105.07121212536039,6693.581059296544,1.0,1.0,0.20716255069020592,18.959739408797013,-0.02774534788802444,-44.07734336286566,1.0,25.636417849568403,1.0,0.004000979885722656,4.1128036959600935,0.9360561812155338,1.0,-0.2350183702845472,6.370482194288262
1.08,1.08,1.0,20.319928368571166,-0.022853924830118926,5.118336838584332,6.010971362783861e-05,0.02348001511098408,0.0015833385952579505,20.954650634142123,0.02353341632438747,1.0,0.0,100.94761160171173,-0.5143213134600304,25.151191619905404,105.47031941051132,-0.10413279965858194,3.7148343581158487,1.0,26.216790566435247,0.0,1.0,105.8321108321481,6858.656580941122,1.0,1.0,0.7264451323418568,19.051371437141768,-0.02658840919779483,-44.00645481214171,1.0,25.743618228567808,1.0,-0.0045325187658295995,4.105768321385023,0.9355025583796575,1.0,-0.808246265656688,6.706878353591974
1.1099999999999999,1.1099999999999999,1.0,20.35477529255948,-0.051319635676952136,5.166847030454104,-0.0009535318708432641,0.02360037355021043,0.002824344071052272,21.000376643091624,0.023787891335086304,1.0,0.0,100.94761160171173,-0.5143213134600304,25.151191619905404,105.47031941051132,-0.10413279965858194,3.7148343581158487,1.0,26.216790566435247,0.0,1.0,107.12215877361466,6985.684494432463,1.0,1.0,0.7264451323418568,19.051371437141768,-0.02658840919779483,-44.00645481214171,1.0,25.743618228567808,1.0,-0.0045325187658295995,4.105768321385023,0.9355025583796575,1.0,-0.808246265656688,6.706878353591974
1.14,1.14,1.0,20.303867166378005,0.00532466447862414,5.186752652449665,0.00121304139877298,0.019111820409918177,0.0019481353936812015,20.955893045624858,0.019249113754358033,1.0,0.0,100.94761160171173,-0.5143213134600304,25.151191619905404,105.47031941051132,-0.10413279965858194,3.7148343581158487,1.0,26.73064751896859,0.0,1.0,106.96417264951116,6957.344685272621,1.0,1.0,-0.7598756353801139,19.12441408595707,0.06539829339394247,-44.07446434349711,1.0,26.06603051897766,1.0,0.0038094536017736326,4.115097308034629,0.9349708834202048,1.0,-0.20272584193111715,6.851521461105346
1.17,1.17,1.0,20.214313135878797,-0.02730403298349267,5.21353488934695,-0.0008634720567739232,0.02431329471135394,-0.001090500165282645,20.875826860462727,0.024353050616390183,1.0,0.0,100.94761160171173,-0.5143213134600304,25.151191619905404,105.47031941051132,-0.10413279965858194,3.7148343581158487,1.0,26.73064751896859,0.0,1.0,107.84033379504368,7016.516857574364,1.0,1.0,-0.7598756353801139,19.12441408595707,0.06539829339394247,-44.07446434349711,1.0,26.06603051897766,1.0,0.0038094536017736326,4.115097308034629,0.9349708834202048,1.0,-0.20272584193111715,6.851521461105346
1.2,1.2,1.0,20.187356820731903,0.05991784686592215,5.410310323470434,-0.00012476373930662816,0.021195370244378578,-0.0010175630330780644,20.899866586946786,0.021220148922974635,1.0,0.0,100.94761160171173,-0.5143213134600304,25.151191619905404,105.47031941051132,-0.10413279965858194,3.7148343581158487,1.0,26.903893219473378,0.0,1.0,107.75855289859358,7201.809010506484,1.0,1.0,2.06342647402825,19.162738304236907,0.08539920361413032,-44.008847594017936,1.0,26.460821037786893,1.0,-5.519108586433316e-05,4.120910072137198,0.9344601491880521,1.0,-0.11770425331794655,6.083081541835214
1.23,1.23,1.0,20.235588224456347,-0.0034837575534648673,5.407845753768782,0.0002589862009826061,0.022050890194476532,0.0025757760128478453,20.945735571301334,0.02220232992930073,1.0,0.0,100.94761160171173,-0.5143213134600304,25.151191619905404,105.47031941051132,-0.10413279965858194,3.7148343581158487,1.0,26.903893219473378,0.0,1.0,109.27635701307193,7293.231487341219,1.0,1.0,2.06342647402825,19.162738304236907,0.08539920361413032,-44.008847594017936,1.0,26.460821037786893,1.0,-5.519108586433316e-05,4.120910072137198,0.9344601491880521,1.0,-0.11770425331794655,6.083081541835214
1.26,1.26,1.0,20.2258736171108,0.00794684442405135,5.471850007852549,-0.0014282419835606125,0.021364492912811672,-0.00016546531227039135,20.95297518817103,0.021412818855880467,1.0,0.0,120.33108561702021,-0.9886792019865726,28.328748936529777,109.51819703571256,-0.10364898284714909,3.203865416613702,1.0,25.686431332181993,0.0,1.0,110.1229442054722,7439.005807863624,1.0,1.0,0.9629097954391108,19.26326466823698,0.023134658006696746,-43.93003032135466,1.0,26.786000947020963,1.0,0.0006925181714708218,4.132624996130964,0.9339693454040678,1.0,-0.16193324251844712,6.279795229175736
1.29,1.29,1.0,20.21504386089851,-0.049476832008403165,5.554971824056048,-0.003389608958674506,0.019170571550078976,-0.0003681181865630906,20.964449866882095,0.019471409128481235,1.0,0.0,120.33108561702021,-0.9886792019865726,28.328748936529777,109.51819703571256,-0.10364898284714909,3.203865416613702,1.0,25.686431332181993,0.0,1.0,110.02141835673703,7335.984875865451,1.0,1.0,0.9629097954391108,19.26326466823698,0.023134658006696746,-43.93003032135466,1.0,26.786000947020963,1.0,0.0006925181714708218,4.132624996130964,0.9339693454040678,1.0,-0.16193324251844712,6.279795229175736
1.3199999999999998,1.3199999999999998,1.0,20.09547529200567,0.03567348886726788,5.623899131725935,-0.0005986024000608491,0.022075752721071335,0.00022732488971947352,20.86762183990418,0.02208503700790952,1.0,0.0,120.33108561702021,-0.9886792019865726,28.328748936529777,109.51819703571256,-0.10364898284714909,3.203865416613702,1.0,26.44772584738169,0.0,1.0,111.21560904197501,7374.153776983596,1.0,1.0,1.6927284296326035,19.23141830564973,-0.030682723420617862,-43.89553507837778,1.0,26.59816384226977,1.0,0.013162503591316774,4.139409941274573,0.9334974575367375,1.0,-0.7218941598180079,6.458333531553127
1.3499999999999999,1.3499999999999999,1.0,20.138455157652643,-0.08324399002846977,5.710354708192321,-0.002692286164653651,0.021063571204277064,0.00011597472438910492,20.93256927832884,0.021235251041763846,1.0,0.0,120.33108561702021,-0.9886792019865726,28.328748936529777,109.51819703571256,-0.10364898284714909,3.203865416613702,1.0,26.44772584738169,0.0,1.0,110.50071699882695,7545.34812755392,1.0,1.0,1.6927284296326035,19.23141830564973,-0.030682723420617862,-43.89553507837778,1.0,26.59816384226977,1.0,0.013162503591316774,4.139409941274573,0.9334974575367375,1.0,-0.7218941598180079,6.458333531553127
1.38,1.38,1.0,20.067271020443204,0.016192227366680224,5.76176486285941,0.000628780306154169,0.019108517869961743,0.0021791237596503594,20.87806415190422,0.019242645354002847,1.0,0.0,120.33108561702021,-0.9886792019865726,28.328748936529777,109.51819703571256,-0.10364898284714909,3.203865416613702,1.0,26.624599263720594,0.0,1.0,111.80649038707347,7754.470269978716,1.0,1.0,0.008506569961628012,19.294319565200468,-0.03420361459673876,-43.93939755897106,1.0,26.960610217379717,1.0,-0.0009266132384222408,4.169320259498919,0.9330434662405482,1.0,-0.06537621353699231,6.8532183009472885
1.41,1.41,1.0,20.13326633968022,-0.07625831548021851,5.768121449251379,-0.003819351200820914,0.015101612748972797,-0.0006470055900708794,20.943386877210052,0.015590534546600154,1.0,0.0,120.33108561702021,-0.9886792019865726,28.328748936529777,109.51819703571256,-0.10364898284714909,3.203865416613702,1.0,26.624599263720594,0.0,1.0,112.43777328329507,7651.492804985636,1.0,1.0,0.008506569961628012,19.294319565200468,-0.03420361459673876,-43.93939755897106,1.0,26.960610217379717,1.0,-0.0009266132384222408,4.169320259498919,0.9330434662405482,1.0,-0.06537621353699231,6.8532183009472885
1.44,1.44,1.0,20.139227702237694,0.027761547359216102,5.851307552128422,-0.00031388330610222076,0.01759135055242591,0.001718790116999069,20.972054339422378,0.017677906449986625,1.0,0.0,120.33108561702021,-0.9886792019865726,28.328748936529777,109.51819703571256,-0.10364898284714909,3.203865416613702,1.0,27.271252308453914,0.0,1.0,113.36707304001054,7686.188441712871,1.0,1.0,1.430724974756069,19.357223799948848,0.04184226310548753,-43.90002374647866,1.0,26.76584668195523,1.0,0.00636477619432341,4.189208046399985,0.9326063472108326,1.0,-0.3017590074810985,5.828519238185993
1.47,1.47,1.0,20.000906394090325,-0.014612581059159788,5.977376339866856,0.0003055854345507461,0.017911804563007,-0.0003411062948706504,20.874996958588724,0.01791765829190769,1.0,0.0,145.7732989167973,-1.2389951447554337,26.83484252993493,113.82027200385627,-0.12167131273932834,3.1968641558457063,1.0,27.271252308453914,0.0,1.0,113.38346723260996,7937.045298753284,1.0,1.0,1.430724974756069,19.357223799948848,0.04184226310548753,-43.90002374647866,1.0,26.76584668195523,1.0,0.00636477619432341,4.189208046399985,0.9326063472108326,1.0,-0.3017590074810985,5.828519238185993
1.5,1.5,1.0,20.033536862918798,-0.05849183849588691,6.000941565907407,0.0005658666969142462,0.017780778263269324,0.001447673505714987,20.913089685900843,0.01784858648031761,1.0,0.0,145.7732989167973,-1.2389951447554337,26.83484252993493,113.82027200385627,-0.12167131273932834,3.1968641558457063,1.0,27.02798683766539,0.0,1.0,114.40754085430693,8056.473440994897,1.0,1.0,-1.2019821554122339,19.44930868540029,0.031243065780116114,-43.848725354321594,1.0,27.11856008764207,1.0,0.0008202138454862203,4.1892757922495125,0.9321850713441813,1.0,0.3489614714784054,6.2313526818721385
1.53,1.53,1.0,19.999565453072684,-0.004045045969823648,6.142337250223719,0.003779395934551159,0.014561317804235354,0.000847128737547872,20.92154252366735,0.01506762877575708,1.0,0.0,145.7732989167973,-1.2389951447554337,26.83484252993493,113.82027200385627,-0.12167131273932834,3.1968641558457063,1.0,27.02798683766539,0.0,1.0,114.84666149255109,7948.821574064635,1.0,1.0,-1.2019821554122339,19.44930868540029,0.031243065780116114,-43.848725354321594,1.0,27.11856008764207,1.0,0.0008202138454862203,4.1892757922495125,0.9321850713441813,1.0,0.3489614714784054,6.2313526818721385
1.56,1.56,1.0,19.995052080090264,0.06228828308165944,6.14161907267395,0.0019368357837205887,0.017267779598178032,-0.0016953108876864049,20.917109560108052,0.01745856878756853,1.0,0.0,145.7732989167973,-1.2389951447554337,26.83484252993493,113.82027200385627,-0.12167131273932834,3.1968641558457063,1.0,27.2572008070812,0.0,1.0,115.15116305810982,8030.579163978098,1.0,1.0,0.7895691799827573,19.419444879160714,-0.08293977770278484,-43.84872813937456,1.0,27.379210885035608,1.0,0.002017349946885081,4.2080231216133495,0.9317786051221902,1.0,-0.12955041479895812,5.232029067706252
1.5899999999999999,1.5899999999999999,1.0,19.899990286400875,-0.027721553808669343,6.2420074406401,0.0007793280462142175,0.013074121373784144,0.0014853473402726709,20.856007258638964,0.013181284407117182,1.0,0.0,145.7732989167973,-1.2389951447554337,26.83484252993493,113.82027200385627,-0.12167131273932834,3.1968641558457063,1.0,27.2572008070812,0.0,1.0,115.83019418598398,8163.845824617262,1.0,1.0,0.7895691799827573,19.419444879160714,-0.08293977770278484,-43.84872813937456,1.0,27.379210885035608,1.0,0.002017349946885081,4.2080231216133495,0.9317786051221902,1.0,-0.12955041479895812,5.232029067706252
1.6199999999999999,1.6199999999999999,1.0,19.970515307413923,-0.04133767912465263,6.324013658551131,-0.00022357653111030915,0.013000235527902883,-0.0008930185862735824,20.947943555416376,0.013032789127490774,1.0,0.0,145.7732989167973,-1.2389951447554337,26.83484252993493,113.82027200385627,-0.12167131273932834,3.1968641558457063,1.0,27.969897363615715,0.0,1.0,116.89233222536657,8338.050150810002,1.0,1.0,0.2672245144087914,19.473880767295366,0.0836155907880831,-43.919144419302754,1.0,27.256142387773,1.0,0.0016252355438096673,4.224020727805804,0.931385911156654,1.0,0.2590999534225386,5.502718051110862
1.65,1.65,1.0,19.827789791898503,-0.03149770820662431,6.3344872174128914,-0.00031166391982524196,0.018603447911212923,-0.0008708280710869574,20.815089921614657,0.018626426122944958,1.0,0.0,145.7732989167973,-1.2389951447554337,26.83484252993493,113.82027200385627,-0.12167131273932834,3.1968641558457063,1.0,27.969897363615715,0.0,1.0,117.44488343550874,8277.985650763321,1.0,1.0,0.2672245144087914,19.473880767295366,0.0836155907880831,-43.919144419302754,1.0,27.256142387773,1.0,0.0016252355438096673,4.224020727805804,0.931385911156654,1.0,0.2590999534225386,5.502718051110862
1.68,1.68,1.0,19.92879822029299,0.0016834332470432795,6.538236889225343,0.0007375120723331163,0.014117519005810378,0.002200374561925831,20.97392531117453,0.01430698833259553,1.0,0.0,169.3645479652679,0.10467949366459839,25.778502591021507,117.40147378609288,-0.11996303888903753,2.5153411613699257,1.0,28.193538189160673,0.0,1.0,118.04530492476596,8431.933870822859,1.0,1.0,0.21119975031304736,19.518010026411915,-0.05832704608835584,-43.830782186079226,1.0,27.776080942570474,1.0,-0.00543425822334291,4.236695706559005,0.9310059488498086,1.0,0.10699802367398142,5.797400252828999
1.71,1.71,1.0,19.734412931972823,-0.022542819924003258,6.521064862591058,0.0007828565490089715,0.01165343518514876,0.0008870477358788632,20.783932469349153,0.011713337256158772,1.0,0.0,169.3645479652679,0.10467949366459839,25.778502591021507,117.40147378609288,-0.11996303888903753,2.5153411613699257,1.0,28.193538189160673,0.0,1.0,118.18321123471627,8651.890223018654,1.0,1.0,0.21119975031304736,19.518010026411915,-0.05832704608835584,-43.830782186079226,1.0,27.776080942570474,1.0,-0.00543425822334291,4.236695706559005,0.9310059488498086,1.0,0.10699802367398142,5.797400252828999
1.74,1.74,1.0,19.763670213079944,0.06386807782458512,6.530284298067774,0.0012293759769343958,0.01637222061066939,-0.0013421034472542188,20.814690784067366,0.01647307544692923,1.0,0.0,169.3645479652679,0.10467949366459839,25.778502591021507,117.40147378609288,-0.11996303888903753,2.5153411613699257,1.0,27.714603998399223,0.0,1.0,118.71824680349592,8520.200599649426,1.0,1.0,0.35735351418991396,19.528930380704416,0.013098680850136067,-43.80565443451421,1.0,28.075304620200228,1.0,0.0041346211143124464,4.2699163852135325,0.9306376751347857,1.0,-0.07440528772314185,5.920227200640953
1.77,1.77,1.0,19.772691473030786,0.008778923153284957,6.720719456499022,-0.002399117131381455,0.01135422242123204,-0.002344988067335383,20.883665271453683,0.011839472067488553,1.0,0.0,169.3645479652679,0.10467949366459839,25.778502591021507,117.40147378609288,-0.11996303888903753,2.5153411613699257,1.0,27.714603998399223,0.0,1.0,119.60323948677042,8764.903023093588,1.0,1.0,0.35735351418991396,19.528930380704416,0.013098680850136067,-43.80565443451421,1.0,28.075304620200228,1.0,0.0041346211143124464,4.2699163852135325,0.9306376751347857,1.0,-0.07440528772314185,5.920227200640953
1.7999999999999998,1.7999999999999998,1.0,19.769408927764797,-0.021217514946967615,6.751007816947858,-0.0006837096447960569,0.010217586300722472,0.001158210139002124,20.890334752718015,0.010305725564810369,1.0,0.0,169.3645479652679,0.10467949366459839,25.778502591021507,117.40147378609288,-0.11996303888903753,2.5153411613699257,1.0,28.218950536733583,0.0,1.0,119.71880516402749,8595.256468965077,1.0,1.0,-2.254423487237513,19.546711023622883,0.015143301359906294,-43.78763044562805,1.0,27.90416724492501,1.0,-0.02474790865352522,4.287453413242195,0.9302800452700904,1.0,-0.23641239826435617,5.799338597154926
1.8299999999999998,1.8299999999999998,1.0,19.717086804620504,0.033205225890756,6.8339560741247825,7.149624547488423e-05,0.01438017422552264,0.0006277958355700721,20.86785974341963,0.014394049120406035,1.0,0.0,169.3645479652679,0.10467949366459839,25.778502591021507,117.40147378609288,-0.11996303888903753,2.5153411613699257,1.0,28.218950536733583,0.0,1.0,120.07997290420705,8917.694431060503,1.0,1.0,-2.254423487237513,19.546711023622883,0.015143301359906294,-43.78763044562805,1.0,27.90416724492501,1.0,-0.02474790865352522,4.287453413242195,0.9302800452700904,1.0,-0.23641239826435617,5.799338597154926
1.8599999999999999,1.8599999999999999,1.0,19.723527704184026,-0.014808011295835657,6.862855538285324,-0.0020288310169881587,0.009369820410647867,0.0005026141464205757,20.883403709986716,0.0096001203535929,1.0,0.0,169.3645479652679,0.10467949366459839,25.778502591021507,117.40147378609288,-0.11996303888903753,2.5153411613699257,1.0,28.29156788448964,0.0,1.0,120.88638966536988,8967.7004229424,1.0,1.0,-0.38454546694159275,19.62051137737564,0.019967761008969995,-43.780869211543035,1.0,27.91058414194779,1.0,0.003225422314104629,4.3013338026542005,0.9299320136684085,1.0,0.06865813693711625,6.272624060389328
1.89,1.89,1.0,19.671018343565873,-0.007213876384782036,6.961122147637147,-0.001675229689958972,0.011965019555510817,4.729491857227685e-05,20.866390111067176,0.012081817921455323,1.0,0.0,195.89204405396623,0.5803632647016573,28.390773867307573,121.72916091275803,-0.020949794872449978,2.0586065793688824,1.0,28.29156788448964,0.0,1.0,121.71680922053402,8943.833901967015,1.0,1.0,-0.38454546694159275,19.62051137737564,0.019967761008969995,-43.780869211543035,1.0,27.91058414194779,1.0,0.003225422314104629,4.3013338026542005,0.9299320136684085,1.0,0.06865813693711625,6.272624060389328
1.92,1.92,1.0,19.704869810652845,0.0009528939202755693,7.003467692943692,-2.475920507279969e-05,0.007513948207546606,0.0008898182702178508,20.912447367271263,0.0075664923999130655,1.0,0.0,195.89204405396623,0.5803632647016573,28.390773867307573,121.72916091275803,-0.020949794872449978,2.0586065793688824,1.0,27.295414593517798,0.0,1.0,122.28931757564055,9099.498964969785,1.0,1.0,0.027167083226558676,19.632121536881524,0.06485926045376163,-43.86954974902854,1.0,27.93797022706221,1.0,-0.01561150849108961,4.335672412493108,0.9295925347449066,1.0,0.04638167746826721,6.606800773176356
1.95,1.95,1.0,19.668699466880838,-0.029418256994016394,7.086755040126121,0.0002499554068132249,0.013377867442197329,0.0006055810501484147,20.90647510105604,0.013393899485015457,1.0,0.0,195.89204405396623,0.5803632647016573,28.390773867307573,121.72916091275803,-0.020949794872449978,2.0586065793688824,1.0,27.295414593517798,0.0,1.0,122.44877422269138,9268.546670398202,1.0,1.0,0.027167083226558676,19.632121536881524,0.06485926045376163,-43.86954974902854,1.0,27.93797022706221,1.0,-0.01561150849108961,4.335672412493108,0.9295925347449066,1.0,0.04638167746826721,6.606800773176356
1.98,1.98,1.0,19.651033533141252,0.02372509537056146,7.1305888147115875,-0.0022144301550635105,0.014402211032035542,0.00044669641978878404,20.904759712689412,0.014578303097905221,1.0,0.0,195.89204405396623,0.5803632647016573,28.390773867307573,121.72916091275803,-0.020949794872449978,2.0586065793688824,1.0,29.03182068281494,0.0,1.0,123.4163843694863,9368.537289217902,1.0,1.0,0.22990760679561076,19.64434272399554,-0.030262560087283178,-43.75752568086275,1.0,28.21821610318236,1.0,-0.0008272722942451474,4.35267002394449,0.9292605637738445,1.0,0.5447030672880988,5.095341828932657
2.01,2.01,1.0,19.56720240909858,0.008599499041272819,7.2459414460289,0.0002276717814214487,0.011181760571068271,0.00047190024471040166,20.86574109657494,0.011194029379526856,1.0,0.0,195.89204405396623,0.5803632647016573,28.390773867307573,121.72916091275803,-0.020949794872449978,2.0586065793688824,1.0,29.03182068281494,0.0,1.0,124.01718438612717,9392.408071280446,1.0,1.0,0.22990760679561076,19.64434272399554,-0.030262560087283178,-43.75752568086275,1.0,28.21821610318236,1.0,-0.0008272722942451474,4.35267002394449,0.9292605637738445,1.0,0.5447030672880988,5.095341828932657
2.04,2.04,1.0,19.53638313304283,0.00901287799253271,7.280218465397988,0.0012959509496534008,0.007975795999910686,-0.0010481736513931015,20.848787208298997,0.008148096630475955,1.0,0.0,195.89204405396623,0.5803632647016573,28.390773867307573,121.72916091275803,-0.020949794872449978,2.0586065793688824,1.0,27.346874615891295,0.0,1.0,124.33918631596637,9547.786135239365,1.0,1.0,0.5174757826812354,19.708910052757602,0.022011415832582027,-43.7475079778607,1.0,28.20151429746652,1.0,-0.00815869616760906,4.36644792086157,0.9289350577450518,1.0,0.21326898200569677,5.893176531769322
2.07,2.07,1.0,19.47412756126339,0.022062440982930705,7.344949506275694,-5.2136427482700744e-05,0.0078098117018217,-0.0012669380291954451,20.813226906786944,0.007912079941128214,1.0,0.0,195.89204405396623,0.5803632647016573,28.390773867307573,121.72916091275803,-0.020949794872449978,2.0586065793688824,1.0,27.346874615891295,0.0,1.0,125.4560956059905,9624.28063982437,1.0,1.0,0.5174757826812354,19.708910052757602,0.022011415832582027,-43.7475079778607,1.0,28.20151429746652,1.0,-0.00815869616760906,4.36644792086157,0.9289350577450518,1.0,0.21326898200569677,5.893176531769322
2.1,2.1,1.0,19.509616821983347,0.004081106689045281,7.393195629504256,-0.002733906544495553,0.008367110034169612,0.002438693497912051,20.863473028529267,0.00913400247945532,1.0,0.0,220.6890710720902,-0.9126351324079304,27.75895421413548,125.4088538009444,-0.16126875235301044,2.032867686009805,1.0,28.943485165674268,0.0,1.0,125.82193031541878,9782.82677841157,1.0,1.0,-0.132208708406364,19.662322834084836,-0.021724524062429765,-43.79190702297286,1.0,28.38113071860756,1.0,0.009225769955652965,4.3733626467189435,0.9286149762138892,1.0,0.002188521992375938,6.303881165414541
2.13,2.13,1.0,19.447393896079433,-0.03772153904689924,7.486507175496297,-0.003215320442064753,0.007394983021394126,0.0021725951250623253,20.838674188933737,0.008351301036923017,1.0,0.0,220.6890710720902,-0.9126351324079304,27.75895421413548,125.4088538009444,-0.16126875235301044,2.032867686009805,1.0,28.943485165674268,0.0,1.0,125.61109298900926,9743.368620865018,1.0,1.0,-0.132208708406364,19.662322834084836,-0.021724524062429765,-43.79190702297286,1.0,28.38113071860756,1.0,0.009225769955652965,4.3733626467189435,0.9286149762138892,1.0,0.002188521992375938,6.303881165414541
2.16,2.16,1.0,19.423143991776914,0.0008643724797329816,7.504165022750668,-0.002053445989291011,0.010505550489087617,0.00012167427065311867,20.82236816409493,0.010705047227258895,1.0,0.0,220.6890710720902,-0.9126351324079304,27.75895421413548,125.4088538009444,-0.16126875235301044,2.032867686009805,1.0,28.96979067068321,0.0,1.0,126.15718521072202,9764.187998470636,1.0,1.0,-1.1808146066566236,19.76849923247041,0.017835522692160915,-43.72009739319805,1.0,28.52306386929356,1.0,0.005341512196297713,4.396709461625129,0.9282992821398582,1.0,0.4447806537253375,5.617986217289541
2.19,2.19,1.0,19.39607457595958,-0.0680490998716121,7.615756060146518,0.002127563673337678,0.009700142767947726,-0.0016183734827011527,20.837756117294333,0.010061730946123781,1.0,0.0,220.6890710720902,-0.9126351324079304,27.75895421413548,125.4088538009444,-0.16126875235301044,2.032867686009805,1.0,28.96979067068321,0.0,1.0,126.55882794045698,9632.37062187417,1.0,1.0,-1.1808146066566236,19.76849923247041,0.017835522692160915,-43.72009739319805,1.0,28.52306386929356,1.0,0.005341512196297713,4.396709461625129,0.9282992821398582,1.0,0.4447806537253375,5.617986217289541
2.2199999999999998,2.2199999999999998,1.0,19.36189629641966,-0.03674808958546651,7.649135349043657,0.0005881574895730492,0.007359971700159668,-0.0001691356679671133,20.818108708607195,0.007385371996986391,1.0,0.0,220.6890710720902,-0.9126351324079304,27.75895421413548,125.4088538009444,-0.16126875235301044,2.032867686009805,1.0,28.85574982681116,0.0,1.0,127.84230009419483,10031.545032944563,1.0,1.0,1.1001754087521782,19.751360750138968,-0.012095677645621642,-43.734897746274356,1.0,28.99733856353393,1.0,0.006808794125097082,4.414446224659449,0.9279869427102019,1.0,0.5526411510499093,5.820712146936961
2.25,2.25,1.0,19.33993623349115,-0.04122723800333921,7.756334499996677,0.0015116432580279864,0.006368063223279932,0.001822756685767126,20.837359671429006,0.006794095708093949,1.0,0.0,220.6890710720902,-0.9126351324079304,27.75895421413548,125.4088538009444,-0.16126875235301044,2.032867686009805,1.0,28.85574982681116,0.0,1.0,128.7703974372211,10168.376231144199,1.0,1.0,1.1001754087521782,19.751360750138968,-0.012095677645621642,-43.734897746274356,1.0,28.99733856353393,1.0,0.006808794125097082,4.414446224659449,0.9279869427102019,1.0,0.5526411510499093,5.820712146936961
2.28,2.28,1.0,19.417918205936836,0.01221413090344737,7.813852073754684,0.0010587851842506692,0.007829919469968137,0.002181179473663335,20.931124691902422,0.008196719396740692,1.0,0.0,220.6890710720902,-0.9126351324079304,27.75895421413548,125.4088538009444,-0.16126875235301044,2.032867686009805,1.0,29.559954572082976,0.0,1.0,129.55059262424024,10144.784514925714,1.0,1.0,0.7489650167228306,19.78485167799726,-0.014113850951209258,-43.662151104252786,1.0,28.493353129089737,1.0,-0.0046198615492057185,4.43547941513216,0.9276769301457174,1.0,-0.5889626797749533,5.705887903363474
2.31,2.31,1.0,19.413332688235,0.0027120919167082113,7.867018508770838,4.77148430652025e-05,0.006475455734647699,-0.0006233268279356578,20.946777165876355,0.006505562236429289,1.0,0.0,248.81581758703285,0.39841727765723006,29.365041774145627,129.32767959038927,0.275570978637166,1.925196206504032,1.0,29.559954572082976,0.0,1.0,129.8075427395699,10221.938933953794,1.0,1.0,0.7489650167228306,19.78485167799726,-0.014113850951209258,-43.662151104252786,1.0,28.493353129089737,1.0,-0.0046198615492057185,4.43547941513216,0.9276769301457174,1.0,-0.5889626797749533,5.705887903363474
2.34,2.34,1.0,19.310270478900534,0.008517984442994285,7.841513244694764,0.00017656879866341583,0.008550183275617648,-0.0003304306777197846,20.841687755339773,0.00855838740768911,1.0,0.0,248.81581758703285,0.39841727765723006,29.365041774145627,129.32767959038927,0.275570978637166,1.925196206504032,1.0,29.131041129855483,0.0,1.0,129.956425392441,10140.924116797836,1.0,1.0,0.8814232332534068,19.80391045277013,-0.05036015320854237,-43.67108017025449,1.0,29.204393923713248,1.0,0.001965513710947383,4.453780639139264,0.9273682224866807,1.0,0.3201883821516754,5.343333523549267
2.37,2.37,1.0,19.22791415296283,0.04330105164029876,7.983870082830078,0.0016188102975515004,0.007903417798401757,-0.0032302341210303106,20.81962389560125,0.008690165254597919,1.0,0.0,248.81581758703285,0.39841727765723006,29.365041774145627,129.32767959038927,0.275570978637166,1.925196206504032,1.0,29.131041129855483,0.0,1.0,130.80489040138102,10387.07380132999,1.0,1.0,0.8814232332534068,19.80391045277013,-0.05036015320854237,-43.67108017025449,1.0,29.204393923713248,1.0,0.001965513710947383,4.453780639139264,0.9273682224866807,1.0,0.3201883821516754,5.343333523549267
2.4,2.4,1.0,19.25403150941828,-0.026595376024048878,8.112194644051295,-0.00102717545926293,0.0033093375378930733,0.003772060297661713,20.89320795432507,0.005122035069483219,1.0,0.0,248.81581758703285,0.39841727765723006,29.365041774145627,129.32767959038927,0.275570978637166,1.925196206504032,1.0,30.402303217015163,0.0,1.0,130.52169552450437,10543.596380217503,1.0,1.0,-1.2292660481253275,19.874584664503036,-0.013679138290930001,-43.75589216657801,1.0,28.99686429521777,1.0,0.0047068960552744945,4.472876907119697,0.9270598043572884,1.0,0.5933274989912868,5.965528955657948
2.4299999999999997,2.4299999999999997,1.0,19.224616885166206,0.037674202403097524,8.06557585883221,0.001272348202470435,0.009080893553389355,-0.002397425815906407,20.84804133873303,0.00947782402342925,1.0,0.0,248.81581758703285,0.39841727765723006,29.365041774145627,129.32767959038927,0.275570978637166,1.925196206504032,1.0,30.402303217015163,0.0,1.0,131.9547338715583,10618.014092807307,1.0,1.0,-1.2292660481253275,19.874584664503036,-0.013679138290930001,-43.75589216657801,1.0,28.99686429521777,1.0,0.0047068960552744945,4.472876907119697,0.9270598043572884,1.0,0.5933274989912868,5.965528955657948
2.46,2.46,1.0,19.14403851847829,0.01725438232334368,8.211024765645352,-0.0001487685996427187,0.002711894761407527,-0.0036123455428427372,20.830636961282078,0.004519462978505857,1.0,0.0,248.81581758703285,0.39841727765723006,29.365041774145627,129.32767959038927,0.275570978637166,1.925196206504032,1.0,28.748969272931802,0.0,1.0,132.11755249416169,10648.25939842646,1.0,1.0,2.090500705405645,19.889491326773033,-0.04437813586878794,-43.608690303722774,1.0,29.04272665993974,1.0,-0.007722047058818455,4.496774226676105,0.9267506777029791,1.0,0.8662572561451346,5.496472421024556
2.4899999999999998,2.4899999999999998,1.0,19.223764384988765,0.024032802005368833,8.280795283919888,-0.0019050035423399088,-0.0017718302408749498,-0.0011308485599816366,20.931442024842067,0.00283676565200919,1.0,0.0,248.81581758703285,0.39841727765723006,29.365041774145627,129.32767959038927,0.275570978637166,1.925196206504032,1.0,28.748969272931802,0.0,1.0,132.64476020237535,10687.415986444978,1.0,1.0,2.090500705405645,19.889491326773033,-0.04437813586878794,-43.608690303722774,1.0,29.04272665993974,1.0,-0.007722047058818455,4.496774226676105,0.9267506777029791,1.0,0.8662572561451346,5.496472421024556
2.52,2.52,1.0,19.167932866453082,0.011535326374274377,8.35938171317376,0.002291227630734123,0.0003381812178829166,0.0007244888954484719,20.911457291713333,0.0024267209875872466,1.0,0.0,273.9149705453961,0.20176025599158562,29.45897400663422,133.34083626124652,-0.0696421494113209,2.144094936549921,1.0,29.67781885423762,0.0,1.0,133.15301008547374,10753.054129912942,1.0,1.0,-0.6098023610345005,19.873720657530907,0.036790822791022346,-43.624667056873704,1.0,29.55650237896759,1.0,0.012029913998308855,4.505865470079478,0.9264397558547375,1.0,0.22765828148255066,5.425009569964369
2.55,2.55,1.0,19.074049389877327,-0.009835198927267665,8.522485315373055,0.0001440186347443477,-0.0016771949757767577,-0.0006658152489848269,20.8914387443605,0.0018102580754426017,1.0,0.0,273.9149705453961,0.20176025599158562,29.45897400663422,133.34083626124652,-0.0696421494113209,2.144094936549921,1.0,29.67781885423762,0.0,1.0,133.5622549684745,11137.250434562022,1.0,1.0,-0.6098023610345005,19.873720657530907,0.036790822791022346,-43.624667056873704,1.0,29.55650237896759,1.0,0.012029913998308855,4.505865470079478,0.9264397558547375,1.0,0.22765828148255066,5.425009569964369
2.58,2.58,1.0,19.07074416307787,0.05370447164653571,8.487906423345384,-0.0036574406157678244,0.0011282819464016659,-0.0012609970144927824,20.87440352573724,0.0040298890157178975,1.0,0.0,273.9149705453961,0.20176025599158562,29.45897400663422,133.34083626124652,-0.0696421494113209,2.144094936549921,1.0,29.389150741599945,0.0,1.0,134.9797423856594,10855.009095944675,1.0,1.0,-0.4421226376729621,19.881023927229858,0.028040520701193124,-43.67626789842948,1.0,29.79089244416912,1.0,-0.00389804089071116,4.534958398857963,0.9261257535551177,1.0,-0.29934993309376307,6.183434510421116
2.61,2.61,1.0,19.039211089794453,0.0664022513206286,8.563887616108794,-0.00024114491760876216,-0.0030974654082263895,0.002171356915759841,20.876688896519823,0.0037904133919753,1.0,0.0,273.9149705453961,0.20176025599158562,29.45897400663422,133.34083626124652,-0.0696421494113209,2.144094936549921,1.0,29.389150741599945,0.0,1.0,135.76022864599452,11176.66809196497,1.0,1.0,-0.4421226376729621,19.881023927229858,0.028040520701193124,-43.67626789842948,1.0,29.79089244416912,1.0,-0.00389804089071116,4.534958398857963,0.9261257535551177,1.0,-0.29934993309376307,6.183434510421116
2.6399999999999997,2.6399999999999997,1.0,18.987971024721798,0.0904396940321086,8.693104175287084,0.0015596281021600699,-0.006269313793378627,0.0004070795264131864,20.883517021237704,0.006473210099921037,1.0,0.0,273.9149705453961,0.20176025599158562,29.45897400663422,133.34083626124652,-0.0696421494113209,2.144094936549921,1.0,29.31827109137479,0.0,1.0,135.2339819050756,11067.6976017143,1.0,1.0,-0.5640543747808037,19.955908465333778,-0.021717159203047003,-43.67456257352948,1.0,29.81572620296637,1.0,0.008479129042409857,4.540652295176637,0.925807277691614,1.0,0.5719898668425217,6.348640866913979
2.67,2.67,1.0,19.055784843518026,-0.04863038105835259,8.780952485795682,0.001541810122804799,-0.005690401708568321,-0.0015914128913733369,20.98166884387928,0.006106590296596772,1.0,0.0,273.9149705453961,0.20176025599158562,29.45897400663422,133.34083626124652,-0.0696421494113209,2.144094936549921,1.0,29.31827109137479,0.0,1.0,136.16638861220375,11557.837315133109,1.0,1.0,-0.5640543747808037,19.955908465333778,-0.021717159203047003,-43.67456257352948,1.0,29.81572620296637,1.0,0.008479129042409857,4.540652295176637,0.925807277691614,1.0,0.5719898668425217,6.348640866913979
2.6999999999999997,2.6999999999999997,1.0,18.865218404400512,-0.04796357526115563,8.78084697909393,0.0006356576811287177,-0.005627342353682495,-0.0021755139739447864,20.80870105558121,0.006066622099979182,1.0,0.0,273.9149705453961,0.20176025599158562,29.45897400663422,133.34083626124652,-0.0696421494113209,2.144094936549921,1.0,30.27372386398534,0.0,1.0,135.84924429288674,11373.921156061617,1.0,1.0,1.356642701192511,19.76364794848171,0.027156923288884763,-43.66821874533022,1.0,29.858328920828864,1.0,-0.014418349992410054,4.5698889300599985,0.9254828536346429,1.0,-0.4059408602265983,5.420620511730323
2.73,2.73,1.0,18.844168886853996,-0.007278845032513286,8.952173077252105,-0.0012000749088391701,-0.007819632218446289,-0.0009280501254632214,20.862506005342183,0.007965431868640953,1.0,0.0,302.7367228004279,0.9234410924736416,32.34700466087978,137.15328483381487,0.011270291125223627,2.267176715806999,1.0,30.27372386398534,0.0,1.0,137.2987070594352,11442.77390494663,1.0,1.0,1.356642701192511,19.76364794848171,0.027156923288884763,-43.66821874533022,1.0,29.858328920828864,1.0,-0.014418349992410054,4.5698889300599985,0.9254828536346429,1.0,-0.4059408602265983,5.420620511730323
2.76,2.76,1.0,18.857387733655333,0.030824936769150945,8.975780710049179,0.000304903391135432,-0.007514452457713081,-0.0037273558382535585,20.884603459702852,0.008393637075911665,1.0,0.0,302.7367228004279,0.9234410924736416,32.34700466087978,137.15328483381487,0.011270291125223627,2.267176715806999,1.0,29.809314446926173,0.0,1.0,137.808453670106,11607.899173592503,1.0,1.0,-1.4421442425219928,19.749953263130212,0.026670993516435048,-43.76317834456029,1.0,29.428022763388277,1.0,0.020682851812615907,4.58506019421043,0.9251509483085605,1.0,0.1256258689012356,5.574348226601882
2.79,2.79,1.0,18.903610826564755,0.0404730276103574,9.011092753901064,0.003993726602763566,-0.01092918978344824,-0.001959319294788977,20.941536069915895,0.011799829388562496,1.0,0.0,302.7367228004279,0.9234410924736416,32.34700466087978,137.15328483381487,0.011270291125223627,2.267176715806999,1.0,29.809314446926173,0.0,1.0,138.07119140297365,11571.730711331684,1.0,1.0,-1.4421442425219928,19.749953263130212,0.026670993516435048,-43.76317834456029,1.0,29.428022763388277,1.0,0.020682851812615907,4.58506019421043,0.9251509483085605,1.0,0.1256258689012356,5.574348226601882
2.82,2.82,1.0,18.84530039051285,0.02293663732086746,9.17336344967055,-0.002564169592683705,-0.009673407082850796,0.0019164528533044678,20.95940051331972,0.010189335691276958,1.0,0.0,302.7367228004279,0.9234410924736416,32.34700466087978,137.15328483381487,0.011270291125223627,2.267176715806999,1.0,30.416847712989163,0.0,1.0,138.60213666522597,11844.717454950724,1.0,1.0,-1.8266271924628283,19.759944761917552,0.0030350272323798264,-43.717255312881385,1.0,30.10650064981616,1.0,0.003368237854427196,4.5984127520868805,0.9248099927912815,1.0,-0.35809540184838956,5.602853621671093
2.85,2.85,1.0,18.873596255909785,0.05353413402624443,9.262301612638565,-0.00028237044305409227,-0.012082693215394947,0.002668347357816831,21.023932379507045,0.012377046740900259,1.0,0.0,302.7367228004279,0.9234410924736416,32.34700466087978,137.15328483381487,0.011270291125223627,2.267176715806999,1.0,30.416847712989163,0.0,1.0,139.76121304868596,12112.639441308413,1.0,1.0,-1.8266271924628283,19.759944761917552,0.0030350272323798264,-43.717255312881385,1.0,30.10650064981616,1.0,0.003368237854427196,4.5984127520868805,0.9248099927912815,1.0,-0.35809540184838956,5.602853621671093
2.88,2.88,1.0,18.76567728453444,-0.03615650005563831,9.337369594976039,0.0006034458294573401,-0.010190508607953522,0.001600319573296504,20.960401288929827,0.010333036112127944,1.0,0.0,302.7367228004279,0.9234410924736416,32.34700466087978,137.15328483381487,0.011270291125223627,2.267176715806999,1.0,29.85297779136452,0.0,1.0,139.60024127698372,11875.848953271125,1.0,1.0,0.29787603331982676,19.77802107742052,0.0458927442708022,-43.75131792575816,1.0,30.31513371913589,1.0,0.018989474823699035,4.620235435118197,0.9244583969855583,1.0,-0.6145416429887318,5.765382217099825
2.9099999999999997,2.9099999999999997,1.0,18.734350296143628,-0.024628922534964213,9.455303570345247,0.002396700685191622,-0.011321759458086314,-0.00020077747661171683,20.985215109925026,0.011574399465902302,1.0,0.0,302.7367228004279,0.9234410924736416,32.34700466087978,137.15328483381487,0.011270291125223627,2.267176715806999,1.0,29.85297779136452,0.0,1.0,140.60915290967435,11843.908819292445,1.0,1.0,0.29787603331982676,19.77802107742052,0.0458927442708022,-43.75131792575816,1.0,30.31513371913589,1.0,0.018989474823699035,4.620235435118197,0.9244583969855583,1.0,-0.6145416429887318,5.765382217099825
2.94,2.94,1.0,18.738033954327857,0.012246636495848735,9.576922596366455,0.004059827262651679,-0.01071487445696036,-9.796278652709261e-05,21.043562266651612,0.011458635553089885,1.0,0.0,335.1947425276812,-2.2542872146042616,30.444951939262058,141.24620879964203,0.025456919087767427,2.7567588106720504,1.0,31.932174367127473,0.0,1.0,141.21690166619658,12413.120410732661,1.0,1.0,0.20243712099329267,19.670093115879574,-0.013421981974192084,-43.68592494848126,1.0,30.55263671013982,1.0,-0.01461027070043123,4.6248253843088065,0.924094561927687,1.0,-0.6431591562241735,5.809530410278046
2.9699999999999998,2.9699999999999998,1.0,18.69106606770756,0.03704693588504008,9.580017001417893,0.0027584679670912783,-0.008927353559524885,-0.001437560076455922,21.0031913996498,0.009453748784246927,1.0,0.0,335.1947425276812,-2.2542872146042616,30.444951939262058,141.24620879964203,0.025456919087767427,2.7567588106720504,1.0,31.932174367127473,0.0,1.0,141.2322659608187,12147.476775348365,1.0,1.0,0.20243712099329267,19.670093115879574,-0.013421981974192084,-43.68592494848126,1.0,30.55263671013982,1.0,-0.01461027070043123,4.6248253843088065,0.924094561927687,1.0,-0.6431591562241735,5.809530410278046
3.0,3.0,1.0,18.639049799258004,0.0596521370930404,9.66497950949028,-0.0014416629791642013,-0.014010415377336076,-0.0010842513525904714,20.99594162488424,0.014126065700915525,1.0,0.0,335.1947425276812,-2.2542872146042616,30.444951939262058,141.24620879964203,0.025456919087767427,2.7567588106720504,1.0,31.23871426471449,0.0,1.0,141.757416680088,12507.750422590165,1.0,1.0,-0.3837121961309631,19.724161830768473,-0.03950730821613547,-43.73048973505395,1.0,30.473951653991545,1.0,-0.014780175839994046,4.635193628538648,0.9237168895703954,1.0,0.30255840620065566,5.509164257827817
