time_s,x_m,y_m,altitude_m,vx_mps,vy_mps,vz_mps,speed_mps,mass_kg,roll_deg,pitch_deg,yaw_deg,p_dps,q_dps,r_dps,alpha_deg,beta_deg,qbar_pa,mach,airspeed_mps,load_factor_g,density_kgpm3,pressure_pa,temperature_k,wind_x_mps,wind_y_mps,wind_z_mps,thrust_n,mass_flow_kgps,propulsion_throttle_actual,propulsion_health,energy_j_per_kg,target_distance_m,guidance_mode,pitch_command_deg,heading_command_deg,roll_command_deg
0.0,0.0,0.0,20.0,85.0,0.0,8.0,85.37564055396598,18.0,0.0,6.000000000000002,0.0,0.0,0.0,0.0,0.5564869907880661,0.0,4456.930974865101,0.2509722163221767,85.38506895236425,1.7466904897941358,1.2226496753673843,101084.96761777384,288.02,0.0,0.0,-0.1,326.8,0.17539118863220368,0.86,nominal,3840.633,nan,pitch_program,13.0,0.0,0.0
0.03,2.5653186933952696,0.0,20.23290578365111,85.51062311317565,0.0,7.763526121703686,85.86232586557358,17.994738264341034,0.0,6.271740387320408,0.0,0.0,-9.058029889823821,0.0,1.0176185009243097,0.0,4507.748426489432,0.25240242663909496,85.87142544682885,1.7745817221101465,1.2226223252837,101082.17508596799,288.01848611240626,0.0,0.0,-0.1,332.605,0.1785066900092231,0.86,nominal,3884.586527026215,nan,pitch_program,12.985,0.0,0.0
0.06,5.1461403027615695,0.0,20.459215293598337,86.02738697887666,0.0,7.543650331574299,86.35750095236926,17.98938306364076,0.0,6.654585568108502,0.0,0.0,-12.761553507692943,0.0,1.5771111048489665,0.0,4559.754415459882,0.2538576445390089,86.36629377717198,1.8030578724981061,1.2225957502475924,101079.46170308103,288.0170151005916,0.0,0.0,-0.1,338.40999999999997,0.18162219138624247,0.86,nominal,3929.445349028196,nan,pitch_program,12.97,0.0,0.0
0.09,7.742616734337785,0.0,20.679557958111594,86.54921438587387,0.0,7.344755483775197,86.86030131152206,17.983934397899173,0.0,6.964387428463059,0.0,0.0,-10.326753838191623,0.0,2.0480436847996817,0.0,4612.872834570607,0.25533534488552895,86.8688142835227,1.8326938127329635,1.2225698763098225,101076.81991754075,288.01558287327225,0.0,0.0,-0.1,344.215,0.18473769276326188,0.86,nominal,3975.153159014116,nan,pitch_program,12.955,0.0,0.0
0.12,10.354920853023005,0.0,20.894410195003807,87.07680395617398,0.0,7.161741229740382,87.37082078510949,17.978392267116273,0.0,7.1448498361718435,0.0,0.0,-6.015418563229246,0.0,2.377718133703213,0.0,4667.126952916022,0.25683578642914306,87.37907457114471,1.8628011953519754,1.2225446474938946,101074.24401299885,288.0141863337324,0.0,0.0,-0.1,350.02,0.1878531941402813,0.86,nominal,4021.7343300706934,nan,pitch_program,12.94,0.0,0.0
0.15,12.983262725440634,0.0,21.10405572557242,87.61139574725428,0.0,6.9881843522870595,87.88965459781689,17.972756671292064,0.0,7.240857655860157,0.0,0.0,-3.2002614050880065,0.0,2.61542733153219,0.0,4722.594279951445,0.25836069695206654,87.89766221119885,1.8932712160872656,1.2225200304543482,101071.73058389412,288.01282363778375,0.0,0.0,-0.1,355.825,0.1909686955173007,0.86,nominal,4069.255780742962,nan,pitch_program,12.925,0.0,0.0
0.18,15.627873943664248,0.0,21.30868740670299,88.15370727412048,0.0,6.821056037685757,88.41720936356548,17.967027610426545,0.0,7.311958344680329,0.0,0.0,-2.3700232648125525,0.0,2.8228048098906906,0.0,4779.3341382297995,0.2599112614600511,88.42498019704674,1.9242021193602905,1.2224960025177563,101069.2773143724,288.0114935318564,0.0,0.0,-0.1,361.63,0.19408419689432013,0.86,nominal,4117.768295177229,nan,pitch_program,12.91,0.0,0.0
0.21,18.288988687007663,0.0,21.508500060528224,88.70382477811384,0.0,6.6604217941745025,88.95352578027831,17.961205084519715,0.0,7.382882037396585,0.0,0.0,-2.364123392416303,0.0,3.024600075516931,0.0,4837.367750871306,0.2614875999878349,88.96106919940583,1.95552968488198,1.222472540781974,101066.88186529107,288.01019474960657,0.0,0.0,-0.1,367.435,0.19719969827133954,0.86,nominal,4167.291206489898,nan,pitch_program,12.895,0.0,0.0
0.24,20.96683761055286,0.0,21.703712509519228,89.26163078483994,0.0,6.507081633033478,89.49849630998303,17.955289093571576,0.0,7.4474927456543965,0.0,0.0,-2.153690503486713,0.0,3.2142203021466114,0.0,4896.700586408625,0.2630893993646273,89.50582248141544,1.987070923061891,1.2224496195287837,101064.54161004926,288.0089258686881,0.0,0.0,-0.1,373.24,0.20031519964835895,0.86,nominal,4217.8311331555,nan,pitch_program,12.88,0.0,0.0
0.27,23.661651844063414,0.0,21.89454366274509,89.82714111701844,0.0,6.361038440862023,90.0520854356126,17.949279637582126,0.0,7.493616941202342,0.0,0.0,-1.53747326796222,0.0,3.37956184318163,0.0,4957.345932571837,0.2647165554250719,90.05920441016032,2.0186653012997517,1.222427213031848,101062.25392128107,288.00768546619213,0.0,0.0,-0.1,379.045,0.20343070102537836,0.86,nominal,4269.401172261694,nan,pitch_program,12.865,0.0,0.0
0.3,26.373668064412357,0.0,22.081188589200195,90.40054067829804,0.0,6.221497548503469,90.61437406214675,17.943176716551363,0.0,7.518228916913366,0.0,0.0,-0.8203992029825903,0.0,3.5181810198484413,0.0,5019.330061146707,0.26636930352422,90.62129488251838,2.0502688576442076,1.222405298365911,101060.01645766877,288.00647227417016,0.0,0.0,-0.1,384.84999999999997,0.20654620240239774,0.86,nominal,4322.024881415607,nan,pitch_program,12.850000000000001,0.0,0.0
0.32999999999999996,29.103129634975655,0.0,22.26381508840265,90.98205235210995,0.0,6.087549973415216,91.18548193040877,17.93698033047929,0.0,7.526617924570381,0.0,0.0,-0.27963358906668406,0.0,3.6360105874076836,0.0,5082.684067020155,0.26804799277939473,91.19221252319514,2.0819191023945534,1.2223838558091895,101057.82720501778,288.00528520192535,0.0,0.0,-0.1,390.655,0.20966170377941715,0.86,nominal,4375.729499677136,nan,pitch_program,12.835,0.0,0.0
0.36,31.850284642350488,0.0,22.442573731850114,91.57183357916108,0.0,5.958621448248777,91.76549392126162,17.930690479365907,0.0,7.525130950707058,0.0,0.0,0.049565795446821104,0.0,3.7398158759820057,0.0,5147.435798185292,0.2697528709472199,91.77204148815015,2.1136464132480492,1.2223628676641247,101055.6843558492,288.004123270743,0.0,0.0,-0.1,396.46,0.21277720515643656,0.86,nominal,4430.539402994,nan,pitch_program,12.82,0.0,0.0
0.39,34.61538375680834,0.0,22.617607283579225,92.16997048192847,0.0,5.8344517243037295,92.35444919202754,17.924307163211214,0.0,7.516889033299348,0.0,0.0,0.2747305807308335,0.0,3.8329305214267655,0.0,5213.6085103329215,0.27148405241945817,92.360820567531,2.1454380221540994,1.2223423171511412,101053.58619644954,288.0029855526567,0.0,0.0,-0.1,402.265,0.21589270653345596,0.86,nominal,4486.4751012489105,nan,pitch_program,12.805,0.0,0.0
0.42,37.39867943490016,0.0,22.78905343993589,92.77652260306066,0.0,5.714871878555577,92.95236902255117,17.91783038201521,0.0,7.502328470659132,0.0,0.0,0.4853520906192289,0.0,3.915942897664451,0.0,5281.223844756318,0.2732415993374085,92.95857077903167,2.1553661916929117,1.222322188086883,101051.53107401615,288.0018711526404,0.0,0.0,-0.1,404.1773684210526,0.21691906078826353,0.86,nominal,4543.555724369012,nan,pitch_program,12.79,0.0,0.0
0.44999999999999996,40.200232231290734,0.0,22.95701791435071,93.38509321301919,0.0,5.59881581382736,93.55277854196233,17.911322810191564,0.0,7.481474805580464,0.0,0.0,0.6951221769625886,0.0,3.9893363449356007,0.0,5349.560844674051,0.27500647740658485,93.55881645298966,2.154379761882623,1.2223024680441095,101049.51771926961,288.0007793835567,0.0,0.0,-0.1,404.14342105263154,0.21690084148196515,0.86,nominal,4601.19262619049,nan,pitch_program,12.775,0.0,0.0
0.48,43.02000785419968,0.0,23.12158608040946,93.99252076363165,0.0,5.485605535291686,94.15246054984728,17.904815784947104,0.0,7.455094504883466,0.0,0.0,0.8793433721009061,0.0,4.054231427174012,0.0,5418.254652923512,0.27676922826901823,94.1583397724153,2.153426976556508,1.2222831469844917,101047.54510685886,287.9997096904773,0.0,0.0,-0.1,404.1094736842105,0.2168826221756668,0.86,nominal,4659.088215930722,nan,pitch_program,12.76,0.0,0.0
0.51,45.85797391718126,0.0,23.28283652562536,94.59886876605266,0.0,5.375014840529922,94.75144725202233,17.898309306281835,0.0,7.4244243953420614,0.0,0.0,1.022337009125132,0.0,4.11206248622034,0.0,5487.307380846711,0.2785299456172926,94.75717260092175,2.15250958667802,1.2222642156671928,101045.6122928782,287.99866156258344,0.0,0.0,-0.1,404.0755263157895,0.21686440286936848,0.86,nominal,4717.245006990409,nan,pitch_program,12.745,0.0,0.0
0.54,48.714099525600346,0.0,23.440842768129855,95.20418694730274,0.0,5.266874750149831,95.34976235906797,17.891803374195753,0.0,7.390530762172777,0.0,0.0,1.1297878052558432,0.0,4.164053283196927,0.0,5556.720254058693,0.28028869836872605,95.35533837641584,2.1516269816323947,1.2222456654472502,101043.71839428095,287.99763452200716,0.0,0.0,-0.1,404.0415789473684,0.2168461835630701,0.86,nominal,4775.664731697449,nan,pitch_program,12.73,0.0,0.0
0.57,51.588354940802105,0.0,23.595674537020344,95.8085138400586,0.0,5.161058963016308,95.94742234088642,17.885297988688862,0.0,7.35407383176489,0.0,0.0,1.215231054596981,0.0,4.210991550750904,0.0,5626.493726018685,0.28204553430490853,95.95285334815756,2.150773786612296,1.222227488125213,101041.86257352629,287.99662811550934,0.0,0.0,-0.1,404.0076315789474,0.21682796425677175,0.86,nominal,4834.348448628685,nan,pitch_program,12.715,0.0,0.0
0.6,54.48071140479735,0.0,23.747398325289307,96.41188213317477,0.0,5.057459608965438,96.54444009966345,17.878793149761158,0.0,7.31547528418765,0.0,0.0,1.286618301233881,0.0,4.2534120223369944,0.0,5696.62788171819,0.2838004907898836,96.5497302227163,2.149943953419166,1.2222096758821837,101040.04403194587,287.9956419108856,0.0,0.0,-0.1,403.9736842105263,0.21680974495047337,0.86,nominal,4893.29688086545,nan,pitch_program,12.7,0.0,0.0
0.63,57.39114104113269,0.0,23.896077649788175,97.01432121117823,0.0,4.955977483295559,97.14082680768472,17.872288857412645,0.0,7.2751274902063,0.0,0.0,1.3449265216241828,0.0,4.2918119734278,0.0,5767.122641518006,0.2855536001404445,97.14597999082235,2.149134149819551,1.2221922212492544,101038.26200662236,287.99467549527634,0.0,0.0,-0.1,403.9397368421053,0.21679152564417503,0.86,nominal,4952.510586324594,nan,pitch_program,12.685,0.0,0.0
0.6599999999999999,60.31961674514772,0.0,24.04177340364166,97.61585680050096,0.0,4.856525128449448,97.73659158789593,17.86578511164332,0.0,7.233442824072741,0.0,0.0,1.3894889324073914,0.0,4.326698988398392,0.0,5837.977716861609,0.2873048886959119,97.7416116106383,2.14834348115482,1.2221751170661024,101036.51576616094,287.9937284728763,0.0,0.0,-0.1,403.9057894736842,0.21677330633787664,0.86,nominal,5011.989924758407,nan,pitch_program,12.67,0.0,0.0
0.69,63.26611205251032,0.0,24.184544323551698,98.2165102454201,0.0,4.75903066366789,98.33174084519425,17.859281912453184,0.0,7.190797114916795,0.0,0.0,1.421523704157877,0.0,4.358532475581824,0.0,5909.192522657885,0.28905437486366664,98.33663134244114,2.147571530197321,1.2221583564260983,101034.80460508431,287.9928004618969,0.0,0.0,-0.1,403.8718421052631,0.21675508703157828,0.86,nominal,5071.734990413779,nan,pitch_program,12.655,0.0,0.0
0.72,66.23060101718148,0.0,24.324447418364603,98.81629882237206,0.0,4.663436493763516,98.92627837376526,17.852779259842237,0.0,7.147487988490135,0.0,0.0,1.4436376162923286,0.0,4.387683134481864,0.0,5980.766179982851,0.29080206943004794,98.93104285401245,2.1468173377128013,1.222141932625964,101033.12783869219,287.9918910917806,0.0,0.0,-0.1,403.8378947368421,0.21673686772527995,0.86,nominal,5131.745618717153,nan,pitch_program,12.64,0.0,0.0
0.75,69.21305811781811,0.0,24.461538277347472,99.41523668788749,0.0,4.569695299429026,99.52020599274458,17.84627715381048,0.0,7.103746744562703,0.0,0.0,1.4580415350628588,0.0,4.414447495815265,0.0,6052.697583257655,0.29254797741600963,99.52484785167069,2.146079743321065,1.2221258391295617,101031.4847993635,287.9910000011972,0.0,0.0,-0.1,403.80394736842106,0.21671864841898159,0.86,nominal,5192.021444766707,nan,pitch_program,12.625,0.0,0.0
0.78,72.21345818631887,0.0,24.59587129336681,100.01333561669217,0.0,4.477767200644585,100.11352406283717,17.83977559435791,0.0,7.059768914656708,0.0,0.0,1.4659277355035512,0.0,4.439080366325504,0.0,6124.985455831873,0.29429209958659963,100.11804659361071,2.145357986277096,1.22211006954167,101029.87483387854,287.9901268365931,0.0,0.0,-0.1,403.77,0.21670042911268322,0.86,nominal,5252.561951359234,nan,pitch_program,12.61,0.0,0.0
0.8099999999999999,75.23177634531564,0.0,24.727499860873152,100.61060529989211,0.0,4.387618916878167,100.70623167694453,17.83327458148453,0.0,7.015728991570414,0.0,0.0,1.4679975084853774,0.0,4.461810229099342,0.0,6197.628367958907,0.29603443300838583,100.71063807936976,2.1446517834041767,1.2220946175847238,101028.29730104363,287.9892712509043,0.0,0.0,-0.1,403.73605263157896,0.21668220980638486,0.86,nominal,5313.366485795845,nan,pitch_program,12.595,0.0,0.0
0.84,78.26798794975372,0.0,24.85647656653695,101.20705348126923,0.0,4.2992235221266535,101.29832672484623,17.82677411519034,0.0,6.971778638089165,0.0,0.0,1.4650118545438366,0.0,4.48283775755952,0.0,6270.624740091445,0.2977749712385463,101.30262011398385,2.1439610343290774,1.2220794770764167,101026.75156940384,287.98843290231747,0.0,0.0,-0.1,403.7021052631579,0.2166639905000865,0.86,nominal,5374.434264548078,nan,pitch_program,12.58,0.0,0.0
0.87,81.32206853494978,0.0,24.98285335844991,101.80268617320228,0.0,4.212559730431888,101.8898060237724,17.82027419547534,0.0,6.928043719870587,0.0,0.0,1.4578306780702543,0.0,4.50233340744568,0.0,6343.972854623576,0.2995137047062921,101.89398943759173,2.143285612291918,1.2220646419098222,101025.2370152132,287.9876114531701,0.0,0.0,-0.1,403.66815789473685,0.21664577119378817,0.86,nominal,5435.764384668626,nan,pitch_program,12.565,0.0,0.0
0.8999999999999999,84.39399377321908,0.0,25.10668168361411,102.3975079423099,0.0,4.127610838806706,102.48066551321793,17.813774822339525,0.0,6.884627518253528,0.0,0.0,1.447206789816735,0.0,4.520441360986648,0.0,6417.670876227294,0.3012506212821607,102.48474191897941,2.1426253819906984,1.22205010603724,101023.75302078473,287.9868065690565,0.0,0.0,-0.1,403.6342105263158,0.2166275518874898,0.86,nominal,5497.355841948641,nan,pitch_program,12.55,0.0,0.0
0.9299999999999999,87.48373943790057,0.0,25.22801259909437,102.99152215604957,0.0,4.044363849342059,103.07090042764696,17.8072759957829,0.0,6.841616547697037,0.0,0.0,1.4336990858767886,0.0,4.53728594873155,0.0,6491.716870290503,0.3029857067828964,103.07487272723543,2.14198028337224,1.2220358634571302,101022.29897315643,287.98601791810586,0.0,0.0,-0.1,403.6002631578947,0.21660933258119142,0.86,nominal,5559.207547237866,nan,pitch_program,12.535000000000002,0.0,0.0
0.96,90.59128137246805,0.0,25.346896866765256,103.58473115224952,0.0,3.9628089223628438,103.66050541280883,17.800777715805463,0.0,6.799084243664256,0.0,0.0,1.4177435328636085,0.0,4.552975735493541,0.0,6566.108815013647,0.30471894531159716,103.66437644737675,2.1413503395845765,1.222021908202986,101020.87426295462,287.985245170366,0.0,0.0,-0.1,403.56631578947366,0.21659111327489305,0.86,nominal,5621.318337377948,nan,pitch_program,12.520000000000001,0.0,0.0
0.99,93.71659546352616,0.0,25.46338503597893,104.17713636860368,0.0,3.8829389737891216,104.24947461276157,17.794279982407215,0.0,6.757092249374964,0.0,0.0,1.3997332056307985,0.0,4.567605110751131,0.0,6640.84461030575,0.3064503195122121,104.25324716684645,2.140735605568985,1.2220082343336083,101019.4782834008,287.9844879972661,0.0,0.0,-0.1,403.53236842105264,0.21657289396859472,0.86,nominal,5683.686983381493,nan,pitch_program,12.505,0.0,0.0
1.02,96.85965761755328,0.0,25.577527513786464,104.76873846757084,0.0,3.8047492602511572,104.83780175594889,17.787782795588157,0.0,6.715691369498706,0.0,0.0,1.3800293892542161,0.0,4.581255541663532,0.0,6715.922086944234,0.3081798108212457,104.84147856107185,2.1401361320438417,1.2219948359248565,101018.11042946913,287.98374607116034,0.0,0.0,-0.1,403.49842105263156,0.21655467466229633,0.86,nominal,5746.3121987028935,nan,pitch_program,12.49,0.0,0.0
1.05,100.02044374125934,0.0,25.689374622722546,105.35953745686889,0.0,3.728236964536118,105.42548024073255,17.781286155348287,0.0,6.674923152903233,0.0,0.0,1.3589406105171182,0.0,4.593997444239311,0.0,6791.3390160463305,0.30990739971788406,105.42906397849694,2.139551966184739,1.2219817070628565,101016.77009719254,287.98301906495226,0.0,0.0,-0.1,403.46447368421053,0.216536455355998,0.86,nominal,5809.192647638468,nan,pitch_program,12.475,0.0,0.0
1.08,103.1989297250332,0.0,25.79897664813703,105.94953279246165,0.0,3.6534008471495065,106.0125032092482,17.774790061687607,0.0,6.634821581164687,0.0,0.0,1.3367191125193523,0.0,4.6058921140844,0.0,6867.093117413218,0.3116330659400052,106.01599651401806,2.138983160735819,1.2219688418384296,101015.45668309386,287.9823066517871,0.0,0.0,-0.1,403.43052631578945,0.21651823604969964,0.86,nominal,5872.326952691883,nan,pitch_program,12.46,0.0,0.0
1.1099999999999999,106.39509142888241,0.0,25.90638387735156,106.53872346164057,0.0,3.580240973817581,106.59886360682522,17.768294514606115,0.0,6.595414288735789,0.0,0.0,1.3135764660789322,0.0,4.616993139191226,0.0,6943.182066328034,0.31335678865798805,106.60226906807044,2.1384297704886355,1.2219562343424866,101014.16958371509,287.9816085047972,0.0,0.0,-0.1,403.3965789473684,0.21650001674340127,0.86,nominal,5935.713700584092,nan,pitch_program,12.445,0.0,0.0
1.14,109.60890467048281,0.0,26.011646631918047,107.12710805334673,0.0,3.508758485549638,107.18455423233024,17.761799514103814,0.0,6.556723386263589,0.0,0.0,1.2896967980826557,0.0,4.6273473862256855,0.0,7019.603499431696,0.31507854662197216,107.18787439668935,2.1378918418475616,1.221943878662237,101012.90819523027,287.9809242968925,0.0,0.0,-0.1,403.3626315789474,0.21648179743710294,0.86,nominal,5999.351447434571,nan,pitch_program,12.43,0.0,0.0
1.17,112.84034521511387,0.0,26.11481529360094,107.71468482103515,0.0,3.4389553894298386,107.76956778360683,17.7553050601807,0.0,6.518766193853825,0.0,0.0,1.265239793265934,0.0,4.636995880002441,0.0,7096.355020176997,0.3167983182947724,107.77280515669672,2.1373694071937845,1.221931768878123,101011.67191313203,287.98025370059156,0.0,0.0,-0.1,403.3286842105263,0.21646357813080455,0.86,nominal,6063.238723531706,nan,pitch_program,12.415,0.0,0.0
1.2,116.08938876726046,0.0,26.215940324779172,108.30145173821982,0.0,3.3708343726077667,108.35389689795892,17.748811152836776,0.0,6.481555972725428,0.0,0.0,1.2403407478750776,0.0,4.645974663975494,0.0,7173.434203828958,0.31851608197029563,108.3570539459616,2.1368624849058726,1.2219198990614222,101010.46013198663,287.97959638788893,0.0,0.0,-0.1,403.2947368421053,0.21644535882450622,0.86,nominal,6127.374037672752,nan,pitch_program,12.4,0.0,0.0
1.23,119.35601096363534,0.0,26.315072284133457,108.8874065458295,0.0,3.3043986451427827,108.93753418671993,17.74231779207204,0.0,6.445102567382659,0.0,0.0,1.2151135524145877,0.0,4.654315551584534,0.0,7250.838601858735,0.32023181587465954,108.94061333778052,2.136371079571678,1.2219082632723917,101009.2722452443,287.9789520301531,0.0,0.0,-0.1,403.26078947368416,0.2164271395182078,0.86,nominal,6191.755880956584,nan,pitch_program,12.385,0.0,0.0
1.26,122.64018736740535,0.0,26.412261838372885,109.4725467923336,0.0,3.239651807980915,109.52047226448863,17.735824977886494,0.0,6.409412913360916,0.0,0.0,1.1896551725243076,0.0,4.662046726252886,0.0,7328.565745778024,0.32194549825170765,109.52347590995376,2.1358951802347046,1.2218968555588894,101008.10764509812,287.97832029805056,0.0,0.0,-0.1,403.22684210526313,0.21640892021190947,0.86,nominal,6256.382730075591,nan,pitch_program,12.37,0.0,0.0
1.29,125.94189346345739,0.0,26.507559770536993,110.0568698684015,0.0,3.1765977388035704,110.10270377435985,17.729332710280136,0.0,6.374491453585427,0.0,0.0,1.1640486952183726,0.0,4.669193237545609,0.0,7406.613150564431,0.3236571074368043,110.1056342698783,2.13543475853058,1.2218856699553862,101006.96572238291,287.9777008614915,0.0,0.0,-0.1,403.1928947368421,0.21639070090561113,0.86,nominal,6321.253050235953,nan,pitch_program,12.355,0.0,0.0
1.3199999999999998,129.26110465457054,0.0,26.601016985304977,110.64037303710474,0.0,3.115240492266092,110.6842214098936,17.72284098925297,0.0,6.340340508006383,0.0,0.0,1.1383648863370748,0.0,4.675777440456965,0.0,7484.97831775741,0.32536662192108373,110.68708107639662,2.1349897681165144,1.2218747004823363,101005.84586651085,287.9770933895955,0.0,0.0,-0.1,403.158947368421,0.21637248159931274,0.86,nominal,6386.365297776115,nan,pitch_program,12.34,0.0,0.0
1.3499999999999999,132.59779625837012,0.0,26.6926845117295,111.22305345998583,0.0,3.0555842141507994,111.26501793399683,17.71634981480499,0.0,6.306960600320459,0.0,0.0,1.1126636210016758,0.0,4.681819382282986,0.0,7563.6587382316675,0.3270740204066641,111.26780905857481,2.1345601447893854,1.2218639411458516,101004.74746543782,287.97649755067374,0.0,0.0,-0.1,403.125,0.2163542622930144,0.86,nominal,6451.71792249327,nan,pitch_program,12.325,0.0,0.0
1.38,135.95194350495137,0.0,26.782613503780727,111.80490821937504,0.0,2.9976330683741974,111.84508619494862,17.7098591869362,0.0,6.274350733543041,0.0,0.0,1.0869955885899136,0.0,4.6873371297590865,0.0,7642.651894663464,0.32877928185349947,111.84781103163871,2.1341458064290184,1.2218533859376277,101003.66990565562,287.9759130122254,0.0,0.0,-0.1,403.0910526315789,0.21633604298671602,0.86,nominal,6517.309369694594,nan,pitch_program,12.31,0.0,0.0
1.41,139.32352153507793,0.0,26.870855239020106,112.38593433755224,0.0,2.941391174645905,112.42441914000219,17.703369105646598,0.0,6.242508620170314,0.0,0.0,1.061403806409486,0.0,4.692347043661031,0.0,7721.955263734557,0.3304823855191383,112.42707991049939,2.133746652806961,1.2218430288350894,101002.61257220685,287.97533944094636,0.0,0.0,-0.1,403.0571052631579,0.2163178236804177,0.86,nominal,6583.138082013182,nan,pitch_program,12.295,0.0,0.0
1.44,142.7125053988764,0.0,26.957461115666977,112.96612879328255,0.0,2.886862554895749,113.00300982695708,17.696879570936186,0.0,6.211430879522312,0.0,0.0,1.035924713664784,0.0,4.696864014693472,0.0,7801.566318115537,0.3321833109925405,113.00560872125922,2.133362565625742,1.2218328638017348,101001.57484871947,287.9747765027481,0.0,0.0,-0.1,403.02315789473687,0.21629960437411935,0.86,nominal,6649.202501025635,nan,pitch_program,12.28,0.0,0.0
1.47,146.11887005495834,0.0,27.042482648289564,113.54548853606477,0.0,2.834051087419534,113.58085143394426,17.690390582804962,0.0,6.181113208810506,0.0,0.0,1.0105890473066004,0.0,4.700901667966365,0.0,7881.4825282515285,0.333882038222659,113.58339061093925,2.132993408800814,1.2218228847876313,101000.55611745738,287.9742238627861,0.0,0.0,-0.1,402.9892105263158,0.21628138506782096,0.86,nominal,6715.501068692709,nan,pitch_program,12.265,0.0,0.0
1.5,149.54259036990914,0.0,27.125971462327477,114.12401049836032,0.0,2.78296046793047,114.15793726761149,17.68390214125293,0.0,6.151550529397119,0.0,0.0,0.9854226689745884,0.0,4.7044725381306245,0.0,7961.701363967325,0.33557854754233946,114.16041885561522,2.132639028787893,1.2218130857300455,100999.55575938459,287.97368118549485,0.0,0.0,-0.1,402.9552631578947,0.2162631657615226,0.86,nominal,6782.032228638994,nan,pitch_program,12.25,0.0,0.0
1.53,152.98364111809158,0.0,27.207979287624568,114.70169160608152,0.0,2.73359417656965,114.7342607699148,17.677414246280083,0.0,6.122737110717983,0.0,0.0,0.960447309545779,0.0,4.707588218289656,0.0,8042.2202959125225,0.3372728196881358,114.73668686716609,2.1322992548948974,1.2218034605542065,100998.57315424277,287.97314813463043,0.0,0.0,-0.1,402.9213157894737,0.21624494645522424,0.86,nominal,6848.794427290388,nan,pitch_program,12.235,0.0,0.0
1.56,156.44199698171954,0.0,27.288557951123906,115.27852878759887,0.0,2.685955449977961,115.30981552371215,17.670926897886428,0.0,6.094666675977034,0.0,0.0,0.9356811767470408,0.0,4.7102594873874875,0.0,8123.036796866944,0.33896483581661857,115.31218819883057,2.1319738996410185,1.221794003174148,100997.60768063716,287.9726243733177,0.0,0.0,-0.1,402.8873684210526,0.21622672714892588,0.86,nominal,6915.786114887654,nan,pitch_program,12.220000000000002,0.0,0.0
1.5899999999999999,159.91763255116373,0.0,27.367759368856422,115.85451898147312,0.0,2.640047257750551,115.88459525731481,17.66444009607196,0.0,6.0673324928414285,0.0,0.0,0.911139455134559,0.0,4.71249641976135,0.0,8204.148342922334,0.340654577517629,115.88691654972628,2.1316627591822166,1.2217847074936496,100996.65871613236,287.9721095641024,0.0,0.0,-0.1,402.8534210526316,0.21620850784262752,0.86,nominal,6983.005746390432,nan,pitch_program,12.205000000000002,0.0,0.0
1.6199999999999999,163.4105223254561,0.0,27.44563553733841,116.42965914307919,0.0,2.595872282732947,116.4585938481221,17.657953840836683,0.0,6.0407274509899755,0.0,0.0,0.8868347443164758,0.0,4.714308479082569,0.0,8285.552414552674,0.34234202682484827,116.46086576845636,2.1313656137631805,1.2217755674072326,100995.72563735388,287.97160336900725,0.0,0.0,-0.1,402.8194736842105,0.21619028853632916,0.86,nominal,7050.451782283172,nan,pitch_program,12.19,0.0,0.0
1.65,166.9206407129643,0.0,27.522238524477974,117.00394625027366,0.0,2.5534329046520727,117.03180532545623,17.651468132180593,0.0,6.014844128138319,0.0,0.0,0.8627774430613132,0.0,4.715704598647842,0.0,8367.246497585329,0.344027166224023,117.0340298559202,2.1310822281726667,1.22176657680123,100994.80782009721,287.9711054495909,0.0,0.0,-0.1,402.78552631578947,0.21617206923003082,0.86,nominal,7118.122689293815,nan,pitch_program,12.175,0.0,0.0
1.68,170.44796203221156,0.0,27.597620460076566,117.57737730824184,0.0,2.512731186619704,117.60422387270312,17.64498297010369,0.0,5.989674846329492,0.0,0.0,0.8389760737859243,0.0,4.716693250112402,0.0,8449.2280840838,0.3457099786591565,117.60640296743284,2.1308123522100044,1.2217577295548874,100993.9046394399,287.97061546700945,0.0,0.0,-0.1,402.75157894736844,0.21615384992373246,0.86,nominal,7186.016941035246,nan,pitch_program,12.16,0.0,0.0
1.71,173.99246051282074,0.0,27.671833526000263,118.14994935363924,0.0,2.47376886412326,118.1758438288495,17.63849835460598,0.0,5.965211720030034,0.0,0.0,0.81543755570285,0.0,4.717282502457769,0.0,8531.494673151885,0.3473904475369313,118.17797941424386,2.1305557211669743,1.2217490195415182,100993.01546985947,287.97013308208096,0.0,0.0,-0.1,402.71763157894736,0.2161356306174341,0.86,nominal,7254.133018578063,nan,pitch_program,12.145,0.0,0.0
1.74,177.55411029656446,0.0,27.744929946085726,118.72165945812401,0.0,2.436547336182072,118.74665968949283,17.632014285687454,0.0,5.941446697174176,0.0,0.0,0.7921674398857133,0.0,4.717480072548137,0.0,8614.043771667019,0.3490685567295859,118.74875366453098,2.1303120563161864,1.2217404406296788,100992.13968535313,287.96965795535044,0.0,0.0,-0.1,402.68368421052634,0.21611741131113574,0.86,nominal,7322.469410961892,nan,pitch_program,12.13,0.0,0.0
1.77,181.1328854385054,0.0,27.816961975837252,119.29250473136464,0.0,2.401067658384197,119.3166661073917,17.62553076334812,0.0,5.91837159412249,0.0,0.0,0.7691701121192808,0.0,4.717293368426856,0.0,8696.872894950047,0.3507442905764442,119.31872034393628,2.130081065399433,1.221731986684372,100991.27665956048,287.96918974715703,0.0,0.0,-0.1,402.64973684210526,0.21609919200483738,0.86,nominal,7391.024615651741,nan,pitch_program,12.115,0.0,0.0
1.7999999999999998,184.72875990821333,0.0,27.887981891963804,119.8624823235972,0.0,2.36733053755175,119.88585789261667,17.619047787587974,0.0,5.89597812543848,0.0,0.0,0.746448965635719,0.0,4.716729526418056,0.0,8779.979567377966,0.3524176338842742,119.88787423570486,2.1298624431166133,1.2217236515682772,100990.4257658889,287.9687281177022,0.0,0.0,-0.1,402.6157894736842,0.216080972698539,0.86,nominal,7459.797138945166,nan,pitch_program,12.1,0.0,0.0
1.8299999999999998,188.3417075910472,0.0,27.95804198179838,120.4315894277951,0.0,2.335336327819244,120.45423001235382,17.612565358407018,0.0,5.874257929260148,0.0,0.0,0.7240065479482228,0.0,4.715795442948274,0.0,8863.361322945068,0.35408857192662824,120.45621028047746,2.1296558716154816,1.2217154291429777,100989.58637763892,287.9682727271183,0.0,0.0,-0.1,402.58184210526315,0.21606275339224065,0.86,nominal,7528.785496335323,nan,pitch_program,12.085,0.0,0.0
1.8599999999999999,191.97170228949236,0.0,28.027194532636596,120.99982328150573,0.0,2.305085027940479,121.02177759040582,17.60608347580525,0.0,5.853202588898009,0.0,0.0,0.7018446866363807,0.0,4.714497801836904,0.0,8947.015705777529,0.3557570904422946,121.02372357578179,2.1294610209799156,1.221707313270214,100988.7578681317,287.9678232355378,0.0,0.0,-0.1,402.54789473684207,0.2160445340859423,0.86,nominal,7597.988212834306,nan,pitch_program,12.07,0.0,0.0
1.89,195.61871772454438,0.0,28.095491821026485,121.56718116840067,0.0,2.2765762796629185,121.5884959064297,17.59960213978267,0.0,5.832803651198818,0.0,0.0,0.6799645971555046,0.0,4.712843097696406,0.0,9030.940270605735,0.3574231756329793,121.59040937526203,2.1292775497151104,1.2216992978131362,100987.93961083695,287.9673793031633,0.0,0.0,-0.1,402.51394736842104,0.21602631477964393,0.86,nominal,7667.403823260606,nan,pitch_program,12.055,0.0,0.0
1.92,199.2827275371318,0.0,28.162986102037355,122.13366041958021,0.0,2.249809367028998,122.15438039494656,17.59312135033928,0.0,5.813052642150806,0.0,0.0,0.6583669747866365,0.0,4.710837656006078,0.0,9115.1325831981,0.3590868141603161,122.15626308768091,2.1291051052296672,1.2216913766375554,100987.13097950058,287.9669405903367,0.0,0.0,-0.1,402.48,0.2160080954733456,0.86,nominal,7737.030872494197,nan,pitch_program,12.040000000000001,0.0,0.0
1.95,202.9637052895718,0.0,28.229729598531847,122.69925841466684,0.0,2.224783216483138,122.71942664415255,17.58664110747508,0.0,5.793941080135986,0.0,0.0,0.6370520730672707,0.0,4.708487650340358,0.0,9199.590220759856,0.3607479931422956,122.72128027572413,2.128943324314324,1.2216835436132045,100986.3313482731,287.9665067576095,0.0,0.0,-0.1,402.44605263157894,0.2159898761670472,0.86,nominal,7806.867915702211,nan,pitch_program,12.025,0.0,0.0
1.98,206.66162446705334,0.0,28.295774490462236,123.2639725827177,0.0,2.2014963976796076,123.28363039455796,17.58016141119007,0.0,5.7754604871716095,0.0,0.0,0.6160197708199698,0.0,4.705799117158664,0.0,9284.310772299685,0.3624067001491886,123.28545665463349,2.128791833616816,1.2216757926149846,100985.54009183694,287.96607746581196,0.0,0.0,-0.1,402.4121052631579,0.21597165686074887,0.86,nominal,7876.913518537879,nan,pitch_program,12.01,0.0,0.0
2.01,210.3764584791428,0.0,28.361172904209237,123.82780040298184,0.0,2.179947124900048,123.84698753747735,17.573682261484247,0.0,5.757602398433233,0.0,0.0,0.5952696294315571,0.0,4.702777968505216,0.0,9369.291838966908,0.3640629231990322,123.84878809069167,2.1286502501124924,1.221668117524219,100984.75658553427,287.9656523761226,0.0,0.0,-0.1,402.37815789473683,0.2159534375544505,0.86,nominal,7947.166257315098,nan,pitch_program,11.995000000000001,0.0,0.0
2.04,214.10818066130852,0.0,28.42597690197928,124.39073940552437,0.0,2.1601332590013604,124.4094941133904,17.567203658357613,0.0,5.740358370312003,0.0,0.0,0.5748009417131452,0.0,4.699430002919818,0.0,9454.53103436144,0.3657166507527373,124.41127059957839,2.1285181815706467,1.22166051222989,100983.9802054932,287.96523115013713,0.0,0.0,-0.1,402.3442105263158,0.21593521824815215,0.86,nominal,8017.624719160654,nan,pitch_program,11.98,0.0,0.0
2.07,217.8567642764606,0.0,28.490238471274036,124.95278717173663,0.0,2.1420523098251985,124.97114631019168,17.56072560181017,0.0,5.7237199872217275,0.0,0.0,0.5546127735733953,0.0,4.695760914816828,0.0,9540.025984818674,0.36736787170886886,124.97290034461592,2.128395227016453,1.2216529706298727,100983.21032875346,287.9648134499367,0.0,0.0,-0.1,402.3102631578947,0.2159169989418538,0.86,nominal,8088.287502145989,nan,pitch_program,11.965,0.0,0.0
2.1,221.62218251650307,0.0,28.554009514444317,125.51394133474865,0.0,2.125701439009362,125.53194046134446,17.554248091841913,0.0,5.707678867339228,0.0,0.0,0.5347039995760052,0.0,4.691776302551769,0.0,9625.774329671074,0.36901657539814425,125.53367363491891,2.1282809771884015,1.2216454866321609,100982.4463333918,287.9643989381561,0.0,0.0,-0.1,402.27631578947364,0.2158987796355554,0.86,nominal,8159.1532154000915,nan,pitch_program,11.95,0.0,0.0
2.13,225.4044085038958,0.0,28.617341838338792,126.07419957975806,0.0,2.1110774631491274,126.09187304395189,17.547771128452847,0.0,5.692226667435162,0.0,0.0,0.5150733332574776,0.0,4.687481675363815,0.0,9711.773721488014,0.3706627515776902,126.0935869234622,2.128175014991146,1.2216380541560736,100981.68759864477,287.96398727805075,0.0,0.0,-0.1,402.2423684210526,0.21588056032925707,0.86,nominal,8230.220479204987,nan,pitch_program,11.935,0.0,0.0
2.16,229.20341529322442,0.0,28.68028714405669,126.63355964428726,0.0,2.0981768572633026,126.65094067675777,17.54129471164297,0.0,5.67735508692947,0.0,0.0,0.49571935297274805,0.0,4.6828824593551435,0.0,9798.021826295495,0.372306390425091,126.65263680507826,2.1280769159436956,1.2216306671334622,100980.933505032,287.9635781335636,0.0,0.0,-0.1,402.2084210526316,0.2158623410229587,0.86,nominal,8301.487925075071,nan,pitch_program,11.92,0.0,0.0
2.19,233.0191758727758,0.0,28.74289701681246,127.19201931837941,0.0,2.086995758525601,127.20914011808705,17.53481884141228,0.0,5.663055871286792,0.0,0.0,0.4766405238965713,0.0,4.6779840026457356,0.0,9884.516323776828,0.37394748253226134,127.21082001439503,2.1279862486229217,1.2216233195098922,100980.18343447676,287.9631711693907,0.0,0.0,-0.1,402.1744736842105,0.21584412171666034,0.86,nominal,8372.954195821476,nan,pitch_program,11.905,0.0,0.0
2.2199999999999998,236.85166316611804,0.0,28.80522291591927,127.74957644474176,0.0,2.077529970227031,127.76646826373543,17.52834351776078,0.0,5.649320814849906,0.0,0.0,0.45783521675538114,0.0,4.672791579821755,0.0,9971.254907455534,0.3755860188991677,127.7681334237225,2.127902575102346,1.2216160052458196,100979.43677042598,287.9627660510465,0.0,0.0,-0.1,402.1405263157895,0.215825902410362,0.86,nominal,8444.617945602455,nan,pitch_program,11.890000000000002,0.0,0.0
2.25,240.70085003368337,0.0,28.86731616489745,128.3062289188441,0.0,2.0697749659393643,128.3229221448158,17.521868740688472,0.0,5.63614176319458,0.0,0.0,0.43930172378115206,0.0,4.667310395778245,0.0,10058.235284861483,0.37722199092742414,128.32457404089695,2.127825451386042,1.2216087183177486,100978.69289796842,287.96236244492815,0.0,0.0,-0.1,402.1065789473684,0.21580768310406362,0.86,nominal,8516.47783996072,nan,pitch_program,11.875,0.0,0.0
2.28,244.56670927435272,0.0,28.92922794171305,128.86197468897842,0.0,2.063725893853462,128.87849892556895,17.51539451019535,0.0,5.623510615078012,0.0,0.0,0.42103827225740365,0.0,4.661545589043509,0.0,10145.455177681219,0.3788553904137827,128.88013900708927,2.1277544278376954,1.2216014527193775,100977.95120395148,287.9619600183788,0.0,0.0,-0.1,402.0726315789474,0.21578946379776529,0.86,nominal,8588.532555848538,nan,pitch_program,11.86,0.0,0.0
2.31,248.44921362704127,0.0,28.99100926915114,129.4168117562855,0.0,2.0593775812695942,129.4331959011446,17.508920826281418,0.0,5.611419324041901,0.0,0.0,0.4030430360328393,0.0,4.655502234659201,0.0,10232.912321893222,0.3804862095435355,129.43482559458386,2.1276890496046574,1.2215942024627249,100977.21107709633,287.9615584397505,0.0,0.0,-0.1,402.03868421052636,0.21577124449146692,0.86,nominal,8660.780781641359,nan,pitch_program,11.845,0.0,0.0
2.34,252.34833577228386,0.0,29.05271100532773,129.970738174753,0.0,2.056724539219677,129.98701049535845,17.502447688946674,0.0,5.5998598997224125,0.0,0.0,0.38531414528993296,0.0,4.649185346679863,0.0,10320.604467889008,0.3821144408838477,129.98863120453368,2.1276288570369855,1.2215869615792447,100976.47190811146,287.9611573784654,0.0,0.0,-0.1,402.0047368421053,0.21575302518516856,0.86,nominal,8733.22121714061,nan,pitch_program,11.83,0.0,0.0
2.37,256.2640483338195,0.0,29.114383834343844,130.52375205118855,0.0,2.05576096720386,130.53994025842982,17.49597509819112,0.0,5.588824408911048,0.0,0.0,0.3678496948493152,0.0,4.642599880345735,0.0,10408.52938058062,0.38374007737703336,130.54155336469637,2.1275733861012096,1.2215797241209172,100975.73308980421,287.96075650507674,0.0,0.0,-0.1,401.9707894736842,0.21573480587887017,0.86,nominal,8805.85257356628,nan,pitch_program,11.815,0.0,0.0
2.4,260.1963238801747,0.0,29.176078257084622,131.07585154517196,0.0,2.0564807580258964,131.09198286470493,17.489503054014754,0.0,5.578304976405616,0.0,0.0,0.3506477511660311,0.0,4.635750733976764,0.0,10496.68483949522,0.38536311233378584,131.0935897271552,2.1275221687889374,1.2215724841613345,100974.99401719146,287.9603554913289,0.0,0.0,-0.1,401.9368421052631,0.2157165865725718,0.86,nominal,8878.673573539883,nan,pitch_program,11.8,0.0,0.0
2.4299999999999997,264.14513492624434,0.0,29.237844582166037,131.6270348689885,0.0,2.0588775027137647,131.64313611036883,17.483031556417576,0.0,5.568293785682715,0.0,0.0,0.33370635827909356,0.0,4.628642750626654,0.0,10585.068638857376,0.38698353942637975,131.64473806602996,2.1272977295054774,1.2215652357967568,100974.25408760752,287.9599540102159,0.0,0.0,-0.1,401.9028947368421,0.21569836726627348,0.86,nominal,8951.682951058245,nan,pitch_program,11.785,0.0,0.0
2.46,268.11045432466625,0.0,29.29972891880835,132.17731328073003,0.0,2.0628112214103766,132.1934088230099,17.476560605399587,0.0,5.563689279694611,0.0,0.0,0.15348353301933915,0.0,4.6262447676950655,0.0,10673.680337546926,0.388601384444144,132.19500708609124,2.1275397702807477,1.2215579736163567,100973.51274870746,287.95955176202773,0.0,0.0,-0.1,401.86894736842106,0.21568014795997512,0.86,nominal,9024.880854725347,nan,pitch_program,11.77,0.0,0.0
2.4899999999999998,272.0922515794017,0.0,29.36179178370299,132.72657515784806,0.0,2.0687621631547453,132.74269671066497,17.470090200960787,0.0,5.56207409615453,0.0,0.0,0.053839451339584704,0.0,4.625940083811873,0.0,10762.501237770943,0.39021634209963457,132.74429284324137,2.127887680491185,1.2215506905186837,100972.76927556754,287.9591483534059,0.0,0.0,-0.1,401.835,0.21566192865367675,0.86,nominal,9098.252580405444,nan,pitch_program,11.755,0.0,0.0
2.52,276.090494796814,0.0,29.424097658105005,133.27477391374384,0.0,2.0768624800671946,133.2909551301987,17.463620343101177,0.0,5.561880085048308,0.0,0.0,0.006467036874081518,0.0,4.626114530229198,0.0,10851.522028907417,0.39182828168435296,133.29255077466507,2.128198219255064,1.221543378937179,100972.02289578895,287.9587433652223,0.0,0.0,-0.1,401.80105263157895,0.2156437093473784,0.86,nominal,9171.79118705918,nan,pitch_program,11.74,0.0,0.0
2.55,280.1051517254782,0.0,29.486710422326997,133.8218976221398,0.0,2.0870921407330707,133.83817182251997,17.457151031820754,0.0,5.564223287337372,0.0,0.0,-0.07810674297969752,0.0,4.627904223989719,0.0,10940.73855895293,0.3934371673489394,133.83976858625584,2.1286662309475086,1.2215360313759471,100971.27284419061,287.95833638225486,0.0,0.0,-0.1,401.7671052631579,0.21562549004108003,0.86,nominal,9245.493967160302,nan,pitch_program,11.725000000000001,0.0,0.0
2.58,284.136188800646,0.0,29.549698577952928,134.3679025055916,0.0,2.0996051875310298,134.3843055036401,17.45068226711952,0.0,5.568764059994199,0.0,0.0,-0.1513590886401278,0.0,4.6309147988663035,0.0,11030.141896752293,0.39504287833077373,134.3859050895338,2.129246270303326,1.2215286397969287,100970.5183002511,287.9579269592433,0.0,0.0,-0.1,401.73315789473685,0.2156072707347817,0.86,nominal,9319.354334407319,nan,pitch_program,11.71,0.0,0.0
2.61,288.18357140958943,0.0,29.61313385253204,134.91275363144888,0.0,2.114509152637072,134.92932313391557,17.444214048997477,0.0,5.574803199441163,0.0,0.0,-0.20130464841852372,0.0,4.634412975296343,0.0,11119.724352696167,0.39664531801552844,134.93092730433278,2.1298633297835705,1.2215211957836578,100969.7584048254,287.9575146299585,0.0,0.0,-0.1,401.6992105263158,0.21558905142848334,0.86,nominal,9393.366759783237,nan,pitch_program,11.695,0.0,0.0
2.6399999999999997,292.24726438471953,0.0,29.677088923354418,135.4564325043363,0.0,2.1318356940792755,135.47320705670316,17.437746377454623,0.0,5.582453785986665,0.0,0.0,-0.2550195518956528,0.0,4.638510453937843,0.0,11209.480686662637,0.3982444348504116,135.47481757643075,2.130559276301886,1.2215136908083837,100968.99228741354,287.9570989219982,0.0,0.0,-0.1,401.6652631578947,0.21557083212218495,0.86,nominal,9467.527739204397,nan,pitch_program,11.68,0.0,0.0
2.67,296.3272318564509,0.0,29.741638381665545,135.99891572437966,0.0,2.151648610370916,136.0159353529925,17.431279252490956,0.0,5.5916209827097685,0.0,0.0,-0.30557322475528337,0.0,4.643097417036279,0.0,11299.404907519396,0.39984016483627405,136.0175540129711,2.13133138638837,1.221506116118922,100968.21905461026,287.95667935051915,0.0,0.0,-0.1,401.63131578947366,0.21555261281588659,0.86,nominal,9541.833173010276,nan,pitch_program,11.665,0.0,0.0
2.6999999999999997,300.4234373042053,0.0,29.806858546142845,136.54018159181413,0.0,2.174005482576705,136.55748785388465,17.42481267410648,0.0,5.602027975813082,0.0,0.0,-0.346899771064212,0.0,4.647884873822792,0.0,11389.491257632271,0.40143244911713327,136.5591164663142,2.1321518375525166,1.221498462760556,100967.43779234122,287.95625541945003,0.0,0.0,-0.1,401.59736842105264,0.21553439350958825,0.86,nominal,9616.279173843457,nan,pitch_program,11.65,0.0,0.0
2.73,304.53584374759373,0.0,29.87282660940802,137.08021477961375,0.0,2.1989354421724565,137.0978504612814,17.41834664230119,0.0,5.6136127455553915,0.0,0.0,-0.38615899272588705,0.0,4.652810696226001,0.0,11479.734940647024,0.4030212466301177,137.09949083855972,2.1330259158975906,1.2214907216762012,100966.6475760879,287.95582662703885,0.0,0.0,-0.1,401.56342105263155,0.21551617420328986,0.86,nominal,9690.862655621093,nan,pitch_program,11.635,0.0,0.0
2.76,308.66441376263396,0.0,29.93962067657582,137.6190005013405,0.0,2.226468905593376,137.63700978579683,17.411881157075094,0.0,5.626300422664138,0.0,0.0,-0.42292257201973815,0.0,4.657799320922127,0.0,11570.13124380289,0.40460651840811857,137.63866374153974,2.133952014673297,1.2214828837018805,100965.8474704261,287.95539246560224,0.0,0.0,-0.1,401.52947368421053,0.21549795489699153,0.86,nominal,9765.580612495709,nan,pitch_program,11.620000000000001,0.0,0.0
2.79,312.80910951944816,0.0,30.007319649370437,138.15652522714066,0.0,2.2566324264872466,138.17495378231843,17.405416218428183,0.0,5.639963335709826,0.0,0.0,-0.45543043701445,0.0,4.662723946529632,0.0,11660.675647186043,0.40618822943660143,138.17662312862885,2.134919281169697,1.2214749395803384,100965.03653041592,287.95495242227906,0.0,0.0,-0.1,401.49552631578945,0.21547973559069317,0.86,nominal,9840.430207612413,nan,pitch_program,11.605,0.0,0.0
2.82,316.96989286513167,0.0,30.076002883487412,138.69277818945068,0.0,2.2894411372324526,138.71167313037867,17.398951826360463,0.0,5.654532692503164,0.0,0.0,-0.4856452290614057,0.0,4.667521316407906,0.0,11751.364061627386,0.4077663526939563,138.71335966970327,2.13592584024149,1.2214668800012536,100964.21380570684,287.9545059812573,0.0,0.0,-0.1,401.4615789473684,0.2154615162843948,0.86,nominal,9915.40896499186,nan,pitch_program,11.59,0.0,0.0
2.85,321.14672535864554,0.0,30.145750086698747,139.22774978379658,0.0,2.324906773711158,139.24715976049896,17.39248798087193,0.0,5.669945994548181,0.0,0.0,-0.513776737932364,0.0,4.672135730730585,0.0,11842.19258820123,0.40934086483650517,139.2488652834222,2.136968836559791,1.221458695613202,100963.3783417592,287.95405262443643,0.0,0.0,-0.1,401.4276315789474,0.21544329697809647,0.86,nominal,9990.514570770683,nan,pitch_program,11.575,0.0,0.0
2.88,325.3395683047863,0.0,30.21664120577666,139.76143153802644,0.0,2.36303730259707,139.78140681382456,17.38602468196259,0.0,5.686130707763949,0.0,0.0,-0.5394904441129347,0.0,4.676502845870685,0.0,11933.157515610328,0.41091174607866965,139.78313309663807,2.1380427803110846,1.2214503770369345,100962.52918119988,287.95359183216243,0.0,0.0,-0.1,401.3936842105263,0.21542507767179808,0.86,nominal,10065.74486990659,nan,pitch_program,11.56,0.0,0.0
2.9099999999999997,329.5483827986159,0.0,30.288756257150734,140.29381646098574,0.0,2.403835045802441,140.31440895402076,17.379561929632434,0.0,5.703033355843075,0.0,0.0,-0.5634216067236946,0.0,4.680579510101735,0.0,12024.255377646,0.412478981105237,140.31615775499748,2.1391447419488117,1.2214419148852547,100961.66536585164,287.9531230843285,0.0,0.0,-0.1,401.3597368421053,0.21540685836549975,0.86,nominal,10141.097911607278,nan,pitch_program,11.545,0.0,0.0
2.94,333.77312975502105,0.0,30.36217522892521,140.8248985468387,0.0,2.4472990591492567,140.84616190515214,17.37309972388147,0.0,5.720605396809191,0.0,0.0,-0.5857347034616467,0.0,4.6843286296708015,0.0,12115.482879122543,0.4140425577176055,140.84793496258354,2.1402716172098826,1.2214332997745259,100960.78593790802,287.95264586101194,0.0,0.0,-0.1,401.3257894736842,0.21538863905920136,0.86,nominal,10216.571887414904,nan,pitch_program,11.53,0.0,0.0
2.9699999999999998,338.0137699361975,0.0,30.43697798670694,141.3546727058815,0.0,2.4934252593909694,141.37666237859435,17.366638064709694,0.0,5.73879889509061,0.0,0.0,-0.6064499478096327,0.0,4.687714768831065,0.0,12206.836886888039,0.41560246661883354,141.3784614089534,2.141419719634004,1.2214245223357332,100959.88994106282,287.95215964308636,0.0,0.0,-0.1,401.29184210526313,0.215370419752903,0.86,nominal,10292.165122828867,nan,pitch_program,11.515,0.0,0.0
3.0,342.27026398003886,0.0,30.513244171841826,141.883134794713,0.0,2.542206171162962,141.90590809191627,17.360176952117108,0.0,5.757573580363032,0.0,0.0,-0.6258228480138526,0.0,4.6907112926462915,0.0,12298.314436436493,0.41715870146820494,141.90773478787415,2.1425861718013497,1.221415573226429,100958.97642172969,287.951663912883,0.0,0.0,-0.1,401.2578947368421,0.21535220044660466,0.86,nominal,10367.876081653489,nan,pitch_program,11.5,0.0,0.0
3.03,346.5425724229815,0.0,30.59105312455628,142.4102814314208,0.0,2.5936317571483753,142.4338975913675,17.35371638610371,0.0,5.776892319324093,0.0,0.0,-0.6439579714695314,0.0,4.693295483828648,0.0,12389.91270451157,0.4187112583608191,142.43575362042915,2.1437680599877638,1.2214064431397595,100958.04442996401,287.95115815469035,0.0,0.0,-0.1,401.223947368421,0.21533398114030627,0.86,nominal,10443.703342658011,nan,pitch_program,11.485,0.0,0.0
3.06,350.83065572135155,0.0,30.67048381134178,142.93610994566757,0.0,2.647689559516647,142.96063019728032,17.3472563666695,0.0,5.796720286595537,0.0,0.0,-0.6609322489775574,0.0,4.695447643687003,0.0,12481.629002380767,0.42026013566705794,142.96251720054258,2.1449624291052034,1.2213971228129998,100957.09302033429,287.95064185522625,0.0,0.0,-0.1,401.19,0.21531576183400794,0.86,nominal,10519.645593270265,nan,pitch_program,11.47,0.0,0.0
3.09,355.13447427163715,0.0,30.751614755656597,143.46061834285342,0.0,2.704364810493914,143.48610596271016,17.34079689381448,0.0,5.817026363687515,0.0,0.0,-0.676869243484098,0.0,4.6971524352525185,0.0,12573.460771196738,0.4218053339109034,143.48802555371714,2.14616661359681,1.2213876030356907,100956.12125275309,287.9501145040882,0.0,0.0,-0.1,401.156052631579,0.21529754252770958,0.86,nominal,10595.701625014604,nan,pitch_program,11.455,0.0,0.0
3.12,359.4539884282862,0.0,30.834523979058947,143.98380522163475,0.0,2.763640780078299,144.01032558974015,17.33433796753865,0.0,5.837781528547538,0.0,0.0,-0.6918388362328427,0.0,4.698397123645457,0.0,12665.405569755685,0.4233468555243236,144.0122793535988,2.147377963842613,1.2213778746565556,100955.12819318347,287.9495755941361,0.0,0.0,-0.1,401.1221052631579,0.21527932322141122,0.86,nominal,10671.870322810722,nan,pitch_program,11.44,0.0,0.0
3.15,363.7891585204186,0.0,30.91928894600731,144.50566973774684,0.0,2.825498898278738,144.53329038798964,17.32787958784201,0.0,5.858958746175945,0.0,0.0,-0.7059072623165662,0.0,4.699171410567555,0.0,12757.461069340277,0.4248847047252589,144.5352798805835,2.148593899016859,1.2213679285899919,100954.11291430173,287.9490246218509,0.0,0.0,-0.1,401.08815789473687,0.21526110391511288,0.86,nominal,10748.15066013183,nan,pitch_program,11.425,0.0,0.0
3.1799999999999997,368.1399448673985,0.0,31.00598651304943,145.02621156599722,0.0,2.8899189014039934,145.05500223171236,17.321421754724557,0.0,5.880533031142486,0.0,0.0,-0.719142840714902,0.0,4.6994674324835,0.0,12849.625048139837,0.4264188873915187,145.05702897902725,2.149811960941447,1.2213577558220385,100953.07449610716,287.9484610876652,0.0,0.0,-0.1,401.0542105263158,0.2152428846088145,0.86,nominal,10824.541693859235,nan,pitch_program,11.410000000000002,0.0,0.0
3.21,372.50630779312263,0.0,31.094692883236075,145.54543085747068,0.0,2.9568790062215613,145.57546351272322,17.314964468186293,0.0,5.902480859225749,0.0,0.0,-0.7315942783880468,0.0,4.699279098372341,0.0,12941.895384751433,0.42794941092248634,145.57752901030247,2.151029732029156,1.2213473474157341,100952.01202646909,287.94788449625895,0.0,0.0,-0.1,401.0202631578947,0.21522466530251613,0.86,nominal,10901.042558435493,nan,pitch_program,11.395000000000001,0.0,0.0
3.2399999999999998,376.88820763949843,0.0,31.185483563595806,146.06332821252627,0.0,3.0263560119910613,146.09467710779708,17.308507728227216,0.0,5.9247801217742175,0.0,0.0,-0.743308760998269,0.0,4.698602000241367,0.0,13034.270054061355,0.4294762841432208,146.09678282027255,2.15224486723651,1.221336694516122,100950.92460163828,287.9472943568366,0.0,0.0,-0.1,400.9863157894737,0.21520644599621777,0.86,nominal,10977.652462004682,nan,pitch_program,11.38,0.0,0.0
3.27,381.2856047790701,0.0,31.278433326072445,146.5799046523897,0.0,3.09832541588797,146.61264634500802,17.30205153484733,0.0,5.947409966318821,0.0,0.0,-0.7543281612928832,0.0,4.697433205627338,0.0,13126.747122801326,0.4309995172054816,146.6147937057157,2.1534550891909507,1.2213257883548418,100949.81132671578,287.9466901833805,0.0,0.0,-0.1,400.9523684210526,0.2151882266899194,0.86,nominal,11054.370682320325,nan,pitch_program,11.365,0.0,0.0
3.3,385.69845962688595,0.0,31.373616171565075,147.09516159386152,0.0,3.1727615164210072,147.12937497306348,17.29559588804663,0.0,5.9703505762330975,0.0,0.0,-0.7646870073582439,0.0,4.695770994897993,0.0,13219.32474550131,0.4325191214975367,147.13156538373266,2.154658168981571,1.2213146202543586,100948.6713160851,287.9460714948848,0.0,0.0,-0.1,400.9184210526316,0.21517000738362105,0.86,nominal,11131.196563011037,nan,pitch_program,11.35,0.0,0.0
3.33,390.12673265176204,0.0,31.471105296426916,147.60910082920284,0.0,3.2496374953946874,147.64486713549255,17.289140787825122,0.0,5.9935831039015275,0.0,0.0,-0.7744175995583136,0.0,4.693614761346943,0.0,13312.001161188276,0.43403510956820407,147.647101965993,2.155851936698049,1.2213031816319067,100947.50369381513,287.9454378155732,0.0,0.0,-0.1,400.8844736842105,0.2151517880773227,0.86,nominal,11208.129510483828,nan,pitch_program,11.335,0.0,0.0
3.36,394.5703843869565,0.0,31.570973061449173,148.12172450648185,0.0,3.328925500741856,148.15912734544435,17.2826862341828,0.0,6.017089539721738,0.0,0.0,-0.7835478716640556,0.0,4.6909648475023635,0.0,13404.774690087512,0.4355474950526919,148.16140793359025,2.1570342727298493,1.2212914640031363,100946.3075940326,287.94478867510054,0.0,0.0,-0.1,400.85052631578947,0.21513356877102435,0.86,nominal,11285.168990854858,nan,pitch_program,11.32,0.0,0.0
3.3899999999999997,399.02937544034154,0.0,31.673290962970903,148.6330351128342,0.0,3.410596717390929,148.6721604632881,17.27623222711967,0.0,6.0408526176368245,0.0,0.0,-0.7921026085238323,0.0,4.68782242329447,0.0,13497.64373072706,0.4370562926066572,148.6744881146902,2.158203105555223,1.2212794589855178,100945.08216127011,287.94412360874065,0.0,0.0,-0.1,400.81657894736844,0.215115349464726,0.86,nominal,11362.314527232858,nan,pitch_program,11.305,0.0,0.0
3.42,403.5036665041282,0.0,31.77812960591284,149.14303545955516,0.0,3.4946214313980155,149.18397167604473,17.269778766635728,0.0,6.064855748137624,0.0,0.0,-0.8001043617285273,0.0,4.684189394869383,0.0,13590.606757282114,0.4385615178456385,149.18634766400442,2.1593564126644544,1.221267158301518,100943.82655079043,287.94344215756155,0.0,0.0,-0.1,400.78263157894736,0.21509713015842763,0.86,nominal,11439.565697219283,nan,pitch_program,11.29,0.0,0.0
3.4499999999999997,407.99321836417795,0.0,31.885558678617723,149.65172866832492,0.0,3.5809690901627227,149.694566478021,17.263325852730976,0.0,6.089082940991082,0.0,0.0,-0.8075731071478748,0.0,4.680068305138521,0.0,13683.662317053542,0.440063187288021,149.69699204346318,2.1604922167908227,1.2212545537815553,100942.53992888884,287.94274386858893,0.0,0.0,-0.1,400.74868421052633,0.21507891085212927,0.86,nominal,11516.922130536988,nan,pitch_program,11.275,0.0,0.0
3.48,412.49799190895015,0.0,31.995646929297447,150.15911815907347,0.0,3.6696083559907593,150.2039506530935,17.25687348540541,0.0,6.113518752926381,0.0,0.0,-0.8145270768561713,0.0,4.675462262290135,0.0,13776.809028168656,0.44156131830284207,150.20642700453317,2.1616085862827084,1.2212416373667858,100941.22147317762,287.9420282949595,0.0,0.0,-0.1,400.71473684210525,0.2150606915458309,0.86,nominal,11594.383506857666,nan,pitch_program,11.26,0.0,0.0
3.51,417.0179481381129,0.0,32.108462143986266,150.66520763875727,0.0,3.7605071562939925,150.71213025799344,17.250421664659036,0.0,6.13814823764375,0.0,0.0,-0.8209828365543841,0.0,4.670374872294713,0.0,13870.045577392484,0.4430559290605366,150.7146585715326,2.1627036340928796,1.2212284011116914,100939.87037285067,287.9412949960641,0.0,0.0,-0.1,400.6807894736842,0.21504247223953252,0.86,nominal,11671.949553735512,nan,pitch_program,11.245000000000001,0.0,0.0
3.54,421.5530481708459,0.0,32.2240711258827,151.1700010911005,0.0,3.853632729881095,151.21911160663566,17.24397039049185,0.0,6.162956902885374,0.0,0.0,-0.8269555209740996,0.0,4.664810180307476,0.0,13963.370718063044,0.4445470384867483,151.22169302598786,2.1637755170998765,1.2212148371865188,100938.4858289328,287.9405435376817,0.0,0.0,-0.1,400.64684210526315,0.21502425293323418,0.86,nominal,11749.620044656705,nan,pitch_program,11.23,0.0,0.0
3.57,426.10325325386043,0.0,32.34253967597959,151.67350276715052,0.0,3.9489516698960956,151.72490125535754,17.237519662903853,0.0,6.187930676146225,0.0,0.0,-0.8324591218747702,0.0,4.658772622287032,0.0,14056.783268130614,0.4460346662188127,151.72753689189702,2.164822436226949,1.2212009378795656,100937.06705451342,287.9397734921061,0.0,0.0,-0.1,400.61289473684207,0.21500603362693582,0.86,nominal,11827.394797187442,nan,pitch_program,11.215,0.0,0.0
3.5999999999999996,430.6685247691535,0.0,32.46393257490664,152.17571717643597,0.0,4.046429964235191,152.2295059888788,17.231069481895045,0.0,6.213055873004107,0.0,0.0,-0.8375065753502247,0.0,4.652266980454663,0.0,14150.282108270452,0.44751883256435815,152.2321969217121,2.1658426360634064,1.2211866955993151,100935.61327496498,287.9389844382631,0.0,0.0,-0.1,400.57894736842104,0.21498781432063746,0.86,nominal,11905.273671194753,nan,pitch_program,11.2,0.0,0.0
3.63,435.24882424151485,0.0,32.58831356590762,152.67664907871188,0.0,4.146033033365957,152.7329328069683,17.224619847465426,0.0,6.23831917158895,0.0,0.0,-0.842109966471547,0.0,4.645298346110935,0.0,14243.866180070252,0.44899955846198425,152.73568008302635,2.1668344050830424,1.221172102876451,100934.12372814855,287.93817596182157,0.0,0.0,-0.1,400.545,0.21496959501433913,0.86,nominal,11983.256567140055,nan,pitch_program,11.185,0.0,0.0
3.6599999999999997,439.844113345799,0.0,32.71574533889262,153.17630347613803,0.0,4.2477257661665595,153.23518891168078,17.218170759614996,0.0,6.26370759004563,0.0,0.0,-0.8462806290697608,0.0,4.637872086400401,0.0,14337.534484269972,0.4504768654436144,153.23799354582962,2.1677960757471055,1.221157152365736,100932.59766460636,287.9373476552972,0.0,0.0,-0.1,400.51105263157893,0.21495137570804074,0.86,nominal,12061.3434244269,nan,pitch_program,11.17,0.0,0.0
3.69,444.4543539139742,0.0,32.846289515509795,153.6746856058412,0.0,4.351472553906057,153.73628169512082,17.211722218343755,0.0,6.289208467377985,0.0,0.0,-0.8500292584437698,0.0,4.629993815341772,0.0,14431.286079049229,0.4519507755984005,153.7391446702899,2.1687260247495437,1.2211418368477733,100931.03434774169,287.9364991181492,0.0,0.0,-0.1,400.4771052631579,0.2149331564017424,0.86,nominal,12139.534219798043,nan,pitch_program,11.155,0.0,0.0
3.7199999999999998,449.07950794195784,0.0,32.98000663518872,154.1718009327874,0.0,4.457237322630858,154.23621872766876,17.205274223651703,0.0,6.314809447153226,0.0,0.0,-0.8533660067058717,0.0,4.621669368480788,0.0,14525.120078352387,0.45342131153798293,154.23914099499453,2.169622673355747,1.2211261492306547,100929.43305398746,287.93562995687125,0.0,0.0,-0.1,400.4431578947368,0.21491493709544401,0.86,nominal,12217.828965773611,nan,pitch_program,11.14,0.0,0.0
3.75,453.71953759624495,0.0,33.11695614211385,154.66765514290296,0.0,4.564983564170987,154.73500774661534,17.19882677553884,0.0,6.3404984633086166,0.0,0.0,-0.8563005528578067,0.0,4.612904780308254,0.0,14619.035650244143,0.45488849636295614,154.7379902256002,2.1704844877292553,1.2211100825515027,100927.79307296399,287.93473978507626,0.0,0.0,-0.1,400.4092105263158,0.21489671778914568,0.86,nominal,12296.227709123614,nan,pitch_program,11.125,0.0,0.0
3.78,458.37440522033705,0.0,33.25719637309068,155.16225413640436,0.0,4.674674365894272,155.23265664517012,17.192379874005166,0.0,6.366263728121343,0.0,0.0,-0.8588421748971485,0.0,4.603706264439321,0.0,14713.03201529051,0.4563523536304317,155.23570022385465,2.1713099793428112,1.2210936299778976,100926.11370762497,287.9338282235749,0.0,0.0,-0.1,400.3752631578947,0.21487849848284732,0.86,nominal,12374.73052937081,nan,pitch_program,11.11,0.0,0.0
3.81,463.04407334097573,0.0,33.40078454627219,155.6556040212883,0.0,4.7862724393836675,155.72917346180228,17.185933519050682,0.0,6.392093721699811,0.0,0.0,-0.8609998005312895,0.0,4.59408019583176,0.0,14807.108444959962,0.45781290732258145,155.73227899695036,2.172097705362816,1.2210767848092159,100924.39427439442,287.9328949004492,0.0,0.0,-0.1,400.34131578947364,0.21486027917654893,0.86,nominal,12453.337537318752,nan,pitch_program,11.095,0.0,0.0
3.84,467.72850467418436,0.0,33.54777675071609,156.1477111069538,0.0,4.899740148129832,156.22456636988915,17.179487710675385,0.0,6.417977182976869,0.0,0.0,-0.8627820572415233,0.0,4.5840330949762205,0.0,14901.264260041396,0.45927018181608686,156.2277346871852,2.1728462690638852,1.2210595404778644,100922.63410329283,287.93193945112034,0.0,0.0,-0.1,400.3073684210526,0.2148420598702506,0.86,nominal,12532.048873602362,nan,pitch_program,11.080000000000002,0.0,0.0
3.8699999999999997,472.4276621311221,0.0,33.698227936746775,156.63858189792415,0.0,5.015039534356158,156.7188436676453,17.17304244887928,0.0,6.44390310183935,0.0,0.0,-0.8641973101613926,0.0,4.573571613637501,0.0,14995.498829075359,0.4607242018524139,156.72207556190264,2.1735543202189,1.2210418905504121,100920.83253805318,287.9309615184111,0.0,0.0,-0.1,400.2734210526316,0.21482384056395223,0.86,nominal,12610.864707257822,nan,pitch_program,11.065000000000001,0.0,0.0
3.9,477.1415088237515,0.0,33.85219190709828,157.12822308764717,0.0,5.132132345050058,157.2120137683139,17.16659773366236,0.0,6.469860712293376,0.0,0.0,-0.8652536966003134,0.0,4.562702522008311,0.0,15089.811566796976,0.4621749925088625,157.2153100036938,2.174220555481531,1.2210238287286521,100918.98893622945,287.92996075260385,0.0,0.0,-0.1,400.2394736842105,0.21480562125765387,0.86,nominal,12689.78523431001,nan,pitch_program,11.05,0.0,0.0
3.9299999999999997,481.8700080703221,0.0,34.009721308816594,157.6166415523532,0.0,5.250980057277018,157.70408519060283,17.160153565024633,0.0,6.49583948645882,0.0,0.0,-0.8659591536838686,0.0,4.551432697031168,0.0,15184.201932587981,0.46362257917033656,157.70744650084333,2.174843718738493,1.2210053488505477,100917.10266929353,287.9289368114927,0.0,0.0,-0.1,400.2055263157895,0.21478740195135554,0.86,nominal,12768.810676375564,nan,pitch_program,11.035,0.0,0.0
