time_s,x_m,y_m,altitude_m,vx_mps,vy_mps,vz_mps,speed_mps,mass_kg,roll_deg,pitch_deg,yaw_deg,p_dps,q_dps,r_dps,alpha_deg,beta_deg,qbar_pa,mach,airspeed_mps,load_factor_g,density_kgpm3,pressure_pa,temperature_k,wind_x_mps,wind_y_mps,wind_z_mps,thrust_n,mass_flow_kgps,propulsion_throttle_actual,propulsion_health,energy_j_per_kg,target_distance_m,guidance_mode,pitch_command_deg,heading_command_deg,roll_command_deg,elevator_command_deg,aileron_command_deg,rudder_command_deg,elevator_deg,aileron_deg,rudder_deg,throttle,elevator_saturated,aileron_saturated,rudder_saturated,elevator_failed,aileron_failed,rudder_failed,elevator_raw_rad,aileron_raw_rad,rudder_raw_rad,elevator_effective_rad,aileron_effective_rad,rudder_effective_rad,sensor_time_s,imu_valid,imu_ax_mps2,imu_ay_mps2,imu_az_mps2,gyro_p_rps,gyro_q_rps,gyro_r_rps,imu_accel_norm_mps2,imu_gyro_norm_rps,gps_valid,gps_latency_s,gps_x_m,gps_y_m,gps_z_m,gps_vx_mps,gps_vy_mps,gps_vz_mps,baro_valid,baro_alt_m,baro_bias_m,pitot_valid,pitot_airspeed_mps,pitot_qbar_pa,pitot_compressibility_factor,mag_valid,mag_heading_deg,mag_x_ut,mag_y_ut,mag_z_ut,radar_valid,radar_agl_m,optical_flow_valid,optical_flow_x_radps,optical_flow_y_radps,optical_flow_quality,horizon_valid,horizon_roll_deg,horizon_pitch_deg
0.0,0.0,0.0,20.0,86.0,0.0,6.0,86.20904824900923,18.0,0.0,5.000000000000001,0.0,0.0,0.0,0.0,1.0090869015702202,0.0,4543.366193665201,0.2533941375411892,86.20904824900923,1.7400872986971718,1.2226496753673843,101084.96761777384,288.02,0.0,0.0,0.0,326.8,0.17539118863220368,0.86,nominal,3912.133,nan,pitch_program,12.000000000000002,0.0,0.0,-20.05352282957881,-0.0,0.0,-2.6999999999999997,0.0,0.0,0.86,0.0,0.0,0.0,0.0,0.0,0.0,-0.047123889803846894,0.0,0.0,-0.047123889803846894,0.0,0.0,0.0,1.0,17.08237503538411,0.01421251978619979,0.4606039154704186,0.000988985189910357,-0.0019892199963123243,0.0018790631541648138,17.08858960863007,0.0029096333509448656,1.0,0.0,0.11140188189044599,-0.7015888405932479,21.088827502213036,85.93905660319169,-0.1992551608878452,5.726199720431493,1.0,21.63744828955775,0.0,1.0,86.04135887015845,4540.488943892901,1.0,1.0,-0.3872112908568312,20.285917184876087,-0.05810378146905089,-43.53294942148529,1.0,19.6652227091265,1.0,0.011325112515340333,4.3119036874876056,0.95,1.0,0.14162985211495935,4.920871775750005
0.03,2.5952546510678514,0.0,20.1729526389325,86.50848836892838,0.0,5.765087964416636,86.70037369650997,17.994738264341034,0.0,5.234794727757629,0.0,0.0,-7.826501877873444,0.0,1.4221340050852367,0.0,4595.22483836377,0.2548387870971885,86.70037369650997,1.7690183208935115,1.2226293655258118,101082.89391600437,288.01887580784694,0.0,0.0,0.0,332.605,0.1785066900092231,0.86,nominal,3956.306485553827,nan,pitch_program,11.987142857142857,0.0,0.0,-1.7237007728769524,-0.0,0.0,-2.1142204637261712,0.0,0.0,0.86,0.0,0.0,0.0,0.0,0.0,0.0,-0.03690010820506303,0.0,0.0,-0.03690010820506303,0.0,0.0,0.03,1.0,17.30101891336794,0.09142314907086134,0.8633183045452172,0.0038147050867697574,-0.13711181919315737,-0.0012129072573747257,17.322786500094725,0.13717023759318603,1.0,0.0,0.11140188189044599,-0.7015888405932479,21.088827502213036,85.93905660319169,-0.1992551608878452,5.726199720431493,1.0,21.63744828955775,0.0,1.0,86.94125958655195,4541.168831358772,1.0,1.0,-0.3872112908568312,20.285917184876087,-0.05810378146905089,-43.53294942148529,1.0,19.6652227091265,1.0,0.011325112515340333,4.3119036874876056,0.95,1.0,0.14162985211495935,4.920871775750005
0.06,5.205963901329536,0.0,20.339300027015604,87.02364167538947,0.0,5.544912936103398,87.20011622650253,17.98938306364076,0.0,5.5739886936700085,0.0,0.0,-11.306498552012421,0.0,1.9281838985107471,0.0,4648.277161990505,0.25630816360489794,87.20011622650253,1.7985487209606494,1.2226098315828546,101080.89944367715,288.0177945498244,0.0,0.0,0.0,338.40999999999997,0.18162219138624247,0.86,nominal,4001.3905315677075,nan,pitch_program,11.974285714285715,0.0,0.0,-0.6603986788887833,-0.0,0.0,-1.2419273928237384,0.0,0.0,0.86,0.0,0.0,0.0,0.0,0.0,0.0,-0.021675722075483232,0.0,0.0,-0.021675722075483232,0.0,0.0,0.06,1.0,17.624259217894352,0.02059212434932021,1.4150318419537902,-0.0011672849717643367,-0.19684669543815833,0.0016964472024277798,17.680985609655995,0.1968574661836299,1.0,0.0,0.11140188189044599,-0.7015888405932479,21.088827502213036,85.93905660319169,-0.1992551608878452,5.726199720431493,1.0,19.96214357849143,0.0,1.0,87.38465983430888,4642.178501345409,1.0,1.0,0.19143410935638505,19.828318525465907,0.02235370497587244,-43.67878376597673,1.0,19.956755277720152,1.0,0.005241926403184264,4.283968102789299,0.949151749932461,1.0,-0.3560639179437177,5.386306522681548
0.09,7.832298701185458,0.0,20.49961879492696,87.54449332853072,0.0,5.3439589303784905,87.7074467146247,17.983934397899173,0.0,5.851985313410126,0.0,0.0,-9.266572170413179,0.0,2.358826313964668,0.0,4702.449468302384,0.25779983149452296,87.70744671462471,1.8288472840953747,1.222591005798339,101078.97728346949,288.01675247783294,0.0,0.0,0.0,344.215,0.18473769276326188,0.86,nominal,4047.330691254636,nan,pitch_program,11.961428571428572,0.0,0.0,-1.011164122557917,-0.0,0.0,-1.1034694306642456,0.0,0.0,0.86,0.0,0.0,0.0,0.0,0.0,0.0,-0.019259174760198366,0.0,0.0,-0.019259174760198366,0.0,0.0,0.09,1.0,17.834175976988224,0.056759778920092034,1.8238528765208033,-0.0012990572057890886,-0.16327230674357326,0.0023904089092338762,17.92728350213384,0.16329497161194137,1.0,0.0,0.11140188189044599,-0.7015888405932479,21.088827502213036,85.93905660319169,-0.1992551608878452,5.726199720431493,1.0,19.96214357849143,0.0,1.0,87.46461909282147,4758.999006129799,1.0,1.0,0.19143410935638505,19.828318525465907,0.02235370497587244,-43.67878376597673,1.0,19.956755277720152,1.0,0.005241926403184264,4.283968102789299,0.949151749932461,1.0,-0.3560639179437177,5.386306522681548
0.12,10.474445936356936,0.0,20.65435370132958,88.07157450571596,0.0,5.157830213420677,88.22247700232833,17.978392267116273,0.0,6.014824272248575,0.0,0.0,-5.4279689482699265,0.0,2.6631782684526857,0.0,4757.767778820667,0.2593141206218117,88.22247700232833,1.8593152849149013,1.2225728359213792,101077.12209967739,288.01574670094135,0.0,0.0,0.0,350.02,0.1878531941402813,0.86,nominal,4094.1527419383197,nan,pitch_program,11.948571428571428,0.0,0.0,-1.8759817280828814,-0.0,0.0,-1.5669768091154272,0.0,0.0,0.86,0.0,0.0,0.0,0.0,0.0,0.0,-0.0273489046214589,0.0,0.0,-0.0273489046214589,0.0,0.0,0.12,1.0,18.17788171399226,-0.04683370455903968,2.0018394381921514,0.0008338834782699445,-0.09619552933821729,0.001405286998677105,18.28783579705588,0.0962094073251873,1.0,0.0,0.11140188189044599,-0.7015888405932479,21.088827502213036,85.93905660319169,-0.1992551608878452,5.726199720431493,1.0,20.473024120968343,0.0,1.0,88.52517661942818,4772.196510113252,1.0,1.0,-0.2805873157507246,19.53524491328993,0.052281592078596305,-43.92681578047227,1.0,20.795846593341427,1.0,-0.0006856874808727849,4.257094158483174,0.948364115746676,1.0,0.34463731505732303,6.076755609808283
0.15,13.132623428929834,0.0,20.80377386601636,88.60591641909663,0.0,4.9806721562260305,88.74579155991422,17.972756671292064,0.0,6.101475655103521,0.0,0.0,-2.8883799790254687,0.0,2.8841792511258366,0.0,4814.309964566602,0.2608527495594302,88.74579155991424,1.8900053359506968,1.2225552903285153,101075.33066279205,288.01477546987087,0.0,0.0,0.0,355.825,0.1909686955173007,0.86,nominal,4141.923088781041,nan,pitch_program,11.935714285714285,0.0,0.0,-2.4586539633916344,-0.0,0.0,-2.1019831016811517,0.0,0.0,0.86,0.0,0.0,0.0,0.0,0.0,0.0,-0.03668652594561885,0.0,0.0,-0.03668652594561885,0.0,0.0,0.15,1.0,18.40308454167802,-0.06569288295801168,2.1690603790832,0.0003569088105535444,-0.050480953900121354,-0.00010933390041589887,18.5305871232168,0.050482333983949364,1.0,0.0,0.11140188189044599,-0.7015888405932479,21.088827502213036,85.93905660319169,-0.1992551608878452,5.726199720431493,1.0,20.473024120968343,0.0,1.0,88.69051946825203,4811.061597785345,1.0,1.0,-0.2805873157507246,19.53524491328993,0.052281592078596305,-43.92681578047227,1.0,20.795846593341427,1.0,-0.0006856874808727849,4.257094158483174,0.948364115746676,1.0,0.34463731505732303,6.076755609808283
0.18,15.80706747547757,0.0,20.948064084919928,89.14813488492452,0.0,4.8096739634521875,89.27778512651065,17.967027610426545,0.0,6.1654557323785415,0.0,0.0,-2.13266946410925,0.0,3.0772575501020105,0.0,4872.134957091147,0.2624168789694035,89.27778512651065,1.9211233388017523,1.2225383472999625,101073.60075455025,288.013837583448,0.0,0.0,0.0,361.63,0.19408419689432013,0.86,nominal,4190.691791206083,nan,pitch_program,11.922857142857143,0.0,0.0,-2.608007107463138,-0.0,0.0,-2.4055975051503435,0.0,0.0,0.86,0.0,0.0,0.0,0.0,0.0,0.0,-0.04198559694263474,0.0,0.0,-0.04198559694263474,0.0,0.0,0.18,1.0,18.668478645551488,-0.040344598285877165,2.2976980542886305,0.0015542492372452132,-0.03601512073292371,0.0029874636003795743,18.80938964918066,0.036172220706809546,1.0,0.0,0.11140188189044599,-0.7015888405932479,21.088827502213036,85.93905660319169,-0.1992551608878452,5.726199720431493,1.0,19.991996106447388,0.0,1.0,89.01848895367966,4897.42669691834,1.0,1.0,-1.0248223977983817,19.35277804901397,0.012557342853959213,-43.87368877689148,1.0,21.06968004263796,1.0,0.010298730724903176,4.268962384846108,0.9476298397877002,1.0,0.18454272483068826,6.436542866932904
0.21,18.498016961045888,0.0,21.087410365156206,89.69831618561055,0.0,4.644876007875893,89.81849920624539,17.961205084519715,0.0,6.228856306829531,0.0,0.0,-2.113352697340952,0.0,3.2645387318391355,0.0,4931.264191679682,0.2640066312532579,89.81849920624539,1.95263061238258,1.2225219849753384,101071.93014238428,288.01293183262646,0.0,0.0,0.0,367.435,0.19719969827133954,0.86,nominal,4240.478252688611,nan,pitch_program,11.91,0.0,0.0,-2.5735406621868293,-0.0,0.0,-2.5063633993722347,0.0,0.0,0.86,0.0,0.0,0.0,0.0,0.0,0.0,-0.04374429357052308,0.0,0.0,-0.04374429357052308,0.0,0.0,0.21,1.0,18.95101849970844,0.045886725210506844,2.483924764639151,-0.0011489502308364553,-0.03701422786107088,0.0018572109986174615,19.113165358051756,0.03707859737743056,1.0,0.0,17.046325164762006,2.1539115434048393,21.483323002654846,89.99924655618408,-0.011319481360851634,4.757090132326518,1.0,19.991996106447388,0.0,1.0,89.51494853093503,4825.682268678543,1.0,1.0,-1.0248223977983817,19.35277804901397,0.012557342853959213,-43.87368877689148,1.0,21.06968004263796,1.0,0.010298730724903176,4.268962384846108,0.9476298397877002,1.0,0.18454272483068826,6.436542866932904
0.24,21.205708139533563,0.0,21.222020050296525,90.25637261625587,0.0,4.4869895046772985,90.3678364942943,17.955289093571576,0.0,6.285850283413729,0.0,0.0,-1.8997993761263474,0.0,3.43980102619422,0.0,4991.704144549778,0.2656217208753353,90.36783649429428,1.9843259764926104,1.2225061789904685,101070.31633813608,288.0120568696731,0.0,0.0,0.0,373.24,0.20031519964835895,0.86,nominal,4291.289859255994,nan,pitch_program,11.897142857142857,0.0,0.0,-2.5911791264004838,-0.0,0.0,-2.557252835589184,0.0,0.0,0.86,0.0,0.0,0.0,0.0,0.0,0.0,-0.04463248178699249,0.0,0.0,-0.04463248178699249,0.0,0.0,0.24,1.0,19.24901861340105,0.004744190636815263,2.666817556611256,0.000306301684732536,-0.03398310585875843,-0.0023348955905986794,19.432875648412278,0.03406460100967937,1.0,0.0,17.046325164762006,2.1539115434048393,21.483323002654846,89.99924655618408,-0.011319481360851634,4.757090132326518,1.0,22.974766139923105,0.0,1.0,89.72546418624762,5017.987764226313,1.0,1.0,0.7476838625380618,19.257571781759307,-0.03978677103122809,-43.9284756746625,1.0,21.40448832679211,1.0,0.003855106168475802,4.251739023339099,0.9469449498742587,1.0,-0.4114056418596584,7.108215045120552
0.27,23.930377973376718,0.0,21.352099451782756,90.82232779477187,0.0,4.335980049540982,90.92577164396796,17.949279637582126,0.0,6.325559355287328,0.0,0.0,-1.3236357821011655,0.0,3.592257153774751,0.0,5053.469302849227,0.2672620738116485,90.92577164396796,2.0160383129314603,1.2224909051039314,101068.75686622964,288.0112113535634,0.0,0.0,0.0,379.045,0.20343070102537836,0.86,nominal,4343.140540614329,nan,pitch_program,11.884285714285713,0.0,0.0,-2.709118154555073,-0.0,0.0,-2.648372026968717,0.0,0.0,0.86,0.0,0.0,0.0,0.0,0.0,0.0,-0.046222811688320174,0.0,0.0,-0.046222811688320174,0.0,0.0,0.27,1.0,19.55575241813208,0.06873387830944926,2.783156211529272,0.0017306481288223445,-0.024892343363941336,-0.0021904605074801803,19.752927263650825,0.02504839352790875,1.0,0.0,17.046325164762006,2.1539115434048393,21.483323002654846,89.99924655618408,-0.011319481360851634,4.757090132326518,1.0,22.974766139923105,0.0,1.0,90.5333042222667,4983.9906249826745,1.0,1.0,0.7476838625380618,19.257571781759307,-0.03978677103122809,-43.9284756746625,1.0,21.40448832679211,1.0,0.003855106168475802,4.251739023339099,0.9469449498742587,1.0,-0.4114056418596584,7.108215045120552
0.3,26.672268326899886,0.0,21.477832123366294,91.39634511743895,0.0,4.191089052784584,91.4923883624992,17.943176716551363,0.0,6.345710506807538,0.0,0.0,-0.6717050575975976,0.0,3.720183081020063,0.0,5116.586562648079,0.26892793652350894,91.4923883624992,2.047731412829811,1.2224761417479466,101067.24952411422,288.0103940911981,0.0,0.0,0.0,384.84999999999997,0.20654620240239774,0.86,nominal,4396.054146529799,nan,pitch_program,11.871428571428572,0.0,0.0,-2.8569316101541675,-0.0,0.0,-2.7735077768799874,0.0,0.0,0.86,0.0,0.0,0.0,0.0,0.0,0.0,-0.04840684253622404,0.0,0.0,-0.04840684253622404,0.0,0.0,0.3,1.0,19.862721279233288,-0.0025178401198233413,3.0318028004508863,0.0008852196816652362,-0.01202406772226516,-0.001022367323784688,20.09277310818115,0.012099878239848906,1.0,0.0,17.046325164762006,2.1539115434048393,21.483323002654846,89.99924655618408,-0.011319481360851634,4.757090132326518,1.0,21.427874276319073,0.0,1.0,90.3152306917442,5104.54467733268,1.0,1.0,2.183263109379218,19.293126487412245,0.1184662254349714,-43.986420986792005,1.0,21.747505447121227,1.0,0.031701840707228736,4.274580412617686,0.9463054196915842,1.0,-0.2166379528392713,6.143475736765846
0.32999999999999996,29.43162678553464,0.0,21.599376493045455,91.97861528782515,0.0,4.0514789893053536,92.06780193024336,17.93698033047929,0.0,6.351426063746436,0.0,0.0,-0.19051856478794546,0.0,3.8292888217833823,0.0,5181.086890276646,0.27061964820762746,92.06780193024338,2.0794542234147344,1.2224618703062202,101065.79241062608,288.00960405279517,0.0,0.0,0.0,390.655,0.20966170377941715,0.86,nominal,4450.057601618786,nan,pitch_program,11.85857142857143,0.0,0.0,-2.9701318069980505,-0.0,0.0,-2.8914821949508256,0.0,0.0,0.86,0.0,0.0,0.0,0.0,0.0,0.0,-0.05046588456468446,0.0,0.0,-0.05046588456468446,0.0,0.0,0.32999999999999996,1.0,20.200306606065645,-0.08650425499922065,3.1313806255874224,-0.002208698967947825,-0.001741404103336582,0.0007656007214588456,20.4417566414312,0.0029149586355263395,1.0,0.0,17.046325164762006,2.1539115434048393,21.483323002654846,89.99924655618408,-0.011319481360851634,4.757090132326518,1.0,21.427874276319073,0.0,1.0,92.52129543375538,5170.016245306812,1.0,1.0,2.183263109379218,19.293126487412245,0.1184662254349714,-43.986420986792005,1.0,21.747505447121227,1.0,0.031701840707228736,4.274580412617686,0.9463054196915842,1.0,-0.2166379528392713,6.143475736765846
0.36,32.208704910930216,0.0,21.716875578539312,92.56927084651926,0.0,3.9166361831286367,92.65209087790319,17.930690479365907,0.0,6.348425082451474,0.0,0.0,0.10003270985497448,0.0,3.925666898106873,0.0,5246.997701147641,0.2723374399996327,92.65209087790319,2.111242208358652,1.2224480739730088,101064.38380949321,288.0088403087395,0.0,0.0,0.0,396.46,0.21277720515643656,0.86,nominal,4505.174769915899,nan,pitch_program,11.845714285714285,0.0,0.0,-3.0405485486608685,-0.0,0.0,-2.9809220071768516,0.0,0.0,0.86,0.0,0.0,0.0,0.0,0.0,0.0,-0.052026903770394095,0.0,0.0,-0.052026903770394095,0.0,0.0,0.36,1.0,20.43961813777554,-0.0006221015086256383,3.2540375781310127,0.0012055641439117526,0.007191629267071269,-0.0014805113435264394,20.697022746399586,0.007440754683390132,1.0,0.0,17.046325164762006,2.1539115434048393,21.483323002654846,89.99924655618408,-0.011319481360851634,4.757090132326518,1.0,21.143876477227334,0.0,1.0,91.93085978312095,5258.679799083983,1.0,1.0,0.926893308192642,19.278833195883497,-0.007981179086517892,-43.98430920955891,1.0,22.32031862484344,1.0,0.007806674029560399,4.263914838016228,0.9457078110536518,1.0,0.05519103641737052,6.666149117635414
0.39,35.00375645458167,0.0,21.830465490584682,93.16838478838189,0.0,3.7863304015123522,93.24529061558769,17.924307163211214,0.0,6.339321600133142,0.0,0.0,0.3034494112494301,0.0,4.012121887381944,0.0,5314.342009033379,0.2740814162719839,93.24529061558769,2.143082681251478,1.2224347367545603,101063.02208737926,288.00810197431116,0.0,0.0,0.0,402.265,0.21589270653345596,0.86,nominal,4561.4258453959455,nan,pitch_program,11.832857142857144,0.0,0.0,-3.092596795279305,-0.0,0.0,-3.047926880038324,0.0,0.0,0.86,0.0,0.0,0.0,0.0,0.0,0.0,-0.05319635941670698,0.0,0.0,-0.05319635941670698,0.0,0.0,0.39,1.0,20.772618844236383,0.03202324527787293,3.332444844374554,-0.0020436304631556374,0.004285694749849083,0.00056555860126917,21.038248686070833,0.0047815752101468875,1.0,0.0,17.046325164762006,2.1539115434048393,21.483323002654846,89.99924655618408,-0.011319481360851634,4.757090132326518,1.0,21.143876477227334,0.0,1.0,93.69977075830188,5332.290577656541,1.0,1.0,0.926893308192642,19.278833195883497,-0.007981179086517892,-43.98430920955891,1.0,22.32031862484344,1.0,0.007806674029560399,4.263914838016228,0.9457078110536518,1.0,0.05519103641737052,6.666149117635414
0.42,37.81703674851817,0.0,21.940277538488683,93.77600979788326,0.0,3.66040159679997,93.84742166656766,17.91783038201521,0.0,6.324391791379354,0.0,0.0,0.49766029460875605,0.0,4.089074387963719,0.0,5383.1415142011465,0.275851637628624,93.84742166656767,2.153084038973388,1.22242184322182,101061.70566863226,288.0073881959998,0.0,0.0,0.0,404.1773684210526,0.21691906078826353,0.86,nominal,4618.829899454096,nan,pitch_program,11.82,0.0,0.0,-3.1456075734022293,-0.0,0.0,-3.106535296056667,0.0,0.0,0.86,0.0,0.0,0.0,0.0,0.0,0.0,-0.054219269245605654,0.0,0.0,-0.054219269245605654,0.0,0.0,0.42,1.0,20.84868270380446,-0.06410200858412533,3.492413758470516,-0.0014322366621200033,0.007951487918617847,-0.0013729135286855469,21.139267570371825,0.00819526409174799,1.0,0.0,40.765243281226965,-2.9747188159285467,21.718843751943776,93.6602017114125,-0.02562489186334038,3.659020875510384,1.0,21.03828289460454,0.0,1.0,94.14475262687077,5356.448757490318,1.0,1.0,-1.9259249666437939,19.18578341712369,0.04938627174586668,-43.992620193362555,1.0,22.15296881224349,1.0,0.01215755747993498,4.255201871743555,0.9451493061537783,1.0,-0.21828317300431793,6.51001412819496
0.44999999999999996,40.64860853123129,0.0,22.046415241713753,94.38572609043743,0.0,3.537923440835604,94.45200999392387,17.911322810191564,0.0,6.303711856430373,0.0,0.0,0.6893311724495214,0.0,4.1570607358816725,0.0,5452.668401424141,0.2776290746977364,94.45200999392387,2.152181084688704,1.2224093812095014,101060.4333108546,288.00669830092886,0.0,0.0,0.0,404.14342105263154,0.21690084148196515,0.86,nominal,4676.7925739762995,nan,pitch_program,11.807142857142857,0.0,0.0,-3.2012081138673123,-0.0,0.0,-3.1633389867430544,0.0,0.0,0.86,0.0,0.0,0.0,0.0,0.0,0.0,-0.05521068067536755,0.0,0.0,-0.05521068067536755,0.0,0.0,0.44999999999999996,1.0,20.814950022418977,-0.025547885687780866,3.4924721520676245,0.001646581049793081,0.012574944425419043,-0.0013563986814435615,21.105927102670254,0.012754617745700457,1.0,0.0,40.765243281226965,-2.9747188159285467,21.718843751943776,93.6602017114125,-0.02562489186334038,3.659020875510384,1.0,21.03828289460454,0.0,1.0,94.2303227668607,5599.190382369961,1.0,1.0,-1.9259249666437939,19.18578341712369,0.04938627174586668,-43.992620193362555,1.0,22.15296881224349,1.0,0.01215755747993498,4.255201871743555,0.9451493061537783,1.0,-0.21828317300431793,6.51001412819496
0.48,43.498439188065745,0.0,22.148964198121924,94.99435522781525,0.0,3.418298546939086,95.05583774868515,17.904815784947104,0.0,6.278083820440451,0.0,0.0,0.854267880573573,0.0,4.217228623740834,0.0,5522.554217316848,0.27940426910557836,95.05583774868514,2.151307306155195,1.2223973406572686,101059.20398658398,288.0060317327122,0.0,0.0,0.0,404.1094736842105,0.2168826221756668,0.86,nominal,4735.01328480569,nan,pitch_program,11.794285714285714,0.0,0.0,-3.252903710499031,-0.0,0.0,-3.21707782099664,0.0,0.0,0.86,0.0,0.0,0.0,0.0,0.0,0.0,-0.056148600269276136,0.0,0.0,-0.056148600269276136,0.0,0.0,0.48,1.0,20.806123556563666,-0.034379127027057484,3.6816634986169023,0.0019368535746598246,0.0150598256411741,-0.000973833407350575,21.129377782897837,0.015215061669855614,1.0,0.0,40.765243281226965,-2.9747188159285467,21.718843751943776,93.6602017114125,-0.02562489186334038,3.659020875510384,1.0,22.120380312327725,0.0,1.0,95.11032457801934,5634.874655356841,1.0,1.0,0.6771720774836267,19.30508011593005,-0.10706663982121749,-43.98359319483994,1.0,22.339578822942702,1.0,0.017072148359275605,4.293937945221222,0.9446275895046952,1.0,-0.6448102250468786,6.100178003475072
0.51,46.366497735290366,0.0,22.24800377117702,95.60195157415411,0.0,3.3013191018365586,95.6589350379726,17.898309306281835,0.0,6.248674339089093,0.0,0.0,0.9803160665688635,0.0,4.2709268440006625,0.0,5592.800817280855,0.28117730937654184,95.65893503797257,2.1504659709033036,1.222385712237419,101058.01674317899,288.00538797548734,0.0,0.0,0.0,404.0755263157895,0.21686440286936848,0.86,nominal,4793.494312482144,nan,pitch_program,11.781428571428572,0.0,0.0,-3.297004717274018,-0.0,0.0,-3.265033958763067,0.0,0.0,0.86,0.0,0.0,0.0,0.0,0.0,0.0,-0.05698559276984028,0.0,0.0,-0.05698559276984028,0.0,0.0,0.51,1.0,20.811335047998988,0.00026455899341258356,3.7867393667265294,-0.0011964725875130916,0.019123351467241125,-0.0006564053285177824,21.153039062545574,0.019171984402967003,1.0,0.0,40.765243281226965,-2.9747188159285467,21.718843751943776,93.6602017114125,-0.02562489186334038,3.659020875510384,1.0,22.120380312327725,0.0,1.0,95.91186061162686,5646.746174141559,1.0,1.0,0.6771720774836267,19.30508011593005,-0.10706663982121749,-43.98359319483994,1.0,22.339578822942702,1.0,0.017072148359275605,4.293937945221222,0.9446275895046952,1.0,-0.6448102250468786,6.100178003475072
0.54,49.25275445470047,0.0,22.343608727456033,96.2085573136702,0.0,3.186831875967055,96.26132347824563,17.891803374195753,0.0,6.216427503726777,0.0,0.0,1.0748945404507133,0.0,4.319244085067853,0.0,5663.409149457287,0.2829482590703627,96.26132347824563,2.1496566587580506,1.2223744871625672,101056.87068318207,288.0047665432715,0.0,0.0,0.0,404.0415789473684,0.2168461835630701,0.86,nominal,4852.237149418828,nan,pitch_program,11.768571428571429,0.0,0.0,-3.3348388481897246,-0.0,0.0,-3.3069168924190615,0.0,0.0,0.86,0.0,0.0,0.0,0.0,0.0,0.0,-0.05771658786253173,0.0,0.0,-0.05771658786253173,0.0,0.0,0.54,1.0,20.74545184898442,0.048098580028499094,3.8382066231794574,-0.0023887544329169964,0.017115259171676823,0.0006294828520748582,21.09758080857022,0.017292613825431496,1.0,0.0,40.765243281226965,-2.9747188159285467,21.718843751943776,93.6602017114125,-0.02562489186334038,3.659020875510384,1.0,22.33737684363316,0.0,1.0,95.40604669916297,5700.292864731012,1.0,1.0,-1.0446435894470076,19.38137295915797,0.0016840829861581581,-43.94539758678644,1.0,22.456082175292316,1.0,0.008665747007294103,4.306167138986107,0.9441409781813599,1.0,0.16102366489970338,6.3535110999344395
0.57,52.157180617745155,0.0,22.435850349724895,96.81420543482287,0.0,3.0747207422953733,96.86301813189174,17.885297988688862,0.0,6.181909728330145,0.0,0.0,1.150592548021214,0.0,4.362865436778202,0.0,5734.379452097012,0.28471716247742623,96.86301813189174,2.148874068937662,1.2223636570549172,101055.76495097157,288.00416697272675,0.0,0.0,0.0,404.0076315789474,0.21682796425677175,0.86,nominal,4911.2426726417225,nan,pitch_program,11.755714285714285,0.0,0.0,-3.3692375854321215,-0.0,0.0,-3.3443093082268978,0.0,0.0,0.86,0.0,0.0,0.0,0.0,0.0,0.0,-0.05836920863365325,0.0,0.0,-0.05836920863365325,0.0,0.0,0.57,1.0,20.716229952901266,-0.05069117886285754,3.9226936597827455,0.0025892295499083413,0.018928557481124337,-0.0022344017829108494,21.08440842436889,0.019235044822038284,1.0,0.0,40.765243281226965,-2.9747188159285467,21.718843751943776,93.6602017114125,-0.02562489186334038,3.659020875510384,1.0,22.33737684363316,0.0,1.0,96.94614660328718,5793.821875122728,1.0,1.0,-1.0446435894470076,19.38137295915797,0.0016840829861581581,-43.94539758678644,1.0,22.456082175292316,1.0,0.008665747007294103,4.306167138986107,0.9441409781813599,1.0,0.16102366489970338,6.3535110999344395
0.6,55.07974834596267,0.0,22.524796883336975,97.41892427391717,0.0,2.9648844537360795,97.46403103971852,17.878793149761158,0.0,6.145500090574409,0.0,0.0,1.2136546326992927,0.0,4.402276715460044,0.0,5805.711650024091,0.2864840550030697,97.46403103971852,2.1481127934636244,1.2223532138938196,101054.69872740586,288.0035888202583,0.0,0.0,0.0,403.9736842105263,0.21680974495047337,0.86,nominal,4970.5114726115835,nan,pitch_program,11.742857142857144,0.0,0.0,-3.401550916466128,-0.0,0.0,-3.378654273170436,0.0,0.0,0.86,0.0,0.0,0.0,0.0,0.0,0.0,-0.05896864135340002,0.0,0.0,-0.05896864135340002,0.0,0.0,0.6,1.0,20.65588913800262,-0.04776757811930027,3.972947192128385,0.0027178250654590636,0.019436473156423502,-0.004512620966287809,21.034551272000428,0.020137696239445793,1.0,0.0,40.765243281226965,-2.9747188159285467,21.718843751943776,93.6602017114125,-0.02562489186334038,3.659020875510384,1.0,22.176650688183873,0.0,1.0,97.6906363564454,5897.754547268629,1.0,1.0,-0.4789557255683479,19.421154141710865,-0.00382860177692922,-43.92293326467763,1.0,22.458622177762187,1.0,0.021316720605905944,4.308389996613359,0.9436880077916575,1.0,-0.03751401384848972,5.9245335600167115
0.63,58.02043052388469,0.0,22.610513779405345,98.02273926406743,0.0,2.857229868945658,98.0643726098084,17.872288857412645,0.0,6.107571797282019,0.0,0.0,1.2642764892477356,0.0,4.437950307533001,0.0,5877.405509858645,0.2882489672503741,98.0643726098084,2.1473704021330264,1.2223431499871826,101053.67122690393,288.00303166043386,0.0,0.0,0.0,403.9397368421053,0.21679152564417503,0.86,nominal,5030.0439826324755,nan,pitch_program,11.73,0.0,0.0,-3.4316196804368486,-0.0,0.0,-3.4104335175302833,0.0,0.0,0.86,0.0,0.0,0.0,0.0,0.0,0.0,-0.0595232938012752,0.0,0.0,-0.0595232938012752,0.0,0.0,0.63,1.0,20.710307151713252,-0.007021102254339496,4.101105875280003,0.0012090523247497555,0.019824231497904868,0.0016463110019708706,21.11245937863323,0.01992918216891292,1.0,0.0,57.96117817114113,-0.2895424844230427,19.35902407392833,98.18808893435701,-0.03152220870634551,2.6600914071619943,1.0,22.176650688183873,0.0,1.0,98.16157155544828,5883.259662693592,1.0,1.0,-0.4789557255683479,19.421154141710865,-0.00382860177692922,-43.92293326467763,1.0,22.458622177762187,1.0,0.021316720605905944,4.308389996613359,0.9436880077916575,1.0,-0.03751401384848972,5.9245335600167115
0.6599999999999999,60.97920069620199,0.0,22.69306405890296,98.62567241057677,0.0,2.75167598325379,98.66405109843818,17.86578511164332,0.0,6.06851238511964,0.0,0.0,1.3019804558357189,0.0,4.470363270441495,0.0,5949.460571203083,0.29001192349524735,98.66405109843816,2.1466466208931583,1.2223334579287009,101052.6816930773,288.00249508361713,0.0,0.0,0.0,403.9057894736842,0.21677330633787664,0.86,nominal,5089.84042623085,nan,pitch_program,11.717142857142859,0.0,0.0,-3.4591081201142777,-0.0,0.0,-3.4396382790806803,0.0,0.0,0.86,0.0,0.0,0.0,0.0,0.0,0.0,-0.06003301304758946,0.0,0.0,-0.06003301304758946,0.0,0.0,0.6599999999999999,1.0,20.67499363410271,0.06931857074170071,4.188496724247559,-0.0003386704767009719,0.02358226936133959,0.0021454725822396895,21.095110135845932,0.023682085603335425,1.0,0.0,57.96117817114113,-0.2895424844230427,19.35902407392833,98.18808893435701,-0.03152220870634551,2.6600914071619943,1.0,22.352117445041145,0.0,1.0,99.09136465093255,5997.079741210494,1.0,1.0,-0.07013885321341759,19.549698933299055,0.0770420550587787,-43.85000349277941,1.0,22.575340914457158,1.0,-0.0009414935356189328,4.34385030281769,0.9432673398527426,1.0,0.11473033084677396,5.535620983304028
0.69,63.956032949465566,0.0,22.77250876710542,99.22774177545257,0.0,2.6481569400821243,99.26307205116714,17.859281912453184,0.0,6.0286633339377955,0.0,0.0,1.328301759604939,0.0,4.49993551094149,0.0,6021.876070672749,0.2917729400447658,99.26307205116714,2.145941268622046,1.22232413054447,101051.72939327898,288.00197869301377,0.0,0.0,0.0,403.8718421052631,0.21675508703157828,0.86,nominal,5149.900759618535,nan,pitch_program,11.704285714285714,0.0,0.0,-3.484209287366438,-0.0,0.0,-3.4663808840521346,0.0,0.0,0.86,0.0,0.0,0.0,0.0,0.0,0.0,-0.06049975955490155,0.0,0.0,-0.06049975955490155,0.0,0.0,0.69,1.0,20.58960959738601,-0.08740031323539292,4.225141013443861,0.003417155067797721,0.02394891097096257,-0.0007952418766311181,21.018836284890014,0.02420453872923041,1.0,0.0,57.96117817114113,-0.2895424844230427,19.35902407392833,98.18808893435701,-0.03152220870634551,2.6600914071619943,1.0,22.352117445041145,0.0,1.0,99.53430630212554,5993.664563022912,1.0,1.0,-0.07013885321341759,19.549698933299055,0.0770420550587787,-43.85000349277941,1.0,22.575340914457158,1.0,-0.0009414935356189328,4.34385030281769,0.9432673398527426,1.0,0.11473033084677396,5.535620983304028
0.72,66.95090180726157,0.0,22.848907364830154,99.8289619265337,0.0,2.5466199241577767,99.86143856548148,17.852779259842237,0.0,5.988289945394682,0.0,0.0,1.3457796737887358,0.0,4.5270012300898905,0.0,6094.6509638032085,0.2935320260102314,99.86143856548148,2.145253504429839,1.222315160847037,101050.8136139111,288.0014821021286,0.0,0.0,0.0,403.8378947368421,0.21673686772527995,0.86,nominal,5210.224693593027,nan,pitch_program,11.691428571428572,0.0,0.0,-3.507409746136764,-0.0,0.0,-3.490998201302912,0.0,0.0,0.86,0.0,0.0,0.0,0.0,0.0,0.0,-0.060929412793935614,0.0,0.0,-0.060929412793935614,0.0,0.0,0.72,1.0,20.577422529337763,-0.011476210613836418,4.339943455821956,-0.005319940272440017,0.024796086539706087,0.0006891251329282022,21.030110766566096,0.025369717492233844,1.0,0.0,57.96117817114113,-0.2895424844230427,19.35902407392833,98.18808893435701,-0.03152220870634551,2.6600914071619943,1.0,22.71021562490011,0.0,1.0,99.30058941954465,6035.46216844688,1.0,1.0,-1.1562856659181497,19.514830614421623,0.06482023080752466,-43.80539358044044,1.0,23.40585987845034,1.0,0.009836571636013498,4.344006359487949,0.9428777315879247,1.0,0.20725875569779917,6.153924533530106
0.75,69.96378215123417,0.0,22.922318001651178,100.42934479908648,0.0,2.447021227367488,100.45915194575846,17.84627715381048,0.0,5.947600683696849,0.0,0.0,1.3563087802633076,0.0,4.551830818652723,0.0,6167.783996367701,0.29528918523307607,100.45915194575846,2.1445823775620823,1.2223065420032881,101049.93365714606,288.00100493298925,0.0,0.0,0.0,403.80394736842106,0.21671864841898159,0.86,nominal,5270.811754661385,nan,pitch_program,11.678571428571429,0.0,0.0,-3.52906659142384,-0.0,0.0,-3.513839235375469,0.0,0.0,0.86,0.0,0.0,0.0,0.0,0.0,0.0,-0.06132806404306194,0.0,0.0,-0.06132806404306194,0.0,0.0,0.75,1.0,20.51240760944502,-0.0017917091056568128,4.427561925707989,0.0004914187573424716,0.02244406201806881,0.0032464220828635677,20.984808165723567,0.022682959873131445,1.0,0.0,57.96117817114113,-0.2895424844230427,19.35902407392833,98.18808893435701,-0.03152220870634551,2.6600914071619943,1.0,22.71021562490011,0.0,1.0,100.00136619973665,6191.488302096306,1.0,1.0,-1.1562856659181497,19.514830614421623,0.06482023080752466,-43.80539358044044,1.0,23.40585987845034,1.0,0.009836571636013498,4.344006359487949,0.9428777315879247,1.0,0.20725875569779917,6.153924533530106
0.78,72.99464915930514,0.0,22.992797720362315,101.02890026903259,0.0,2.3493239570379445,101.05621214267457,17.83977559435791,0.0,5.9067754066406355,0.0,0.0,1.3608426261162483,0.0,4.574660613017801,0.0,6241.2737519928605,0.29704441757697475,101.05621214267457,2.143927397853479,1.2222982673104392,101049.0888384743,288.0005468148176,0.0,0.0,0.0,403.77,0.21670042911268322,0.86,nominal,5331.661326077014,nan,pitch_program,11.665714285714285,0.0,0.0,-3.549317571222712,-0.0,0.0,-3.5351262368838143,0.0,0.0,0.86,0.0,0.0,0.0,0.0,0.0,0.0,-0.06169959230725957,0.0,0.0,-0.06169959230725957,0.0,0.0,0.78,1.0,20.537967793197762,-0.06781371378475642,4.525008923762506,0.0008063179923524863,0.021675336605794952,-0.0014482938548559922,21.030654424775662,0.021738627389265394,1.0,0.0,57.96117817114113,-0.2895424844230427,19.35902407392833,98.18808893435701,-0.03152220870634551,2.6600914071619943,1.0,23.37389877921697,0.0,1.0,101.3390141776448,6173.313800767669,1.0,1.0,-0.6277046595377741,19.58423692179607,0.06643482272329095,-43.81581730474359,1.0,23.56356255156275,1.0,-0.004707283612215783,4.377922103323814,0.9425180056990942,1.0,-0.04417467545859814,5.81214111409674
0.8099999999999999,76.04347825009143,0.0,23.060402646082434,101.62763635954296,0.0,2.2534975240039645,101.65261788620198,17.83327458148453,0.0,5.865974794850537,0.0,0.0,1.3600204504747209,0.0,4.595702785087837,0.0,6315.118663645088,0.2987977193192747,101.65261788620197,2.143288492856632,1.2222903301738066,101048.27848443443,288.0001073828004,0.0,0.0,0.0,403.73605263157896,0.21668220980638486,0.86,nominal,5392.7726591682995,nan,pitch_program,11.652857142857142,0.0,0.0,-3.5682324993495276,-0.0,0.0,-3.5549899943632424,0.0,0.0,0.86,0.0,0.0,0.0,0.0,0.0,0.0,-0.06204628027709323,0.0,0.0,-0.06204628027709323,0.0,0.0,0.8099999999999999,1.0,20.512998287737936,0.02156082937765524,4.64457487595047,0.002960550429296416,0.025399192142736195,0.004053366781907528,21.032252361561593,0.02589041526543579,1.0,0.0,57.96117817114113,-0.2895424844230427,19.35902407392833,98.18808893435701,-0.03152220870634551,2.6600914071619943,1.0,23.37389877921697,0.0,1.0,101.87135070471656,6278.302735360635,1.0,1.0,-0.6277046595377741,19.58423692179607,0.06643482272329095,-43.81581730474359,1.0,23.56356255156275,1.0,-0.004707283612215783,4.377922103323814,0.9425180056990942,1.0,-0.04417467545859814,5.81214111409674
0.84,79.11024503114217,0.0,23.125188167095747,102.22555936835825,0.0,2.159517367110438,102.24836675190753,17.82677411519034,0.0,5.825336681203699,0.0,0.0,1.3546038450154623,0.0,4.615141981312548,0.0,6389.317017375273,0.300549083346372,102.24836675190753,2.14266567780174,1.2222827240855612,101047.50193044345,287.99968627691385,0.0,0.0,0.0,403.7021052631579,0.2166639905000865,0.86,nominal,5454.144878255144,nan,pitch_program,11.64,0.0,0.0,-3.585924489789179,-0.0,0.0,-3.5735506916188045,0.0,0.0,0.86,0.0,0.0,0.0,0.0,0.0,0.0,-0.062370225555668665,0.0,0.0,-0.062370225555668665,0.0,0.0,0.84,1.0,20.460881035426524,-0.052457408029437345,4.6788782884308455,0.001067942769418286,0.023529093427939674,-0.0006961169280190413,20.98909970826485,0.023563601551480653,1.0,0.0,79.03916778596422,-3.669360176335259,23.95199377632533,102.32979586253984,0.02994665883249877,2.14211833738743,1.0,24.0422195868552,0.0,1.0,102.00543652363598,6367.804925395054,1.0,1.0,0.6671738307441417,19.776015200198177,-0.07576789622443676,-43.81696155904341,1.0,23.34639947527265,1.0,-0.0067562565785145605,4.401851883479192,0.9421870295822606,1.0,0.003925230021731714,5.389923276336442
0.87,82.19492525372354,0.0,23.187209090985355,102.82267408604557,0.0,2.067364129653599,102.84345531267279,17.82027419547534,0.0,5.78497438486874,0.0,0.0,1.3454099334710983,0.0,4.6331342607035095,0.0,6463.866967112668,0.30229849960011473,102.84345531267279,2.1420588998751495,1.2222754426063822,101046.75851892328,287.9992831409086,0.0,0.0,0.0,403.66815789473685,0.21664577119378817,0.86,nominal,5515.776994356974,nan,pitch_program,11.627142857142857,0.0,0.0,-3.6025341992212714,-0.0,0.0,-3.590940796180284,0.0,0.0,0.86,0.0,0.0,0.0,0.0,0.0,0.0,-0.06267374013753257,0.0,0.0,-0.06267374013753257,0.0,0.0,0.87,1.0,20.389825613483485,0.004452015257319473,4.760654922658787,-0.0006146842364827338,0.025716538775072982,0.0002176097125140277,20.938214911050615,0.025724804319321712,1.0,0.0,79.03916778596422,-3.669360176335259,23.95199377632533,102.32979586253984,0.02994665883249877,2.14211833738743,1.0,24.0422195868552,0.0,1.0,103.2614485307265,6478.772016325299,1.0,1.0,0.6671738307441417,19.776015200198177,-0.07576789622443676,-43.81696155904341,1.0,23.34639947527265,1.0,-0.0067562565785145605,4.401851883479192,0.9421870295822606,1.0,0.003925230021731714,5.389923276336442
0.8999999999999999,85.29749477535407,0.0,23.246519769722404,103.41898405435103,0.0,1.9770226245682743,103.4378793348557,17.813774822339525,0.0,5.744981093431687,0.0,0.0,1.333109768695294,0.0,4.649812176170539,0.0,6538.766555765136,0.3040459556547545,103.4378793348557,2.1414681035205647,1.2222684793507592,101046.04759779954,287.9988976214968,0.0,0.0,0.0,403.6342105263158,0.2166275518874898,0.86,nominal,5577.667923745832,nan,pitch_program,11.614285714285714,0.0,0.0,-3.618176984382616,-0.0,0.0,-3.607282509101683,0.0,0.0,0.86,0.0,0.0,0.0,0.0,0.0,0.0,-0.06295895683342669,0.0,0.0,-0.06295895683342669,0.0,0.0,0.8999999999999999,1.0,20.437040034263443,0.005091857072129036,4.805123425034766,0.0007052006663567407,0.024503825067033774,0.0004326371754738926,20.994328815632876,0.024517787947146145,1.0,0.0,79.03916778596422,-3.669360176335259,23.95199377632533,102.32979586253984,0.02994665883249877,2.14211833738743,1.0,23.46215222449714,0.0,1.0,103.26157990211442,6522.998934362953,1.0,1.0,1.8726474759458809,19.703322980395576,0.05777671323278474,-43.708348283615436,1.0,23.291537408164725,1.0,0.008640461770223259,4.445707673811043,0.941883700575694,1.0,0.23864947538422865,5.398238788408488
0.9299999999999999,88.41792952847267,0.0,23.30317420181134,104.01449177062027,0.0,1.88848106963119,104.0316339343509,17.8072759957829,0.0,5.705435291971775,0.0,0.0,1.3181934343273782,0.0,4.665290728284536,0.0,6614.013732095226,0.3057914371759621,104.0316339343509,2.14089331083859,1.2222618279749806,101045.36851927494,287.9985293676882,0.0,0.0,0.0,403.6002631578947,0.21660933258119142,0.86,nominal,5639.816502811587,nan,pitch_program,11.601428571428572,0.0,0.0,-3.6329311460248577,-0.0,0.0,-3.6226716912555883,0.0,0.0,0.86,0.0,0.0,0.0,0.0,0.0,0.0,-0.06322754873120148,0.0,0.0,-0.06322754873120148,0.0,0.0,0.9299999999999999,1.0,20.426930466686287,0.043431825049913615,4.905432469188711,-0.0011535177192977509,0.018800192234737154,-0.001821824955904986,21.00772815713385,0.018923447819088446,1.0,0.0,79.03916778596422,-3.669360176335259,23.95199377632533,102.32979586253984,0.02994665883249877,2.14211833738743,1.0,23.46215222449714,0.0,1.0,104.01215280015481,6700.067602035737,1.0,1.0,1.8726474759458809,19.703322980395576,0.05777671323278474,-43.708348283615436,1.0,23.291537408164725,1.0,0.008640461770223259,4.445707673811043,0.941883700575694,1.0,0.23864947538422865,5.398238788408488
0.96,91.55620549327126,0.0,23.357226120481357,104.60919882662003,0.0,1.80173062233386,104.62471367885685,17.800777715805463,0.0,5.666403492581637,0.0,0.0,1.3010600299874635,0.0,4.679670435873835,0.0,6689.606361410164,0.30753492822168965,104.62471367885685,2.140334606699228,1.2222554821667695,101044.72063877065,287.9981780302168,0.0,0.0,0.0,403.56631578947366,0.21659111327489305,0.86,nominal,5702.221497725806,nan,pitch_program,11.588571428571429,0.0,0.0,-3.646858903863693,-0.0,0.0,-3.6371840188204514,0.0,0.0,0.86,0.0,0.0,0.0,0.0,0.0,0.0,-0.06348083662933628,0.0,0.0,-0.06348083662933628,0.0,0.0,0.96,1.0,20.326266401382497,0.01212089030896153,5.022267052141526,-0.0005616662321371039,0.01908116045365957,-0.0023788195122700167,20.937536127228036,0.0192370719052194,1.0,0.0,79.03916778596422,-3.669360176335259,23.95199377632533,102.32979586253984,0.02994665883249877,2.14211833738743,1.0,23.440834401730065,0.0,1.0,104.84262436518404,6652.915306057831,1.0,1.0,1.2701259009089658,19.781542971098148,-0.03508464136893619,-43.730121070321815,1.0,23.058833211990645,1.0,-0.007435199087661565,4.4802591710689095,0.9416069346987966,1.0,-0.16655817806543646,6.0784963673307
0.99,94.71229867395772,0.0,23.408729070337444,105.20310602288184,0.0,1.7167649952028983,105.21711267142085,17.794279982407215,0.0,5.62794111058471,0.0,0.0,1.282079448043712,0.0,4.693038496999149,0.0,6765.54223430013,0.30927641148797314,105.21711267142086,2.139792082563587,1.2222494356362763,101044.1033140062,287.99784326104276,0.0,0.0,0.0,403.53236842105264,0.21657289396859472,0.86,nominal,5764.88161239286,nan,pitch_program,11.575714285714287,0.0,0.0,-3.6600213567434237,-0.0,0.0,-3.650886421574235,0.0,0.0,0.86,0.0,0.0,0.0,0.0,0.0,0.0,-0.06371998867282413,0.0,0.0,-0.06371998867282413,0.0,0.0,0.99,1.0,20.307700322075497,0.028317578975075315,5.031375686022899,0.0021692599251646174,0.02506343827943478,-0.0014056166651458266,20.92171684041266,0.025196376430338105,1.0,0.0,79.03916778596422,-3.669360176335259,23.95199377632533,102.32979586253984,0.02994665883249877,2.14211833738743,1.0,23.440834401730065,0.0,1.0,105.95338325086473,6831.394284410069,1.0,1.0,1.2701259009089658,19.781542971098148,-0.03508464136893619,-43.730121070321815,1.0,23.058833211990645,1.0,-0.007435199087661565,4.4802591710689095,0.9416069346987966,1.0,-0.16655817806543646,6.0784963673307
1.02,97.8861850784324,0.0,23.4577364716211,105.79621348248968,0.0,1.6335800427885379,105.80882463664705,17.787782795588157,0.0,5.5900935309225925,0.0,0.0,1.261586034611192,0.0,4.70547014523752,0.0,6841.819076095117,0.31101586856252855,105.80882463664705,2.139265812654104,1.2222436821085108,101043.51590422672,287.9975247129344,0.0,0.0,0.0,403.49842105263156,0.21655467466229633,0.86,nominal,5827.795496863787,nan,pitch_program,11.562857142857142,0.0,0.0,-3.6724763067313666,-0.0,0.0,-3.6638403526685135,0.0,0.0,0.86,0.0,0.0,0.0,0.0,0.0,0.0,-0.06394607742149577,0.0,0.0,-0.06394607742149577,0.0,0.0,1.02,1.0,20.370769534756622,-0.018433216260880875,5.064069166306294,-0.0008137255452803577,0.019368491097405304,0.0004376194979424285,20.990792927918765,0.01939051591573287,1.0,0.0,79.03916778596422,-3.669360176335259,23.95199377632533,102.32979586253984,0.02994665883249877,2.14211833738743,1.0,22.72548067179671,0.0,1.0,105.76788100092513,6682.892404184793,1.0,1.0,2.228262624781329,19.735770479944684,0.001964563342723118,-43.69849951505549,1.0,23.694807297459416,1.0,0.015591526997094967,4.497723836195931,0.9413556588209473,1.0,0.2430916353492683,5.697424986717666
1.05,101.07784070115274,0.0,23.50430167268746,106.38852075734448,0.0,1.5521733688787602,106.39984300318761,17.781286155348287,0.0,5.5528977697399275,0.0,0.0,1.2398587496332398,0.0,4.71703057997027,0.0,6918.434556223261,0.31275328016739107,106.39984300318761,2.1387558636306028,1.2222382153171818,101042.9577695732,287.9972220391275,0.0,0.0,0.0,403.46447368421053,0.216536455355998,0.86,nominal,5890.961755549946,nan,pitch_program,11.55,0.0,0.0,-3.684272373669801,-0.0,0.0,-3.6760995652692863,0.0,0.0,0.86,0.0,0.0,0.0,0.0,0.0,0.0,-0.06416004104508123,0.0,0.0,-0.06416004104508123,0.0,0.0,1.05,1.0,20.34628949654823,0.050739489062825494,5.151506219046445,-0.0014222981398267444,0.02129086853482336,-0.0013427473321167547,20.98837981117107,0.02138052818252142,1.0,0.0,101.55819681685144,0.8089325641884302,22.092406105570113,106.30632167322453,-0.1378270317589797,1.629222778862828,1.0,22.72548067179671,0.0,1.0,106.99521586798713,6954.191101525481,1.0,1.0,2.228262624781329,19.735770479944684,0.001964563342723118,-43.69849951505549,1.0,23.694807297459416,1.0,0.015591526997094967,4.497723836195931,0.9413556588209473,1.0,0.2430916353492683,5.697424986717666
1.08,104.28724150863766,0.0,23.54847799301727,106.98002691616433,0.0,1.4725440109935721,106.99016097215463,17.774790061687607,0.0,5.51638400354762,0.0,0.0,1.2171255809364703,0.0,4.727776713330316,0.0,6995.386296094161,0.3144886263601419,106.99016097215461,2.138262302470008,1.2222330289996257,101042.42827056478,287.99693489304536,0.0,0.0,0.0,403.43052631578945,0.21651823604969964,0.86,nominal,5954.378954134002,nan,pitch_program,11.537142857142857,0.0,0.0,-3.695449246463219,-0.0,0.0,-3.687709373985646,0.0,0.0,0.86,0.0,0.0,0.0,0.0,0.0,0.0,-0.06436267043270845,0.0,0.0,-0.06436267043270845,0.0,0.0,1.08,1.0,20.231199079500104,0.06507131756540041,5.280222245113967,0.0006410331502114088,0.01833880446179441,-0.003423662041902447,20.909002784172465,0.018666658360959095,1.0,0.0,101.55819681685144,0.8089325641884302,22.092406105570113,106.30632167322453,-0.1378270317589797,1.629222778862828,1.0,23.652411520059843,0.0,1.0,106.51774635950521,7021.932617950401,1.0,1.0,0.7737687936948424,19.916024961685988,0.0022988743313570917,-43.66624571005789,1.0,23.09260788915729,1.0,0.007843023665812304,4.529800963260191,0.9411288050174569,1.0,0.022254860809549203,5.076804228721408
1.1099999999999999,107.51436342711314,0.0,23.59031875876989,107.57073061584939,0.0,1.3946921917540072,107.57977157224947,17.768294514606115,0.0,5.480576582060371,0.0,0.0,1.1935807550898767,0.0,4.737758357521232,0.0,7072.671875539017,0.31622188669607243,107.57977157224948,2.1377851894539512,1.2222281168926297,101041.92676767166,287.99666292806796,0.0,0.0,0.0,403.3965789473684,0.21650001674340127,0.86,nominal,6018.045625224378,nan,pitch_program,11.524285714285714,0.0,0.0,-3.706041422100011,-0.0,0.0,-3.698708602854265,0.0,0.0,0.86,0.0,0.0,0.0,0.0,0.0,0.0,-0.06455464319164626,0.0,0.0,-0.06455464319164626,0.0,0.0,1.1099999999999999,1.0,20.235477644437974,0.014766145577709128,5.332171794046298,0.0012193695060839075,0.019549174908345505,-0.0019554925006107127,20.92622349060688,0.01968453841240372,1.0,0.0,101.55819681685144,0.8089325641884302,22.092406105570113,106.30632167322453,-0.1378270317589797,1.629222778862828,1.0,23.652411520059843,0.0,1.0,107.50401369031086,7052.803082446228,1.0,1.0,0.7737687936948424,19.916024961685988,0.0022988743313570917,-43.66624571005789,1.0,23.09260788915729,1.0,0.007843023665812304,4.529800963260191,0.9411288050174569,1.0,0.022254860809549203,5.076804228721408
1.14,110.75918233201547,0.0,23.629877331808032,108.16063016341083,0.0,1.3186191012714295,108.16866770779963,17.761799514103814,0.0,5.445494757549178,0.0,0.0,1.169394186907245,0.0,4.7470191061288505,0.0,7150.288838557405,0.31795304036948024,108.16866770779963,2.1373245684611653,1.2222234727290076,101041.45262096538,287.99640579734324,0.0,0.0,0.0,403.3626315789474,0.21648179743710294,0.86,nominal,6081.960273376162,nan,pitch_program,11.51142857142857,0.0,0.0,-3.716080162647442,-0.0,0.0,-3.7091315387301718,0.0,0.0,0.86,0.0,0.0,0.0,0.0,0.0,0.0,-0.06473655774040507,0.0,0.0,-0.06473655774040507,0.0,0.0,1.14,1.0,20.20155845699864,0.02321015744087059,5.333466243263675,0.0032967124718470743,0.01888902052665296,-0.0018795177148623384,20.893763781831527,0.019266447426000213,1.0,0.0,101.55819681685144,0.8089325641884302,22.092406105570113,106.30632167322453,-0.1378270317589797,1.629222778862828,1.0,24.012174510920474,0.0,1.0,107.40657132688777,7035.2204111860465,1.0,1.0,-0.23541301893780128,20.028712341601466,-0.05287050166801633,-43.63249819586954,1.0,23.67261929224232,1.0,0.004738532693969231,4.557334483799538,0.9409253066704799,1.0,0.285201493971139,5.210834066265535
1.17,114.02167403916383,0.0,23.667207132751066,108.74972357161165,0.0,1.244326698101098,108.75684220238078,17.7553050601807,0.0,5.41115339782395,0.0,0.0,1.1447120251101632,0.0,4.755597184036778,0.0,7228.234698690186,0.3196820663419722,108.75684220238078,2.136880464380097,1.2222190902348862,101041.00518984125,287.9961631536371,0.0,0.0,0.0,403.3286842105263,0.21646357813080455,0.86,nominal,6146.121379745171,nan,pitch_program,11.498571428571429,0.0,0.0,-3.7255932350290535,-0.0,0.0,-3.719008556509501,0.0,0.0,0.86,0.0,0.0,0.0,0.0,0.0,0.0,-0.06490894422093238,0.0,0.0,-0.06490894422093238,0.0,0.0,1.17,1.0,20.31519360968884,-0.04875057647929631,5.504896702730093,-0.00048602473611915006,0.022223029893035477,0.00037588878698601114,21.04788245229382,0.02223152199133136,1.0,0.0,101.55819681685144,0.8089325641884302,22.092406105570113,106.30632167322453,-0.1378270317589797,1.629222778862828,1.0,24.012174510920474,0.0,1.0,108.85286118131786,7491.536165875169,1.0,1.0,-0.23541301893780128,20.028712341601466,-0.05287050166801633,-43.63249819586954,1.0,23.67261929224232,1.0,0.004738532693969231,4.557334483799538,0.9409253066704799,1.0,0.285201493971139,5.210834066265535
1.2,117.30181429738884,0.0,23.702361658826078,109.33800860750043,0.0,1.1718175358337026,109.34428783704764,17.748811152836776,0.0,5.377563679765028,0.0,0.0,1.119657300698719,0.0,4.763526259767614,0.0,7306.506943864636,0.3214089434549031,109.34428783704764,2.1364528846090773,1.222214963127597,101040.58383280296,287.9959346492176,0.0,0.0,0.0,403.2947368421053,0.21644535882450622,0.86,nominal,6210.52740625709,nan,pitch_program,11.485714285714286,0.0,0.0,-3.7346046869529994,-0.0,0.0,-3.7283662347756,0.0,0.0,0.86,0.0,0.0,0.0,0.0,0.0,0.0,-0.06507226651701813,0.0,0.0,-0.06507226651701813,0.0,0.0,1.2,1.0,20.183658260810912,0.01990999186411493,5.529516049935192,0.0014250376745710198,0.018300133256703096,-0.0008963054192959681,20.927398427503295,0.01837740386974441,1.0,0.0,101.55819681685144,0.8089325641884302,22.092406105570113,106.30632167322453,-0.1378270317589797,1.629222778862828,1.0,24.663579596694003,0.0,1.0,109.7522501551522,7177.453477915302,1.0,1.0,1.733303350845767,20.020719937273487,-0.044839315271622146,-43.603615382281674,1.0,23.142849294470153,1.0,0.0008907922308650601,4.594755958958654,0.9407440958529348,1.0,0.09629121747350551,5.256940950500402
1.23,120.5995787823938,0.0,23.73539449737286,109.92548283349856,0.0,1.1010946182259935,109.93099738261303,17.74231779207204,0.0,5.344733664919039,0.0,0.0,1.0943338581405848,0.0,4.7708361209752095,0.0,7385.103040608489,0.32313365052430637,109.93099738261306,2.1360418189908112,1.222211085114084,101040.1879072996,287.99571993576706,0.0,0.0,0.0,403.26078947368416,0.2164271395182078,0.86,nominal,6275.176799215698,nan,pitch_program,11.472857142857142,0.0,0.0,-3.74313550924555,-0.0,0.0,-3.73722779945757,0.0,0.0,0.86,0.0,0.0,0.0,0.0,0.0,0.0,-0.06522692999759695,0.0,0.0,-0.06522692999759695,0.0,0.0,1.23,1.0,20.139687251332006,-0.030657478426395733,5.594052715059331,0.0006763535546386965,0.0181728567302046,0.001228557107569541,20.902185728801452,0.01822689025681492,1.0,0.0,101.55819681685144,0.8089325641884302,22.092406105570113,106.30632167322453,-0.1378270317589797,1.629222778862828,1.0,24.663579596694003,0.0,1.0,110.03417386434742,7393.255227054462,1.0,1.0,1.733303350845767,20.020719937273487,-0.044839315271622146,-43.603615382281674,1.0,23.142849294470153,1.0,0.0008907922308650601,4.594755958958654,0.9407440958529348,1.0,0.09629121747350551,5.256940950500402
1.26,123.91494309166714,0.0,23.766359335665676,110.51214364244449,0.0,1.032161276427249,110.5169636270778,17.735824977886494,0.0,5.312668750797234,0.0,0.0,1.0688304986228712,0.0,4.777553210817929,0.0,7464.02043775089,0.3248561664215586,110.5169636270778,2.135647237963658,1.222207449889735,101039.81676960608,287.9955186643181,0.0,0.0,0.0,403.22684210526313,0.21640892021190947,0.86,nominal,6340.067992453525,nan,pitch_program,11.46,0.0,0.0,-3.751204420535432,-0.0,0.0,-3.7456137721042873,0.0,0.0,0.86,0.0,0.0,0.0,0.0,0.0,0.0,-0.06537329283126435,0.0,0.0,-0.06537329283126435,0.0,0.0,1.26,1.0,20.128242653616734,-0.0004340831347447248,5.68723957801489,-0.0002766262515115177,0.018076478159193016,-0.0015963300319073032,20.916281852400136,0.01814893534876293,1.0,0.0,125.32142385248822,0.4485061118564023,21.45912873609321,110.34881127205213,-0.06656021789848114,1.0981399629362845,1.0,24.09035605836981,0.0,1.0,110.81569263680785,7483.657096726873,1.0,1.0,-0.06113834604444338,20.059613791517183,0.055090483918756074,-43.60955762238076,1.0,23.676646975388852,1.0,0.004596931728299501,4.632419188178326,0.9405841016608358,1.0,-0.4990868342499308,5.436315247849779
1.29,127.24788274030972,0.0,23.795309967521174,111.09798828808614,0.0,0.9650210618499225,111.10217939945885,17.729332710280136,0.0,5.28137205487837,0.0,0.0,1.043223223234109,0.0,4.7837010861298435,0.0,7543.256569754868,0.3265764701434472,111.10217939945885,2.1352690914245858,1.222204051137604,101039.46977474335,287.99533048521107,0.0,0.0,0.0,403.1928947368421,0.21639070090561113,0.86,nominal,6405.19941014776,nan,pitch_program,11.447142857142858,0.0,0.0,-3.758828214373172,-0.0,0.0,-3.7535424374656183,0.0,0.0,0.86,0.0,0.0,0.0,0.0,0.0,0.0,-0.0655116741471084,0.0,0.0,-0.0655116741471084,0.0,0.0,1.29,1.0,20.095240823856038,0.009634035050253823,5.784845213912519,-0.0005409071168530564,0.016998121700373514,-1.8378517530172108e-05,20.911318244728815,0.01700673571323074,1.0,0.0,125.32142385248822,0.4485061118564023,21.45912873609321,110.34881127205213,-0.06656021789848114,1.0981399629362845,1.0,24.09035605836981,0.0,1.0,111.63226823609924,7467.333706230624,1.0,1.0,-0.06113834604444338,20.059613791517183,0.055090483918756074,-43.60955762238076,1.0,23.676646975388852,1.0,0.004596931728299501,4.632419188178326,0.9405841016608358,1.0,-0.4990868342499308,5.436315247849779
1.3199999999999998,130.59837315765833,0.0,23.822300297108868,111.6830139116202,0.0,0.8996776529230777,111.68663759045806,17.72284098925297,0.0,5.25084476018657,0.0,0.0,1.0175765137989496,0.0,4.789300827593523,0.0,7622.808859722805,0.3282945408729402,111.68663759045806,2.1349073089114623,1.2222008825279485,101039.14627643104,287.9951550480688,0.0,0.0,0.0,403.158947368421,0.21637248159931274,0.86,nominal,6470.569469339802,nan,pitch_program,11.434285714285714,0.0,0.0,-3.7660218870810707,-0.0,0.0,-3.7610301072348897,0.0,0.0,0.86,0.0,0.0,0.0,0.0,0.0,0.0,-0.06564235863788423,0.0,0.0,-0.06564235863788423,0.0,0.0,1.3199999999999998,1.0,20.145059450034314,-0.04538704630111511,5.886213815095484,0.003968376119048901,0.01860906697950664,0.0008935434377180893,20.98744847060761,0.019048459327333823,1.0,0.0,125.32142385248822,0.4485061118564023,21.45912873609321,110.34881127205213,-0.06656021789848114,1.0981399629362845,1.0,23.537662312864494,0.0,1.0,111.46334962509528,7625.1982108553,1.0,1.0,-0.18024812650949107,20.101352737082244,-0.0194151779748228,-43.655010814999194,1.0,23.916200109183386,1.0,-0.006621790618816954,4.659966021120219,0.9404442492572278,1.0,0.07758936305187503,5.210737044747435
1.3499999999999999,133.96638968459374,0.0,23.847384340373278,112.2672175645137,0.0,0.8361347754802999,112.27033117008527,17.71634981480499,0.0,5.221086414919422,0.0,0.0,0.9919448645369411,0.0,4.794371394889164,0.0,7702.674722074299,0.3300103580309959,112.27033117008527,2.134561800003074,1.2221979377180532,101038.84562706901,287.9949920017875,0.0,0.0,0.0,403.125,0.2163542622930144,0.86,nominal,6536.176582161832,nan,pitch_program,11.42142857142857,0.0,0.0,-3.7727988538523753,-0.0,0.0,-3.7680913552053807,0.0,0.0,0.86,0.0,0.0,0.0,0.0,0.0,0.0,-0.06576560066426906,0.0,0.0,-0.06576560066426906,0.0,0.0,1.3499999999999999,1.0,20.100346213289747,-0.08651167241201227,5.9412505501099035,-0.0011739348891747197,0.018381249931876353,-0.0010776385175902564,20.96019704732654,0.018450197206445255,1.0,0.0,125.32142385248822,0.4485061118564023,21.45912873609321,110.34881127205213,-0.06656021789848114,1.0981399629362845,1.0,23.537662312864494,0.0,1.0,111.92985390567848,7846.553367199403,1.0,1.0,-0.18024812650949107,20.101352737082244,-0.0194151779748228,-43.655010814999194,1.0,23.916200109183386,1.0,-0.006621790618816954,4.659966021120219,0.9404442492572278,1.0,0.07758936305187503,5.210737044747435
1.38,137.3519075714356,0.0,23.870616224427085,112.85059622806202,0.0,0.7743961351268555,112.85325320256915,17.7098591869362,0.0,5.192095181836735,0.0,0.0,0.9663744567078348,0.0,4.7989299237210705,0.0,7782.851564926664,0.3317239013203913,112.85325320256915,2.134232454369061,1.222195210352299,101038.56717774426,287.9948409945412,0.0,0.0,0.0,403.0910526315789,0.21633604298671602,0.86,nominal,6602.01915779887,nan,pitch_program,11.40857142857143,0.0,0.0,-3.779171228589612,-0.0,0.0,-3.7747392792359196,0.0,0.0,0.86,0.0,0.0,0.0,0.0,0.0,0.0,-0.06588162882702442,0.0,0.0,-0.06588162882702442,0.0,0.0,1.38,1.0,19.96147536119179,-0.005689409983457614,6.022170476548688,-0.0037790509888051545,0.015394175033779345,-0.00029757138752600423,20.850109549195842,0.015854034189356936,1.0,0.0,125.32142385248822,0.4485061118564023,21.45912873609321,110.34881127205213,-0.06656021789848114,1.0981399629362845,1.0,23.527457341681583,0.0,1.0,112.26629807189437,7781.309225415141,1.0,1.0,0.4453841262117272,20.142689134279404,0.03302824672445841,-43.59320291371562,1.0,24.331893578903657,1.0,0.0029440288398331045,4.723180817058154,0.9403234594389323,1.0,-0.27351646018290926,4.337054259042188
1.41,140.75490197634312,0.0,23.892050185205918,113.43314683025078,0.0,0.7144653592943927,113.4353968590178,17.703369105646598,0.0,5.163868048445077,0.0,0.0,0.9409044654192338,0.0,4.802991977216485,0.0,7863.336792228008,0.33343515076293084,113.43539685901779,2.133919141827353,1.2221926940624221,101038.31027825695,287.99470167379616,0.0,0.0,0.0,403.0571052631579,0.2163178236804177,0.86,nominal,6668.095604230182,nan,pitch_program,11.395714285714286,0.0,0.0,-3.785150033606152,-0.0,0.0,-3.780985731858059,0.0,0.0,0.86,0.0,0.0,0.0,0.0,0.0,0.0,-0.06599064999185059,0.0,0.0,-0.06599064999185059,0.0,0.0,1.41,1.0,19.98861460498936,-0.01608739028599828,6.076154232745641,0.002080699158342407,0.017129829111451077,0.0018545924182634434,20.891735755820598,0.017355110700105713,1.0,0.0,125.32142385248822,0.4485061118564023,21.45912873609321,110.34881127205213,-0.06656021789848114,1.0981399629362845,1.0,23.527457341681583,0.0,1.0,113.46074668101383,7846.548704095649,1.0,1.0,0.4453841262117272,20.142689134279404,0.03302824672445841,-43.59320291371562,1.0,24.331893578903657,1.0,0.0029440288398331045,4.723180817058154,0.9403234594389323,1.0,-0.27351646018290926,4.337054259042188
1.44,144.17534796415316,0.0,23.911740563630527,114.01486626033456,0.0,0.6563459474870096,114.01675542815958,17.696879570936186,0.0,5.136401009064138,0.0,0.0,0.9155679968988941,0.0,4.806571763779414,0.0,7944.127805677523,0.3351440867310038,114.0167554281596,2.1336217126968906,1.2221903824679587,101038.07427716568,287.99457368633637,0.0,0.0,0.0,403.02315789473687,0.21629960437411935,0.86,nominal,6734.404329780707,nan,pitch_program,11.382857142857143,0.0,0.0,-3.790745332583617,-0.0,0.0,-3.7868414922933935,0.0,0.0,0.86,0.0,0.0,0.0,0.0,0.0,0.0,-0.0660928522916552,0.0,0.0,-0.0660928522916552,0.0,0.0,1.44,1.0,19.99100580769989,0.0002473654822085405,6.2161618783107,0.001165493200229868,0.015097890799339575,-0.005182165176221612,20.935161374158156,0.01600498412689649,1.0,0.0,125.32142385248822,0.4485061118564023,21.45912873609321,110.34881127205213,-0.06656021789848114,1.0981399629362845,1.0,23.01971900937232,0.0,1.0,113.79116820755682,7955.1130085831965,1.0,1.0,-0.1253954197616447,20.157157584738098,0.01307831039106173,-43.50191426222635,1.0,24.310597490337496,1.0,0.008563321625880532,4.759361761675462,0.9402206485909237,1.0,0.15909822990750117,5.3396635266639905
1.47,147.61322050559508,0.0,23.929741800497258,114.5957513813976,0.0,0.6000412288910132,114.59732232536439,17.690390582804962,0.0,5.1096892220194325,0.0,0.0,0.8903929176174713,0.0,4.809682325262817,0.0,8025.222006451025,0.336850689974083,114.5973223253644,2.1333399982949306,1.2221882691768406,101037.85852184797,287.99445667829673,0.0,0.0,0.0,402.9892105263158,0.21628138506782096,0.86,nominal,6800.9437444995765,nan,pitch_program,11.37,0.0,0.0,-3.7959663503268133,-0.0,0.0,-3.792316407113445,0.0,0.0,0.86,0.0,0.0,0.0,0.0,0.0,0.0,-0.06618840758153133,0.0,0.0,-0.06618840758153133,0.0,0.0,1.47,1.0,19.989041947458183,-0.009975117724252332,6.2941743047231204,0.0033253383755549276,0.01865677532371645,0.002113230358068348,20.956586736834158,0.01906826901786932,1.0,0.0,145.3880711580581,-1.4685430373265003,22.18577415342772,114.7213501184282,0.06855132252185792,0.6519180724563847,1.0,23.01971900937232,0.0,1.0,114.85799911346778,7897.902721049549,1.0,1.0,-0.1253954197616447,20.157157584738098,0.01307831039106173,-43.50191426222635,1.0,24.310597490337496,1.0,0.008563321625880532,4.759361761675462,0.9402206485909237,1.0,0.15909822990750117,5.3396635266639905
