time_s,sensor_time_s,imu_valid,imu_ax_mps2,imu_ay_mps2,imu_az_mps2,gyro_p_rps,gyro_q_rps,gyro_r_rps,imu_accel_norm_mps2,imu_gyro_norm_rps,gps_valid,gps_latency_s,gps_x_m,gps_y_m,gps_z_m,gps_vx_mps,gps_vy_mps,gps_vz_mps,baro_valid,baro_alt_m,baro_bias_m,pitot_valid,pitot_airspeed_mps,pitot_qbar_pa,pitot_compressibility_factor,mag_valid,mag_heading_deg,mag_x_ut,mag_y_ut,mag_z_ut,radar_valid,radar_agl_m,optical_flow_valid,optical_flow_x_radps,optical_flow_y_radps,optical_flow_quality,horizon_valid,horizon_roll_deg,horizon_pitch_deg
0.0,0.0,1.0,17.08237503538411,0.01421251978619979,0.4606039154704186,0.000988985189910357,-0.0019892199963123243,0.0018790631541648138,17.08858960863007,0.0029096333509448656,1.0,0.0,0.11140188189044599,-0.7015888405932479,21.088827502213036,85.93905660319169,-0.1992551608878452,5.726199720431493,1.0,21.63744828955775,0.0,1.0,86.04135887015845,4540.488943892901,1.0,1.0,-0.3872112908568312,20.285917184876087,-0.05810378146905089,-43.53294942148529,1.0,19.6652227091265,1.0,0.011325112515340333,4.3119036874876056,0.95,1.0,0.14162985211495935,4.920871775750005
0.03,0.03,1.0,17.30101891336794,0.09142314907086134,0.8633183045452172,0.0038147050867697574,-0.13711181919315737,-0.0012129072573747257,17.322786500094725,0.13717023759318603,1.0,0.0,0.11140188189044599,-0.7015888405932479,21.088827502213036,85.93905660319169,-0.1992551608878452,5.726199720431493,1.0,21.63744828955775,0.0,1.0,86.94125958655195,4541.168831358772,1.0,1.0,-0.3872112908568312,20.285917184876087,-0.05810378146905089,-43.53294942148529,1.0,19.6652227091265,1.0,0.011325112515340333,4.3119036874876056,0.95,1.0,0.14162985211495935,4.920871775750005
0.06,0.06,1.0,17.624259217894352,0.02059212434932021,1.4150318419537902,-0.0011672849717643367,-0.19684669543815833,0.0016964472024277798,17.680985609655995,0.1968574661836299,1.0,0.0,0.11140188189044599,-0.7015888405932479,21.088827502213036,85.93905660319169,-0.1992551608878452,5.726199720431493,1.0,19.96214357849143,0.0,1.0,87.38465983430888,4642.178501345409,1.0,1.0,0.19143410935638505,19.828318525465907,0.02235370497587244,-43.67878376597673,1.0,19.956755277720152,1.0,0.005241926403184264,4.283968102789299,0.949151749932461,1.0,-0.3560639179437177,5.386306522681548
0.09,0.09,1.0,17.834175976988224,0.056759778920092034,1.8238528765208033,-0.0012990572057890886,-0.16327230674357326,0.0023904089092338762,17.92728350213384,0.16329497161194137,1.0,0.0,0.11140188189044599,-0.7015888405932479,21.088827502213036,85.93905660319169,-0.1992551608878452,5.726199720431493,1.0,19.96214357849143,0.0,1.0,87.46461909282147,4758.999006129799,1.0,1.0,0.19143410935638505,19.828318525465907,0.02235370497587244,-43.67878376597673,1.0,19.956755277720152,1.0,0.005241926403184264,4.283968102789299,0.949151749932461,1.0,-0.3560639179437177,5.386306522681548
0.12,0.12,1.0,18.17788171399226,-0.04683370455903968,2.0018394381921514,0.0008338834782699445,-0.09619552933821729,0.001405286998677105,18.28783579705588,0.0962094073251873,1.0,0.0,0.11140188189044599,-0.7015888405932479,21.088827502213036,85.93905660319169,-0.1992551608878452,5.726199720431493,1.0,20.473024120968343,0.0,1.0,88.52517661942818,4772.196510113252,1.0,1.0,-0.2805873157507246,19.53524491328993,0.052281592078596305,-43.92681578047227,1.0,20.795846593341427,1.0,-0.0006856874808727849,4.257094158483174,0.948364115746676,1.0,0.34463731505732303,6.076755609808283
0.15,0.15,1.0,18.40308454167802,-0.06569288295801168,2.1690603790832,0.0003569088105535444,-0.050480953900121354,-0.00010933390041589887,18.5305871232168,0.050482333983949364,1.0,0.0,0.11140188189044599,-0.7015888405932479,21.088827502213036,85.93905660319169,-0.1992551608878452,5.726199720431493,1.0,20.473024120968343,0.0,1.0,88.69051946825203,4811.061597785345,1.0,1.0,-0.2805873157507246,19.53524491328993,0.052281592078596305,-43.92681578047227,1.0,20.795846593341427,1.0,-0.0006856874808727849,4.257094158483174,0.948364115746676,1.0,0.34463731505732303,6.076755609808283
0.18,0.18,1.0,18.668478645551488,-0.040344598285877165,2.2976980542886305,0.0015542492372452132,-0.03601512073292371,0.0029874636003795743,18.80938964918066,0.036172220706809546,1.0,0.0,0.11140188189044599,-0.7015888405932479,21.088827502213036,85.93905660319169,-0.1992551608878452,5.726199720431493,1.0,19.991996106447388,0.0,1.0,89.01848895367966,4897.42669691834,1.0,1.0,-1.0248223977983817,19.35277804901397,0.012557342853959213,-43.87368877689148,1.0,21.06968004263796,1.0,0.010298730724903176,4.268962384846108,0.9476298397877002,1.0,0.18454272483068826,6.436542866932904
0.21,0.21,1.0,18.95101849970844,0.045886725210506844,2.483924764639151,-0.0011489502308364553,-0.03701422786107088,0.0018572109986174615,19.113165358051756,0.03707859737743056,1.0,0.0,17.046325164762006,2.1539115434048393,21.483323002654846,89.99924655618408,-0.011319481360851634,4.757090132326518,1.0,19.991996106447388,0.0,1.0,89.51494853093503,4825.682268678543,1.0,1.0,-1.0248223977983817,19.35277804901397,0.012557342853959213,-43.87368877689148,1.0,21.06968004263796,1.0,0.010298730724903176,4.268962384846108,0.9476298397877002,1.0,0.18454272483068826,6.436542866932904
0.24,0.24,1.0,19.24901861340105,0.004744190636815263,2.666817556611256,0.000306301684732536,-0.03398310585875843,-0.0023348955905986794,19.432875648412278,0.03406460100967937,1.0,0.0,17.046325164762006,2.1539115434048393,21.483323002654846,89.99924655618408,-0.011319481360851634,4.757090132326518,1.0,22.974766139923105,0.0,1.0,89.72546418624762,5017.987764226313,1.0,1.0,0.7476838625380618,19.257571781759307,-0.03978677103122809,-43.9284756746625,1.0,21.40448832679211,1.0,0.003855106168475802,4.251739023339099,0.9469449498742587,1.0,-0.4114056418596584,7.108215045120552
0.27,0.27,1.0,19.55575241813208,0.06873387830944926,2.783156211529272,0.0017306481288223445,-0.024892343363941336,-0.0021904605074801803,19.752927263650825,0.02504839352790875,1.0,0.0,17.046325164762006,2.1539115434048393,21.483323002654846,89.99924655618408,-0.011319481360851634,4.757090132326518,1.0,22.974766139923105,0.0,1.0,90.5333042222667,4983.9906249826745,1.0,1.0,0.7476838625380618,19.257571781759307,-0.03978677103122809,-43.9284756746625,1.0,21.40448832679211,1.0,0.003855106168475802,4.251739023339099,0.9469449498742587,1.0,-0.4114056418596584,7.108215045120552
0.3,0.3,1.0,19.862721279233288,-0.0025178401198233413,3.0318028004508863,0.0008852196816652362,-0.01202406772226516,-0.001022367323784688,20.09277310818115,0.012099878239848906,1.0,0.0,17.046325164762006,2.1539115434048393,21.483323002654846,89.99924655618408,-0.011319481360851634,4.757090132326518,1.0,21.427874276319073,0.0,1.0,90.3152306917442,5104.54467733268,1.0,1.0,2.183263109379218,19.293126487412245,0.1184662254349714,-43.986420986792005,1.0,21.747505447121227,1.0,0.031701840707228736,4.274580412617686,0.9463054196915842,1.0,-0.2166379528392713,6.143475736765846
0.32999999999999996,0.32999999999999996,1.0,20.200306606065645,-0.08650425499922065,3.1313806255874224,-0.002208698967947825,-0.001741404103336582,0.0007656007214588456,20.4417566414312,0.0029149586355263395,1.0,0.0,17.046325164762006,2.1539115434048393,21.483323002654846,89.99924655618408,-0.011319481360851634,4.757090132326518,1.0,21.427874276319073,0.0,1.0,92.52129543375538,5170.016245306812,1.0,1.0,2.183263109379218,19.293126487412245,0.1184662254349714,-43.986420986792005,1.0,21.747505447121227,1.0,0.031701840707228736,4.274580412617686,0.9463054196915842,1.0,-0.2166379528392713,6.143475736765846
0.36,0.36,1.0,20.43961813777554,-0.0006221015086256383,3.2540375781310127,0.0012055641439117526,0.007191629267071269,-0.0014805113435264394,20.697022746399586,0.007440754683390132,1.0,0.0,17.046325164762006,2.1539115434048393,21.483323002654846,89.99924655618408,-0.011319481360851634,4.757090132326518,1.0,21.143876477227334,0.0,1.0,91.93085978312095,5258.679799083983,1.0,1.0,0.926893308192642,19.278833195883497,-0.007981179086517892,-43.98430920955891,1.0,22.32031862484344,1.0,0.007806674029560399,4.263914838016228,0.9457078110536518,1.0,0.05519103641737052,6.666149117635414
0.39,0.39,1.0,20.772618844236383,0.03202324527787293,3.332444844374554,-0.0020436304631556374,0.004285694749849083,0.00056555860126917,21.038248686070833,0.0047815752101468875,1.0,0.0,17.046325164762006,2.1539115434048393,21.483323002654846,89.99924655618408,-0.011319481360851634,4.757090132326518,1.0,21.143876477227334,0.0,1.0,93.69977075830188,5332.290577656541,1.0,1.0,0.926893308192642,19.278833195883497,-0.007981179086517892,-43.98430920955891,1.0,22.32031862484344,1.0,0.007806674029560399,4.263914838016228,0.9457078110536518,1.0,0.05519103641737052,6.666149117635414
0.42,0.42,1.0,20.84868270380446,-0.06410200858412533,3.492413758470516,-0.0014322366621200033,0.007951487918617847,-0.0013729135286855469,21.139267570371825,0.00819526409174799,1.0,0.0,40.765243281226965,-2.9747188159285467,21.718843751943776,93.6602017114125,-0.02562489186334038,3.659020875510384,1.0,21.03828289460454,0.0,1.0,94.14475262687077,5356.448757490318,1.0,1.0,-1.9259249666437939,19.18578341712369,0.04938627174586668,-43.992620193362555,1.0,22.15296881224349,1.0,0.01215755747993498,4.255201871743555,0.9451493061537783,1.0,-0.21828317300431793,6.51001412819496
0.44999999999999996,0.44999999999999996,1.0,20.814950022418977,-0.025547885687780866,3.4924721520676245,0.001646581049793081,0.012574944425419043,-0.0013563986814435615,21.105927102670254,0.012754617745700457,1.0,0.0,40.765243281226965,-2.9747188159285467,21.718843751943776,93.6602017114125,-0.02562489186334038,3.659020875510384,1.0,21.03828289460454,0.0,1.0,94.2303227668607,5599.190382369961,1.0,1.0,-1.9259249666437939,19.18578341712369,0.04938627174586668,-43.992620193362555,1.0,22.15296881224349,1.0,0.01215755747993498,4.255201871743555,0.9451493061537783,1.0,-0.21828317300431793,6.51001412819496
0.48,0.48,1.0,20.806123556563666,-0.034379127027057484,3.6816634986169023,0.0019368535746598246,0.0150598256411741,-0.000973833407350575,21.129377782897837,0.015215061669855614,1.0,0.0,40.765243281226965,-2.9747188159285467,21.718843751943776,93.6602017114125,-0.02562489186334038,3.659020875510384,1.0,22.120380312327725,0.0,1.0,95.11032457801934,5634.874655356841,1.0,1.0,0.6771720774836267,19.30508011593005,-0.10706663982121749,-43.98359319483994,1.0,22.339578822942702,1.0,0.017072148359275605,4.293937945221222,0.9446275895046952,1.0,-0.6448102250468786,6.100178003475072
0.51,0.51,1.0,20.811335047998988,0.00026455899341258356,3.7867393667265294,-0.0011964725875130916,0.019123351467241125,-0.0006564053285177824,21.153039062545574,0.019171984402967003,1.0,0.0,40.765243281226965,-2.9747188159285467,21.718843751943776,93.6602017114125,-0.02562489186334038,3.659020875510384,1.0,22.120380312327725,0.0,1.0,95.91186061162686,5646.746174141559,1.0,1.0,0.6771720774836267,19.30508011593005,-0.10706663982121749,-43.98359319483994,1.0,22.339578822942702,1.0,0.017072148359275605,4.293937945221222,0.9446275895046952,1.0,-0.6448102250468786,6.100178003475072
0.54,0.54,1.0,20.74545184898442,0.048098580028499094,3.8382066231794574,-0.0023887544329169964,0.017115259171676823,0.0006294828520748582,21.09758080857022,0.017292613825431496,1.0,0.0,40.765243281226965,-2.9747188159285467,21.718843751943776,93.6602017114125,-0.02562489186334038,3.659020875510384,1.0,22.33737684363316,0.0,1.0,95.40604669916297,5700.292864731012,1.0,1.0,-1.0446435894470076,19.38137295915797,0.0016840829861581581,-43.94539758678644,1.0,22.456082175292316,1.0,0.008665747007294103,4.306167138986107,0.9441409781813599,1.0,0.16102366489970338,6.3535110999344395
0.57,0.57,1.0,20.716229952901266,-0.05069117886285754,3.9226936597827455,0.0025892295499083413,0.018928557481124337,-0.0022344017829108494,21.08440842436889,0.019235044822038284,1.0,0.0,40.765243281226965,-2.9747188159285467,21.718843751943776,93.6602017114125,-0.02562489186334038,3.659020875510384,1.0,22.33737684363316,0.0,1.0,96.94614660328718,5793.821875122728,1.0,1.0,-1.0446435894470076,19.38137295915797,0.0016840829861581581,-43.94539758678644,1.0,22.456082175292316,1.0,0.008665747007294103,4.306167138986107,0.9441409781813599,1.0,0.16102366489970338,6.3535110999344395
0.6,0.6,1.0,20.65588913800262,-0.04776757811930027,3.972947192128385,0.0027178250654590636,0.019436473156423502,-0.004512620966287809,21.034551272000428,0.020137696239445793,1.0,0.0,40.765243281226965,-2.9747188159285467,21.718843751943776,93.6602017114125,-0.02562489186334038,3.659020875510384,1.0,22.176650688183873,0.0,1.0,97.6906363564454,5897.754547268629,1.0,1.0,-0.4789557255683479,19.421154141710865,-0.00382860177692922,-43.92293326467763,1.0,22.458622177762187,1.0,0.021316720605905944,4.308389996613359,0.9436880077916575,1.0,-0.03751401384848972,5.9245335600167115
0.63,0.63,1.0,20.710307151713252,-0.007021102254339496,4.101105875280003,0.0012090523247497555,0.019824231497904868,0.0016463110019708706,21.11245937863323,0.01992918216891292,1.0,0.0,57.96117817114113,-0.2895424844230427,19.35902407392833,98.18808893435701,-0.03152220870634551,2.6600914071619943,1.0,22.176650688183873,0.0,1.0,98.16157155544828,5883.259662693592,1.0,1.0,-0.4789557255683479,19.421154141710865,-0.00382860177692922,-43.92293326467763,1.0,22.458622177762187,1.0,0.021316720605905944,4.308389996613359,0.9436880077916575,1.0,-0.03751401384848972,5.9245335600167115
0.6599999999999999,0.6599999999999999,1.0,20.67499363410271,0.06931857074170071,4.188496724247559,-0.0003386704767009719,0.02358226936133959,0.0021454725822396895,21.095110135845932,0.023682085603335425,1.0,0.0,57.96117817114113,-0.2895424844230427,19.35902407392833,98.18808893435701,-0.03152220870634551,2.6600914071619943,1.0,22.352117445041145,0.0,1.0,99.09136465093255,5997.079741210494,1.0,1.0,-0.07013885321341759,19.549698933299055,0.0770420550587787,-43.85000349277941,1.0,22.575340914457158,1.0,-0.0009414935356189328,4.34385030281769,0.9432673398527426,1.0,0.11473033084677396,5.535620983304028
0.69,0.69,1.0,20.58960959738601,-0.08740031323539292,4.225141013443861,0.003417155067797721,0.02394891097096257,-0.0007952418766311181,21.018836284890014,0.02420453872923041,1.0,0.0,57.96117817114113,-0.2895424844230427,19.35902407392833,98.18808893435701,-0.03152220870634551,2.6600914071619943,1.0,22.352117445041145,0.0,1.0,99.53430630212554,5993.664563022912,1.0,1.0,-0.07013885321341759,19.549698933299055,0.0770420550587787,-43.85000349277941,1.0,22.575340914457158,1.0,-0.0009414935356189328,4.34385030281769,0.9432673398527426,1.0,0.11473033084677396,5.535620983304028
0.72,0.72,1.0,20.577422529337763,-0.011476210613836418,4.339943455821956,-0.005319940272440017,0.024796086539706087,0.0006891251329282022,21.030110766566096,0.025369717492233844,1.0,0.0,57.96117817114113,-0.2895424844230427,19.35902407392833,98.18808893435701,-0.03152220870634551,2.6600914071619943,1.0,22.71021562490011,0.0,1.0,99.30058941954465,6035.46216844688,1.0,1.0,-1.1562856659181497,19.514830614421623,0.06482023080752466,-43.80539358044044,1.0,23.40585987845034,1.0,0.009836571636013498,4.344006359487949,0.9428777315879247,1.0,0.20725875569779917,6.153924533530106
0.75,0.75,1.0,20.51240760944502,-0.0017917091056568128,4.427561925707989,0.0004914187573424716,0.02244406201806881,0.0032464220828635677,20.984808165723567,0.022682959873131445,1.0,0.0,57.96117817114113,-0.2895424844230427,19.35902407392833,98.18808893435701,-0.03152220870634551,2.6600914071619943,1.0,22.71021562490011,0.0,1.0,100.00136619973665,6191.488302096306,1.0,1.0,-1.1562856659181497,19.514830614421623,0.06482023080752466,-43.80539358044044,1.0,23.40585987845034,1.0,0.009836571636013498,4.344006359487949,0.9428777315879247,1.0,0.20725875569779917,6.153924533530106
0.78,0.78,1.0,20.537967793197762,-0.06781371378475642,4.525008923762506,0.0008063179923524863,0.021675336605794952,-0.0014482938548559922,21.030654424775662,0.021738627389265394,1.0,0.0,57.96117817114113,-0.2895424844230427,19.35902407392833,98.18808893435701,-0.03152220870634551,2.6600914071619943,1.0,23.37389877921697,0.0,1.0,101.3390141776448,6173.313800767669,1.0,1.0,-0.6277046595377741,19.58423692179607,0.06643482272329095,-43.81581730474359,1.0,23.56356255156275,1.0,-0.004707283612215783,4.377922103323814,0.9425180056990942,1.0,-0.04417467545859814,5.81214111409674
0.8099999999999999,0.8099999999999999,1.0,20.512998287737936,0.02156082937765524,4.64457487595047,0.002960550429296416,0.025399192142736195,0.004053366781907528,21.032252361561593,0.02589041526543579,1.0,0.0,57.96117817114113,-0.2895424844230427,19.35902407392833,98.18808893435701,-0.03152220870634551,2.6600914071619943,1.0,23.37389877921697,0.0,1.0,101.87135070471656,6278.302735360635,1.0,1.0,-0.6277046595377741,19.58423692179607,0.06643482272329095,-43.81581730474359,1.0,23.56356255156275,1.0,-0.004707283612215783,4.377922103323814,0.9425180056990942,1.0,-0.04417467545859814,5.81214111409674
0.84,0.84,1.0,20.460881035426524,-0.052457408029437345,4.6788782884308455,0.001067942769418286,0.023529093427939674,-0.0006961169280190413,20.98909970826485,0.023563601551480653,1.0,0.0,79.03916778596422,-3.669360176335259,23.95199377632533,102.32979586253984,0.02994665883249877,2.14211833738743,1.0,24.0422195868552,0.0,1.0,102.00543652363598,6367.804925395054,1.0,1.0,0.6671738307441417,19.776015200198177,-0.07576789622443676,-43.81696155904341,1.0,23.34639947527265,1.0,-0.0067562565785145605,4.401851883479192,0.9421870295822606,1.0,0.003925230021731714,5.389923276336442
0.87,0.87,1.0,20.389825613483485,0.004452015257319473,4.760654922658787,-0.0006146842364827338,0.025716538775072982,0.0002176097125140277,20.938214911050615,0.025724804319321712,1.0,0.0,79.03916778596422,-3.669360176335259,23.95199377632533,102.32979586253984,0.02994665883249877,2.14211833738743,1.0,24.0422195868552,0.0,1.0,103.2614485307265,6478.772016325299,1.0,1.0,0.6671738307441417,19.776015200198177,-0.07576789622443676,-43.81696155904341,1.0,23.34639947527265,1.0,-0.0067562565785145605,4.401851883479192,0.9421870295822606,1.0,0.003925230021731714,5.389923276336442
0.8999999999999999,0.8999999999999999,1.0,20.437040034263443,0.005091857072129036,4.805123425034766,0.0007052006663567407,0.024503825067033774,0.0004326371754738926,20.994328815632876,0.024517787947146145,1.0,0.0,79.03916778596422,-3.669360176335259,23.95199377632533,102.32979586253984,0.02994665883249877,2.14211833738743,1.0,23.46215222449714,0.0,1.0,103.26157990211442,6522.998934362953,1.0,1.0,1.8726474759458809,19.703322980395576,0.05777671323278474,-43.708348283615436,1.0,23.291537408164725,1.0,0.008640461770223259,4.445707673811043,0.941883700575694,1.0,0.23864947538422865,5.398238788408488
0.9299999999999999,0.9299999999999999,1.0,20.426930466686287,0.043431825049913615,4.905432469188711,-0.0011535177192977509,0.018800192234737154,-0.001821824955904986,21.00772815713385,0.018923447819088446,1.0,0.0,79.03916778596422,-3.669360176335259,23.95199377632533,102.32979586253984,0.02994665883249877,2.14211833738743,1.0,23.46215222449714,0.0,1.0,104.01215280015481,6700.067602035737,1.0,1.0,1.8726474759458809,19.703322980395576,0.05777671323278474,-43.708348283615436,1.0,23.291537408164725,1.0,0.008640461770223259,4.445707673811043,0.941883700575694,1.0,0.23864947538422865,5.398238788408488
0.96,0.96,1.0,20.326266401382497,0.01212089030896153,5.022267052141526,-0.0005616662321371039,0.01908116045365957,-0.0023788195122700167,20.937536127228036,0.0192370719052194,1.0,0.0,79.03916778596422,-3.669360176335259,23.95199377632533,102.32979586253984,0.02994665883249877,2.14211833738743,1.0,23.440834401730065,0.0,1.0,104.84262436518404,6652.915306057831,1.0,1.0,1.2701259009089658,19.781542971098148,-0.03508464136893619,-43.730121070321815,1.0,23.058833211990645,1.0,-0.007435199087661565,4.4802591710689095,0.9416069346987966,1.0,-0.16655817806543646,6.0784963673307
0.99,0.99,1.0,20.307700322075497,0.028317578975075315,5.031375686022899,0.0021692599251646174,0.02506343827943478,-0.0014056166651458266,20.92171684041266,0.025196376430338105,1.0,0.0,79.03916778596422,-3.669360176335259,23.95199377632533,102.32979586253984,0.02994665883249877,2.14211833738743,1.0,23.440834401730065,0.0,1.0,105.95338325086473,6831.394284410069,1.0,1.0,1.2701259009089658,19.781542971098148,-0.03508464136893619,-43.730121070321815,1.0,23.058833211990645,1.0,-0.007435199087661565,4.4802591710689095,0.9416069346987966,1.0,-0.16655817806543646,6.0784963673307
1.02,1.02,1.0,20.370769534756622,-0.018433216260880875,5.064069166306294,-0.0008137255452803577,0.019368491097405304,0.0004376194979424285,20.990792927918765,0.01939051591573287,1.0,0.0,79.03916778596422,-3.669360176335259,23.95199377632533,102.32979586253984,0.02994665883249877,2.14211833738743,1.0,22.72548067179671,0.0,1.0,105.76788100092513,6682.892404184793,1.0,1.0,2.228262624781329,19.735770479944684,0.001964563342723118,-43.69849951505549,1.0,23.694807297459416,1.0,0.015591526997094967,4.497723836195931,0.9413556588209473,1.0,0.2430916353492683,5.697424986717666
1.05,1.05,1.0,20.34628949654823,0.050739489062825494,5.151506219046445,-0.0014222981398267444,0.02129086853482336,-0.0013427473321167547,20.98837981117107,0.02138052818252142,1.0,0.0,101.55819681685144,0.8089325641884302,22.092406105570113,106.30632167322453,-0.1378270317589797,1.629222778862828,1.0,22.72548067179671,0.0,1.0,106.99521586798713,6954.191101525481,1.0,1.0,2.228262624781329,19.735770479944684,0.001964563342723118,-43.69849951505549,1.0,23.694807297459416,1.0,0.015591526997094967,4.497723836195931,0.9413556588209473,1.0,0.2430916353492683,5.697424986717666
1.08,1.08,1.0,20.231199079500104,0.06507131756540041,5.280222245113967,0.0006410331502114088,0.01833880446179441,-0.003423662041902447,20.909002784172465,0.018666658360959095,1.0,0.0,101.55819681685144,0.8089325641884302,22.092406105570113,106.30632167322453,-0.1378270317589797,1.629222778862828,1.0,23.652411520059843,0.0,1.0,106.51774635950521,7021.932617950401,1.0,1.0,0.7737687936948424,19.916024961685988,0.0022988743313570917,-43.66624571005789,1.0,23.09260788915729,1.0,0.007843023665812304,4.529800963260191,0.9411288050174569,1.0,0.022254860809549203,5.076804228721408
1.1099999999999999,1.1099999999999999,1.0,20.235477644437974,0.014766145577709128,5.332171794046298,0.0012193695060839075,0.019549174908345505,-0.0019554925006107127,20.92622349060688,0.01968453841240372,1.0,0.0,101.55819681685144,0.8089325641884302,22.092406105570113,106.30632167322453,-0.1378270317589797,1.629222778862828,1.0,23.652411520059843,0.0,1.0,107.50401369031086,7052.803082446228,1.0,1.0,0.7737687936948424,19.916024961685988,0.0022988743313570917,-43.66624571005789,1.0,23.09260788915729,1.0,0.007843023665812304,4.529800963260191,0.9411288050174569,1.0,0.022254860809549203,5.076804228721408
1.14,1.14,1.0,20.20155845699864,0.02321015744087059,5.333466243263675,0.0032967124718470743,0.01888902052665296,-0.0018795177148623384,20.893763781831527,0.019266447426000213,1.0,0.0,101.55819681685144,0.8089325641884302,22.092406105570113,106.30632167322453,-0.1378270317589797,1.629222778862828,1.0,24.012174510920474,0.0,1.0,107.40657132688777,7035.2204111860465,1.0,1.0,-0.23541301893780128,20.028712341601466,-0.05287050166801633,-43.63249819586954,1.0,23.67261929224232,1.0,0.004738532693969231,4.557334483799538,0.9409253066704799,1.0,0.285201493971139,5.210834066265535
1.17,1.17,1.0,20.31519360968884,-0.04875057647929631,5.504896702730093,-0.00048602473611915006,0.022223029893035477,0.00037588878698601114,21.04788245229382,0.02223152199133136,1.0,0.0,101.55819681685144,0.8089325641884302,22.092406105570113,106.30632167322453,-0.1378270317589797,1.629222778862828,1.0,24.012174510920474,0.0,1.0,108.85286118131786,7491.536165875169,1.0,1.0,-0.23541301893780128,20.028712341601466,-0.05287050166801633,-43.63249819586954,1.0,23.67261929224232,1.0,0.004738532693969231,4.557334483799538,0.9409253066704799,1.0,0.285201493971139,5.210834066265535
1.2,1.2,1.0,20.183658260810912,0.01990999186411493,5.529516049935192,0.0014250376745710198,0.018300133256703096,-0.0008963054192959681,20.927398427503295,0.01837740386974441,1.0,0.0,101.55819681685144,0.8089325641884302,22.092406105570113,106.30632167322453,-0.1378270317589797,1.629222778862828,1.0,24.663579596694003,0.0,1.0,109.7522501551522,7177.453477915302,1.0,1.0,1.733303350845767,20.020719937273487,-0.044839315271622146,-43.603615382281674,1.0,23.142849294470153,1.0,0.0008907922308650601,4.594755958958654,0.9407440958529348,1.0,0.09629121747350551,5.256940950500402
1.23,1.23,1.0,20.139687251332006,-0.030657478426395733,5.594052715059331,0.0006763535546386965,0.0181728567302046,0.001228557107569541,20.902185728801452,0.01822689025681492,1.0,0.0,101.55819681685144,0.8089325641884302,22.092406105570113,106.30632167322453,-0.1378270317589797,1.629222778862828,1.0,24.663579596694003,0.0,1.0,110.03417386434742,7393.255227054462,1.0,1.0,1.733303350845767,20.020719937273487,-0.044839315271622146,-43.603615382281674,1.0,23.142849294470153,1.0,0.0008907922308650601,4.594755958958654,0.9407440958529348,1.0,0.09629121747350551,5.256940950500402
1.26,1.26,1.0,20.128242653616734,-0.0004340831347447248,5.68723957801489,-0.0002766262515115177,0.018076478159193016,-0.0015963300319073032,20.916281852400136,0.01814893534876293,1.0,0.0,125.32142385248822,0.4485061118564023,21.45912873609321,110.34881127205213,-0.06656021789848114,1.0981399629362845,1.0,24.09035605836981,0.0,1.0,110.81569263680785,7483.657096726873,1.0,1.0,-0.06113834604444338,20.059613791517183,0.055090483918756074,-43.60955762238076,1.0,23.676646975388852,1.0,0.004596931728299501,4.632419188178326,0.9405841016608358,1.0,-0.4990868342499308,5.436315247849779
1.29,1.29,1.0,20.095240823856038,0.009634035050253823,5.784845213912519,-0.0005409071168530564,0.016998121700373514,-1.8378517530172108e-05,20.911318244728815,0.01700673571323074,1.0,0.0,125.32142385248822,0.4485061118564023,21.45912873609321,110.34881127205213,-0.06656021789848114,1.0981399629362845,1.0,24.09035605836981,0.0,1.0,111.63226823609924,7467.333706230624,1.0,1.0,-0.06113834604444338,20.059613791517183,0.055090483918756074,-43.60955762238076,1.0,23.676646975388852,1.0,0.004596931728299501,4.632419188178326,0.9405841016608358,1.0,-0.4990868342499308,5.436315247849779
1.3199999999999998,1.3199999999999998,1.0,20.145059450034314,-0.04538704630111511,5.886213815095484,0.003968376119048901,0.01860906697950664,0.0008935434377180893,20.98744847060761,0.019048459327333823,1.0,0.0,125.32142385248822,0.4485061118564023,21.45912873609321,110.34881127205213,-0.06656021789848114,1.0981399629362845,1.0,23.537662312864494,0.0,1.0,111.46334962509528,7625.1982108553,1.0,1.0,-0.18024812650949107,20.101352737082244,-0.0194151779748228,-43.655010814999194,1.0,23.916200109183386,1.0,-0.006621790618816954,4.659966021120219,0.9404442492572278,1.0,0.07758936305187503,5.210737044747435
1.3499999999999999,1.3499999999999999,1.0,20.100346213289747,-0.08651167241201227,5.9412505501099035,-0.0011739348891747197,0.018381249931876353,-0.0010776385175902564,20.96019704732654,0.018450197206445255,1.0,0.0,125.32142385248822,0.4485061118564023,21.45912873609321,110.34881127205213,-0.06656021789848114,1.0981399629362845,1.0,23.537662312864494,0.0,1.0,111.92985390567848,7846.553367199403,1.0,1.0,-0.18024812650949107,20.101352737082244,-0.0194151779748228,-43.655010814999194,1.0,23.916200109183386,1.0,-0.006621790618816954,4.659966021120219,0.9404442492572278,1.0,0.07758936305187503,5.210737044747435
1.38,1.38,1.0,19.96147536119179,-0.005689409983457614,6.022170476548688,-0.0037790509888051545,0.015394175033779345,-0.00029757138752600423,20.850109549195842,0.015854034189356936,1.0,0.0,125.32142385248822,0.4485061118564023,21.45912873609321,110.34881127205213,-0.06656021789848114,1.0981399629362845,1.0,23.527457341681583,0.0,1.0,112.26629807189437,7781.309225415141,1.0,1.0,0.4453841262117272,20.142689134279404,0.03302824672445841,-43.59320291371562,1.0,24.331893578903657,1.0,0.0029440288398331045,4.723180817058154,0.9403234594389323,1.0,-0.27351646018290926,4.337054259042188
1.41,1.41,1.0,19.98861460498936,-0.01608739028599828,6.076154232745641,0.002080699158342407,0.017129829111451077,0.0018545924182634434,20.891735755820598,0.017355110700105713,1.0,0.0,125.32142385248822,0.4485061118564023,21.45912873609321,110.34881127205213,-0.06656021789848114,1.0981399629362845,1.0,23.527457341681583,0.0,1.0,113.46074668101383,7846.548704095649,1.0,1.0,0.4453841262117272,20.142689134279404,0.03302824672445841,-43.59320291371562,1.0,24.331893578903657,1.0,0.0029440288398331045,4.723180817058154,0.9403234594389323,1.0,-0.27351646018290926,4.337054259042188
1.44,1.44,1.0,19.99100580769989,0.0002473654822085405,6.2161618783107,0.001165493200229868,0.015097890799339575,-0.005182165176221612,20.935161374158156,0.01600498412689649,1.0,0.0,125.32142385248822,0.4485061118564023,21.45912873609321,110.34881127205213,-0.06656021789848114,1.0981399629362845,1.0,23.01971900937232,0.0,1.0,113.79116820755682,7955.1130085831965,1.0,1.0,-0.1253954197616447,20.157157584738098,0.01307831039106173,-43.50191426222635,1.0,24.310597490337496,1.0,0.008563321625880532,4.759361761675462,0.9402206485909237,1.0,0.15909822990750117,5.3396635266639905
1.47,1.47,1.0,19.989041947458183,-0.009975117724252332,6.2941743047231204,0.0033253383755549276,0.01865677532371645,0.002113230358068348,20.956586736834158,0.01906826901786932,1.0,0.0,145.3880711580581,-1.4685430373265003,22.18577415342772,114.7213501184282,0.06855132252185792,0.6519180724563847,1.0,23.01971900937232,0.0,1.0,114.85799911346778,7897.902721049549,1.0,1.0,-0.1253954197616447,20.157157584738098,0.01307831039106173,-43.50191426222635,1.0,24.310597490337496,1.0,0.008563321625880532,4.759361761675462,0.9402206485909237,1.0,0.15909822990750117,5.3396635266639905
1.5,1.5,1.0,20.025773077237847,0.05388772767323559,6.328028731197185,-0.0005851810114994808,0.016173471340470057,-0.0011954030880670305,21.00186750865444,0.01622814223995421,1.0,0.0,145.3880711580581,-1.4685430373265003,22.18577415342772,114.7213501184282,0.06855132252185792,0.6519180724563847,1.0,24.57837497052019,0.0,1.0,115.65280934447264,7958.79442763576,1.0,1.0,-0.8606543757244085,20.21754729094472,0.04906720531176424,-43.53299402596816,1.0,23.908928114541457,1.0,0.002728323893572216,4.78690433646806,0.9401347289242703,1.0,0.03062243096394848,5.366867408887368
1.53,1.53,1.0,20.01763060560611,-0.07526211389986547,6.351639602022428,-0.0005823516557197367,0.01719160290407474,0.0023678742643823574,21.00129817611918,0.017363673931349747,1.0,0.0,145.3880711580581,-1.4685430373265003,22.18577415342772,114.7213501184282,0.06855132252185792,0.6519180724563847,1.0,24.57837497052019,0.0,1.0,115.24451903172734,8241.026933811308,1.0,1.0,-0.8606543757244085,20.21754729094472,0.04906720531176424,-43.53299402596816,1.0,23.908928114541457,1.0,0.002728323893572216,4.78690433646806,0.9401347289242703,1.0,0.03062243096394848,5.366867408887368
1.56,1.56,1.0,19.87686581122293,-0.05135970264853507,6.511948928141163,0.0005065457888140905,0.012197351584094789,0.0017988394251295722,20.916450729967025,0.012339683852497415,1.0,0.0,145.3880711580581,-1.4685430373265003,22.18577415342772,114.7213501184282,0.06855132252185792,0.6519180724563847,1.0,24.78325009961192,0.0,1.0,116.6629123924122,8333.074597587876,1.0,1.0,-0.3158058968260498,20.18667084053333,-0.014326612900900416,-43.52622849391471,1.0,24.201693891355625,1.0,-0.006317170036720645,4.82711068609549,0.9400646089207391,1.0,-0.3981687493646026,4.807943208239255
1.5899999999999999,1.5899999999999999,1.0,19.927124644462864,0.005196363118692796,6.5069232348624135,0.0008741198863822981,0.012654723050781524,0.0012736340846161741,20.96259462906587,0.01274865658998023,1.0,0.0,145.3880711580581,-1.4685430373265003,22.18577415342772,114.7213501184282,0.06855132252185792,0.6519180724563847,1.0,24.78325009961192,0.0,1.0,117.01753488804547,8396.632929512236,1.0,1.0,-0.3158058968260498,20.18667084053333,-0.014326612900900416,-43.52622849391471,1.0,24.201693891355625,1.0,-0.006317170036720645,4.82711068609549,0.9400646089207391,1.0,-0.3981687493646026,4.807943208239255
1.6199999999999999,1.6199999999999999,1.0,19.822058802153474,-0.033510674307943404,6.570507525585082,0.00033110685799250664,0.011618266215569014,0.0027325025744915064,20.88268917704549,0.0119398623077004,1.0,0.0,145.3880711580581,-1.4685430373265003,22.18577415342772,114.7213501184282,0.06855132252185792,0.6519180724563847,1.0,25.222815817105957,0.0,1.0,117.67390426150828,8562.075515032882,1.0,1.0,1.6009331510899876,20.36024020893779,0.019565429836488075,-43.52456110060861,1.0,24.23623773318503,1.0,0.00282912642495302,4.86101910061246,0.9400091939259758,1.0,0.5989467129546234,4.797299218821481
1.65,1.65,1.0,19.78558104081746,0.019335254789639184,6.680771333953244,-0.00026646028621094854,0.012460767261817555,0.0015143232836768326,20.883062433259266,0.012555273666662849,1.0,0.0,145.3880711580581,-1.4685430373265003,22.18577415342772,114.7213501184282,0.06855132252185792,0.6519180724563847,1.0,25.222815817105957,0.0,1.0,117.53756432717313,8467.658527186532,1.0,1.0,1.6009331510899876,20.36024020893779,0.019565429836488075,-43.52456110060861,1.0,24.23623773318503,1.0,0.00282912642495302,4.86101910061246,0.9400091939259758,1.0,0.5989467129546234,4.797299218821481
1.68,1.68,1.0,19.790956068758152,-0.08194539785330998,6.779323699400017,0.0010295736039668336,0.013415492354413184,0.0048133681027184025,20.920035539764058,0.014289995430705036,1.0,0.0,167.9961543898529,1.078970934809092,26.276291674029043,118.92555693661325,-0.12010241316899486,0.2225200242263558,1.0,21.99435605722137,0.0,1.0,119.01315437128983,8652.063135306644,1.0,1.0,0.25948856128392955,20.384835685887502,0.00014094145981285633,-43.53813015237965,1.0,24.449962669793248,1.0,0.010864012017369766,4.911540652515762,0.9399673868478139,1.0,-0.354321653247542,5.508546878531528
1.71,1.71,1.0,19.885298419111606,-0.0299663172578417,6.799198916820375,0.0034473767714564476,0.010259335888792666,-0.0018861774478216799,21.015591762017646,0.010986175169189583,1.0,0.0,167.9961543898529,1.078970934809092,26.276291674029043,118.92555693661325,-0.12010241316899486,0.2225200242263558,1.0,21.99435605722137,0.0,1.0,119.42170689481098,8782.36895907852,1.0,1.0,0.25948856128392955,20.384835685887502,0.00014094145981285633,-43.53813015237965,1.0,24.449962669793248,1.0,0.010864012017369766,4.911540652515762,0.9399673868478139,1.0,-0.354321653247542,5.508546878531528
1.74,1.74,1.0,19.73060488230231,0.008211244011653736,6.877159260465035,-0.001733257110114576,0.009614001427165763,-0.0032073212487572812,20.89478776967739,0.010282028654114811,1.0,0.0,167.9961543898529,1.078970934809092,26.276291674029043,118.92555693661325,-0.12010241316899486,0.2225200242263558,1.0,25.09665961856681,0.0,1.0,119.644194555173,8783.146013600364,1.0,1.0,-0.9233159761489963,20.459112034378016,0.03103407535567429,-43.51068528415694,1.0,24.413249940367027,1.0,-0.006603260864179216,4.974844615426635,0.9399380889270312,1.0,-0.2998024213284304,4.889132856483426
1.77,1.77,1.0,19.671570658218517,0.07977059481952957,6.876096157384815,-0.0016256867417894893,0.012355598452890217,0.0022269891554433574,20.83885202871511,0.012659508332078129,1.0,0.0,167.9961543898529,1.078970934809092,26.276291674029043,118.92555693661325,-0.12010241316899486,0.2225200242263558,1.0,25.09665961856681,0.0,1.0,120.15950621835253,8888.341252232158,1.0,1.0,-0.9233159761489963,20.459112034378016,0.03103407535567429,-43.51068528415694,1.0,24.413249940367027,1.0,-0.006603260864179216,4.974844615426635,0.9399380889270312,1.0,-0.2998024213284304,4.889132856483426
1.7999999999999998,1.7999999999999998,1.0,19.662950833886978,0.0001851424778877232,7.000024534613849,-0.0010353137584553993,0.01340764033156677,0.0013965190472990064,20.871798653094807,0.013519872754156078,1.0,0.0,167.9961543898529,1.078970934809092,26.276291674029043,118.92555693661325,-0.12010241316899486,0.2225200242263558,1.0,23.09821563563463,0.0,1.0,121.07532644982193,8906.047928968534,1.0,1.0,-2.124294983972606,20.387582677973864,0.14056507597209875,-43.49899520397401,1.0,23.69450368792164,1.0,0.0024721741746099343,5.014777969777897,0.9399202005560131,1.0,0.2678606124229734,4.835619613613723
1.8299999999999998,1.8299999999999998,1.0,19.639686410542836,-0.019593139169286174,7.064745727537275,-0.0016612224427601657,0.010761808157299773,0.0015663249629630986,20.871710480703772,0.011001343041122541,1.0,0.0,167.9961543898529,1.078970934809092,26.276291674029043,118.92555693661325,-0.12010241316899486,0.2225200242263558,1.0,23.09821563563463,0.0,1.0,121.49967606224759,8807.669832001046,1.0,1.0,-2.124294983972606,20.387582677973864,0.14056507597209875,-43.49899520397401,1.0,23.69450368792164,1.0,0.0024721741746099343,5.014777969777897,0.9399202005560131,1.0,0.2678606124229734,4.835619613613723
1.8599999999999999,1.8599999999999999,1.0,19.59639694325373,-0.01718241320759571,7.250716682436457,-0.0012560253184492798,0.0074005335149784565,0.0004884887309836133,20.8947831001389,0.007522241497532699,1.0,0.0,167.9961543898529,1.078970934809092,26.276291674029043,118.92555693661325,-0.12010241316899486,0.2225200242263558,1.0,23.70565622339224,0.0,1.0,121.97925527430179,9054.816415102223,1.0,1.0,0.20555331277387554,20.44557553427251,0.03289426122718483,-43.44260453205955,1.0,24.30029433829165,1.0,0.0025530428312025215,5.052749846527126,0.9399126221268516,1.0,-0.5225566449266681,4.69019269710201
1.89,1.89,1.0,19.60206736344893,-0.059573841151462185,7.266688146525705,-0.0024061340022249315,0.0113912013561604,0.0017930418629630047,20.905725306302973,0.01177981104668455,1.0,0.0,197.45152016183783,1.084032063446249,24.36867113864122,122.46868379334346,0.23060596114578932,0.2308776792906136,1.0,23.70565622339224,0.0,1.0,122.63860762437044,9272.031339465522,1.0,1.0,0.20555331277387554,20.44557553427251,0.03289426122718483,-43.44260453205955,1.0,24.30029433829165,1.0,0.0025530428312025215,5.052749846527126,0.9399126221268516,1.0,-0.5225566449266681,4.69019269710201
1.92,1.92,1.0,19.511843347358607,-0.08308658735646747,7.2989234210337415,-0.0003528862841065466,0.005465495666420896,0.003111678514843899,20.832503865329674,0.0062991042846516875,1.0,0.0,197.45152016183783,1.084032063446249,24.36867113864122,122.46868379334346,0.23060596114578932,0.2308776792906136,1.0,24.198009507346384,0.0,1.0,123.44169193475716,9311.259749987572,1.0,1.0,0.5485986050107547,20.481252135172916,-0.07620971227106328,-43.41391884532629,1.0,24.247448450725084,1.0,-0.008079057992653918,5.102249013451985,0.9399142548949778,1.0,-0.2966262797826869,4.880867585295118
1.95,1.95,1.0,19.541300392306788,-0.08867701103510481,7.4287564729094875,0.004243937088053086,0.007802338401486319,-0.0030434801326569426,20.905901257024297,0.009388836874530206,1.0,0.0,197.45152016183783,1.084032063446249,24.36867113864122,122.46868379334346,0.23060596114578932,0.2308776792906136,1.0,24.198009507346384,0.0,1.0,123.93246384014348,9241.018104562663,1.0,1.0,0.5485986050107547,20.481252135172916,-0.07620971227106328,-43.41391884532629,1.0,24.247448450725084,1.0,-0.008079057992653918,5.102249013451985,0.9399142548949778,1.0,-0.2966262797826869,4.880867585295118
1.98,1.98,1.0,19.517040893906678,0.006587002876667933,7.363824301419068,-0.0019000339986523414,0.005298329063024059,0.0011497018515467903,20.86002964967218,0.0057449311922398456,1.0,0.0,197.45152016183783,1.084032063446249,24.36867113864122,122.46868379334346,0.23060596114578932,0.2308776792906136,1.0,24.09315024749733,0.0,1.0,124.54736170655299,9424.39386746561,1.0,1.0,-0.1447953691701062,20.485746948161832,-0.061087071216301386,-43.35032923781592,1.0,23.60595424971351,1.0,-0.01349884706599481,5.1485459092346995,0.939924001847844,1.0,-0.09113166905457058,4.524652376349439
2.01,2.01,1.0,19.4992130996772,0.034777439238756216,7.490600030840024,0.0012879563060053613,0.007061510593862197,-8.431591336293012e-05,20.88850424991994,0.007178500713007783,1.0,0.0,197.45152016183783,1.084032063446249,24.36867113864122,122.46868379334346,0.23060596114578932,0.2308776792906136,1.0,24.09315024749733,0.0,1.0,124.93397618957539,9661.998450746003,1.0,1.0,-0.1447953691701062,20.485746948161832,-0.061087071216301386,-43.35032923781592,1.0,23.60595424971351,1.0,-0.01349884706599481,5.1485459092346995,0.939924001847844,1.0,-0.09113166905457058,4.524652376349439
2.04,2.04,1.0,19.480475683981837,-0.014224252654173625,7.5912417090548,0.0005886206893400044,0.006585214172751426,-0.0019378538881764317,20.907321346572935,0.006889615207603822,1.0,0.0,197.45152016183783,1.084032063446249,24.36867113864122,122.46868379334346,0.23060596114578932,0.2308776792906136,1.0,24.81029180240305,0.0,1.0,125.04964215923145,9569.477073965749,1.0,1.0,0.38082055530277426,20.49015378177226,0.016744399695213127,-43.401117388393324,1.0,24.054712361382236,1.0,0.013820311149064885,5.214036065701426,0.9399407685707475,1.0,0.8375369841038617,4.609622470440792
2.07,2.07,1.0,19.43015392347529,-0.04010615744160664,7.55451019115435,-0.002555625871460416,0.009075235976799469,0.00019389580652291182,20.847136835116277,0.009430202925348977,1.0,0.0,197.45152016183783,1.084032063446249,24.36867113864122,122.46868379334346,0.23060596114578932,0.2308776792906136,1.0,24.81029180240305,0.0,1.0,126.77355448924773,9725.737185760527,1.0,1.0,0.38082055530277426,20.49015378177226,0.016744399695213127,-43.401117388393324,1.0,24.054712361382236,1.0,0.013820311149064885,5.214036065701426,0.9399407685707475,1.0,0.8375369841038617,4.609622470440792
2.1,2.1,1.0,19.370373175609508,0.041111378195615556,7.677955760507157,0.0013997125423812942,0.006761584951553979,0.003592067820366542,20.83660365242125,0.007783391130124039,1.0,0.0,225.82086276599762,0.566155751154113,23.30339622782807,126.55219715921918,0.07519759705345622,-0.2804294262235211,1.0,24.315003467954188,0.0,1.0,126.00587458168924,9870.605308626393,1.0,1.0,1.2642408181950915,20.55453444510383,-0.05097631030971249,-43.43380911722887,1.0,23.773849374919024,1.0,-0.0038607211698143437,5.242046477950529,0.9399634641038215,1.0,-0.10370426286289645,4.819361382989919
2.13,2.13,1.0,19.435779202136676,-0.017392723532187678,7.778805499749647,0.0009112016338965498,0.008912921813949367,-0.0002478537285706779,20.93465143497679,0.008962806209550476,1.0,0.0,225.82086276599762,0.566155751154113,23.30339622782807,126.55219715921918,0.07519759705345622,-0.2804294262235211,1.0,24.315003467954188,0.0,1.0,127.488705735687,9753.717401903652,1.0,1.0,1.2642408181950915,20.55453444510383,-0.05097631030971249,-43.43380911722887,1.0,23.773849374919024,1.0,-0.0038607211698143437,5.242046477950529,0.9399634641038215,1.0,-0.10370426286289645,4.819361382989919
2.16,2.16,1.0,19.39261382531378,-0.0022233666103616072,7.818107835823271,-0.003229244183106655,0.0060693998596199885,0.0015402365204692681,20.909239250954865,0.007045421292518324,1.0,0.0,225.82086276599762,0.566155751154113,23.30339622782807,126.55219715921918,0.07519759705345622,-0.2804294262235211,1.0,23.24571869353267,0.0,1.0,127.62107834513235,9811.88922668822,1.0,1.0,-0.19190255021540337,20.568103695685586,0.049331040040509595,-43.39623030447192,1.0,23.77830596950931,1.0,0.01008789561645769,5.288360986803733,0.9399910017856755,1.0,-0.16005779986626814,4.797690645753635
2.19,2.19,1.0,19.315272572723266,0.00991870945697767,7.898060588601111,-0.0004532837566625489,0.00028612584894099295,-0.0001197979107000187,20.867659523784813,0.000549259232871334,1.0,0.0,225.82086276599762,0.566155751154113,23.30339622782807,126.55219715921918,0.07519759705345622,-0.2804294262235211,1.0,23.24571869353267,0.0,1.0,128.01404572208395,9957.39924317783,1.0,1.0,-0.19190255021540337,20.568103695685586,0.049331040040509595,-43.39623030447192,1.0,23.77830596950931,1.0,0.01008789561645769,5.288360986803733,0.9399910017856755,1.0,-0.16005779986626814,4.797690645753635
2.2199999999999998,2.2199999999999998,1.0,19.271490661743698,0.06446839646464884,7.959393636977331,-0.0016616540134399911,0.005670304352929684,0.0037032165202734663,20.85057446614295,0.006973324753032866,1.0,0.0,225.82086276599762,0.566155751154113,23.30339622782807,126.55219715921918,0.07519759705345622,-0.2804294262235211,1.0,23.6792372095753,0.0,1.0,129.23145923428916,10078.644044220619,1.0,1.0,0.6289750329814405,20.450835823156595,0.02521206655180406,-43.466133236551514,1.0,23.764569805184998,1.0,0.010148054980072102,5.339550554097394,0.9400223000802712,1.0,0.06795286116781099,4.750695164093983
2.25,2.25,1.0,19.365396802573738,0.04279677235769576,8.00649308113558,-0.00032455766380753715,0.005730052850498539,-0.002405213752154487,20.9552942318434,0.006222852765428064,1.0,0.0,225.82086276599762,0.566155751154113,23.30339622782807,126.55219715921918,0.07519759705345622,-0.2804294262235211,1.0,23.6792372095753,0.0,1.0,129.42988169504162,10199.722729431434,1.0,1.0,0.6289750329814405,20.450835823156595,0.02521206655180406,-43.466133236551514,1.0,23.764569805184998,1.0,0.010148054980072102,5.339550554097394,0.9400223000802712,1.0,0.06795286116781099,4.750695164093983
2.28,2.28,1.0,19.241204084778115,0.08975848522256799,8.105640356619823,0.0020880502344816105,0.0055635773645270475,0.002095842530399403,20.879018099724313,0.0063012619993956295,1.0,0.0,225.82086276599762,0.566155751154113,23.30339622782807,126.55219715921918,0.07519759705345622,-0.2804294262235211,1.0,24.991838671564018,0.0,1.0,130.17896494329804,10440.666239513956,1.0,1.0,1.1488629846785174,20.594818027307035,0.000847778643342415,-43.38645257329779,1.0,24.054190724081465,1.0,-0.00019590345019271114,5.388828145573527,0.94005628338445,1.0,0.20556768341703102,4.901021187575281
2.31,2.31,1.0,19.15874580594971,0.017788683914361673,8.179142459172022,-0.0017922547641050456,0.004755464478225434,0.0006363095469953765,20.8316160837728,0.005121670565618078,1.0,0.0,247.94583041693457,2.7460328961949054,22.426850482050742,130.53506979944672,0.21562627221836314,-0.51974701477211,1.0,24.991838671564018,0.0,1.0,130.05749879463607,10360.07274469182,1.0,1.0,1.1488629846785174,20.594818027307035,0.000847778643342415,-43.38645257329779,1.0,24.054190724081465,1.0,-0.00019590345019271114,5.388828145573527,0.94005628338445,1.0,0.20556768341703102,4.901021187575281
2.34,2.34,1.0,19.188588356927603,0.011973033861616552,8.274514119912917,0.0010989405613646445,0.007575910719081988,-0.0010840373373279461,20.896642084454516,0.0077315736127669945,1.0,0.0,247.94583041693457,2.7460328961949054,22.426850482050742,130.53506979944672,0.21562627221836314,-0.51974701477211,1.0,23.983810822107312,0.0,1.0,131.11309266815707,10473.962064715997,1.0,1.0,-0.8268447390397806,20.488011102696042,-0.008055526616211768,-43.32534671339677,1.0,23.962862503881972,1.0,0.005802470387778909,5.457765609827431,0.9400918828141643,1.0,0.021767456449150572,5.104531022478542
2.37,2.37,1.0,19.189154059754657,0.01703521638793303,8.275895576664468,0.0007917002549110282,0.007385971250585049,0.0005249061603467127,20.897712107392294,0.0074468038167568905,1.0,0.0,247.94583041693457,2.7460328961949054,22.426850482050742,130.53506979944672,0.21562627221836314,-0.51974701477211,1.0,23.983810822107312,0.0,1.0,131.9631383675436,10403.513837961596,1.0,1.0,-0.8268447390397806,20.488011102696042,-0.008055526616211768,-43.32534671339677,1.0,23.962862503881972,1.0,0.005802470387778909,5.457765609827431,0.9400918828141643,1.0,0.021767456449150572,5.104531022478542
2.4,2.4,1.0,19.173457135089905,0.002780894704775898,8.317387514270594,0.002667111829248589,-0.00023155846589172926,0.00343672582635242,20.899770364935822,0.004356396359189738,1.0,0.0,247.94583041693457,2.7460328961949054,22.426850482050742,130.53506979944672,0.21562627221836314,-0.51974701477211,1.0,24.56182810761465,0.0,1.0,132.21855051074976,10622.576777487688,1.0,1.0,-0.5091120220453089,20.598345553273223,-0.03923754558893441,-43.3968389411644,1.0,24.29479771869731,1.0,0.018799669081489043,5.526061938505883,0.9401280473672058,1.0,-0.06162184359268582,4.632863724563357
2.4299999999999997,2.4299999999999997,1.0,19.130715340922062,-0.021514806204044147,8.335166555343191,0.002377017484964677,0.0018250557735153574,0.0014771997634841767,20.867671979585754,0.0033411315211328103,1.0,0.0,247.94583041693457,2.7460328961949054,22.426850482050742,130.53506979944672,0.21562627221836314,-0.51974701477211,1.0,24.56182810761465,0.0,1.0,132.0212560192471,10681.67232997216,1.0,1.0,-0.5091120220453089,20.598345553273223,-0.03923754558893441,-43.3968389411644,1.0,24.29479771869731,1.0,0.018799669081489043,5.526061938505883,0.9401280473672058,1.0,-0.06162184359268582,4.632863724563357
2.46,2.46,1.0,19.014753367012858,0.007668659054939425,8.59370538436642,0.0008863692501038589,-0.003384915218477261,-0.002402541414156954,20.866544434811118,0.004244467779421578,1.0,0.0,247.94583041693457,2.7460328961949054,22.426850482050742,130.53506979944672,0.21562627221836314,-0.51974701477211,1.0,24.281657541634004,0.0,1.0,133.2500705201014,10859.294761733769,1.0,1.0,-0.4024013889485087,20.58954855864265,-0.08792465726667713,-43.401185434724596,1.0,24.11076515788433,1.0,-0.00790504997361721,5.5658068509963865,0.9401636333395867,1.0,0.18800193183145195,4.189170131100076
2.4899999999999998,2.4899999999999998,1.0,19.032345302770274,-0.06252139806006736,8.562783008381855,-0.001095884946139046,-0.0022689026735651843,-0.0003033408653971769,20.86996237413307,0.0025378925977876466,1.0,0.0,247.94583041693457,2.7460328961949054,22.426850482050742,130.53506979944672,0.21562627221836314,-0.51974701477211,1.0,24.281657541634004,0.0,1.0,133.92991918453941,10947.465228538458,1.0,1.0,-0.4024013889485087,20.58954855864265,-0.08792465726667713,-43.401185434724596,1.0,24.11076515788433,1.0,-0.00790504997361721,5.5658068509963865,0.9401636333395867,1.0,0.18800193183145195,4.189170131100076
2.52,2.52,1.0,19.052657122386734,-0.07558373205902659,8.752330886905108,0.0018008038850368278,-0.007931374440988731,0.0020254796107378407,20.966944276113747,0.008381656328497833,1.0,0.0,278.58482181067836,-0.3440415337469612,19.453748782666864,134.3339850021767,-0.06284186796440952,-0.33392321764143923,1.0,23.578621749179685,0.0,1.0,133.89342186306132,11224.424155736484,1.0,1.0,1.1857093564597825,20.53356013895175,0.044464107026134896,-43.350167558218246,1.0,23.97192754121265,1.0,-0.0012016444694733838,5.618802899122134,0.9401972915050835,1.0,0.17717649954510928,4.613569597084266
2.55,2.55,1.0,18.957430413205724,0.014078077443032595,8.756741131280682,0.0011160774710953897,-0.009010810524418239,0.0007120782778919961,20.882166585487838,0.00910754581115565,1.0,0.0,278.58482181067836,-0.3440415337469612,19.453748782666864,134.3339850021767,-0.06284186796440952,-0.33392321764143923,1.0,23.578621749179685,0.0,1.0,134.61966535180923,10979.141842586172,1.0,1.0,1.1857093564597825,20.53356013895175,0.044464107026134896,-43.350167558218246,1.0,23.97192754121265,1.0,-0.0012016444694733838,5.618802899122134,0.9401972915050835,1.0,0.17717649954510928,4.613569597084266
2.58,2.58,1.0,18.985264887235665,-0.036478384138906146,8.777074925318045,-0.0015042144320025572,-0.005428374185608594,-0.003688796636534424,20.915990479909375,0.006733285081008691,1.0,0.0,278.58482181067836,-0.3440415337469612,19.453748782666864,134.3339850021767,-0.06284186796440952,-0.33392321764143923,1.0,23.93088346745396,0.0,1.0,136.29014100904521,11384.34367755142,1.0,1.0,-0.3452342156197893,20.533777123267168,-0.041222404820328164,-43.41347751519139,1.0,23.734634169065203,1.0,-0.002479408169375903,5.653692606787777,0.9402275609756273,1.0,0.12006195311984323,4.85415616378606
2.61,2.61,1.0,18.890557278889297,0.017952961475643184,8.947731367621289,0.0001858287197270408,-0.00555324069521482,-0.0018238488125027809,20.902520738966796,0.005848028644161482,1.0,0.0,278.58482181067836,-0.3440415337469612,19.453748782666864,134.3339850021767,-0.06284186796440952,-0.33392321764143923,1.0,23.93088346745396,0.0,1.0,135.4658658828762,11144.38912376842,1.0,1.0,-0.3452342156197893,20.533777123267168,-0.041222404820328164,-43.41347751519139,1.0,23.734634169065203,1.0,-0.002479408169375903,5.653692606787777,0.9402275609756273,1.0,0.12006195311984323,4.85415616378606
2.6399999999999997,2.6399999999999997,1.0,18.842361660783123,-0.02226071231787174,9.019840684499759,0.0009720465690649371,-0.00939052215493584,-0.0004419180443893157,20.89001231375462,0.009451035521715525,1.0,0.0,278.58482181067836,-0.3440415337469612,19.453748782666864,134.3339850021767,-0.06284186796440952,-0.33392321764143923,1.0,24.204697474106084,0.0,1.0,136.4827376544265,11469.492531643715,1.0,1.0,1.3459109615586782,20.553430226786002,0.02178746435471725,-43.38680105435468,1.0,23.83098608025016,1.0,-0.006549083507980497,5.698801106775121,0.9402528965679197,1.0,-0.17484114516770619,4.687474121839429
2.67,2.67,1.0,18.906139994477527,-0.05694627850182402,9.152181569014504,-5.1391108893179186e-05,-0.008379243024809751,0.0003573074149101096,21.004947032583225,0.008387015160570886,1.0,0.0,278.58482181067836,-0.3440415337469612,19.453748782666864,134.3339850021767,-0.06284186796440952,-0.33392321764143923,1.0,24.204697474106084,0.0,1.0,137.26357752915393,11580.86119640901,1.0,1.0,1.3459109615586782,20.553430226786002,0.02178746435471725,-43.38680105435468,1.0,23.83098608025016,1.0,-0.006549083507980497,5.698801106775121,0.9402528965679197,1.0,-0.17484114516770619,4.687474121839429
2.6999999999999997,2.6999999999999997,1.0,18.882620421430527,0.04550758898109062,9.189388693573669,-0.003825859579287832,-0.010025005465373826,-0.00024796452372298613,21.00000689242886,0.010733099389562585,1.0,0.0,278.58482181067836,-0.3440415337469612,19.453748782666864,134.3339850021767,-0.06284186796440952,-0.33392321764143923,1.0,23.597445598776716,0.0,1.0,137.9694738317551,11782.99429651931,1.0,1.0,0.28213964576416684,20.435768119979848,0.016091909492770822,-43.39803602174269,1.0,23.744648012137354,1.0,0.0011945283160459369,5.744132419612972,0.940271692559966,1.0,-0.3561514070170107,5.628365981755124
2.73,2.73,1.0,18.877238176298267,0.057966280400081754,9.265536344143095,-0.0007422300630782248,-0.011751794178924174,-0.0011268588578505591,21.028638686300948,0.011829005992721851,1.0,0.0,307.09720780175127,-1.7314291718918295,24.396701810704,138.0367980964268,-0.17805452253143808,0.1796949854936014,1.0,23.597445598776716,0.0,1.0,137.61476639283194,11737.888926013215,1.0,1.0,0.28213964576416684,20.435768119979848,0.016091909492770822,-43.39803602174269,1.0,23.744648012137354,1.0,0.0011945283160459369,5.744132419612972,0.940271692559966,1.0,-0.3561514070170107,5.628365981755124
2.76,2.76,1.0,18.813579001150284,-0.038700651021149,9.350354716084071,0.0007739677131526091,-0.010563976221768048,-0.00203391006750787,21.00907865398928,0.010785796669592528,1.0,0.0,307.09720780175127,-1.7314291718918295,24.396701810704,138.0367980964268,-0.17805452253143808,0.1796949854936014,1.0,24.421426155488327,0.0,1.0,139.01348588313041,11848.366916489307,1.0,1.0,-0.7393815471011034,20.47747994778898,0.0400778213824563,-43.4074148903553,1.0,23.968098504424052,1.0,0.006037965286502384,5.796262584772611,0.9402823061199801,1.0,0.20462826001494872,4.765163860445796
2.79,2.79,1.0,18.76854208177112,0.015669916557492707,9.399823927681535,0.0024028661263010907,-0.010832407267608214,-0.0017372059781467866,20.99083388750701,0.011230881418783006,1.0,0.0,307.09720780175127,-1.7314291718918295,24.396701810704,138.0367980964268,-0.17805452253143808,0.1796949854936014,1.0,24.421426155488327,0.0,1.0,139.48276554521723,12052.576904086749,1.0,1.0,-0.7393815471011034,20.47747994778898,0.0400778213824563,-43.4074148903553,1.0,23.968098504424052,1.0,0.006037965286502384,5.796262584772611,0.9402823061199801,1.0,0.20462826001494872,4.765163860445796
2.82,2.82,1.0,18.701383039995214,-0.06054474229818371,9.568543756495705,0.000782528196341349,-0.010527855594166862,0.002678710709427312,21.00719931105557,0.010891445489672174,1.0,0.0,307.09720780175127,-1.7314291718918295,24.396701810704,138.0367980964268,-0.17805452253143808,0.1796949854936014,1.0,24.04141370490251,0.0,1.0,140.17579050178455,11979.770876268962,1.0,1.0,-0.8359526776482145,20.401492416913264,0.0036041208774439796,-43.505909077567864,1.0,24.052192551011203,1.0,-0.020549707218622832,5.85359584288645,0.9402830724872898,1.0,0.3253822691670156,4.605555167005646
2.85,2.85,1.0,18.653584198535597,-0.017108801531292076,9.768429140800883,-0.0016677300066916402,-0.011791692196907975,-0.00012332175594963958,21.05655964401105,0.0119096824683671,1.0,0.0,307.09720780175127,-1.7314291718918295,24.396701810704,138.0367980964268,-0.17805452253143808,0.1796949854936014,1.0,24.04141370490251,0.0,1.0,140.53310041595853,12052.585975696495,1.0,1.0,-0.8359526776482145,20.401492416913264,0.0036041208774439796,-43.505909077567864,1.0,24.052192551011203,1.0,-0.020549707218622832,5.85359584288645,0.9402830724872898,1.0,0.3253822691670156,4.605555167005646
2.88,2.88,1.0,18.656362206919532,-0.02374241831101317,9.709596906431132,0.0020976094970740432,-0.00880538338350794,0.0032937412082968427,21.031801791182318,0.009632417831469195,1.0,0.0,307.09720780175127,-1.7314291718918295,24.396701810704,138.0367980964268,-0.17805452253143808,0.1796949854936014,1.0,22.860248696686867,0.0,1.0,141.222335705308,12285.826600078417,1.0,1.0,0.3792784184019397,20.452141275990652,-0.023072163670456065,-43.539960790996396,1.0,23.89938411553742,1.0,0.011906538629968884,5.877126493503399,0.9402723177132878,1.0,0.06337431289250699,4.954410910299475
2.9099999999999997,2.9099999999999997,1.0,18.653209678702847,0.0829818820033489,9.78392376740688,-0.003920967867369998,-0.008027518023002996,0.00021218986260448488,21.063577132026357,0.008936445555385994,1.0,0.0,307.09720780175127,-1.7314291718918295,24.396701810704,138.0367980964268,-0.17805452253143808,0.1796949854936014,1.0,22.860248696686867,0.0,1.0,141.9269685185911,12208.944858693285,1.0,1.0,0.3792784184019397,20.452141275990652,-0.023072163670456065,-43.539960790996396,1.0,23.89938411553742,1.0,0.011906538629968884,5.877126493503399,0.9402723177132878,1.0,0.06337431289250699,4.954410910299475
2.94,2.94,1.0,18.59222194918066,-0.03229231912508943,9.97212392947688,0.0005540671976661708,-0.011679045977854458,0.0006850041731429903,21.097749061601693,0.011712230194527058,1.0,0.0,335.7417935023607,-0.7382420301120729,23.969342783229322,141.79506846123476,-0.16578356142238226,0.05515783965895146,1.0,22.701697120689726,0.0,1.0,141.89531997315126,12231.78401936525,1.0,1.0,-0.17875312163995194,20.460608439675124,-0.03548410017371443,-43.42729807827124,1.0,23.781136912112046,1.0,0.018992293762112894,5.930561252624545,0.9402483687944498,1.0,-0.25170496755845817,4.790370588624443
2.9699999999999998,2.9699999999999998,1.0,18.522635445650746,0.007476358487680565,9.969063055036315,0.0002446666908570601,-0.011279244418846448,0.000697050044432182,21.034977963946233,0.011303410777908435,1.0,0.0,335.7417935023607,-0.7382420301120729,23.969342783229322,141.79506846123476,-0.16578356142238226,0.05515783965895146,1.0,22.701697120689726,0.0,1.0,141.96327789542917,12373.890480391514,1.0,1.0,-0.17875312163995194,20.460608439675124,-0.03548410017371443,-43.42729807827124,1.0,23.781136912112046,1.0,0.018992293762112894,5.930561252624545,0.9402483687944498,1.0,-0.25170496755845817,4.790370588624443
3.0,3.0,1.0,18.469313020898642,0.0145520591234217,10.07600764008062,0.0010392173531779258,-0.012192621976524414,0.0018238642702791594,21.03905095742971,0.012372004051323826,1.0,0.0,335.7417935023607,-0.7382420301120729,23.969342783229322,141.79506846123476,-0.16578356142238226,0.05515783965895146,1.0,23.888165246666713,0.0,1.0,143.02261779632167,12377.531243723088,1.0,1.0,-2.0965209379939984,20.378127614195936,0.03613128816463465,-43.45895414593259,1.0,23.66768953666991,1.0,-0.005325179780686153,5.952552592781942,0.9402095616352973,1.0,-0.7157503137272165,5.178552291409457
