time_s,sensor_time_s,imu_valid,imu_ax_mps2,imu_ay_mps2,imu_az_mps2,gyro_p_rps,gyro_q_rps,gyro_r_rps,imu_accel_norm_mps2,imu_gyro_norm_rps,gps_valid,gps_latency_s,gps_x_m,gps_y_m,gps_z_m,gps_vx_mps,gps_vy_mps,gps_vz_mps,baro_valid,baro_alt_m,baro_bias_m,pitot_valid,pitot_airspeed_mps,pitot_qbar_pa,pitot_compressibility_factor,mag_valid,mag_heading_deg,mag_x_ut,mag_y_ut,mag_z_ut,radar_valid,radar_agl_m,optical_flow_valid,horizon_valid,horizon_roll_deg,horizon_pitch_deg
0.0,0.0,1.0,17.505449318935018,1.4996434638177225,-0.7617014070394987,0.0011795551696321186,0.002982802560093238,0.0017401726722909368,17.586070493713475,0.0036492002466421065,1.0,0.0,-0.7658830172640091,-121.33930817381692,1000.335930710274,88.01166284655733,4.253777560437563,14.24831216786183,1.0,1001.3249718431521,0.0,1.0,91.52995941362157,4677.67612456939,1.0,1.0,4.278327064146713,17.963328002603575,-1.2082217914267943,-44.46072234159003,1.0,1000.0489477121154,0.0,1.0,-0.08935740668074815,8.42961517096461
0.03,0.03,1.0,17.833804551192948,1.2014358645746108,-0.23602308097963903,0.03127925247414877,-0.22740592951519087,-0.09321517232001392,17.875786410717478,0.24775172403973172,1.0,0.0,-0.7658830172640091,-121.33930817381692,1000.335930710274,88.01166284655733,4.253777560437563,14.24831216786183,1.0,1001.3249718431521,0.0,1.0,92.0990331310989,4651.180293204553,1.0,1.0,4.278327064146713,17.963328002603575,-1.2082217914267943,-44.46072234159003,1.0,1000.0489477121154,0.0,1.0,-0.08935740668074815,8.42961517096461
0.06,0.06,1.0,18.116547706305365,0.9963099523634311,0.6078408444728166,0.0549512203558418,-0.3615643896880427,-0.16007693713128388,18.15410159738636,0.3992155687224837,1.0,0.0,-0.7658830172640091,-121.33930817381692,1000.335930710274,88.01166284655733,4.253777560437563,14.24831216786183,1.0,1000.0265329189342,0.0,1.0,91.83093710088794,4712.466724261048,1.0,1.0,1.9176595101472695,17.17918699831519,-1.2265129408377562,-44.79588676900452,1.0,1000.3098222356252,0.0,1.0,0.6429265275875158,9.45728272486848
0.09,0.09,1.0,18.354163535130606,0.6862830433207708,1.0743660715695877,0.0634690861827462,-0.2776862540646606,-0.20798983898261703,18.398384873287316,0.35270065738151246,1.0,0.0,-0.7658830172640091,-121.33930817381692,1000.335930710274,88.01166284655733,4.253777560437563,14.24831216786183,1.0,1000.0265329189342,0.0,1.0,91.72943155883937,4744.697195976469,1.0,1.0,1.9176595101472695,17.17918699831519,-1.2265129408377562,-44.79588676900452,1.0,1000.3098222356252,0.0,1.0,0.6429265275875158,9.45728272486848
0.12,0.12,1.0,18.63709393977776,0.570162603903894,1.3428152631094004,0.0689589836576181,-0.17496511712433674,-0.22161580865804092,18.694103582301853,0.2906573589031971,1.0,0.0,-0.7658830172640091,-121.33930817381692,1000.335930710274,88.01166284655733,4.253777560437563,14.24831216786183,1.0,1001.0105206738401,0.0,1.0,92.9050157879378,4817.901852056602,1.0,1.0,0.2770950170477956,16.577065088764755,-1.2534682353641455,-45.050259599354014,1.0,1001.7272500682737,0.0,1.0,0.5646554924712517,9.899473538591835
0.15,0.15,1.0,18.913596655381834,0.5475102326603823,1.5900799145958902,0.06770025214415387,-0.1341854968265118,-0.2233135302417736,18.988213713568214,0.2691802453524466,1.0,0.0,-0.7658830172640091,-121.33930817381692,1000.335930710274,88.01166284655733,4.253777560437563,14.24831216786183,1.0,1001.0105206738401,0.0,1.0,93.79191994175882,4889.938065691481,1.0,1.0,0.2770950170477956,16.577065088764755,-1.2534682353641455,-45.050259599354014,1.0,1001.7272500682737,0.0,1.0,0.5646554924712517,9.899473538591835
0.18,0.18,1.0,19.23733497836814,0.5063922051767246,1.8890118318711828,0.06347487911600817,-0.14704054189410523,-0.21859096539056996,19.336490266756254,0.27098337843802395,1.0,0.0,-0.7658830172640091,-121.33930817381692,1000.335930710274,88.01166284655733,4.253777560437563,14.24831216786183,1.0,1002.9030711907311,0.0,1.0,93.55211972099382,4868.23102047589,1.0,1.0,1.681146955247538,16.212011362923416,-1.1273062150765096,-45.11631576587554,1.0,1002.7723647204738,0.0,1.0,0.921474073476336,10.075110846277763
0.21,0.21,1.0,19.494060922849663,0.5611390602445505,2.2893434396179293,0.06664359827690917,-0.1485456334739688,-0.21180265166915202,19.636048016167308,0.26714703380266247,1.0,0.0,19.55681564901419,-120.31656500830852,1003.0967534587172,91.98690559639336,4.140900401433083,12.696134567781261,1.0,1002.9030711907311,0.0,1.0,94.89307100466056,4904.331032453575,1.0,1.0,1.681146955247538,16.212011362923416,-1.1273062150765096,-45.11631576587554,1.0,1002.7723647204738,0.0,1.0,0.921474073476336,10.075110846277763
0.24,0.24,1.0,19.837759326672092,0.4123564831995162,2.55509366048606,0.06598523108393498,-0.12051234476964738,-0.20873095701598218,20.005880050276676,0.24989175332508767,1.0,0.0,19.55681564901419,-120.31656500830852,1003.0967534587172,91.98690559639336,4.140900401433083,12.696134567781261,1.0,1003.9046844711003,0.0,1.0,94.89635825038849,4980.096351944797,1.0,1.0,-0.5956208539902011,15.78489854588813,-1.107246029683135,-45.33560388481576,1.0,1002.8870598503896,0.0,1.0,1.7346232137852953,10.541393916098272
0.27,0.27,1.0,20.015561717862035,0.4285149963588939,2.8471995467064573,0.0640586760426447,-0.10183306108856802,-0.20656064374592573,20.2215944287886,0.23904138941140668,1.0,0.0,19.55681564901419,-120.31656500830852,1003.0967534587172,91.98690559639336,4.140900401433083,12.696134567781261,1.0,1003.9046844711003,0.0,1.0,96.05622540008464,5063.560639107691,1.0,1.0,-0.5956208539902011,15.78489854588813,-1.107246029683135,-45.33560388481576,1.0,1002.8870598503896,0.0,1.0,1.7346232137852953,10.541393916098272
0.3,0.3,1.0,20.34812589032738,0.40030580456795867,2.9542036775581244,0.06615159238586742,-0.08600483951218482,-0.20404455804254662,20.5653541509569,0.23109964790427698,1.0,0.0,19.55681564901419,-120.31656500830852,1003.0967534587172,91.98690559639336,4.140900401433083,12.696134567781261,1.0,1003.7241965884749,0.0,1.0,95.49494352067785,5162.539484300874,1.0,1.0,-0.9600482555937281,15.639989893515953,-1.180164038339218,-45.3965622659398,1.0,1004.2073890754134,0.0,1.0,1.236212109021059,10.974375766695239
0.32999999999999996,0.32999999999999996,1.0,20.621342732622686,0.34899751000762924,3.2644940220865943,0.07098192248792534,-0.08004772184837343,-0.2035106911217303,20.881055925851093,0.22991883892808943,1.0,0.0,19.55681564901419,-120.31656500830852,1003.0967534587172,91.98690559639336,4.140900401433083,12.696134567781261,1.0,1003.7241965884749,0.0,1.0,97.20595864512916,5199.932744674889,1.0,1.0,-0.9600482555937281,15.639989893515953,-1.180164038339218,-45.3965622659398,1.0,1004.2073890754134,0.0,1.0,1.236212109021059,10.974375766695239
0.36,0.36,1.0,20.90529973942666,0.3149296848041272,3.4759903210887892,0.0672539420218608,-0.07362185818953539,-0.2004221461316489,21.194651368067987,0.22385778382887628,1.0,0.0,19.55681564901419,-120.31656500830852,1003.0967534587172,91.98690559639336,4.140900401433083,12.696134567781261,1.0,1004.9980300991407,0.0,1.0,96.59135523425832,5241.195650686551,1.0,1.0,-1.4445119586722703,15.40023906095852,-1.191790050732724,-45.371795043539606,1.0,1004.1064401004878,0.0,1.0,2.635726545307551,11.710131358849692
0.39,0.39,1.0,21.265453435235067,0.34509912244054547,3.7369065149773966,0.06793626521349214,-0.06386223090493845,-0.19984015750970294,21.594051808591658,0.2205216751723433,1.0,0.0,19.55681564901419,-120.31656500830852,1003.0967534587172,91.98690559639336,4.140900401433083,12.696134567781261,1.0,1004.9980300991407,0.0,1.0,97.6792465381666,5386.178169642256,1.0,1.0,-1.4445119586722703,15.40023906095852,-1.191790050732724,-45.371795043539606,1.0,1004.1064401004878,0.0,1.0,2.635726545307551,11.710131358849692
0.42,0.42,1.0,21.211669681936964,0.29827995350038555,3.833774353352956,0.06939695437260038,-0.058334336868890765,-0.2010564459342404,21.557405396259792,0.22055050801536175,1.0,0.0,40.0043144587106,-118.4114624778476,1005.0551483882149,95.8082000157993,4.561225371435408,12.175998674008838,1.0,1005.7471437646916,0.0,1.0,98.91405708431384,5403.565709769312,1.0,1.0,-2.0380372536193887,15.26453062931858,-1.1836860882732154,-45.57127756391413,1.0,1005.1274227291017,0.0,1.0,2.020847689558333,11.186886818706757
0.44999999999999996,0.44999999999999996,1.0,21.199895144437,0.24663073910655656,3.993497008610849,0.0728063566028635,-0.05049340690923688,-0.2023033456328764,21.574160452133,0.22085514111593635,1.0,0.0,40.0043144587106,-118.4114624778476,1005.0551483882149,95.8082000157993,4.561225371435408,12.175998674008838,1.0,1005.7471437646916,0.0,1.0,98.36739673280157,5401.521270660664,1.0,1.0,-2.0380372536193887,15.26453062931858,-1.1836860882732154,-45.57127756391413,1.0,1005.1274227291017,0.0,1.0,2.020847689558333,11.186886818706757
0.48,0.48,1.0,21.22187972770658,0.2054158487682833,4.243448734996757,0.06940587350429064,-0.0427016205898546,-0.2007657711822557,21.642948782795617,0.21667371450247336,1.0,0.0,40.0043144587106,-118.4114624778476,1005.0551483882149,95.8082000157993,4.561225371435408,12.175998674008838,1.0,1006.0600893690707,0.0,1.0,99.32553707073633,5558.870408622328,1.0,1.0,-1.8724418901880904,15.153106011028983,-1.1383257808667033,-45.49427754236599,1.0,1005.6944873894038,0.0,1.0,2.5302577413793976,11.213765118522227
0.51,0.51,1.0,21.175015282383214,0.08533054065232586,4.399544142707826,0.07374565641195911,-0.039955043662549025,-0.20740908251938503,21.627402575759426,0.223726071045017,1.0,0.0,40.0043144587106,-118.4114624778476,1005.0551483882149,95.8082000157993,4.561225371435408,12.175998674008838,1.0,1006.0600893690707,0.0,1.0,99.83878950835069,5573.88890473165,1.0,1.0,-1.8724418901880904,15.153106011028983,-1.1383257808667033,-45.49427754236599,1.0,1005.6944873894038,0.0,1.0,2.5302577413793976,11.213765118522227
0.54,0.54,1.0,21.129900118094888,0.1288851491992112,4.510280882708965,0.07141323306024423,-0.034630236803746155,-0.20436272652578158,21.606293620685626,0.21923327108413926,1.0,0.0,40.0043144587106,-118.4114624778476,1005.0551483882149,95.8082000157993,4.561225371435408,12.175998674008838,1.0,1006.0218797324213,0.0,1.0,100.31244395131309,5695.157760712198,1.0,1.0,-4.1211944545547095,15.06624572148054,-1.1580850382011671,-45.55570620586586,1.0,1006.9256424058565,0.0,1.0,3.4285462484258473,11.964889963714645
0.57,0.57,1.0,21.135205310337533,-0.02124343921171836,4.74309035435776,0.07760643575738835,-0.03032382619391768,-0.20816857600285862,21.660892430909467,0.22422410517395872,1.0,0.0,40.0043144587106,-118.4114624778476,1005.0551483882149,95.8082000157993,4.561225371435408,12.175998674008838,1.0,1006.0218797324213,0.0,1.0,100.67600003832432,5585.155546506033,1.0,1.0,-4.1211944545547095,15.06624572148054,-1.1580850382011671,-45.55570620586586,1.0,1006.9256424058565,0.0,1.0,3.4285462484258473,11.964889963714645
0.6,0.6,1.0,21.03228502373357,-0.043683781065343985,4.86363825624828,0.07452146214297967,-0.03171359394436597,-0.20385081230377408,21.587355064480167,0.2193498439427396,1.0,0.0,40.0043144587106,-118.4114624778476,1005.0551483882149,95.8082000157993,4.561225371435408,12.175998674008838,1.0,1007.3067983238622,0.0,1.0,101.60643679795119,5750.634671383792,1.0,1.0,-5.032366567513277,14.944128204550749,-1.1531520245971654,-45.54502620425161,1.0,1007.4972236633802,0.0,1.0,2.9413365781889986,11.54754781866426
0.63,0.63,1.0,21.09015221812157,-0.01625677105869376,5.031008485670045,0.07846511986788751,-0.024377053075350423,-0.20878957435048368,21.68192406704321,0.2243749141726333,1.0,0.0,59.250715951371554,-116.94520291847525,1009.1710488509163,100.10225631580212,4.37334048243392,12.298340813671565,1.0,1007.3067983238622,0.0,1.0,102.29392167459798,5752.519426910794,1.0,1.0,-5.032366567513277,14.944128204550749,-1.1531520245971654,-45.54502620425161,1.0,1007.4972236633802,0.0,1.0,2.9413365781889986,11.54754781866426
0.6599999999999999,0.6599999999999999,1.0,21.008741087067506,-0.15455218426882694,5.118503844493065,0.07743203200609147,-0.02751283381628561,-0.20596119989097458,21.623833380027484,0.22174916339351747,1.0,0.0,59.250715951371554,-116.94520291847525,1009.1710488509163,100.10225631580212,4.37334048243392,12.298340813671565,1.0,1008.2634443458827,0.0,1.0,102.69895607994236,5797.114662482939,1.0,1.0,-3.431226550295503,14.94607140482087,-1.240198435207939,-45.61820087045238,1.0,1008.1981450281712,0.0,1.0,3.448043296764924,11.807866145139688
0.69,0.69,1.0,21.040425999165816,-0.16220305470849936,5.265845833284212,0.07647241892560028,-0.01998874410697347,-0.2066383885357268,21.68997391416703,0.22123969888776418,1.0,0.0,59.250715951371554,-116.94520291847525,1009.1710488509163,100.10225631580212,4.37334048243392,12.298340813671565,1.0,1008.2634443458827,0.0,1.0,103.9641491311482,6038.203340403855,1.0,1.0,-3.431226550295503,14.94607140482087,-1.240198435207939,-45.61820087045238,1.0,1008.1981450281712,0.0,1.0,3.448043296764924,11.807866145139688
0.72,0.72,1.0,20.9652434813773,-0.25872577200544844,5.414088315358097,0.0769936801460591,-0.018912289417774404,-0.20956550788541634,21.654577473251013,0.22406116033067358,1.0,0.0,59.250715951371554,-116.94520291847525,1009.1710488509163,100.10225631580212,4.37334048243392,12.298340813671565,1.0,1009.3851874803596,0.0,1.0,104.28714481511639,6001.8504180537175,1.0,1.0,-4.236297939906482,14.876324975205256,-1.282881477634022,-45.64562294118199,1.0,1008.7993448439908,0.0,1.0,4.350452957219733,12.378618137438322
0.75,0.75,1.0,20.954610650917495,-0.3300559373455176,5.568871316122067,0.0761737425983896,-0.02163218357792899,-0.20961736950639437,21.684486901673488,0.22407550519094052,1.0,0.0,59.250715951371554,-116.94520291847525,1009.1710488509163,100.10225631580212,4.37334048243392,12.298340813671565,1.0,1009.3851874803596,0.0,1.0,104.94228321904367,6153.7830346508745,1.0,1.0,-4.236297939906482,14.876324975205256,-1.282881477634022,-45.64562294118199,1.0,1008.7993448439908,0.0,1.0,4.350452957219733,12.378618137438322
0.78,0.78,1.0,20.886194330304992,-0.37141236574416886,5.711908350829306,0.08234271487164224,-0.01877872355762446,-0.20869433246041966,21.656337588728285,0.22513615336499473,1.0,0.0,59.250715951371554,-116.94520291847525,1009.1710488509163,100.10225631580212,4.37334048243392,12.298340813671565,1.0,1010.18373363819,0.0,1.0,105.7689267884845,6220.376121697917,1.0,1.0,-6.787822916748577,14.877123965331036,-1.2586547967553265,-45.64602115301565,1.0,1009.3834890137667,0.0,1.0,4.66830850677598,12.256696439691405
0.8099999999999999,0.8099999999999999,1.0,20.858725765758706,-0.38793579012263213,5.840509072926349,0.07909461971669467,-0.013059124128929844,-0.21191305755376683,21.664452011978497,0.22656929084262376,1.0,0.0,59.250715951371554,-116.94520291847525,1009.1710488509163,100.10225631580212,4.37334048243392,12.298340813671565,1.0,1010.18373363819,0.0,1.0,106.0611241800155,6281.80527787813,1.0,1.0,-6.787822916748577,14.877123965331036,-1.2586547967553265,-45.64602115301565,1.0,1009.3834890137667,0.0,1.0,4.66830850677598,12.256696439691405
0.84,0.84,1.0,20.791954555825903,-0.5312635881919566,5.969440559896232,0.07951035787943148,-0.017519772350719588,-0.20739891775473068,21.638434228238474,0.22280742922795427,1.0,0.0,82.24067791722538,-118.22612675052153,1010.770470936452,104.26824180084562,3.7089965456561083,11.592482240715274,1.0,1010.1167025459637,0.0,1.0,105.81105819419122,6294.164725513555,1.0,1.0,-6.961742836475696,14.907078631094064,-1.3591808574866429,-45.60424278301291,1.0,1010.7298019586738,0.0,1.0,4.998687425657409,11.479143974846412
0.87,0.87,1.0,20.78499003191627,-0.5890568851821766,6.101750757965937,0.0793413723265602,-0.01450782915499871,-0.21211376805686083,21.670121387596726,0.22693122541583438,1.0,0.0,82.24067791722538,-118.22612675052153,1010.770470936452,104.26824180084562,3.7089965456561083,11.592482240715274,1.0,1010.1167025459637,0.0,1.0,107.58617071177788,6315.1920554425,1.0,1.0,-6.961742836475696,14.907078631094064,-1.3591808574866429,-45.60424278301291,1.0,1010.7298019586738,0.0,1.0,4.998687425657409,11.479143974846412
0.8999999999999999,0.8999999999999999,1.0,20.737991239957257,-0.6991580025761186,6.170775164943349,0.0793486215212799,-0.01702487250884386,-0.20773689224857197,21.647899868518234,0.22302615636369766,1.0,0.0,82.24067791722538,-118.22612675052153,1010.770470936452,104.26824180084562,3.7089965456561083,11.592482240715274,1.0,1011.1220215871463,0.0,1.0,108.16418071945976,6494.080513245479,1.0,1.0,-7.15079345079525,14.720141240447996,-1.3015236897259677,-45.63590495846214,1.0,1011.2346187670869,0.0,1.0,5.886380010898157,11.909712642971689
0.9299999999999999,0.9299999999999999,1.0,20.63593895771408,-0.7882639828813076,6.38548787673728,0.07981595799443848,-0.01627222731413171,-0.2069551298451527,21.615683940073893,0.22240907873006613,1.0,0.0,82.24067791722538,-118.22612675052153,1010.770470936452,104.26824180084562,3.7089965456561083,11.592482240715274,1.0,1011.1220215871463,0.0,1.0,109.1857935311492,6510.990365832474,1.0,1.0,-7.15079345079525,14.720141240447996,-1.3015236897259677,-45.63590495846214,1.0,1011.2346187670869,0.0,1.0,5.886380010898157,11.909712642971689
0.96,0.96,1.0,20.68594456411504,-0.7961858042093194,6.535566600271334,0.08700342708699078,-0.01250549901535424,-0.21174999390359894,21.708427974661067,0.22926849706987337,1.0,0.0,82.24067791722538,-118.22612675052153,1010.770470936452,104.26824180084562,3.7089965456561083,11.592482240715274,1.0,1011.882302198889,0.0,1.0,110.32170876280756,6646.8406363295235,1.0,1.0,-7.244240675339699,14.789644454900898,-1.3985005773056358,-45.62226194004116,1.0,1011.809392638195,0.0,1.0,6.250689501010284,12.251800712206824
0.99,0.99,1.0,20.696126239349592,-0.8926842843804504,6.710192854982056,0.08182080406516884,-0.014692363528285941,-0.20890752163270937,21.775059464849384,0.22483963644926797,1.0,0.0,82.24067791722538,-118.22612675052153,1010.770470936452,104.26824180084562,3.7089965456561083,11.592482240715274,1.0,1011.882302198889,0.0,1.0,110.24421876419653,6727.080633623368,1.0,1.0,-7.244240675339699,14.789644454900898,-1.3985005773056358,-45.62226194004116,1.0,1011.809392638195,0.0,1.0,6.250689501010284,12.251800712206824
1.02,1.02,1.0,20.62165703624154,-0.9909229749022239,6.786012038165455,0.08406987275958153,-0.01250083950137664,-0.2085485675480103,21.7321104967899,0.2252032848791918,1.0,0.0,82.24067791722538,-118.22612675052153,1010.770470936452,104.26824180084562,3.7089965456561083,11.592482240715274,1.0,1012.99384540833,0.0,1.0,110.32834241657532,6700.99029005852,1.0,1.0,-9.184889261502821,14.816508196966534,-1.4976241391624798,-45.668499181401266,1.0,1012.3890727899923,0.0,1.0,7.2392169370958035,12.0406534401311
1.05,1.05,1.0,20.60389294256211,-1.1156668474064626,6.953678838983202,0.08324973474890704,-0.011769763705999343,-0.21484704515321235,21.774268444627143,0.2307125884829974,1.0,0.0,103.48710256748515,-117.49449854941673,1014.2636661863111,107.98960163031019,2.562313741072484,11.979431399534052,1.0,1012.99384540833,0.0,1.0,111.19938383833285,6818.684530006107,1.0,1.0,-9.184889261502821,14.816508196966534,-1.4976241391624798,-45.668499181401266,1.0,1012.3890727899923,0.0,1.0,7.2392169370958035,12.0406534401311
1.08,1.08,1.0,20.574835908769764,-1.135118667387644,7.108820689792973,0.08654736635813551,-0.018020385942564505,-0.21107232636335324,21.797882894021665,0.2288377326611287,1.0,0.0,103.48710256748515,-117.49449854941673,1014.2636661863111,107.98960163031019,2.562313741072484,11.979431399534052,1.0,1013.019074365694,0.0,1.0,111.6831323165905,6865.475048354742,1.0,1.0,-11.824316444571593,14.707823966258237,-1.4003611157800144,-45.634065634304115,1.0,1013.7545985460465,0.0,1.0,6.738382003169735,12.018611310824406
1.1099999999999999,1.1099999999999999,1.0,20.50105511854145,-1.2186965218000951,7.2478033675145,0.08694112656746839,-0.012610178539310287,-0.21369738507226474,21.778639439594862,0.23105053230481343,1.0,0.0,103.48710256748515,-117.49449854941673,1014.2636661863111,107.98960163031019,2.562313741072484,11.979431399534052,1.0,1013.019074365694,0.0,1.0,112.0271847651579,7073.008091616763,1.0,1.0,-11.824316444571593,14.707823966258237,-1.4003611157800144,-45.634065634304115,1.0,1013.7545985460465,0.0,1.0,6.738382003169735,12.018611310824406
1.14,1.14,1.0,20.50507451942674,-1.3229092581657707,7.425301659180927,0.08649706550095684,-0.0152077687359849,-0.21301386876996664,21.848186988453286,0.2304081744612213,1.0,0.0,103.48710256748515,-117.49449854941673,1014.2636661863111,107.98960163031019,2.562313741072484,11.979431399534052,1.0,1014.66136044752,0.0,1.0,113.24123916767425,7123.987233949863,1.0,1.0,-10.2558642278654,14.725781504829326,-1.4273443865103541,-45.620908176891795,1.0,1013.7657050342666,0.0,1.0,7.896379343593005,11.7234597383412
1.17,1.17,1.0,20.443125668610502,-1.3641277838605899,7.584131853961551,0.08741925476703764,-0.012910110233286412,-0.21359887435247088,21.847226086887467,0.23115638899866575,1.0,0.0,103.48710256748515,-117.49449854941673,1014.2636661863111,107.98960163031019,2.562313741072484,11.979431399534052,1.0,1014.66136044752,0.0,1.0,113.9070158376123,7134.165655375607,1.0,1.0,-10.2558642278654,14.725781504829326,-1.4273443865103541,-45.620908176891795,1.0,1013.7657050342666,0.0,1.0,7.896379343593005,11.7234597383412
1.2,1.2,1.0,20.415602009005454,-1.4926020780362868,7.712170674088493,0.09245018921827257,-0.014508648986561134,-0.21225599170062406,21.87469412036969,0.23197013685973683,1.0,0.0,103.48710256748515,-117.49449854941673,1014.2636661863111,107.98960163031019,2.562313741072484,11.979431399534052,1.0,1014.2876771317995,0.0,1.0,114.17522273413981,7289.30505103786,1.0,1.0,-12.178015254898755,14.704742876116839,-1.5839024164365918,-45.715213619787576,1.0,1014.7290877802978,0.0,1.0,8.431188957714575,11.841728000890278
1.23,1.23,1.0,20.46508194608113,-1.5201835308159461,7.852309452710865,0.09032105774649811,-0.015000903752534989,-0.2174151678209785,21.97246687944511,0.23590734576198197,1.0,0.0,103.48710256748515,-117.49449854941673,1014.2636661863111,107.98960163031019,2.562313741072484,11.979431399534052,1.0,1014.2876771317995,0.0,1.0,114.93517963032264,7271.238509205554,1.0,1.0,-12.178015254898755,14.704742876116839,-1.5839024164365918,-45.715213619787576,1.0,1014.7290877802978,0.0,1.0,8.431188957714575,11.841728000890278
1.26,1.26,1.0,20.400692178170292,-1.544433507158856,8.028659926116656,0.09565232098753616,-0.015554272942813197,-0.21549617629122286,21.978009382465125,0.23628352442186903,1.0,0.0,127.01760697986155,-114.09436130176732,1014.9017127782827,111.55972138088445,1.3839646358203392,12.081491628118386,1.0,1015.0014418792795,0.0,1.0,115.67220525402774,7390.110479597116,1.0,1.0,-11.976849883829127,14.650472430426758,-1.648484221617751,-45.66787083317362,1.0,1015.2987148212362,0.0,1.0,8.301961397516521,11.328780679973717
1.29,1.29,1.0,20.460674988506167,-1.711409436429248,8.228727411817745,0.09169057069477562,-0.016752938355962445,-0.22070727273358565,22.11967671695004,0.2395819733105763,1.0,0.0,127.01760697986155,-114.09436130176732,1014.9017127782827,111.55972138088445,1.3839646358203392,12.081491628118386,1.0,1015.0014418792795,0.0,1.0,115.6998773628781,7536.333015730571,1.0,1.0,-11.976849883829127,14.650472430426758,-1.648484221617751,-45.66787083317362,1.0,1015.2987148212362,0.0,1.0,8.301961397516521,11.328780679973717
1.3199999999999998,1.3199999999999998,1.0,20.315508235618093,-1.8795251431817372,8.379426641411897,0.09865456186026804,-0.013643353169181298,-0.21651073011835678,22.056003275165754,0.23831861009565408,1.0,0.0,127.01760697986155,-114.09436130176732,1014.9017127782827,111.55972138088445,1.3839646358203392,12.081491628118386,1.0,1015.8126667508772,0.0,1.0,116.52302267401241,7587.849034665492,1.0,1.0,-12.198910793795656,14.595978649486588,-1.6415857205549746,-45.661986097375504,1.0,1015.8057632446796,0.0,1.0,9.020487884859884,11.213027954130153
1.3499999999999999,1.3499999999999999,1.0,20.30230296207025,-1.8859772755868678,8.576045237316157,0.0977334413866835,-0.018365137036968147,-0.22342615463967724,22.119877209428846,0.24455745828075637,1.0,0.0,127.01760697986155,-114.09436130176732,1014.9017127782827,111.55972138088445,1.3839646358203392,12.081491628118386,1.0,1015.8126667508772,0.0,1.0,118.17852593035374,7625.4260464652,1.0,1.0,-12.198910793795656,14.595978649486588,-1.6415857205549746,-45.661986097375504,1.0,1015.8057632446796,0.0,1.0,9.020487884859884,11.213027954130153
1.38,1.38,1.0,20.250870325494557,-1.970643827386139,8.666383726444826,0.10212957685882906,-0.021658740084981195,-0.2219680694560893,22.115320321632215,0.24529446661002266,1.0,0.0,127.01760697986155,-114.09436130176732,1014.9017127782827,111.55972138088445,1.3839646358203392,12.081491628118386,1.0,1017.2305850226925,0.0,1.0,117.79514812053804,7792.789861671539,1.0,1.0,-14.905521022657572,14.668358636798747,-1.8025196154978973,-45.699692883210616,1.0,1017.1502371109578,0.0,1.0,9.780775683332381,11.067648142549396
1.41,1.41,1.0,20.24525023882695,-2.0857956225505263,8.803210870102696,0.10393468097564523,-0.015930440765811675,-0.2292341260780953,22.174697793549925,0.2521992890776861,1.0,0.0,127.01760697986155,-114.09436130176732,1014.9017127782827,111.55972138088445,1.3839646358203392,12.081491628118386,1.0,1017.2305850226925,0.0,1.0,118.58360817915361,7756.611214670368,1.0,1.0,-14.905521022657572,14.668358636798747,-1.8025196154978973,-45.699692883210616,1.0,1017.1502371109578,0.0,1.0,9.780775683332381,11.067648142549396
1.44,1.44,1.0,20.174683015399406,-2.149093741781257,8.96479122731167,0.0995309918128006,-0.01696080205913851,-0.22897578409694963,22.181161386007112,0.2502478708012157,1.0,0.0,127.01760697986155,-114.09436130176732,1014.9017127782827,111.55972138088445,1.3839646358203392,12.081491628118386,1.0,1017.8153660743602,0.0,1.0,118.50286481845885,7837.296471921024,1.0,1.0,-14.550859502312123,14.585822218328659,-1.9350472201541098,-45.72222898804083,1.0,1017.5191900598037,0.0,1.0,9.62679412637719,11.291961191170488
1.47,1.47,1.0,20.167354222993463,-2.2891748875731825,9.20770047594299,0.10464173754416756,-0.020435373529077937,-0.23200062449695935,22.287760005802934,0.25532682486279135,1.0,0.0,150.66774008845172,-114.27502186822366,1019.866524826399,115.36604632239154,0.2478968424991715,12.816185808559977,1.0,1017.8153660743602,0.0,1.0,119.43284687010615,7932.876543714226,1.0,1.0,-14.550859502312123,14.585822218328659,-1.9350472201541098,-45.72222898804083,1.0,1017.5191900598037,0.0,1.0,9.62679412637719,11.291961191170488
1.5,1.5,1.0,20.100213509441073,-2.300762702995154,9.39744320400559,0.10978644988731359,-0.025692172481524753,-0.23720951771450344,22.307488225103288,0.26264330869075525,1.0,0.0,150.66774008845172,-114.27502186822366,1019.866524826399,115.36604632239154,0.2478968424991715,12.816185808559977,1.0,1019.6047395162112,0.0,1.0,119.32728702689963,7984.905159002795,1.0,1.0,-14.969124723545791,14.621103450615227,-1.9302704041676304,-45.78510848229065,1.0,1018.5198495004141,0.0,1.0,9.871418084576563,11.601519227004674
1.53,1.53,1.0,20.082728128065266,-2.419688865526655,9.488305062270351,0.11513680829301087,-0.022340626429800066,-0.24156482942334292,22.342757131259397,0.2685314786528875,1.0,0.0,150.66774008845172,-114.27502186822366,1019.866524826399,115.36604632239154,0.2478968424991715,12.816185808559977,1.0,1019.6047395162112,0.0,1.0,120.58907323319774,8038.722145666055,1.0,1.0,-14.969124723545791,14.621103450615227,-1.9302704041676304,-45.78510848229065,1.0,1018.5198495004141,0.0,1.0,9.871418084576563,11.601519227004674
1.56,1.56,1.0,20.004058894077428,-2.4858971874120988,9.704744645789617,0.11155056468510613,-0.023281588396496425,-0.24134423583776793,22.37239651231141,0.2668943630201771,1.0,0.0,150.66774008845172,-114.27502186822366,1019.866524826399,115.36604632239154,0.2478968424991715,12.816185808559977,1.0,1019.0910179037304,0.0,1.0,120.8494406326031,8148.9985413983695,1.0,1.0,-14.391774646730006,14.477332372211103,-2.071103355056311,-45.75373749455022,1.0,1019.4776255487352,0.0,1.0,10.890425871215832,10.862358353208313
1.5899999999999999,1.5899999999999999,1.0,20.02397433939869,-2.637980333453239,9.83818794655385,0.11580341135531516,-0.02228352968608427,-0.2456717275799396,22.465716784832413,0.27250978607916265,1.0,0.0,150.66774008845172,-114.27502186822366,1019.866524826399,115.36604632239154,0.2478968424991715,12.816185808559977,1.0,1019.0910179037304,0.0,1.0,121.00796307616612,8264.731593879234,1.0,1.0,-14.391774646730006,14.477332372211103,-2.071103355056311,-45.75373749455022,1.0,1019.4776255487352,0.0,1.0,10.890425871215832,10.862358353208313
1.6199999999999999,1.6199999999999999,1.0,20.02879373646078,-2.661112402369995,10.124240899604425,0.11812514755930019,-0.02289669482770355,-0.24860530765657957,22.599432549269043,0.2761927010530184,1.0,0.0,150.66774008845172,-114.27502186822366,1019.866524826399,115.36604632239154,0.2478968424991715,12.816185808559977,1.0,1019.254300889786,0.0,1.0,121.93918252877792,8379.096429874506,1.0,1.0,-14.472427877751436,14.575321372315692,-2.1480441194049362,-45.82108075879715,1.0,1019.9426263429831,0.0,1.0,11.519741064029345,11.020871140875384
1.65,1.65,1.0,19.99432133728285,-2.8322426015070143,10.270113311284572,0.12468579383196352,-0.02607244331404228,-0.2544392399575943,22.655456546248192,0.2845446297403434,1.0,0.0,150.66774008845172,-114.27502186822366,1019.866524826399,115.36604632239154,0.2478968424991715,12.816185808559977,1.0,1019.254300889786,0.0,1.0,122.47904508898255,8287.881847423796,1.0,1.0,-14.472427877751436,14.575321372315692,-2.1480441194049362,-45.82108075879715,1.0,1019.9426263429831,0.0,1.0,11.519741064029345,11.020871140875384
1.68,1.68,1.0,19.93732096945552,-2.8877610933909232,10.37237546324225,0.12375078371858818,-0.022957321086122497,-0.2582946845514628,22.658819570358535,0.2873281036201572,1.0,0.0,176.20688109337956,-115.83065361771057,1021.0321744948144,118.51724370381821,-1.8903505111782342,13.276378817043128,1.0,1020.9357179834363,0.0,1.0,123.3002031238418,8437.635503622218,1.0,1.0,-17.570913467105672,14.366628263419509,-2.3282951672441183,-45.704106755757564,1.0,1020.9931343665166,0.0,1.0,11.873859043746286,10.607750075988294
1.71,1.71,1.0,19.811249450416444,-2.932979908238165,10.678407877967292,0.13139105242305268,-0.027560893195526535,-0.25906589737913577,22.696175244674784,0.29178476772345313,1.0,0.0,176.20688109337956,-115.83065361771057,1021.0321744948144,118.51724370381821,-1.8903505111782342,13.276378817043128,1.0,1020.9357179834363,0.0,1.0,123.52050385991203,8286.767046509423,1.0,1.0,-17.570913467105672,14.366628263419509,-2.3282951672441183,-45.704106755757564,1.0,1020.9931343665166,0.0,1.0,11.873859043746286,10.607750075988294
1.74,1.74,1.0,19.874248198459107,-3.037331424292699,10.833720701666556,0.1343421215683587,-0.02696158575896533,-0.2683559890448914,22.838139763927128,0.30131324164461737,1.0,0.0,176.20688109337956,-115.83065361771057,1021.0321744948144,118.51724370381821,-1.8903505111782342,13.276378817043128,1.0,1022.8201852185097,0.0,1.0,124.47536719625334,8505.72242650119,1.0,1.0,-19.20234209964772,14.419251474944796,-2.4524107231288017,-45.705512228482036,1.0,1021.9204351950236,0.0,1.0,13.201198700222013,11.422848635309508
1.77,1.77,1.0,19.812183323838727,-3.1814569853333317,10.963966865164634,0.13515557751172871,-0.03176586537908335,-0.27250161144460294,22.865975728740455,0.30583202673316656,1.0,0.0,176.20688109337956,-115.83065361771057,1021.0321744948144,118.51724370381821,-1.8903505111782342,13.276378817043128,1.0,1022.8201852185097,0.0,1.0,125.15147149037013,8748.26664455877,1.0,1.0,-19.20234209964772,14.419251474944796,-2.4524107231288017,-45.705512228482036,1.0,1021.9204351950236,0.0,1.0,13.201198700222013,11.422848635309508
1.7999999999999998,1.7999999999999998,1.0,19.72512679708817,-3.2871986524259125,11.286129310654694,0.13997735718655951,-0.030904055684473606,-0.2794134433749406,22.962208451247356,0.3140391592163688,1.0,0.0,176.20688109337956,-115.83065361771057,1021.0321744948144,118.51724370381821,-1.8903505111782342,13.276378817043128,1.0,1021.9232719693673,0.0,1.0,125.12939563855177,8661.178068266829,1.0,1.0,-18.860224304057812,14.394847729437906,-2.5640966028858787,-45.78102569162919,1.0,1022.9109409768014,0.0,1.0,13.26044916613926,10.720380111222351
1.8299999999999998,1.8299999999999998,1.0,19.80444770339785,-3.386921071780997,11.448448655989168,0.14519799938847378,-0.035090159047158405,-0.27345531438064546,23.124756427082964,0.311595229827717,1.0,0.0,176.20688109337956,-115.83065361771057,1021.0321744948144,118.51724370381821,-1.8903505111782342,13.276378817043128,1.0,1021.9232719693673,0.0,1.0,125.37696711928699,8786.608709240778,1.0,1.0,-18.860224304057812,14.394847729437906,-2.5640966028858787,-45.78102569162919,1.0,1022.9109409768014,0.0,1.0,13.26044916613926,10.720380111222351
1.8599999999999999,1.8599999999999999,1.0,19.69635377708735,-3.5444094252015996,11.714075893403294,0.1495168618507502,-0.03194209479793189,-0.2713714697842541,23.188979372151184,0.3114772287192801,1.0,0.0,176.20688109337956,-115.83065361771057,1021.0321744948144,118.51724370381821,-1.8903505111782342,13.276378817043128,1.0,1022.9958394875214,0.0,1.0,125.49043376588006,8681.170381385846,1.0,1.0,-19.441901276518568,14.249248523015547,-2.697779220720696,-45.76085917167739,1.0,1022.8713704146335,0.0,1.0,14.541723115840231,11.537609303824537
1.89,1.89,1.0,19.743673451119722,-3.60308914669649,11.823982474982035,0.15369813149609593,-0.030568635975818027,-0.2638624612902207,23.29380720947467,0.3068891585066935,1.0,0.0,199.73635014384286,-116.20806265202295,1025.7788562441317,121.83635544741907,-4.411067995130394,13.817713024608377,1.0,1022.9958394875214,0.0,1.0,125.9425647234972,8824.818569662166,1.0,1.0,-19.441901276518568,14.249248523015547,-2.697779220720696,-45.76085917167739,1.0,1022.8713704146335,0.0,1.0,14.541723115840231,11.537609303824537
1.92,1.92,1.0,19.649163730204705,-3.7880857602934155,12.083862684554148,0.15797617271871628,-0.03837374038474173,-0.25682327003485356,23.376461802481785,0.3039526396157213,1.0,0.0,199.73635014384286,-116.20806265202295,1025.7788562441317,121.83635544741907,-4.411067995130394,13.817713024608377,1.0,1023.372325184952,0.0,1.0,126.26327290194641,8871.316149953138,1.0,1.0,-22.91036647597212,14.296060430595315,-2.9864492621609755,-45.75827463145045,1.0,1023.7733355380172,0.0,1.0,15.209975497406383,10.636423675704313
1.95,1.95,1.0,19.630301739032493,-3.981176024729426,12.38615416749832,0.15928088115478034,-0.031140418910771628,-0.24032570496440134,23.55027226947448,0.28999408486729183,1.0,0.0,199.73635014384286,-116.20806265202295,1025.7788562441317,121.83635544741907,-4.411067995130394,13.817713024608377,1.0,1023.372325184952,0.0,1.0,127.40922952758487,8789.108972037793,1.0,1.0,-22.91036647597212,14.296060430595315,-2.9864492621609755,-45.75827463145045,1.0,1023.7733355380172,0.0,1.0,15.209975497406383,10.636423675704313
1.98,1.98,1.0,19.55242016054936,-3.965357256550999,12.519205572389987,0.1707533682278429,-0.02884570619593366,-0.2182867974850844,23.553167525207712,0.2786358079705293,1.0,0.0,199.73635014384286,-116.20806265202295,1025.7788562441317,121.83635544741907,-4.411067995130394,13.817713024608377,1.0,1024.5779638499778,0.0,1.0,127.46462913074046,9011.414411065925,1.0,1.0,-22.260161869756637,14.237647949101827,-3.19064411648451,-45.70541286217451,1.0,1024.6816764515343,0.0,1.0,15.728345282527492,10.675638934523947
2.01,2.01,1.0,19.551164945157627,-4.080172987960081,12.731896477144506,0.17355461551609466,-0.02645574397436289,-0.19594222640698986,23.685376294861015,0.263086425049839,1.0,0.0,199.73635014384286,-116.20806265202295,1025.7788562441317,121.83635544741907,-4.411067995130394,13.817713024608377,1.0,1024.5779638499778,0.0,1.0,127.98973762783194,9123.983236470125,1.0,1.0,-22.260161869756637,14.237647949101827,-3.19064411648451,-45.70541286217451,1.0,1024.6816764515343,0.0,1.0,15.728345282527492,10.675638934523947
2.04,2.04,1.0,19.492559735231026,-4.162022345886918,12.883850029988828,0.18405929650396913,-0.02379435424863655,-0.16811915934826685,23.733434362402228,0.2504157496317146,1.0,0.0,199.73635014384286,-116.20806265202295,1025.7788562441317,121.83635544741907,-4.411067995130394,13.817713024608377,1.0,1026.6151406009337,0.0,1.0,128.42458744903095,9167.14825019226,1.0,1.0,-24.222779372170944,14.21225300705463,-3.609283932397421,-45.73049893645378,1.0,1025.817506361159,0.0,1.0,16.62294140725878,10.408036996219979
2.07,2.07,1.0,19.574055067363375,-4.101537340872245,12.945840865738939,0.18610064516137648,-0.018275216298252385,-0.1419194682305727,23.82353953676446,0.23475214402232195,1.0,0.0,199.73635014384286,-116.20806265202295,1025.7788562441317,121.83635544741907,-4.411067995130394,13.817713024608377,1.0,1026.6151406009337,0.0,1.0,128.49151982208937,9123.645117718432,1.0,1.0,-24.222779372170944,14.21225300705463,-3.609283932397421,-45.73049893645378,1.0,1025.817506361159,0.0,1.0,16.62294140725878,10.408036996219979
2.1,2.1,1.0,19.490819845327927,-4.059898159130683,13.105293820710026,0.19115617718135747,-0.016471904364969127,-0.11726300309213694,23.83534261202641,0.22486133416438173,1.0,0.0,227.1199059719019,-116.9131165292514,1026.0801309895473,124.425706321862,-7.043554397148243,15.093340362461335,1.0,1027.7245757858673,0.0,1.0,129.80594449417276,9188.872404901182,1.0,1.0,-24.08934683280299,14.220330693501156,-3.9308336996948103,-45.71079678751248,1.0,1026.559198982607,0.0,1.0,17.34327979553634,10.648567362389718
2.13,2.13,1.0,19.419865114668546,-4.09805217471277,13.2228099260885,0.20173331658483698,-0.013822099561590815,-0.09247388274185789,23.848855214455327,0.22234837630610993,1.0,0.0,227.1199059719019,-116.9131165292514,1026.0801309895473,124.425706321862,-7.043554397148243,15.093340362461335,1.0,1027.7245757858673,0.0,1.0,130.10975564695076,9454.168025795814,1.0,1.0,-24.08934683280299,14.220330693501156,-3.9308336996948103,-45.71079678751248,1.0,1026.559198982607,0.0,1.0,17.34327979553634,10.648567362389718
2.16,2.16,1.0,19.291010126401666,-4.006299765260657,13.351715245744806,0.20396313944251826,-0.006905572999956215,-0.07187172730955418,23.800458178562728,0.21636588080417113,1.0,0.0,227.1199059719019,-116.9131165292514,1026.0801309895473,124.425706321862,-7.043554397148243,15.093340362461335,1.0,1027.4519623958827,0.0,1.0,129.97428103523478,9298.793357153321,1.0,1.0,-23.22814364599085,14.219824165944443,-4.405483854782323,-45.605777478499135,1.0,1027.688227338862,0.0,1.0,17.988524383604297,10.421822970632244
2.19,2.19,1.0,19.353744746507576,-3.9673935571830445,13.5045201706724,0.20233674511426045,-0.005116922601587254,-0.05933385829573135,23.930727368608018,0.21091905570763814,1.0,0.0,227.1199059719019,-116.9131165292514,1026.0801309895473,124.425706321862,-7.043554397148243,15.093340362461335,1.0,1027.4519623958827,0.0,1.0,130.06626701051482,9476.647555376521,1.0,1.0,-23.22814364599085,14.219824165944443,-4.405483854782323,-45.605777478499135,1.0,1027.688227338862,0.0,1.0,17.988524383604297,10.421822970632244
2.2199999999999998,2.2199999999999998,1.0,19.392941866649995,-3.8303982881400334,13.5523543837911,0.20267995012268517,-0.004203571263966331,-0.046062593826381816,23.96715366147833,0.20789082409553244,1.0,0.0,227.1199059719019,-116.9131165292514,1026.0801309895473,124.425706321862,-7.043554397148243,15.093340362461335,1.0,1027.8641496775144,0.0,1.0,129.5701947044933,9453.351559226547,1.0,1.0,-24.213716576736857,14.131179175962624,-4.936894729870615,-45.600773236020366,1.0,1028.5663168115327,0.0,1.0,18.373717114569526,9.902351510113862
2.25,2.25,1.0,19.262145566635414,-3.788478027539098,13.680977813824196,0.2056927245778936,-0.00438960420552419,-0.03744604958591991,23.928058248377546,0.2091195165424536,1.0,0.0,227.1199059719019,-116.9131165292514,1026.0801309895473,124.425706321862,-7.043554397148243,15.093340362461335,1.0,1027.8641496775144,0.0,1.0,130.49325827950986,9640.438903675024,1.0,1.0,-24.213716576736857,14.131179175962624,-4.936894729870615,-45.600773236020366,1.0,1028.5663168115327,0.0,1.0,18.373717114569526,9.902351510113862
2.28,2.28,1.0,19.318907733461696,-3.6491619430791395,13.738236382959478,0.2036942113835671,-0.008312454011798427,-0.03709895555100299,23.98490604140226,0.20721187501165775,1.0,0.0,227.1199059719019,-116.9131165292514,1026.0801309895473,124.425706321862,-7.043554397148243,15.093340362461335,1.0,1029.9633591876611,0.0,1.0,131.80778662115299,9459.432053338172,1.0,1.0,-25.36548947562979,14.217630254387627,-5.424162481363629,-45.58169661899147,1.0,1029.5979393300483,0.0,1.0,19.281123722214367,10.386076597480667
2.31,2.31,1.0,19.224993256616546,-3.6135359659222948,13.85175106729801,0.20701704388201952,-0.010284566044952752,-0.04133915949607202,23.969334899499344,0.21135457142968228,1.0,0.0,250.27471037302075,-119.99017160972059,1027.02061061933,127.45425230209717,-10.23912976630918,15.947682547532922,1.0,1029.9633591876611,0.0,1.0,131.95382022190003,9713.072978205113,1.0,1.0,-25.36548947562979,14.217630254387627,-5.424162481363629,-45.58169661899147,1.0,1029.5979393300483,0.0,1.0,19.281123722214367,10.386076597480667
2.34,2.34,1.0,19.259619662052927,-3.5650530757381222,13.93599667222581,0.2102602579592607,-0.017439671512804015,-0.05510865924845422,24.038605537926994,0.21806073131981282,1.0,0.0,250.27471037302075,-119.99017160972059,1027.02061061933,127.45425230209717,-10.23912976630918,15.947682547532922,1.0,1031.3410681553748,0.0,1.0,132.26781339810336,9655.003287599659,1.0,1.0,-22.29347752167732,14.11956991003464,-6.012675916423159,-45.494346603407095,1.0,1030.5101595755395,0.0,1.0,20.47306610314478,10.49986331811456
2.37,2.37,1.0,19.183335344039993,-3.4941160221466476,14.013421684008492,0.21171714966589777,-0.01679094192906814,-0.07519336956495169,24.01218834242217,0.22530008881500446,1.0,0.0,250.27471037302075,-119.99017160972059,1027.02061061933,127.45425230209717,-10.23912976630918,15.947682547532922,1.0,1031.3410681553748,0.0,1.0,132.50778805137332,9731.488792327602,1.0,1.0,-22.29347752167732,14.11956991003464,-6.012675916423159,-45.494346603407095,1.0,1030.5101595755395,0.0,1.0,20.47306610314478,10.49986331811456
2.4,2.4,1.0,19.09073581010443,-3.415378168908088,14.212261632666152,0.2121508503864574,-0.024495063127278196,-0.09465286879466112,24.043905309313043,0.2335961408250695,1.0,0.0,250.27471037302075,-119.99017160972059,1027.02061061933,127.45425230209717,-10.23912976630918,15.947682547532922,1.0,1030.5300782234842,0.0,1.0,133.32439648970993,9927.799201585427,1.0,1.0,-22.688344715528757,14.066380239591302,-6.572664719382116,-45.39632308227825,1.0,1031.4021165914612,0.0,1.0,20.58062270575067,10.22004755327225
2.4299999999999997,2.4299999999999997,1.0,19.06009310038154,-3.4511408507897725,14.330273183814548,0.2127615245757802,-0.03460625530795892,-0.1244631807730253,24.094693434238923,0.24890990863038928,1.0,0.0,250.27471037302075,-119.99017160972059,1027.02061061933,127.45425230209717,-10.23912976630918,15.947682547532922,1.0,1030.5300782234842,0.0,1.0,132.95132164741747,9941.798642889735,1.0,1.0,-22.688344715528757,14.066380239591302,-6.572664719382116,-45.39632308227825,1.0,1031.4021165914612,0.0,1.0,20.58062270575067,10.22004755327225
2.46,2.46,1.0,19.065320121076535,-3.443072256207443,14.482744110701125,0.2134851249857862,-0.04187639969401513,-0.15097646513415144,24.188655499151647,0.2648082786959904,1.0,0.0,250.27471037302075,-119.99017160972059,1027.02061061933,127.45425230209717,-10.23912976630918,15.947682547532922,1.0,1033.030923113457,0.0,1.0,134.77014163077416,10005.810159015555,1.0,1.0,-26.537798253454763,14.068084219136557,-6.906120575855939,-45.33332598702439,1.0,1032.8061446525035,0.0,1.0,22.245512622689162,9.817470073946552
2.4899999999999998,2.4899999999999998,1.0,19.142434362039126,-3.4149909099562716,14.645224978631502,0.21851722498005985,-0.04828520727735381,-0.17900096954381214,24.34291623644941,0.28657038568635784,1.0,0.0,250.27471037302075,-119.99017160972059,1027.02061061933,127.45425230209717,-10.23912976630918,15.947682547532922,1.0,1033.030923113457,0.0,1.0,134.08794725849225,9974.82861036731,1.0,1.0,-26.537798253454763,14.068084219136557,-6.906120575855939,-45.33332598702439,1.0,1032.8061446525035,0.0,1.0,22.245512622689162,9.817470073946552
2.52,2.52,1.0,19.03148475279527,-3.4641496660094053,14.837435288580714,0.21419712391452272,-0.05771493580290468,-0.21056124979657256,24.379237698238477,0.3058552952359685,1.0,0.0,278.7732354789712,-120.01192175305431,1033.198630917065,129.5445527650993,-13.047935539014517,17.087868407784242,1.0,1035.1119497511343,0.0,1.0,134.7890234512045,10175.956471629252,1.0,1.0,-25.155498507844328,14.00056992877067,-7.3401637192214855,-45.39681422501435,1.0,1033.2137901131914,0.0,1.0,22.004194939420778,10.747060259492773
2.55,2.55,1.0,18.94603619550376,-3.5589382974565793,15.145899803826058,0.20949486441103563,-0.0667711577555423,-0.24179387063788524,24.51564011389423,0.3268191573342421,1.0,0.0,278.7732354789712,-120.01192175305431,1033.198630917065,129.5445527650993,-13.047935539014517,17.087868407784242,1.0,1035.1119497511343,0.0,1.0,134.89187319769047,10083.668787698183,1.0,1.0,-25.155498507844328,14.00056992877067,-7.3401637192214855,-45.39681422501435,1.0,1033.2137901131914,0.0,1.0,22.004194939420778,10.747060259492773
2.58,2.58,1.0,18.985796274931957,-3.6909540335606965,15.395928318015855,0.20734017662044987,-0.07648001973711917,-0.26656157526915397,24.720805218369417,0.34625744132070624,1.0,0.0,278.7732354789712,-120.01192175305431,1033.198630917065,129.5445527650993,-13.047935539014517,17.087868407784242,1.0,1034.9285818470587,0.0,1.0,135.22533740606247,10122.525099238555,1.0,1.0,-26.14769581863841,13.91154280555641,-7.76272165714876,-45.293992917424404,1.0,1034.692413659053,0.0,1.0,22.803123278111364,9.367698758154159
2.61,2.61,1.0,18.83015668534476,-3.9606940163653186,15.646458988200406,0.2067061531642655,-0.08462401674068844,-0.28192684509632837,24.80067694147366,0.3596823653604194,1.0,0.0,278.7732354789712,-120.01192175305431,1033.198630917065,129.5445527650993,-13.047935539014517,17.087868407784242,1.0,1034.9285818470587,0.0,1.0,135.51180167343276,10127.284833996391,1.0,1.0,-26.14769581863841,13.91154280555641,-7.76272165714876,-45.293992917424404,1.0,1034.692413659053,0.0,1.0,22.803123278111364,9.367698758154159
2.6399999999999997,2.6399999999999997,1.0,18.93032645493892,-4.094783935970967,15.954220327541238,0.20584370898613014,-0.08727144295030383,-0.2928012002661303,25.093060025285403,0.36840260607259734,1.0,0.0,278.7732354789712,-120.01192175305431,1033.198630917065,129.5445527650993,-13.047935539014517,17.087868407784242,1.0,1035.2381577919616,0.0,1.0,135.728882451651,10327.409157884254,1.0,1.0,-26.83491726232697,13.845813197628638,-8.160618899984218,-45.28463879133793,1.0,1035.407389640073,0.0,1.0,24.831803621606355,9.141850553983904
2.67,2.67,1.0,18.89883121094102,-4.2705635751793265,16.297775876812135,0.20645794090230757,-0.08456119880167155,-0.2867599121831973,25.31839317413501,0.36332729726750723,1.0,0.0,278.7732354789712,-120.01192175305431,1033.198630917065,129.5445527650993,-13.047935539014517,17.087868407784242,1.0,1035.2381577919616,0.0,1.0,136.15134378105213,10279.937901560228,1.0,1.0,-26.83491726232697,13.845813197628638,-8.160618899984218,-45.28463879133793,1.0,1035.407389640073,0.0,1.0,24.831803621606355,9.141850553983904
2.6999999999999997,2.6999999999999997,1.0,18.723981757291302,-4.183772425113397,16.554765758217812,0.20744325362784966,-0.08690484680087393,-0.2789945621296433,25.34071257604998,0.35836171889740553,1.0,0.0,278.7732354789712,-120.01192175305431,1033.198630917065,129.5445527650993,-13.047935539014517,17.087868407784242,1.0,1037.1522799858337,0.0,1.0,136.9731413119018,10412.097494777132,1.0,1.0,-29.572558970016743,13.711227733187034,-8.372359224374703,-45.20290384226591,1.0,1036.6970500438738,0.0,1.0,24.55694811979127,10.230058136722276
2.73,2.73,1.0,18.780986378082748,-4.273355744183664,16.78260844855942,0.20581042838331057,-0.08510604322498826,-0.2714940899206949,25.546877793337785,0.35115525325217867,1.0,0.0,305.74123843264664,-122.80154693013989,1039.0230245706575,131.74920312483786,-16.64397193031982,18.570615746095992,1.0,1037.1522799858337,0.0,1.0,137.36466105712134,10575.39045003206,1.0,1.0,-29.572558970016743,13.711227733187034,-8.372359224374703,-45.20290384226591,1.0,1036.6970500438738,0.0,1.0,24.55694811979127,10.230058136722276
2.76,2.76,1.0,18.736485006225035,-4.322078563240962,17.05199245417915,0.2081276864571162,-0.08620503262376465,-0.26889195490500634,25.70032451454077,0.3507867228563418,1.0,0.0,305.74123843264664,-122.80154693013989,1039.0230245706575,131.74920312483786,-16.64397193031982,18.570615746095992,1.0,1037.7730974808644,0.0,1.0,137.69121620003992,10552.665626798791,1.0,1.0,-29.788867449471056,13.59892882418244,-8.658976899670531,-45.10093678966909,1.0,1038.3069167689155,0.0,1.0,25.605464728568403,10.069687359182664
2.79,2.79,1.0,18.587566978079813,-4.470947038359468,17.370320348734534,0.20270181947197288,-0.08615388847879132,-0.2631645905747502,25.83050604618654,0.3431706890887393,1.0,0.0,305.74123843264664,-122.80154693013989,1039.0230245706575,131.74920312483786,-16.64397193031982,18.570615746095992,1.0,1037.7730974808644,0.0,1.0,138.25761497017183,10370.490994413865,1.0,1.0,-29.788867449471056,13.59892882418244,-8.658976899670531,-45.10093678966909,1.0,1038.3069167689155,0.0,1.0,25.605464728568403,10.069687359182664
2.82,2.82,1.0,18.584820959614046,-4.582278868609296,17.56718976044583,0.20102495852057864,-0.08348201714730757,-0.25278083653112654,25.980742980333062,0.3335842209286282,1.0,0.0,305.74123843264664,-122.80154693013989,1039.0230245706575,131.74920312483786,-16.64397193031982,18.570615746095992,1.0,1039.858534033238,0.0,1.0,138.61441772497184,10569.309138598674,1.0,1.0,-32.90345125169029,13.525144130904923,-9.122328870850216,-45.202183664948954,1.0,1039.1025580563078,0.0,1.0,26.67403013465462,9.610369926370772
2.85,2.85,1.0,18.62092425245572,-4.623120383896982,17.86674762655709,0.20150968564846358,-0.08314292443450055,-0.2418905099660812,26.217031350837203,0.325622355045403,1.0,0.0,305.74123843264664,-122.80154693013989,1039.0230245706575,131.74920312483786,-16.64397193031982,18.570615746095992,1.0,1039.858534033238,0.0,1.0,138.87778445787023,10640.842400933443,1.0,1.0,-32.90345125169029,13.525144130904923,-9.122328870850216,-45.202183664948954,1.0,1039.1025580563078,0.0,1.0,26.67403013465462,9.610369926370772
2.88,2.88,1.0,18.517589556073126,-4.7835475040774895,18.034408796452624,0.20113934318863347,-0.08390067010993543,-0.2203213131914188,26.287322996618013,0.3098997238941047,1.0,0.0,305.74123843264664,-122.80154693013989,1039.0230245706575,131.74920312483786,-16.64397193031982,18.570615746095992,1.0,1039.0814205188492,0.0,1.0,139.10889872542134,10899.857579071544,1.0,1.0,-31.68099651754773,13.510267452650407,-9.442506764038844,-45.14328163422586,1.0,1039.8282403760254,0.0,1.0,27.56120305930464,9.051804477682051
2.9099999999999997,2.9099999999999997,1.0,18.493380180273782,-4.7942006882088934,18.311067760557396,0.1987698789485093,-0.0813038511078802,-0.20262436643491558,26.462892382781785,0.2952565238150181,1.0,0.0,305.74123843264664,-122.80154693013989,1039.0230245706575,131.74920312483786,-16.64397193031982,18.570615746095992,1.0,1039.0814205188492,0.0,1.0,138.71143705821703,10738.199127709197,1.0,1.0,-31.68099651754773,13.510267452650407,-9.442506764038844,-45.14328163422586,1.0,1039.8282403760254,0.0,1.0,27.56120305930464,9.051804477682051
2.94,2.94,1.0,18.438102577412764,-4.881335329672822,18.52891548920537,0.1975090624073481,-0.07823016588711203,-0.18250627854014825,26.591573297983366,0.2800684385901578,1.0,0.0,337.626104221827,-128.7586514799743,1040.1490854744548,133.39280131476204,-20.64209731131786,19.854544337679755,1.0,1041.238620571557,0.0,1.0,139.1924756055716,10873.664647186557,1.0,1.0,-32.741816184498205,13.336183809163906,-9.84726967101268,-45.11960041276799,1.0,1041.46946544429,0.0,1.0,28.26122894263467,9.378654720958716
2.9699999999999998,2.9699999999999998,1.0,18.367284705092196,-4.902264819629529,18.668444285751995,0.20267794165611838,-0.07640593459655327,-0.16395558369192714,26.643951656049772,0.27165722574467666,1.0,0.0,337.626104221827,-128.7586514799743,1040.1490854744548,133.39280131476204,-20.64209731131786,19.854544337679755,1.0,1041.238620571557,0.0,1.0,140.03173013307796,10842.12205589894,1.0,1.0,-32.741816184498205,13.336183809163906,-9.84726967101268,-45.11960041276799,1.0,1041.46946544429,0.0,1.0,28.26122894263467,9.378654720958716
3.0,3.0,1.0,18.24457348736155,-4.976249615350206,18.827113848637293,0.19954189070106787,-0.06659586902312048,-0.1401070435680555,26.684972134884443,0.2527488072630265,1.0,0.0,337.626104221827,-128.7586514799743,1040.1490854744548,133.39280131476204,-20.64209731131786,19.854544337679755,1.0,1042.9754277331017,0.0,1.0,140.6360304615892,10910.360861531328,1.0,1.0,-33.282005800807596,13.326136511324897,-10.261482359381123,-44.956432928099794,1.0,1042.2814499377407,0.0,1.0,29.10176595958478,9.290160809173123
3.03,3.03,1.0,18.186706475772958,-5.054094714236857,18.958358226042655,0.20099713531360372,-0.06545889086009725,-0.1221240956307536,26.75293465105012,0.24412908374574852,1.0,0.0,337.626104221827,-128.7586514799743,1040.1490854744548,133.39280131476204,-20.64209731131786,19.854544337679755,1.0,1042.9754277331017,0.0,1.0,141.37347702697076,10893.158276869277,1.0,1.0,-33.282005800807596,13.326136511324897,-10.261482359381123,-44.956432928099794,1.0,1042.2814499377407,0.0,1.0,29.10176595958478,9.290160809173123
3.06,3.06,1.0,18.113173046631353,-4.919981366514861,19.06522571739198,0.19739248875193371,-0.061891765633650765,-0.10153546818099829,26.753991966044442,0.23044269692847189,1.0,0.0,337.626104221827,-128.7586514799743,1040.1490854744548,133.39280131476204,-20.64209731131786,19.854544337679755,1.0,1044.0659267694966,0.0,1.0,141.25998952089734,10891.827729277395,1.0,1.0,-33.7167636532247,13.172698461060886,-10.690113674674611,-44.825530438056546,1.0,1043.7432194826995,0.0,1.0,30.36851847754031,8.700809836131745
3.09,3.09,1.0,18.185532910795217,-4.885035156576818,19.2003423145181,0.20387739290353174,-0.057177108607002876,-0.08742388806147608,26.892941838431913,0.22908109762611045,1.0,0.0,337.626104221827,-128.7586514799743,1040.1490854744548,133.39280131476204,-20.64209731131786,19.854544337679755,1.0,1044.0659267694966,0.0,1.0,141.6531614040437,11163.921505321365,1.0,1.0,-33.7167636532247,13.172698461060886,-10.690113674674611,-44.825530438056546,1.0,1043.7432194826995,0.0,1.0,30.36851847754031,8.700809836131745
3.12,3.12,1.0,18.185072509517894,-4.881957241260538,19.336319095385914,0.20559292717218586,-0.05636449793833875,-0.07418038270265291,26.98932390484255,0.22571694112091092,1.0,0.0,337.626104221827,-128.7586514799743,1040.1490854744548,133.39280131476204,-20.64209731131786,19.854544337679755,1.0,1043.9066808278742,0.0,1.0,141.19673945094726,11145.59194107097,1.0,1.0,-32.86266899450165,13.03271765426421,-11.200192312312303,-44.85688358575331,1.0,1044.723441733123,0.0,1.0,30.016218862739645,9.214954706229078
3.15,3.15,1.0,18.01616047395117,-4.8176253412882835,19.344988167145072,0.20552493412371517,-0.05351970803463994,-0.0688638516110991,26.87043206461642,0.2232646137510063,1.0,0.0,363.8104016537738,-132.47724247696587,1044.9694767158883,134.7447768203987,-24.32765627825291,21.481068707452078,1.0,1043.9066808278742,0.0,1.0,142.60449094894847,11284.062672514676,1.0,1.0,-32.86266899450165,13.03271765426421,-11.200192312312303,-44.85688358575331,1.0,1044.723441733123,0.0,1.0,30.016218862739645,9.214954706229078
3.1799999999999997,3.1799999999999997,1.0,17.95768488731054,-4.734640606656772,19.614021925568874,0.2034363683730314,-0.05558304260667748,-0.05941215372168,27.01120368074775,0.21910188180860515,1.0,0.0,363.8104016537738,-132.47724247696587,1044.9694767158883,134.7447768203987,-24.32765627825291,21.481068707452078,1.0,1045.7643147661718,0.0,1.0,142.20104909165102,11333.276276935929,1.0,1.0,-32.46850399901223,12.931594683278167,-11.709752779293657,-44.76794065932646,1.0,1046.1218538319229,0.0,1.0,31.225749265051327,9.437154434905185
3.21,3.21,1.0,18.0142756122649,-4.680707351809825,19.715024185278693,0.20536766431395162,-0.05480980916476689,-0.05955570666173476,27.112825853718242,0.2207416474578929,1.0,0.0,363.8104016537738,-132.47724247696587,1044.9694767158883,134.7447768203987,-24.32765627825291,21.481068707452078,1.0,1045.7643147661718,0.0,1.0,142.6576283745264,11373.850612822846,1.0,1.0,-32.46850399901223,12.931594683278167,-11.709752779293657,-44.76794065932646,1.0,1046.1218538319229,0.0,1.0,31.225749265051327,9.437154434905185
3.2399999999999998,3.2399999999999998,1.0,17.898177125766523,-4.702516691161008,19.783484223744445,0.20505657271302657,-0.058984243757066054,-0.06143269312636522,27.089567284973477,0.22203899389333376,1.0,0.0,363.8104016537738,-132.47724247696587,1044.9694767158883,134.7447768203987,-24.32765627825291,21.481068707452078,1.0,1047.1310786554757,0.0,1.0,142.65511319091092,11285.884398027314,1.0,1.0,-34.09919947150902,12.832211177278907,-12.15205399032463,-44.60538644138066,1.0,1047.609992765573,0.0,1.0,32.88509604890158,9.810130695158007
3.27,3.27,1.0,17.880108373733652,-4.632981789722763,19.915397739823515,0.20770859344222262,-0.06439866477450194,-0.06962037401196587,27.162213879868677,0.2283353767861021,1.0,0.0,363.8104016537738,-132.47724247696587,1044.9694767158883,134.7447768203987,-24.32765627825291,21.481068707452078,1.0,1047.1310786554757,0.0,1.0,143.50721541740592,11497.644235503793,1.0,1.0,-34.09919947150902,12.832211177278907,-12.15205399032463,-44.60538644138066,1.0,1047.609992765573,0.0,1.0,32.88509604890158,9.810130695158007
3.3,3.3,1.0,17.863824429967902,-4.663203032294325,20.124757909317744,0.2084949894277325,-0.06860136053122659,-0.07495329789656491,27.310576095969928,0.23193599149070596,1.0,0.0,363.8104016537738,-132.47724247696587,1044.9694767158883,134.7447768203987,-24.32765627825291,21.481068707452078,1.0,1047.616983155219,0.0,1.0,143.65059837114248,11606.120262195442,1.0,1.0,-34.870908425993846,12.78977825424664,-12.712253809897529,-44.48874528864187,1.0,1048.8130209498754,0.0,1.0,33.306957247948844,9.125347734208258
3.33,3.33,1.0,17.7019437512766,-4.702836806399786,20.27547925236193,0.20811626206077113,-0.07638568335620104,-0.08936264823518544,27.323443148950833,0.23902475615623348,1.0,0.0,363.8104016537738,-132.47724247696587,1044.9694767158883,134.7447768203987,-24.32765627825291,21.481068707452078,1.0,1047.616983155219,0.0,1.0,144.59719107722722,11413.594508241662,1.0,1.0,-34.870908425993846,12.78977825424664,-12.712253809897529,-44.48874528864187,1.0,1048.8130209498754,0.0,1.0,33.306957247948844,9.125347734208258
3.36,3.36,1.0,17.6173869776904,-4.692584547857965,20.44352571621487,0.20599477607701122,-0.08320231841786377,-0.10453414516248352,27.392159779214733,0.24552771954705394,1.0,0.0,391.8585692844156,-140.4642338136389,1049.54467798019,135.55955303922212,-28.609102450013516,22.993565447094767,1.0,1049.8334963054392,0.0,1.0,144.02096570410228,11662.256913865513,1.0,1.0,-35.68876745613172,12.553122000994007,-13.124278481706932,-44.328147242375366,1.0,1050.3597928202928,0.0,1.0,33.717724664712705,9.472438355047625
3.3899999999999997,3.3899999999999997,1.0,17.496267558948624,-4.6994978072006415,20.60473405517994,0.2052943591822628,-0.0840484312491787,-0.11875732341970682,27.436467039669914,0.25162117274449836,1.0,0.0,391.8585692844156,-140.4642338136389,1049.54467798019,135.55955303922212,-28.609102450013516,22.993565447094767,1.0,1049.8334963054392,0.0,1.0,145.18023641696905,11652.863170886254,1.0,1.0,-35.68876745613172,12.553122000994007,-13.124278481706932,-44.328147242375366,1.0,1050.3597928202928,0.0,1.0,33.717724664712705,9.472438355047625
