time_s,x_m,y_m,altitude_m,vx_mps,vy_mps,vz_mps,speed_mps,mass_kg,roll_deg,pitch_deg,yaw_deg,p_dps,q_dps,r_dps,alpha_deg,beta_deg,qbar_pa,mach,airspeed_mps,load_factor_g,density_kgpm3,pressure_pa,temperature_k,wind_x_mps,wind_y_mps,wind_z_mps,thrust_n,mass_flow_kgps,propulsion_throttle_actual,propulsion_health,energy_j_per_kg,target_distance_m,guidance_mode,pitch_command_deg,heading_command_deg,roll_command_deg
0.0,0.0,-120.0,1000.0,88.0,4.0,14.0,89.19641248391103,18.0,-5.018455958195359e-17,8.000000000000004,3.0000000000000004,0.0,0.0,0.0,-0.6802501273997699,-6.663809789559333,4603.010869089943,0.2704914765006901,91.00252169218186,1.7954936926306966,1.1116425003060326,89874.56291621955,281.65,-1.7826439091004773,9.86942436359809,0.3586780454497614,334.4,0.17947005348411538,0.88,nominal,13784.65,1538.473269186046,target_intercept,18.965424854227184,4.730938623779238,0.0
0.03,2.6556256584553277,-119.8778241350522,1000.412670722683,88.52085528184426,4.072528831593424,13.755690756098712,89.67578457471556,17.994615898395477,0.07732073879651637,8.388501290404356,2.836684193776938,1.801441826976003,-12.953726625800904,-5.379577116013474,-0.08689421796061915,-6.55200827949542,4647.131939660858,0.27179155308445124,91.43947619475529,1.8298719270189099,1.1115974440580425,89870.06428207623,281.64731764030256,-1.737654675042008,10.04690527549587,0.38086315943698384,340.34,0.1826580083815306,0.88,nominal,13831.570086887996,1535.826790439571,target_intercept,18.983075745282633,4.734775997137498,0.0
0.06,5.327148395744429,-119.75371572463102,1000.8186121071512,89.05075790963673,4.136947014039115,13.531379482277048,90.1678991968377,17.98913615814403,0.21212649001371944,8.999558979825316,2.5516643009736435,3.0574028169365395,-20.392445202409878,-9.340172811572918,0.7108122500212616,-6.3180097154825905,4693.12428851691,0.27313991761817463,91.89267921738583,1.854345363344627,1.1115531238963112,89865.63918415255,281.6446790213035,-1.6959897430458324,10.211129355173762,0.40139116939672026,346.28000000000003,0.1858459632789458,0.88,nominal,13879.802865206137,1533.1675246400368,target_intercept,19.001219974741574,4.738603219707256,0.0
0.09,8.014663988424166,-119.62797937486846,1001.2188024563904,89.58385308932458,4.191211658751829,13.339678307972928,90.66851717580005,17.983560779245664,0.38152460711723146,9.483750502837701,2.191553525781009,3.7188030066979563,-16.200981929341573,-11.76425838262929,1.3578502905909937,-6.009629019027674,4740.603670678085,0.27452475419551126,92.35815437844673,1.880847958392111,1.111509432948548,89861.27694998591,281.64207778403346,-1.6578262769959875,10.361382077277707,0.42017275965971335,352.22,0.18903391817636103,0.88,nominal,13928.992372538136,1530.4950982426465,target_intercept,19.01982680446167,4.742432696217028,0.0
0.12,10.718304318832155,-119.50096252625859,1001.6139011289887,90.12134434693296,4.2338949536622295,13.169955753274268,91.17691762677829,17.977889761700375,0.564433007958893,9.778330057283053,1.8061579199313307,3.9476731591876186,-9.92356263185283,-12.584060172474933,1.8002883370495397,-5.675353147451787,4789.550707316,0.27594496987157785,92.83553319745612,1.9094767814771203,1.1114662991755502,89856.97038532743,281.63950964266155,-1.623326722138513,10.497009704672017,0.4371262130840022,358.16,0.19222187307377622,0.88,nominal,13979.092117466753,1527.8092103124086,target_intercept,19.03887702645261,4.746278736413628,0.0
0.15,13.438265292124946,-119.37290253203201,1002.0042475338853,90.66536577642637,4.268666474219353,13.011546829885024,91.69367707616267,17.97212310550816,0.7494511305879912,10.010058197726018,1.4180258747146202,3.9441777404273086,-7.8699098521933575,-12.65598706696697,2.172702367356012,-5.334660666803873,4840.01882302778,0.2774015614039499,93.32515056571062,1.9393070319339407,1.1114236854754147,89852.71578437634,281.6369723910297,-1.592638095500309,10.61742213279545,0.45217776659943126,364.1,0.19540982797119144,0.88,nominal,14030.170161951977,1525.1095950652573,target_intercept,19.058363590816466,4.750151609460827,0.0
0.18,16.17474863760571,-119.2439773966281,1002.3901559715741,91.21611151602542,4.29750451346415,12.863614589629462,92.21887076655058,17.966260810669024,0.9328263778787451,10.257711883015741,1.0354083151700417,3.8684578270726293,-8.438558187920407,-12.432489495856984,2.5546795098725408,-4.99478591440453,4892.020708871308,0.27889432959265115,93.82693904239787,1.9702239127940713,1.111381557492113,89848.50971563095,281.63446398618476,-1.5658909017533331,10.722095457157224,0.46526193214465283,370.04,0.19859778286860666,0.88,nominal,14082.249485787515,1522.395984776561,target_intercept,19.078280459231017,4.754059329624159,0.0
0.21,18.927932687772774,-119.11433713400561,1002.7720326760602,91.77280167223546,4.321342087416298,12.729223482869289,92.7521118610502,17.960302877182965,1.1146133880289555,10.501775676481499,0.660723601270433,3.8093063686163657,-8.353667244541095,-12.13786644489312,2.9247794957112263,-4.6570655160992045,4945.528884133232,0.28042192823071943,94.34044520458367,2.001865243885591,1.1113398708385491,89844.34774623615,281.6319817876056,-1.5431983877854063,10.810574252802013,0.47632178160025157,375.98,0.20178573776602185,0.88,nominal,14135.31148158507,1519.6681014752078,target_intercept,19.098618053273103,4.758008786152382,0.0
0.24,21.69798921258726,-118.98412005863051,1003.1502977432771,92.33521749381624,4.340569179170235,12.60883557389279,93.29317051616896,17.954249305049984,1.295957792703404,10.706539112970216,0.29383008445731845,3.794246202315843,-7.076804455098885,-11.874756958355619,3.247012459073631,-4.320154817432097,5000.539272443607,0.28198368719386685,94.86544306483444,2.0337213370521665,1.1112985796200054,89840.22529298837,281.62952306466866,-1.52465616442854,10.882473555826179,0.4853091944782724,381.92,0.20497369266343707,0.88,nominal,14189.351699843595,1516.9256677497706,target_intercept,19.119366200421396,4.762006437958218,0.0
0.27,24.485103344363168,-118.85346130660501,1003.5253101482982,92.90380439253029,4.35529173418298,12.500413500705887,93.84213219223018,17.94810009427008,1.4780304553379027,10.871496722153935,-0.06703226259161797,3.81738327197417,-5.782994870118168,-11.67961289109399,3.522232391595215,-3.9818384587452957,5057.085607827203,0.28357999786655147,95.40206381282786,2.065706442104035,1.1112576446189706,89836.13843948807,281.62708548403606,-1.510341900196606,10.937480538323786,0.4921850672904733,387.86,0.20816164756085226,0.88,nominal,14244.39436995781,1514.168413194198,target_intercept,19.140517046546087,4.76605871664078,0.0
0.3,27.289473072758973,-118.72249818400134,1003.897377594312,93.4789909465269,4.365437420122571,12.402248200461557,94.39912368595228,17.941855244843257,1.661731954243361,11.014555764068398,-0.424238349466607,3.8630615126755377,-5.087121388623009,-11.555380758156689,3.769562806828978,-3.6399821372218826,5115.207817502194,0.2852114025228262,95.95048944863456,2.0979975756146505,1.1112170322190456,89832.08382867454,281.62466704563695,-1.500314966239811,10.975355869474885,0.49691948368436056,393.8,0.21134960245826748,0.88,nominal,14300.467494323118,1511.3960721671995,target_intercept,19.162064711942197,4.770172239450745,0.0
0.32999999999999996,30.11129986956523,-118.59137355850689,1004.266794368971,94.06089322687518,4.370820849815122,12.313892488629909,94.96413879860296,17.93551475676951,1.8475815256899768,11.14448182253067,-0.7797464616854647,3.917698177151246,-4.684932026067906,-11.491383838726259,3.9982440214835306,-3.292891136540451,5174.931930066105,0.2868780332240327,96.51076397611259,2.130598296970632,1.1111767102721104,89828.05825019573,281.6222658366017,-1.4946161192330276,10.995934756854064,0.49949184460675794,399.74,0.21453755735568267,0.88,nominal,14357.586787878634,1508.608380530151,target_intercept,19.18400383109392,4.7743539166915925,0.0
0.36,32.95078544308838,-118.46023738715677,1004.6338518099933,94.64951911743823,4.371205711670513,12.235248034077713,95.53711426975094,17.92907863004884,2.0357412652062226,11.259089608622075,-1.1347963388827431,3.972859937864959,-4.211423221163861,-11.473472285116092,4.206373090981525,-2.9393608675482694,5236.277747870013,0.28857983476941645,97.0828683983351,2.1633459558841714,1.1111366469557693,89824.05852633325,281.619879963235,-1.4932673064278519,10.999127663428633,0.4998909579285791,405.68,0.21772551225309789,0.88,nominal,14415.762664348196,1505.8050753968078,target_intercept,19.20632913927478,4.778611006028979,0.0
0.39,35.808134322112814,-118.32924701150563,1004.998827632997,95.24496263414792,4.366345855037776,12.165860766789597,96.11803187489302,17.922546864681244,2.2261693800449467,11.35645229839647,-1.4901947535417754,4.024723444146764,-3.6751312526606257,-11.48798382034972,4.392529719274902,-2.5786372475294925,5299.269701625113,0.29031686725411826,97.66682251557005,2.1961395261939707,1.1110968119380416,89820.08162827483,281.6175076203855,-1.496271584268798,10.984920697126826,0.4981150871408533,411.62,0.2209134671505131,0.88,nominal,14475.009778758606,1502.9858962387239,target_intercept,19.229035889631888,4.78295113750467,0.0
0.42,38.683555461169156,-118.19856710231859,1005.3619803597365,95.84737130187818,4.355996972901177,12.105090891318765,96.70691040765966,17.91591946066673,2.418771417533128,11.439059716715917,-1.8465505581651447,4.072639605593862,-3.2231904724347555,-11.523164271343447,4.559816977909492,-2.210361704742713,5363.935734997382,0.292089272197321,98.2626735359154,2.2066857540473013,1.1110571769852027,89816.12473678892,281.6151471276617,-1.5036131116401317,10.953375671281055,0.49417195891013177,413.57684210526315,0.22196369010892084,0.88,nominal,14535.346324992366,1500.1505852294995,target_intercept,19.252120079060894,4.7873823215532685,0.0
0.44999999999999996,41.57706494531166,-118.06836331702068,1005.7235145081123,96.45031613808348,4.340126176596945,12.051138279191568,97.29712283613131,17.90926054996346,2.6134575840854666,11.510255116742771,-2.204256537375602,4.11753082189996,-2.883880470465043,-11.569810127623462,4.712391926274457,-1.8346463170821803,5429.571720484155,0.29387736316609797,98.86379836664969,2.2062287719185996,1.1110177197605058,89812.18562144908,281.61279715569725,-1.515257269317027,10.904629835683219,0.4880787294604023,413.5421052631579,0.22194504709782484,0.88,nominal,14596.14355964559,1497.2990838555386,target_intercept,19.275577235681002,4.791912029683578,0.0
0.48,44.488582589856044,-117.93880232110293,1006.083604982327,97.05058815147936,4.318699863925202,12.003015807154354,97.88534219958333,17.902602198550525,2.8101375100006596,11.571495306098305,-2.5634505713388243,4.160562583030615,-2.5940783867527943,-11.621391872204834,4.8522734897108135,-1.4517006582228222,5495.81875752644,0.2956712069784225,99.46685514936505,2.2059160336589194,1.1109784211615608,89808.26237479554,281.61045656761485,-1.5311507726709466,10.838895279422252,0.4798619099277814,413.5073684210526,0.2219264040867288,0.88,nominal,14657.0798935647,1494.4314339676016,target_intercept,19.299402735887544,4.796547515902463,0.0
0.51,47.41802965779089,-117.81005410527136,1006.4424175939372,97.64823559782813,4.29160719438563,11.960420387008275,98.47155662176675,17.895944406427923,3.0087114113777558,11.623223603510185,-2.9240981148565393,4.202391276967034,-2.319782134369142,-11.673504366211771,4.980285621531299,-1.061814177599361,5562.676522010627,0.297470695104034,100.0718071880358,2.2057112082851846,1.1109392630803883,89804.3531887061,281.6081242856394,-1.5512218715835764,10.75645800810207,0.46955725101275875,413.47263157894736,0.22190776107563284,0.88,nominal,14718.15226625449,1491.547679267357,target_intercept,19.32359228580699,4.8012962407201325,0.0
0.54,50.36532896399615,-117.6822917118058,1006.8001084549043,98.2433102068419,4.258746448852097,11.923028698903979,99.05575972687436,17.889287173595655,3.209073892126209,11.666279307319769,-3.2861025490204665,4.243141523989483,-2.0740405804619835,-11.723269553910303,5.097647021324597,-0.6653948048326781,5630.143651493217,0.29927569365306456,100.67860926288719,2.2056037741684165,1.1109002284695,89800.45636098828,281.6057992950431,-1.5753806624539153,10.657676699454912,0.457209587431864,413.4378947368421,0.22188911806453684,0.88,nominal,14779.358051113419,1488.64786540293,target_intercept,19.34814194735215,4.806165863417278,0.0
0.57,53.33040458026743,-117.55569101925201,1007.1568248693407,98.83585387570935,4.22002308512655,11.89054714787805,99.63794316250954,17.88263050005372,3.4111174203352883,11.701853294451688,-3.6493438288230275,4.282718177361781,-1.8684557186058446,-11.76894934140817,5.205897667973103,-0.2629336887777701,5698.2167935672915,0.30108601902011206,101.28719943634412,2.205599592593751,1.1108613012444346,89796.57028564464,281.60348063834925,-1.6035194770049235,10.542981142764262,0.4428726428455327,413.40315789473686,0.22187047505344087,0.88,nominal,14840.694335432661,1485.7320399499376,target_intercept,19.37304810494689,4.811164235254914,0.0
0.6,56.31318127667106,-117.43043057891046,1007.5127070604017,99.42588988012099,4.175348011384919,11.862739702035462,100.21809069578391,17.875974385802117,3.6147321386228977,11.73089685540376,-4.013673242770805,4.321039906654702,-1.6949258172295645,-11.809666315739758,5.306291388613017,0.14502210286180092,5766.889817073509,0.30290141869682186,101.89749259687618,2.2056988256863157,1.1108224660951673,89792.69343404198,281.60116740410734,-1.6355133471875702,10.41287036888731,0.4266087961109138,413.3684210526316,0.22185183204234488,0.88,nominal,14902.157340048074,1482.8002523657983,target_intercept,19.398307398042483,4.8162993938279,0.0
0.63,59.31358412003493,-117.30669145892288,1007.867889284052,100.01342811212908,4.12463733291941,11.839407455012763,100.79618050677284,17.869318830840847,3.8198089545263927,11.75404388187,-4.378923150392557,4.358116461424095,-1.542771251208064,-11.845145299580036,5.399730658412544,0.5578898237200702,5836.1539524657455,0.30472157702596236,102.5093823940599,2.205895588076963,1.1107837083644672,89788.8243427644,281.59885871965366,-1.6712205463206529,10.267910479013079,0.4084888098766347,413.3336842105263,0.22183318903124885,0.88,nominal,14963.742638824413,1479.8525539971324,target_intercept,19.423916677272178,4.821579558213661,0.0
0.6599999999999999,62.33153825031781,-117.18465709043055,1008.2225003479022,100.59847100942935,4.067812283077673,11.820368795004368,101.37218841800382,17.862663835169908,4.026246489916758,11.771862823432311,-4.744931733511154,4.394056991346994,-1.4097452485922017,-11.875495429132897,5.487031140067388,0.9750646000152756,5905.998049458623,0.30654612379922935,103.1227441308918,2.2061880498234605,1.1107450139911834,89784.96160794894,281.5965537477386,-1.7104832040773785,10.108732181603072,0.38859152270038405,413.298947368421,0.22181454602015285,0.88,nominal,15025.445475364388,1476.8889981160398,target_intercept,19.44987298416115,4.827013124774675,0.0
0.69,65.36696865160613,-117.06451313333389,1008.5766641803995,101.18101337627736,4.004798569888779,11.805461083242259,101.94608766805987,17.856009398789304,4.233956458746892,11.784942538356072,-5.111556042940396,4.429061373540516,-1.2964900997848845,-11.90107123324031,5.5690074716128795,1.3959286206622767,5976.408447589238,0.3083746325764031,103.73743419820724,2.2065798518001674,1.110706369448058,89781.10387907505,281.5942516828274,-1.7531279916716311,9.936028048231078,0.36700350602888476,413.26421052631576,0.22179590300905686,0.88,nominal,15087.260739196588,1473.9096399454922,target_intercept,19.476173528676235,4.832608663710848,0.0
0.72,68.41979987730934,-116.94644736371376,1008.9305005589582,101.76104085677368,3.9355256540045214,11.794545951958503,102.51784777608312,17.84935552169903,4.4428654023537355,11.793809403228336,-5.478671089127527,4.463393856803151,-1.200899157633997,-11.922392545273691,5.646388039079584,1.8198581794238342,6047.368748087207,0.31020661654193776,104.3532886804945,2.2070751548850813,1.110667761662197,89777.24985102331,281.59195174636676,-1.7989668740961493,9.750549500261652,0.3438186875327065,413.2294736842105,0.22177725999796086,0.88,nominal,15149.182849626583,1470.9145366755076,target_intercept,19.502815660067693,4.838374916314989,0.0
0.75,71.4899558022069,-116.83064957153647,1009.2841257433115,102.33853082991837,3.859926405909787,11.787506145109711,103.08743485704836,17.842702203899094,4.652915034025802,11.798891207174867,-5.846169299829751,4.497347626092566,-1.1196762555788524,-11.940086271804727,5.719781459541657,2.246229310936027,6118.859763300013,0.31204152903660354,104.97012353450879,2.2076770121093694,1.1106291779459092,89773.39825716945,281.5896531826684,-1.8477979265155136,9.553103539478077,0.3191379424347595,413.19473684210527,0.2217586169868649,0.88,nominal,15211.20578442374,1467.903747485173,target_intercept,19.52979684119296,4.844320792723485,0.0
0.78,74.57735942629132,-116.71731146334723,1009.6376529436965,102.91345413614768,3.777936939641468,11.784240012833447,103.65481253869955,17.836049445389488,4.864062825922215,11.80055780602927,-6.213964437372735,4.53122285862403,-1.050899712976869,-11.95484204508797,5.789721280767167,2.674422217574468,6190.859551552858,0.3138787662348385,105.58773548986976,2.2083892402823966,1.1105906059455668,89769.54786427785,281.58735525586593,-1.899406211363327,9.344549236884514,0.2930686546105642,413.16,0.2217399739757689,0.88,nominal,15273.323170456773,1464.8773335704773,target_intercept,19.557114629290346,4.850455370037288,0.0
0.8099999999999999,77.681932699279,-116.60662657255108,1009.9911927344216,103.48577576625597,3.689496359871722,11.784659690837515,104.21994230166398,17.829397246170213,5.076282474750137,11.79914858621292,-6.581994356454754,4.565324124193612,-0.993581933704068,-11.967386967960206,5.856695367069063,3.1038249351638605,6263.343402990971,0.31571766849042765,106.20590250172059,2.20921713311402,1.1105520335964398,89765.69746799166,281.58505724722625,-1.9535647121585447,9.125793994959292,0.26572424936991146,413.1252631578947,0.2217213309646729,0.88,nominal,15335.528316910099,1461.835358170834,target_intercept,19.584766658797186,4.856787890816936,0.0
0.84,80.803596349812,-116.4987901785351,1010.3448534615828,104.0554550177666,3.5945464671989935,11.788690905376383,104.78278349290882,17.822745606241273,5.289563916719058,11.79496497505468,-6.950220687099526,4.599964842660557,-0.9465006286054853,-11.97847402845359,5.921139339302735,3.5338366598148823,6336.283806694487,0.3175575211598548,106.82438402766321,2.210166451926995,1.110513449078175,89761.84588838731,281.58275845249966,-2.0100353199021352,8.897789599621962,0.23722369995274525,413.0905263157895,0.2217026879535769,0.88,nominal,15397.814215459934,1458.777886593168,target_intercept,19.612750624222134,4.863327761952105,0.0
0.87,83.9422697294887,-116.39399923264227,1010.6987416081017,104.62244598922322,3.4930315297611108,11.796271550628568,105.34329355270798,17.816094525602665,5.503913309548494,11.788265280511697,-7.318628341288792,4.635469241357578,-0.9082761688912511,-11.988874334508498,5.983433049564283,3.9638708510249097,6409.65046471748,0.3193975565550902,107.44292168466231,2.211242864653925,1.1104748407749432,89757.99196599562,281.5804581795473,-2.0685698678149276,8.66152807909168,0.20769100988646,413.05578947368423,0.2216840449424809,0.88,nominal,15460.173562657092,1455.7049862362512,target_intercept,19.641064264569668,4.870084553863306,0.0
0.8999999999999999,87.09787067704133,-116.2924522899092,1011.0529620993357,105.18669825175438,3.384898091102091,11.807349707797753,105.90142837240207,17.80944400425439,5.719353233498893,11.779273750426126,-7.6872261387640926,4.672172056237456,-0.8778472564532253,-11.999370557957526,6.043911646734781,4.393358110052861,6483.410345997737,0.3212369568014333,108.0612402104503,2.2124522418493173,1.1104361972420707,89754.13455846993,281.5781557463543,-2.1289112099373275,8.418037387654675,0.17725467345683427,413.021052631579,0.22166540193138493,0.88,nominal,15522.598796428952,1452.6167266159678,target_intercept,19.6697053500292,4.877068000013552,0.0
0.9299999999999999,90.27031539622931,-116.19434944742429,1011.4076185703744,105.74815730626608,3.2700947494972064,11.821882367960267,106.45714253192867,17.80279404219645,5.935922905824618,11.768188384516657,-8.05604736045403,4.710418075595732,-0.8544295384287678,-12.010753001328812,6.102875023427469,4.82174888942822,6557.5277521558155,0.3230748568712824,108.67904848413136,2.213800799306047,1.1103975071768595,89750.27253767295,281.57585047929257,-2.190794338864341,8.16837693312039,0.1460471166400488,412.9863157894737,0.2216467589202889,0.88,nominal,15585.082120684849,1449.5131793906712,target_intercept,19.69867167008676,4.884287996747038,0.0
0.96,93.45951834272987,-116.09989229006366,1011.7628136082312,106.30676488335182,3.1485719120207127,11.839834595227625,107.0103894408938,17.796144639428842,6.153678252161672,11.755182003536214,-8.425149659035352,4.750561128398514,-0.8372900796774387,-12.023817430615045,6.160590271317285,5.248516083220901,6631.964399023268,0.3249103478769687,109.2960406339344,2.2152948606796072,1.1103587593921536,89746.40478703761,281.57354171154645,-2.25394753773117,7.913632967425933,0.1142041209282416,412.95157894736843,0.22162811590919293,0.88,nominal,15647.615520217038,1446.3944183867877,target_intercept,19.7279610225211,4.891754603474055,0.0
0.99,96.6653921205216,-116.00928384361966,1012.1186489649887,106.86245925972457,3.0202815481335317,11.861178558581145,107.56112149129366,17.789495795951566,6.372691906057505,11.740403248927302,-8.794614909197879,4.792962137782926,-0.8257450488403236,-12.03936273087929,6.217294149879187,5.673157484977068,6706.679527713995,0.32674248094496006,109.91189734053847,2.2169407096064653,1.110319942793077,89742.53019924485,281.57122878172754,-2.318093561441523,7.654913860443975,0.08186423255549694,412.91684210526313,0.2216094728980969,0.88,nominal,15710.190777104923,1443.2605196256009,target_intercept,19.757571203448503,4.899478043209164,0.0
1.02,99.88784738753918,-115.92272853548212,1012.4752257409193,107.41517556725263,2.885176937917774,11.885892531020545,108.10929020840794,17.782847511764622,6.593053198369162,11.723979896096047,-9.164549262227075,4.837987161355566,-0.8192372708500384,-12.058188143292464,6.273197904555993,6.095198086522078,6781.630044281603,0.3285702716220835,110.5262873193673,2.218744633093617,1.1102810463570496,89738.6476742286,281.568911032684,-2.382950841999287,7.393345277557336,0.04916815969466701,412.8821052631579,0.2215908298870009,0.88,nominal,15772.799487195069,1440.1115613518737,target_intercept,19.78749999846288,4.907468703473487,0.0
1.05,103.1267927681423,-115.84043216342624,1012.8326445436003,107.96484602010374,2.743212401862768,11.913960089363949,108.6548463504385,17.776199786868013,6.814868103918318,11.706021614656382,-9.535083123410981,4.886006046065738,-0.8173177657888724,-12.081090674901318,6.328491426338179,6.514192211897256,6856.770682121238,0.3303927046496527,111.13886892663666,2.2207129333903852,1.1102420591164273,89734.75611744286,281.56658781046656,-2.448234712689045,7.130065281982219,0.016258160247777338,412.84736842105264,0.22157218687590494,0.88,nominal,15835.433071332198,1436.9476240647125,target_intercept,19.817745174625774,4.915737137580693,0.0
1.08,106.38213477037147,-115.7626018729964,1013.1910056271577,108.51140007430567,2.594343014328071,11.945369451914177,109.19773996335611,17.769552621261735,7.0382591258962295,11.686621329547956,-9.906370938091333,4.937391384596732,-0.8195988382998937,-12.108862632166883,6.383345932607159,6.9297254832057,6932.054187512321,0.33220873909874643,111.7492918868747,2.222851869444392,1.1102029701433165,89730.85443834595,281.56425846342347,-2.5136586457718773,6.866219383149544,-0.016722577106306955,412.8126315789474,0.22155354386480894,0.88,nominal,15898.082781885936,1433.7687905512967,target_intercept,19.84830447313332,4.92429406632553,0.0
1.1099999999999999,109.65377770695235,-115.68944614379816,1013.5504090125198,109.05476455269643,2.4385243066077518,11.980112845403967,109.73792041143564,17.76290601494579,7.263365139380482,11.665856510998996,-10.278590917975249,4.992517423754099,-0.8257516271365696,-12.142288995652738,6.437916558536015,7.341416607208833,7007.431530027782,0.3340173138926661,112.35719915066751,2.225167632892586,1.1101637685364536,89726.94154909102,281.5619223414186,-2.5789354983091237,6.602955552688385,-0.04963055591395179,412.77789473684214,0.22153490085371297,0.88,nominal,15960.73970665592,1430.5751459242501,target_intercept,19.879175602620716,4.933150380090141,0.0
1.14,112.94162361878942,-115.62117478504167,1013.9109545903077,109.59486372790232,2.2757119585497696,12.018185926261934,110.27533637860266,17.75625996792018,7.490341202120741,11.643790694865793,-10.651944744778891,5.051758963988316,-0.8355137711386711,-12.182144735397014,6.492345146286973,7.748918975251148,7082.852136037787,0.3358173536596048,112.96222886346165,2.2276663677320476,1.1101244434099953,89723.01636340709,281.55957879516296,-2.643778760690393,6.341419229696583,-0.0823225962879272,412.74315789473684,0.22151625784261694,0.88,nominal,16023.394769540024,1427.366777663379,target_intercept,19.910356233032644,4.942317141384314,0.0
1.17,116.24557219931526,-115.55799894074046,1014.2727422090684,110.13161935086148,2.1058614767073287,12.059587292024164,110.8099358318381,17.749614480184903,7.719358321193232,11.620474677381575,-11.026657185699948,5.115490321694883,-0.8486784199380552,-12.229192257065678,6.546762651427614,8.151922076541982,7158.264142595817,0.33760777483998505,113.56401642000701,2.230354184066839,1.1100849838838955,89719.07779563915,281.55722717564106,-2.7079038024288415,6.0827483370302255,-0.1146564578712218,412.7084210526316,0.22149761483152094,0.88,nominal,16086.038726912599,1424.1437756624919,target_intercept,19.941843989940967,4.951805587837252,0.0
1.2,119.56552071823234,-115.50013110492722,1014.6358717508751,110.66495063056907,1.9289278604414513,12.104318060225202,111.34166594972508,17.742969551739957,7.950603172492706,11.595947356232159,-11.402975612877258,5.184084306557171,-0.8650822903207037,-12.284178975198941,6.601291148202386,8.550152725855847,7233.6146700197305,0.3393874920013409,114.16219658858329,2.233237167308816,1.1100453790756724,89715.12475992624,281.5548668336193,-2.7710291097997795,5.828068330295633,-0.14649145871304595,412.67368421052635,0.22147897182042497,0.88,nominal,16148.662159935804,1420.906232282073,target_intercept,19.973636449217075,4.961627135657704,0.0
1.23,122.90136394335606,-115.44778514720247,1015.0004431957199,111.1947741707908,1.7448652574916848,12.1523814948234,111.87047301971907,17.736325182585343,8.184277778813849,11.570236491435129,-11.781169460754366,5.257911203989221,-0.8846029159067127,-12.347834981738865,6.656045718321023,8.9433761064023,7308.850111155145,0.34115542430924045,114.75640568768179,2.2363214052507367,1.1100056180933962,89711.15616950221,281.5524971192278,-2.832877509935084,5.578487301085346,-0.17768908736433178,412.63894736842104,0.22146032880932895,0.88,nominal,16211.255463093152,1417.6542424086163,target_intercept,20.0057311319897,4.97179338357821,0.0
1.26,126.2529940591986,-115.40117634893313,1015.3665566762995,111.72100386141808,1.5536266089778348,12.20378268598969,112.3963023025668,17.729681372721064,8.420599148217807,11.543359386566996,-12.161529624169697,5.337337812322853,-0.9071559425040061,-12.420870858616409,6.711136220604524,9.331396630934814,7383.9164342952345,0.34291050208261636,115.34628379104369,2.2396130288537823,1.1099656900297277,89707.17093610106,281.550117381604,-2.8931773760446804,5.335091155763481,-0.20811360552956487,412.6042105263158,0.22144168579823295,0.88,nominal,16273.80882867462,1414.387903521428,target_intercept,20.038125499809894,4.982316117299333,0.0
1.29,129.62030058089496,-115.36052145041171,1015.7343125248384,112.24355072321241,1.355163284047381,12.258528284630104,112.91909786296497,17.723038122147116,8.659798871901382,11.515323401238993,-12.54436778724836,5.422726549702531,-0.932689458047518,-12.50397566866257,6.766668851518354,9.714058626076007,7458.759496462998,0.34465167335984304,115.93147693627313,2.243118257205496,1.1099255839568238,89703.16796944874,281.5477269685885,-2.9516638085184517,5.0989388907771644,-0.23763263865285444,412.5694736842105,0.22142304278713695,0.88,nominal,16336.312227014638,1411.1073157677229,target_intercept,20.070816949941392,4.99320731444959,0.0
1.3199999999999998,133.00317026213202,-115.32603870925811,1016.1038113133317,112.76232270790133,1.149424705119813,12.316626283107343,113.43880236775841,17.716395430863503,8.902122683437243,11.486126335528544,-12.930015690476417,5.51443461111821,-0.9611797253655711,-12.59781511262051,6.822747543278728,10.091246845134716,7533.325363733079,0.3463779104053531,116.51163931340761,2.246843450324158,1.1098852889219717,89699.14617682794,281.5453252264633,-3.0080797867672975,4.87105798505082,-0.26611775186864745,412.53473684210525,0.22140439977604096,0.88,nominal,16398.75538253156,1407.8125820468604,target_intercept,20.103802810703414,5.004479150076024,0.0
1.3499999999999999,136.40148699576338,-115.29794797032268,1016.4751538884673,113.27722445437831,0.936357964514347,12.378085837854432,113.95535685229811,17.709753298870222,9.147829981780662,11.455756737406858,-13.318824346046778,5.612813168946919,-0.9926286747918218,-12.703029847180913,6.879475255246601,10.462886815120372,7607.560634925608,0.34808821608254503,117.0864354084684,2.2507951733199913,1.1098447939437872,89695.10446269944,281.54291149972494,-3.062177286789664,4.652439929510539,-0.29344500881118263,412.5,0.22138575676494499,0.88,nominal,16461.12774554764,1404.5038081045882,target_intercept,20.137080336796767,5.016144002679683,0.0
1.38,139.8151317057773,-115.27647074733063,1016.8484414024686,113.78815700046437,0.7159074330680039,12.44291713337451,114.46870045476656,17.703111726167272,9.39719331891563,11.424194123988922,-13.711163203319323,5.718206620064647,-1.0270611345679383,-12.820233972080226,6.936955152318259,10.828945024424565,7681.412764687785,0.34978163001531304,117.65554207586473,2.254980269397911,1.109804088008882,89691.04172836964,281.54048513088395,-3.113718359598975,4.444035913189289,-0.3194955108513388,412.46526315789475,0.221367113753849,0.88,nominal,16523.418459781053,1401.1811026381756,target_intercept,20.170646704542886,5.028214460809526,0.0
1.41,143.24398222928787,-115.26183031648219,1017.2237753410122,114.29501745035186,0.4880143616146593,12.511131284788922,114.97877011874236,17.696470712754657,9.650497852906897,11.39140911451901,-14.107419267004483,5.830951875046466,-1.0645220383517604,-12.950013683052909,6.9952916729751795,11.189428957914195,7754.830381875465,0.35145723446189786,118.2186505139856,2.259405940674681,1.1097631600688314,89686.9568716889,281.5380454602834,-3.1624761658179086,4.246752684682293,-0.3441559144147134,412.4305263157895,0.221348470742753,0.88,nominal,16585.61632545724,1397.8445774133334,target_intercept,20.204499006967385,5.040703330227396,0.0
1.44,146.6879131872305,-115.25425182219071,1017.6012575492716,114.79769859808758,0.2526164763824753,12.582740275313434,115.48550026448123,17.689830258632373,9.908040767588993,11.357363494656406,-14.507996174059725,5.951377683811035,-1.1050743407266157,-13.092926080979785,7.05459151252064,11.544386986120726,7827.763599069007,0.3531141598263577,118.77546811885293,2.2640798381386293,1.1097219990373595,89682.84878677114,281.5355918259297,-3.208235961936327,4.061448606959062,-0.36731892413011724,412.3957894736842,0.221329827731657,0.88,nominal,16647.709758014313,1394.4943473938476,target_intercept,20.238634248662162,5.053623641655362,0.0
1.47,150.14679584243842,-115.25396239510899,1017.9809902570665,115.2960885069309,0.009647569390731164,12.657756926495471,115.98882242907669,17.683190363800424,10.170130659777412,11.32201022082451,-14.913313233761755,6.079803996444359,-1.1487972769480017,-13.249498132249105,7.114964535922782,11.893908115191273,7900.164308970453,0.354751589734021,119.32572019106775,2.2690101607641497,1.1096805937876217,89678.71636372317,281.53312356332907,-3.250796033940073,3.8889299226973084,-0.38888375966283645,412.36105263157896,0.221311184720561,0.88,nominal,16709.686742346403,1391.1305308848666,target_intercept,20.2730493403614,5.066988659115389,0.0
1.5,153.62049794376688,-115.26119128255758,1018.3630761040423,115.79007004428158,-0.24096291495310815,12.736194899193825,116.48866487558465,17.676551028258807,10.437086894481657,11.285293365400973,-15.323804434015205,6.216541356972814,-1.1957846954597176,-13.420225775447385,7.176524626978531,12.238121604136541,7971.98646343136,0.3563687655999906,119.86915147219241,2.2742057631243666,1.109638933149478,89674.5584883736,281.5306400053237,-3.289968574246964,3.7299472463878893,-0.40875659420151383,412.32631578947365,0.22129254170946497,0.88,nominal,16771.53478252384,1387.7532496908093,target_intercept,20.307741093167188,5.080811888869667,0.0
1.53,157.10888355492511,-115.27616999142788,1018.7476181657264,116.27952037194127,-0.4992902956765207,12.818068722802188,116.98495217125381,17.669912252007524,10.709238928531157,11.247148008768628,-15.739917417669922,6.361890325403823,-1.2461436368287977,-13.60557316644427,7.239390486417798,12.577196455569887,8043.186330940703,0.35796499062376846,120.405527488059,2.2796762716721535,1.109597005906687,89670.37404199326,281.5281404819228,-3.3255804981330623,3.5851922984733933,-0.42685096269082584,412.2915789473684,0.221273898698369,0.88,nominal,16833.240846940193,1384.3626292888891,target_intercept,20.342706212361755,5.095107088967927,0.0
1.56,160.61181286666425,-115.29913244358724,1019.1347199812402,116.76431039130412,-0.7654150719787517,12.903393850460995,117.47760473489974,17.663274035046573,10.986925602832313,11.207500084366835,-16.162112432545886,6.516140923798386,-1.2999931589822777,-13.805972054392713,7.303686391843,12.911340785708164,8113.722728520276,0.35953963314744747,120.93463567796617,2.2854322099328264,1.109554800793899,89666.1619009962,281.5256243201219,-3.3574741960956747,3.4552948957298595,-0.44308813803376756,412.25684210526316,0.221255255687273,0.88,nominal,16894.791308828695,1380.9587990192736,target_intercept,20.37794129074444,5.109888279405918,0.0
1.5899999999999999,164.12914199095056,-115.33031514376474,1019.5244855833879,117.24430414287704,-1.0394233392496917,12.992186738257981,117.96653835332881,17.656636377375953,11.27049440314563,11.166266179196596,-16.590861258065598,6.67957210263099,-1.3574632784802396,-14.02182128222933,7.369542928707174,13.240801078926117,8183.557224148346,0.36109212931999196,121.4562862904357,2.291485132514242,1.1095123064934167,89661.9209366172,281.52309084370796,-3.3855082188783685,3.3408202109861977,-0.4573974736267253,412.2221052631579,0.22123661267617703,0.88,nominal,16956.17188208003,1377.5418922929339,target_intercept,20.41344280143163,5.125169752896677,0.0
1.6199999999999999,167.6607227357337,-115.36995735984227,1019.9170195317779,117.719358159439,-1.3214072025845485,13.084464946334403,118.45166366665,17.64999927899567,11.560300689030932,11.12335329217924,-17.026646111173704,6.852451223174184,-1.4186940190172879,-14.253486404793508,7.437097701584094,13.565861331580821,8252.654306067512,0.362621985016099,121.97031302820815,2.297847768001905,1.109469511631606,89657.65001455427,281.52053937304345,-3.4095578921763154,3.242266314104071,-0.4697167107369911,412.1873684210526,0.221217969665081,0.88,nominal,17017.367552289896,1374.112046818273,target_intercept,20.44920709005879,5.140966086253374,0.0
1.65,171.2064023588944,-115.41830131541806,1020.3124269495725,118.18932077202291,-1.611465185859518,13.180247259820247,118.93288562221704,17.643362739905715,11.856706890388882,11.078658553166388,-17.469958534092257,7.035033551649201,-1.4838345726159687,-14.501299417755101,7.506496035340592,13.886842089186207,8320.981515617925,0.3641287769646549,122.47657342735233,2.304534170980897,1.1094264047749232,89653.3479945735,281.51796922482777,-3.4295158583463343,3.160062004917228,-0.4799922493853465,412.15263157894736,0.221199326653985,0.88,nominal,17078.362502958706,1370.669404847656,target_intercept,20.485230366324075,5.157292152379369,0.0
1.68,174.76602329992662,-115.47559239444686,1020.710813564401,118.65403136774057,-1.9097026342933563,13.279553827614901,119.41010289681822,17.636726760106097,12.160081670758592,11.03206890423638,-17.921298266024497,7.227561761213681,-1.553042525012809,-14.765558591318905,7.577891674437652,14.204099380356165,8388.509540564775,0.3656121530487828,122.97494895771206,2.311559883380512,1.1093829744254922,89649.01373006839,281.5153797118314,-3.4452925427636534,3.0945649475589807,-0.4881793815551274,412.1178947368421,0.22118068364288904,0.88,nominal,17139.14003675569,1367.214113445012,target_intercept,20.521508694813168,5.174163132857558,0.0
1.71,178.3394228878766,-115.542079357695,1021.1122857539117,119.11331959833224,-2.216232108271458,13.382406317024433,119.88320728661753,17.63009133959681,12.470799056275942,10.983460744314138,-18.38117210056499,7.430265437834908,-1.6264831147253227,-15.046528403110626,7.651447487705847,14.518023550254984,8455.21226626154,0.367071831746957,123.46534483443016,2.3189421053789445,1.109339209016167,89644.64606756835,281.51277014259955,-3.4568165427953286,3.046060114295215,-0.49424248571309815,412.08315789473687,0.22116204063179304,0.88,nominal,17199.68249175165,1363.7463247757194,target_intercept,20.558037985045434,5.191594531127183,0.0
1.74,181.9264330240223,-115.61801457067675,1021.5169505963787,119.56700453818983,-2.531173766058208,13.488828082234704,120.35208306423937,17.623456478377857,12.789237528964179,10.932699538119648,-18.850092730323283,7.643360586096317,-1.7043285135653952,-15.344439565070546,7.727336185530995,14.829037995610545,8521.06678240011,0.36850760069250427,123.94768953292902,2.326699876207044,1.1092950969050586,89640.24384619357,281.5101398211235,-3.46403493769701,3.014758545633688,-0.498155181795789,412.0484210526316,0.22114339762069707,0.88,nominal,17259.971152516762,1360.2661964200363,target_intercept,20.594813980681547,5.209602186232026,0.0
1.77,185.52687983773606,-115.70365424266298,1021.9249159267164,120.01489379045867,-2.8546557328740687,13.598844344587478,120.81660630226553,17.616822176449237,13.115779082790356,10.879639390079012,-19.328577579946156,7.867049131146181,-1.7867571038913779,-15.659489139867574,7.805741055502022,15.137597802687617,8586.053343538004,0.36991931433690567,124.42193400245041,2.335208057876808,1.1092506263694633,89635.80589705022,281.50748804647634,-3.4669135180838553,3.00079643210428,-0.499900445986965,412.0136842105263,0.22112475460960104,0.88,nominal,17319.986155971044,1356.7738917113913,target_intercept,20.63183224783278,5.22820228711911,0.0
1.7999999999999998,189.14057694117216,-115.79927976991476,1022.3362853611759,120.45657011453659,-3.187517575059658,13.712314481984665,121.27643266728465,17.610188433810947,13.44994573306274,10.825194133662743,-19.812542892984474,8.101518413111817,-1.873952728746069,-15.836904170095814,7.8866693992548385,15.439250064186783,8650.128270397496,0.3713063108605122,124.88785555232563,2.3443364158940807,1.1092057861482174,89631.33109735552,281.50481414515235,-3.4654369415319137,3.0042345217052913,-0.4994706847868386,411.978947368421,0.22110611159850502,0.88,nominal,17379.68069308839,1353.2695896213847,target_intercept,20.6690882382799,5.24741231160466,0.0
1.8299999999999998,192.76732905745206,-115.90518349513619,1022.751162342131,120.89173720932968,-3.530124174047255,13.829232698504779,121.73135002620818,17.603555250462993,13.790816004865544,10.769524340261409,-20.29570341643347,8.345225412986903,-1.922022108832184,-15.81242353320011,7.968667826611283,15.727905610117773,8713.26859754331,0.37266837626499516,125.34538211880124,2.353676946796776,1.1091605650007852,89626.81832643643,281.5021174447761,-3.4596087925883197,3.025057855593936,-0.496867768050758,411.94421052631577,0.22108746858740905,0.88,nominal,17439.023475784066,1349.753478784982,target_intercept,20.70657719724565,5.267250415768995,0.0
1.8599999999999999,196.4069387861653,-116.02165078239447,1023.1696512884702,121.32032429044222,-3.882242908609733,13.949631544639136,122.1813615743854,17.59692262640537,14.137693233369346,10.712655946353316,-20.773113823591913,8.596719287926742,-1.9333858697453237,-15.63036473464435,8.050396025746677,15.999112614049919,8775.483590051974,0.3740059814774687,125.79467200847522,2.3632846878500384,1.109114951581899,89622.2664532206,281.4993972666249,-3.4494515647745376,3.063175833171029,-0.4921030208536214,411.9094736842105,0.22106882557631305,0.88,nominal,17498.00921889343,1346.2257492805968,target_intercept,20.744294238459535,5.28773465950882,0.0
1.89,200.05920519836775,-116.1489684844573,1023.5918528860822,121.74221374008162,-4.243923402094235,14.073386587067795,122.6264151894184,17.59029056163808,14.489778303137587,10.65579506499534,-21.238970363867697,8.857236674148234,-1.936089998146645,-15.254355776631918,8.131316338478921,16.24722788095619,8836.780115992327,0.37531953493532894,126.2358625122635,2.373274337751387,1.1090689349548963,89617.67438746414,281.49665295624044,-3.4350065691017067,3.11842260627668,-0.485197174215415,411.8747368421053,0.22105018256521705,0.88,nominal,17556.62589520911,1342.686596352945,target_intercept,20.782234495930723,5.308883384401383,0.0
1.92,203.7239231723104,-116.28742779682138,1024.0178637712718,122.15726579808823,-4.615310412135682,14.200362839651644,123.06644133248878,17.583659056161125,14.8459182188871,10.600006027579717,-21.685017277866525,9.129186824442087,-1.901271868285745,-14.607930960397686,8.209882664027342,16.464321055490636,8897.167090829213,0.3766094779984523,126.66910199751196,2.3833095939900697,1.1090225046261901,89613.04108319047,281.4938838854867,-3.41633375414762,3.190557800781887,-0.4761802749022641,411.84,0.22103153955412105,0.88,nominal,17614.859274873994,1339.1362214298745,target_intercept,20.820393120667337,5.330715345141789,0.0
1.95,207.4008894779527,-116.4373104688063,1024.4477778159676,122.56554352140927,-4.996089066164431,14.33046815652875,123.50156145669091,17.577028109974503,15.204993438797109,10.54589883699948,-22.10276537321703,9.414132599811413,-1.80683462491772,-13.688191246355247,8.28386259310831,16.642621246958566,8956.682674057623,0.37787685839604307,127.09474277853549,2.3930231292638693,1.1089756504051638,89608.36552470808,281.4910894441962,-3.3935114426669397,3.279267562436437,-0.4650915546954454,411.80526315789473,0.22101289654302506,0.88,nominal,17672.718641439358,1335.5748248464267,target_intercept,20.858765339192217,5.353249111301672,0.0
1.98,211.08990836966225,-116.59887980635483,1024.881684515803,122.967296390319,-5.3856445849507075,14.463556661180359,123.93206050264453,17.570397723078212,15.566178407361294,10.494561210684678,-22.484897741761127,9.713819564356193,-1.672780151590958,-12.528914058566231,8.351687777292696,16.775521078412844,9015.39089686158,0.37912324975366196,127.51331404790398,2.4021896680958803,1.108928362579817,89603.64674413722,281.48826905064726,-3.3666359926206124,3.3841659224227327,-0.4519792596971584,411.7705263157895,0.22099425353192909,0.88,nominal,17730.233781672472,1332.0026004569697,target_intercept,20.89734661674623,5.376502676830572,0.0
2.01,214.7907956345384,-116.77237475322677,1025.3196689758354,123.36290882920477,-5.783164895731505,14.599482001080396,124.3583416812631,17.563767895472253,15.92906170341829,10.446953427647014,-22.82575598458197,10.031279581958643,-1.5049377560964585,-11.184150158359973,8.412048979426023,16.85812664601854,9073.375440316819,0.38035061345683296,127.92547541181968,2.4106070327092075,1.1088806319182754,89598.88382155921,281.4854221516571,-3.3358213773677203,3.504796476674106,-0.4369004404157367,411.73578947368424,0.2209756105208331,0.88,nominal,17787.449704618768,1328.4197313785562,target_intercept,20.936132731915595,5.4004931981106,0.0
2.04,218.5033819242282,-116.95800586400377,1025.761811581332,123.75287632299319,-6.187703692566301,14.738086849887244,124.7809010994706,17.55713862715663,16.29372083680513,10.403731367593862,-23.12167716785524,10.370386897286494,-1.3079995215820766,-9.720043324374943,8.463904252085664,16.887579438566444,9130.735915749015,0.3815612157211504,128.33198899506448,2.418095969802305,1.1088324497046138,89594.07588858945,281.4825482247213,-3.3011986897152314,3.640634371651082,-0.41992070354361477,411.701052631579,0.2209569675097371,0.88,nominal,17844.423709142,1324.8263866719924,target_intercept,20.975119852443335,5.425236811914894,0.0
2.07,222.22751534568633,-117.15595287451168,1026.2081873387474,124.1377807152709,-6.598233683597121,14.87919191384747,125.20030207896922,17.550509918131336,16.660761910736458,10.365462086675455,-23.371282448058146,10.734977373065824,-1.0979864258856156,-8.20965995758826,8.506845461760125,16.863232289817184,9187.583974639054,0.38275754280257834,128.73369092168548,2.4245672230890065,1.1087838078106138,89589.22213553598,281.4796467822981,-3.2629155720079805,3.791088587935594,-0.4011139265080508,411.6663157894737,0.2209383244986411,0.88,nominal,17901.2223406981,1321.2227189664115,target_intercept,21.014304612672586,5.4507485211149715,0.0
2.1,225.96306276982477,-117.3663639754228,1026.6588659836937,124.51824747128146,-7.013703363704024,15.022621498207348,125.61713714645676,17.54388176839638,17.03130260202875,10.332458680254211,-23.575528375707176,11.128342205215578,-0.8880254487027385,-6.7288827157032856,8.541005118510004,16.786707925751404,9244.037610418905,0.3839421802680165,129.13145070772475,2.4299992138803472,1.1087346986839253,89584.32181021602,281.47671737110596,-3.2211355730975875,3.9555045117074887,-0.3805619360365639,411.6315789473684,0.22091968148754507,0.88,nominal,17957.916740534853,1317.6088631488794,target_intercept,21.05368413933823,5.477042151960179,0.0
2.13,229.7099099611938,-117.58935666784373,1027.1139123423684,124.89490637896805,-7.433089747364166,15.168211955825733,126.0319924326376,17.537254177951752,17.405756661756087,10.304713779325997,-23.737668964430533,11.5137414003401,-0.690626585701193,-5.352763218127542,8.566679849156364,16.6620267289103,9300.215730273998,0.38511769998366074,129.52613325049026,2.434409778157262,1.1086851153086132,89579.37421401699,281.4737595697746,-3.176037435757709,4.1331667829149525,-0.35835415213563093,411.59684210526314,0.22090103847644907,0.88,nominal,18014.578206742495,1313.9849361954712,target_intercept,21.09325604712015,5.504130379079279,0.0
2.16,233.46796079807518,-117.82501989839663,1027.5733864823926,125.26836122937907,-7.855441018430055,15.315804667474247,126.4454196533052,17.530627146797457,17.777064650267114,10.28202310338872,-23.863159508463923,11.629512027535624,-0.5228915683320784,-4.1518410240169485,8.582513082145217,16.496457459417712,9356.233748513261,0.38628657006861394,129.91856854313187,2.4377261994209816,1.1086350511886556,89574.37870024782,281.47077298786445,-3.127814318339707,4.323302407746816,-0.334587199031648,411.5621052631579,0.2208823954653531,0.88,nominal,18071.274626197785,1310.351038034681,target_intercept,21.133018426674404,5.5320248065634585,0.0
2.19,237.23713692817782,-118.07341606402032,1028.0373419950408,125.6392043367542,-8.279872187456167,15.46518375493775,126.85794361563362,17.524000674933497,18.142403856329388,10.264316796057978,-23.959478507100822,11.605420051518774,-0.4126739684862897,-3.1872333250100238,8.589377418047862,16.298478467773073,9412.204090629302,0.3874511672978202,130.30955584926642,2.440111995103745,1.1085845005350305,89569.33469280455,281.4677572770322,-3.076672956541313,4.525084121864502,-0.30936448476693723,411.52736842105264,0.2208637524542571,0.88,nominal,18128.071329069306,1306.7072526692032,target_intercept,21.172969915864094,5.560736046331072,0.0
2.2199999999999998,241.01737487804314,-118.33458534102816,1028.5058272769322,126.0079316621779,-8.70564256692782,15.616176063045387,127.26999650002051,17.517374762359868,18.504536887423154,10.250930856892797,-24.03553380392552,11.619686560718288,-0.36070107564421383,-2.5084579898965105,8.589845693239276,16.077181264410488,9468.22656750557,0.3886135812932665,130.69979784654703,2.441831969697633,1.108533458125981,89564.24167222444,281.4647121226999,-3.0228327616444526,4.737633989760596,-0.2827957512799255,411.4926315789474,0.22084510944316113,0.88,nominal,18185.022675622942,1303.0536507935587,target_intercept,21.213109605190343,5.590273895322234,0.0
2.25,244.8086215991138,-118.60855195116541,1028.978887395114,126.37489070235524,-9.132220337908214,15.768670606061661,127.68187585172302,17.510749409076574,18.86777707476914,10.240755250739845,-24.101305754566365,11.718076352365896,-0.3699029973248335,-2.1523944789730804,8.586990000351378,15.842461743145305,9524.382109080007,0.38977549075202295,131.0898589990198,2.443196715091951,1.1084819191037325,89559.09915540034,281.4616372319317,-2.966524862761471,4.960027224583431,-0.25499659692707105,411.4578947368421,0.2208264664320651,0.88,nominal,18242.1665165807,1299.3902938252713,target_intercept,21.25343688923518,5.620647599514157,0.0
2.28,248.61082927224302,-118.89533148323834,1029.4565659683294,126.74025577097396,-9.559317735764395,15.922619107180818,128.09372657432354,17.50412461508361,19.235052530178976,10.232557170676058,-24.16750646399483,11.850392590401713,-0.45053540753450105,-2.1418294376619706,8.583742119181622,15.605017565918331,9580.729878146367,0.39093811067894946,131.48014781111215,2.444540537687515,1.1084298787694982,89553.90667512531,281.45853232120584,-2.907991098095506,5.191296211808001,-0.2260879735239999,411.42315789473685,0.2208078234209691,0.88,nominal,18299.521626502094,1295.7172387140465,target_intercept,21.29395130047959,5.6518661685319564,0.0
2.31,252.423949819901,-119.19493859502145,1029.9389070967231,127.10401825526566,-9.986903726104083,16.07803761312357,128.5055368307467,17.497500380380984,19.607804097392297,10.224933689863489,-24.245064649221867,11.966002464410025,-0.6063232129787482,-2.4839255773483115,8.582701629462836,15.375879770624243,9637.306357613277,0.3921021806178601,131.87091287070126,2.4461749735686342,1.108377332373251,89548.66375911649,281.4553971038713,-2.8474829595432825,5.430434719246531,-0.19619566009418363,411.3884210526316,0.22078918040987314,0.88,nominal,18357.086881359275,1292.0345430417335,target_intercept,21.334652331805792,5.6839387119052915,0.0
2.34,256.2479295619335,-119.50739465490132,1030.4259567796305,127.46599140108434,-10.415201995995226,16.234989430243626,128.9171450129067,17.490876704968688,19.987067554487066,10.216382338699125,-24.34462048839473,12.053316885508734,-0.8379427323508628,-3.1694025147913476,8.586379959394025,15.16574695248483,9694.12604516303,0.39326798565933235,132.26224991647214,2.448405619005503,1.1083242749593005,89543.36991460831,281.4522312809324,-2.7852604960602307,5.676402275081294,-0.16544971561483818,411.35368421052635,0.22077053739877714,0.88,nominal,18414.84184819237,1288.342270174622,target_intercept,21.375539278240637,5.716874778487028,0.0
2.37,260.0827039611748,-119.83273522727228,1030.9177641757526,127.82581330804278,-10.844685745698897,16.393579870740112,129.32824601673028,17.484253588846723,20.374048350437334,10.20537966025691,-24.476025059892073,12.12292341733328,-1.1428970044520612,-4.1726872923635785,8.597272981984084,14.984402609641824,9751.182098040794,0.394435376081004,132.65410844545133,2.451537557852547,1.1082707012290796,89538.02461466377,281.4490345328576,-2.7215911800185633,5.928128694871233,-0.13398391314109595,411.31894736842105,0.22075189438768114,0.88,nominal,18472.7473009361,1284.640494383652,target_intercept,21.416611082813933,5.750684694258173,0.0
2.4,263.9281925103693,-120.17101718559995,1031.4143828687031,128.18295163981702,-11.276065277588906,16.5539564316867,129.7383991452889,17.477631032015093,20.76993218731813,10.190413919161662,-24.64785264981549,12.182107241808675,-1.5137502252025659,-5.452954822763118,8.617666201073622,14.84028165700722,9808.44722524401,0.3956037916570345,133.04629989069113,2.455853846604409,1.1082166054033715,89532.62728443113,281.4458065113534,-2.6567487412380206,6.184518737835698,-0.1019351577705377,411.2842105263158,0.22073325137658514,0.88,nominal,18530.745964150512,1280.9293058071003,target_intercept,21.457866180963148,5.785379888377307,0.0
2.4299999999999997,267.7842940420324,-120.52232503490333,1031.9158718933913,128.5367177221045,-11.71026164344591,16.716300822942163,130.14704277751773,17.471009034473795,21.17549780945745,10.170079735517694,-24.86698832084,12.227853418280187,-1.9404093397970181,-6.955871571345355,8.649464459473197,14.740125448044703,9865.875520985206,0.39677230448266265,133.43851202593868,2.4616059960509387,1.108161981110629,89527.1772900044,281.4425468326929,-2.5910119741208346,6.444456872156311,-0.06944289098046108,411.2494736842105,0.22071460836548912,0.88,nominal,18588.76415696984,1277.2088150458558,target_intercept,21.499302358949127,5.820973188515668,0.0
2.46,271.6508826621831,-120.88677605954145,1032.422296476384,128.8862873383569,-12.148367487937362,16.880819433090153,130.5535137835059,17.46438759622283,21.590945259580188,10.143162914286243,-25.138284088826328,12.253614946149131,-2.410069998337701,-8.615917584377428,8.694080169420793,14.688681396700723,9923.404929605269,0.39793967370781425,133.83032737544153,2.4690057471732785,1.1081068213064647,89521.67393039518,281.4392550729035,-2.5246635231445795,6.706812128563379,-0.036648483929577653,411.21473684210525,0.22069596535439315,0.88,nominal,18646.714094350165,1273.4791571868386,target_intercept,21.540916632543702,5.857479067349929,0.0
2.4899999999999998,275.52780447096006,-121.2645239853425,1032.9337284532837,129.23072695923136,-12.591597526702122,17.04773256332496,130.9570704629441,17.4577667172622,22.01593936901813,10.108700904617667,-25.464295572953564,12.255946422046073,-2.906876758248419,-10.359245565214396,8.752363053962876,14.688462979893393,9980.96015621485,0.39910440819953663,134.22124429020406,2.478216208676383,1.1080511182283472,89516.11643301728,281.4359307650536,-2.4579886520477183,6.970443021089426,-0.0036946223638218215,411.18,0.22067732234329715,0.88,nominal,18704.496700254647,1269.7404950873804,target_intercept,21.582705151327005,5.8949138250156805,0.0
2.52,279.4148752142268,-121.65576093366305,1033.4502463158517,129.5690247755577,-13.041231610684832,17.217262085598616,131.35691842052628,17.451146397591902,22.449700671772682,10.066045917553888,-25.845125469657916,12.235334998387833,-3.412828292239727,-12.106998725244143,8.82456088441643,14.739608320844651,10038.455938924708,0.40026483526945594,134.61070006384406,2.489345660749934,1.1079948633906394,89510.50395319679,281.43257339894694,-2.391274002131222,7.234202513580002,0.02927531419750026,411.14526315789476,0.22065867933220115,0.88,nominal,18762.004866501746,1265.9930217820365,target_intercept,21.62466313411213,5.933295696171334,0.0
2.55,283.3118789778921,-122.06071754464735,1033.971934904549,129.90012545550962,-13.498553699476881,17.389619623243718,131.75223875128614,17.444526637211936,22.89105291059808,10.01491369414452,-26.27837892387602,12.193934173369751,-3.9083581685955,-13.778943020211198,8.910277590229919,14.83985933356694,10095.80060170463,0.40141917371715974,134.9980954997031,2.5024375648331785,1.1079380476182497,89504.83557753466,281.42918242312044,-2.3248063450549608,7.4969430103528625,0.062117876294107824,411.1105263157895,0.22064003632110518,0.88,nominal,18819.127083419648,1262.2369618887813,target_intercept,21.66678483785294,5.972644874748308,0.0
2.58,287.2185680499211,-122.47966122337652,1034.4988847381017,130.22296906763376,-13.964789290972476,17.5649944517532,132.14221900218445,17.437907436122302,23.338449986805852,9.955417664751664,-26.75923664717582,12.134011885720662,-4.373161086616422,-15.297237047383932,9.008443903631829,14.984661022469815,10152.899972914505,0.40256561278388614,135.38282146533908,2.5182863805279894,1.1078806611198109,89499.11033121268,281.4257572492023,-2.2588713355699346,7.757521349291653,0.0946901686614566,411.0757894736842,0.22062139331000916,0.88,nominal,18875.751509427544,1258.4725718947316,target_intercept,21.709063563619626,6.012983453111412,0.0
2.61,291.13464690888395,-122.91293399675439,1035.0311719646195,130.53596196542847,-14.442425779261992,17.742907550594897,132.5255892157369,17.431288794323002,23.788447548224696,9.892088567282782,-27.271358002689297,12.058015811403063,-4.7872725872726285,-16.257276782751298,9.116860150430266,15.156845894690374,10209.599618226375,0.4037011696535406,135.76387470446093,2.5363620621214915,1.1078226956711035,89493.32739582655,281.42229738222994,-2.1937522981407036,8.014803775649469,0.12685047195618362,411.04105263157896,0.22060275029891319,0.88,nominal,18931.704341035955,1254.7001661685085,target_intercept,21.751492146524704,6.054337213953465,0.0
2.6399999999999997,295.05978995554995,-123.36090800183317,1035.568878358771,130.8381015555327,-14.93246683595924,17.923546471716662,132.90162114356127,17.424670711814034,24.23699466363254,9.825288408916194,-27.792818558016055,11.975461469391115,-4.935083101181826,-16.54953635025091,9.226611570273715,15.336710768633639,10265.810203017747,0.4048241771862016,136.1406944329215,2.554400585983296,1.107764142437233,89487.4858921107,281.41880229066794,-2.129728963731402,8.267670874921768,0.1584588593652209,411.00631578947366,0.22058410728781716,0.88,nominal,18986.881992250386,1250.9200890342615,target_intercept,21.79406246240876,6.096733589715788,0.0
2.67,298.99367372760787,-123.82393099019434,1036.1120937541034,131.12945906859696,-15.434099612039157,18.107179844417704,133.27046345074095,17.4180531885954,24.68171725211445,9.756212230285414,-28.309100533422182,11.897639521493382,-4.925903179365105,-16.390334120248156,9.33260079524563,15.511718540074257,10321.553627864663,0.40593517275637225,136.5134612322911,2.571577369313379,1.1077049917079456,89481.58485353742,281.4152713905983,-2.0670762485373286,8.515022443326066,0.18937780541575827,410.9715789473684,0.22056546427672116,0.88,nominal,19041.29687840132,1247.1326788141405,target_intercept,21.836765947498996,6.140199170950212,0.0
2.6999999999999997,302.93598874550275,-124.30231251010665,1036.660914136481,131.4105005964955,-15.946050663743687,18.29401274592187,133.63258248324087,17.4114362246671,25.12197539530575,9.68636088232009,-28.814702048848766,11.829502936359841,-4.882631108782982,-16.047601844682042,9.433866570922731,15.677430820028661,10376.89074095052,0.40703545091717674,136.88261030270266,2.588077286875839,1.1076452331054294,89475.62324705416,281.41170405811283,-2.006063060120939,8.755782274697358,0.21947278433716985,410.93684210526317,0.2205468212656252,0.88,nominal,19095.00430418661,1243.3382561875344,target_intercept,21.87959390134238,6.18475907209097,0.0
2.73,306.8864374151821,-124.79633261819856,1037.2154389845246,131.68162232264444,-16.467336936397416,18.484161601447465,133.98838409880474,17.40481982002913,25.557989252374362,9.615567383070273,-29.30951147167695,11.768725910182432,-4.82651999367351,-15.70585173044909,9.53029547529845,15.834731782484646,10431.871601536233,0.40812608071964124,137.2485009935357,2.604105425683827,1.1075848558740768,89469.60000199545,281.4080996466006,-1.9469511307802314,8.988902842971928,0.24861285537149103,410.90210526315786,0.22052817825452917,0.88,nominal,19148.052321422005,1239.5371279290478,target_intercept,21.922537549740696,6.230437327908331,0.0
2.76,310.8447287916192,-125.3062559543348,1037.7757637958684,131.94304588123663,-16.997444537874586,18.677493711459853,134.33811539759614,17.398203974681493,25.990264836556925,9.544101562560009,-29.79599218449688,11.710508131376379,-4.807656446379301,-15.435130072694484,9.623369313134152,15.98634146800268,10486.522894310654,0.40920766320569224,137.6113352654057,2.6206162329218574,1.107523849694293,89463.5140912709,281.40445753532686,-1.889993889334604,9.213369859886374,0.2766712324857966,410.8673684210526,0.22050953524343317,0.88,nominal,19200.468318317682,1235.7295959220307,target_intercept,21.965588250277513,6.277257546609647,0.0
