time_s,x_m,y_m,altitude_m,vx_mps,vy_mps,vz_mps,speed_mps,mass_kg,roll_deg,pitch_deg,yaw_deg,p_dps,q_dps,r_dps,alpha_deg,beta_deg,qbar_pa,mach,airspeed_mps,load_factor_g,density_kgpm3,pressure_pa,temperature_k,wind_x_mps,wind_y_mps,wind_z_mps,thrust_n,mass_flow_kgps,propulsion_throttle_actual,propulsion_health,energy_j_per_kg,target_distance_m,guidance_mode,pitch_command_deg,heading_command_deg,roll_command_deg,elevator_command_deg,aileron_command_deg,rudder_command_deg,elevator_deg,aileron_deg,rudder_deg,throttle,elevator_saturated,aileron_saturated,rudder_saturated,elevator_failed,aileron_failed,rudder_failed,elevator_raw_rad,aileron_raw_rad,rudder_raw_rad,elevator_effective_rad,aileron_effective_rad,rudder_effective_rad,imu_ax_mps2,imu_ay_mps2,imu_az_mps2,gyro_p_rps,gyro_q_rps,gyro_r_rps,gps_valid,gps_x_m,gps_y_m,gps_z_m,gps_vx_mps,gps_vy_mps,gps_vz_mps,baro_alt_m,pitot_airspeed_mps,pitot_qbar_pa,mag_heading_deg
0.0,0.0,0.0,20.0,85.0,0.0,8.0,85.37564055396598,18.085553992840946,0.0,6.000000000000002,0.0,0.0,0.0,0.0,0.623294571949261,0.0,4455.946741876431,0.2509445034436674,85.37564055396597,1.7377595449110712,1.2226496753673843,101084.96761777384,288.02,0.0,0.0,0.0,326.8,0.17539118863220368,0.86,nominal,3840.633,nan,pitch_program,13.0,0.0,0.0,-20.05352282957881,-0.0,0.0,-2.6999999999999997,0.0,0.0,0.86,0.0,0.0,0.0,0.0,0.0,0.0,-0.047123889803846894,0.0,0.0,-0.047123889803846894,0.0,0.0,17.026418563974083,0.04265435248479364,0.11197258915910259,-0.0019693524201773067,-0.0002283202889145931,0.0034825476733683176,1.0,1.0748258844106662,-2.2359671580330436,18.51333494575084,85.14542942101363,-0.094226961006505,7.990550680962668,20.438521462773743,84.49363354008686,4402.423444007758,-0.09384084596982473
0.03,2.565235148996817,0.0,20.232942485333158,85.5078382998939,0.0,7.764749511105262,85.85966308861812,18.08029225718198,0.0,6.265582975204377,0.0,0.0,-8.852781691043555,0.0,1.0769294759759587,0.0,4506.513584930804,0.2523678535693573,85.85966308861812,1.7657007217667187,1.2226223209738645,101082.17464592103,288.0184858738453,0.0,0.0,0.0,332.605,0.1785066900092231,0.86,nominal,3884.3582582692984,nan,pitch_program,12.985,0.0,0.0,-1.430813724064029,-0.0,0.0,-1.9384882344384171,0.0,0.0,0.86,0.0,0.0,0.0,0.0,0.0,0.0,-0.03383300220212211,0.0,0.0,-0.03383300220212211,0.0,0.0,17.35770739523291,0.06314612228480862,0.6043863080476812,-0.001655503275322846,-0.15273149976751932,0.0010211118298624324,1.0,1.0748258844106662,-2.2359671580330436,18.51333494575084,85.14542942101363,-0.094226961006505,7.990550680962668,20.438521462773743,85.9592934635892,4465.5836560691,-0.09384084596982473
0.06,5.145890403822941,0.0,20.45931356861288,86.02184182753749,0.0,7.545702775990792,86.35215632388963,18.074937056481705,0.0,6.641298079802917,0.0,0.0,-12.523881697597158,0.0,1.6282324588862682,0.0,4558.261705882298,0.2538160904080648,86.35215632388963,1.7942126460413002,1.2225957387074649,101079.46052480591,288.01701446180397,0.0,0.0,0.0,338.40999999999997,0.18162219138624247,0.86,nominal,3928.9847783003743,nan,pitch_program,12.97,0.0,0.0,-0.2980427416894465,-0.0,0.0,-0.9542209387890349,0.0,0.0,0.86,0.0,0.0,0.0,0.0,0.0,0.0,-0.01665429717333993,0.0,0.0,-0.01665429717333993,0.0,0.0,17.493313478345577,-0.013671172218579015,1.1656959463461583,-0.0007495822719660454,-0.22099173337429814,-0.0023906745523972336,1.0,1.0748258844106662,-2.2359671580330436,18.51333494575084,85.14542942101363,-0.094226961006505,7.990550680962668,20.882553971495785,86.37124342753732,4571.234928232083,0.6290704042713221
0.09,7.742118797583946,0.0,20.67973040353324,86.54094645870018,0.0,7.347227830678697,86.8522721105413,18.06948839074012,0.0,6.946385032984092,0.0,0.0,-10.16958913441264,0.0,2.093675402952936,0.0,4611.116093839243,0.25528672262303825,86.85227211054129,1.8238128573533074,1.2225698560604263,101076.81785003831,288.015581752377,0.0,0.0,0.0,344.215,0.18473769276326188,0.86,nominal,3974.4574635435642,nan,pitch_program,12.955,0.0,0.0,-0.7109671453664554,-0.0,0.0,-0.8082686627354873,0.0,0.0,0.86,0.0,0.0,0.0,0.0,0.0,0.0,-0.01410694940542585,0.0,0.0,-0.01410694940542585,0.0,0.0,17.827108805898376,-0.030389942187931316,1.5678289829609282,-3.61101667076465e-05,-0.1701639202442071,-0.0010210356389153427,1.0,1.0748258844106662,-2.2359671580330436,18.51333494575084,85.14542942101363,-0.094226961006505,7.990550680962668,20.882553971495785,87.35068500732385,4629.864313554392,0.6290704042713221
0.12,10.354093574188456,0.0,20.894662427931376,87.065825886817,0.0,7.164400813271186,87.36009773556079,18.06394625995722,0.0,7.124603745680162,0.0,0.0,-5.940628546282453,0.0,2.4204942873243467,0.0,4665.099862984664,0.2567800080101859,87.3600977355608,1.853839467228214,1.2225446178759225,101074.2409889614,288.01418469421844,0.0,0.0,0.0,350.02,0.1878531941402813,0.86,nominal,4020.79997948224,nan,pitch_program,12.94,0.0,0.0,-1.6634892413848388,-0.0,0.0,-1.3214010099250981,0.0,0.0,0.86,0.0,0.0,0.0,0.0,0.0,0.0,-0.023062798362371233,0.0,0.0,-0.023062798362371233,0.0,0.0,18.075723666896405,0.011162252533241544,1.7900511502045522,0.0019279080354589835,-0.10092451268330825,-0.0001108667644799813,1.0,1.0748258844106662,-2.2359671580330436,18.51333494575084,85.14542942101363,-0.094226961006505,7.990550680962668,20.715615485152536,87.88808807753965,4661.8012681695,0.21024623201791998
0.15,12.982024323723175,0.0,21.10439076788479,87.59769165115735,0.0,6.990944665113829,87.87621344779214,18.05831066413301,0.0,7.21932649630834,0.0,0.0,-3.157425740082307,0.0,2.656369973898883,0.0,4720.289596940901,0.25829765282225453,87.87621344779214,1.8842053868968003,1.2225199911132458,101071.72656713019,288.01282146000875,0.0,0.0,0.0,355.825,0.1909686955173007,0.86,nominal,4068.0778186848397,nan,pitch_program,12.925,0.0,0.0,-2.301267589034596,-0.0,0.0,-1.9093209573907968,0.0,0.0,0.86,0.0,0.0,0.0,0.0,0.0,0.0,-0.033323937183799765,0.0,0.0,-0.033323937183799765,0.0,0.0,18.358937346325476,-0.012104459552234449,1.971598151538768,-0.004259781777600158,-0.05252875982488539,-0.0022982091098890708,1.0,1.0748258844106662,-2.2359671580330436,18.51333494575084,85.14542942101363,-0.094226961006505,7.990550680962668,20.715615485152536,88.29134133869478,4660.834268142632,0.21024623201791998
0.18,15.626141871105157,0.0,21.309106765996617,88.13725157939936,0.0,6.8238666037274855,88.40101962871131,18.05258160326749,0.0,7.288986426286434,0.0,0.0,-2.3219979519597715,0.0,2.8617967187558055,0.0,4776.744178845252,0.2598408343839094,88.40101962871131,1.9150218825023766,1.2224959532767863,101069.27228684576,288.011490806021,0.0,0.0,0.0,361.63,0.19408419689432013,0.86,nominal,4116.341087564662,nan,pitch_program,12.91,0.0,0.0,-2.466087475141642,-0.0,0.0,-2.2433808680413043,0.0,0.0,0.86,0.0,0.0,0.0,0.0,0.0,0.0,-0.03915438252356919,0.0,0.0,-0.03915438252356919,0.0,0.0,18.623160110045593,-0.046727479169962685,2.0401835014589085,-0.0005453527173006002,-0.04372411544155672,-0.0053035337723833795,1.0,1.0748258844106662,-2.2359671580330436,18.51333494575084,85.14542942101363,-0.094226961006505,7.990550680962668,20.919878667548467,89.04384315414262,4789.315534755753,-1.2920880073952303
0.21,18.28667977071041,0.0,21.509002845735907,88.68459665350848,0.0,6.6632026579762655,88.93455994863162,18.04675907736066,0.0,7.358187029238188,0.0,0.0,-2.3066870454609187,0.0,3.0614156796163123,0.0,4834.485000595291,0.26140968154009314,88.9345599486316,1.9462302249504662,1.2224724817460386,101066.87583772096,288.0101914815027,0.0,0.0,0.0,367.435,0.19719969827133954,0.86,nominal,4165.609239385511,nan,pitch_program,12.895,0.0,0.0,-2.4260849504906608,-0.0,0.0,-2.353003317510918,0.0,0.0,0.86,0.0,0.0,0.0,0.0,0.0,0.0,-0.041067655200915064,0.0,0.0,-0.041067655200915064,0.0,0.0,18.933197716073266,-0.00035099194016853893,2.2949185232558933,0.0025434649893954736,-0.04243442104199387,-0.00028036863902378183,1.0,15.8743046605842,-0.8136996524112691,19.577274217407865,88.699813047798,-0.030717796822290918,6.704758393506531,20.919878667548467,89.03365486786284,4756.00389794082,-1.2920880073952303
0.24,20.96386821919763,0.0,21.704294640938357,89.23961494957398,0.0,6.5097265067484065,89.47673114022936,18.040843086412522,0.0,7.421165774072442,0.0,0.0,-2.0992917058407046,0.0,3.249023262767568,0.0,4893.51776145703,0.2630038913090537,89.47673114022935,1.9776484183814318,1.2224495511771718,101064.53463137914,288.0089220848339,0.0,0.0,0.0,373.24,0.20031519964835895,0.86,nominal,4215.889128811003,nan,pitch_program,12.88,0.0,0.0,-2.4375409715649883,-0.0,0.0,-2.40372590994336,0.0,0.0,0.86,0.0,0.0,0.0,0.0,0.0,0.0,-0.041952931444008336,0.0,0.0,-0.041952931444008336,0.0,0.0,19.28932795931878,0.008767108514725256,2.398386777729049,0.0009608415708110106,-0.03658447310391772,1.5386971171166045e-06,1.0,15.8743046605842,-0.8136996524112691,19.577274217407865,88.699813047798,-0.030717796822290918,6.704758393506531,21.445487389986656,89.486537430892,4897.652337959058,-1.4470885768093908
0.27,23.65793787234993,0.0,21.895198001267637,89.8023217717434,0.0,6.363445344309299,90.02749820052621,18.034833630423073,0.0,7.466017996066516,0.0,0.0,-1.4950741428183032,0.0,3.4127803671652277,0.0,4953.85567297886,0.26462336136806097,90.02749820052621,2.009116228561847,1.2224271362030346,101062.24607712611,288.0076812129917,0.0,0.0,0.0,379.045,0.20343070102537836,0.86,nominal,4267.193759602006,nan,pitch_program,12.865,0.0,0.0,-2.558317473451962,-0.0,0.0,-2.4964808480485208,0.0,0.0,0.86,0.0,0.0,0.0,0.0,0.0,0.0,-0.043571810511426945,0.0,0.0,-0.043571810511426945,0.0,0.0,19.584654462810903,-0.012930464886282923,2.5740799039299205,-0.0006132467077917612,-0.023880686904115093,0.0024832112042270436,1.0,15.8743046605842,-0.8136996524112691,19.577274217407865,88.699813047798,-0.030717796822290918,6.704758393506531,21.445487389986656,89.67834452624457,5015.82368709768,-1.4470885768093908
0.3,26.369124786883308,0.0,22.081905602162323,90.37289715111257,0.0,6.223586696489556,90.58693929510089,18.02873070939231,0.0,7.4896970891741255,0.0,0.0,-0.7893031148213945,0.0,3.5502067991206756,0.0,5015.524664267325,0.2662683219760162,90.58693929510089,2.040589655829962,1.2224052141793669,101060.00786233215,288.0064676135859,0.0,0.0,0.0,384.84999999999997,0.20654620240239774,0.86,nominal,4319.546305000591,nan,pitch_program,12.850000000000001,0.0,0.0,-2.7163161037789387,-0.0,0.0,-2.628382001486772,0.0,0.0,0.86,0.0,0.0,0.0,0.0,0.0,0.0,-0.04587391992610266,0.0,0.0,-0.04587391992610266,0.0,0.0,19.725751012766853,-0.04132986655170944,2.686743198464369,0.0006904100153303313,-0.016206945562505837,-0.0014862478302198044,1.0,15.8743046605842,-0.8136996524112691,19.577274217407865,88.699813047798,-0.030717796822290918,6.704758393506531,23.291706713654335,90.75790916164023,4985.218629261327,0.4856196947200353
0.32999999999999996,29.09767156475578,0.0,22.26458341762762,90.95155926241583,0.0,6.089260515509953,91.15517114179802,18.022534323320237,0.0,7.497335670781373,0.0,0.0,-0.25461938728533184,0.0,3.667065538142044,0.0,5078.555458091037,0.26793911663952846,91.15517114179802,2.072106179635501,1.2223837655986673,101057.81799467877,288.0052802077854,0.0,0.0,0.0,390.655,0.20966170377941715,0.86,nominal,4372.973589917721,nan,pitch_program,12.835,0.0,0.0,-2.8405120258460412,-0.0,0.0,-2.7556600161023335,0.0,0.0,0.86,0.0,0.0,0.0,0.0,0.0,0.0,-0.048095340346545674,0.0,0.0,-0.048095340346545674,0.0,0.0,20.09410782867227,0.031569730766702574,2.9231226093556866,-0.0032418024023834775,-0.005960144371977116,-0.000289603249389636,1.0,15.8743046605842,-0.8136996524112691,19.577274217407865,88.699813047798,-0.030717796822290918,6.704758393506531,23.291706713654335,91.46022270159543,5088.716079366515,0.4856196947200353
0.36,31.843825460398325,0.0,22.443380426286513,91.53846318808473,0.0,5.959900288629747,91.7322770582239,18.016244472206854,0.0,7.495172894581509,0.0,0.0,0.0720925400040825,0.0,3.770008311444897,0.0,5142.975642612998,0.269635990645754,91.73227705822393,2.1036968031243095,1.2223627729503366,101055.67468577356,288.00411802722914,0.0,0.0,0.0,396.46,0.21277720515643656,0.86,nominal,4427.499703800819,nan,pitch_program,12.82,0.0,0.0,-2.9181960585071387,-0.0,0.0,-2.8531816415452167,0.0,0.0,0.86,0.0,0.0,0.0,0.0,0.0,0.0,-0.04979741380242066,0.0,0.0,-0.04979741380242066,0.0,0.0,20.391697545211517,-0.029988869095028025,3.0095378565690085,0.0018875228813972538,0.0011976702765223797,-0.00042112083190415394,1.0,15.8743046605842,-0.8136996524112691,19.577274217407865,88.699813047798,-0.030717796822290918,6.704758393506531,22.193917185004818,91.23865614788835,5127.244594582093,-2.8784403921857895
0.39,34.60783628880155,0.0,22.61843784057108,92.13369428010765,0.0,5.835247142818882,92.31829575397347,18.00986115605216,0.0,7.486316969055542,0.0,0.0,0.2951975181198913,0.0,3.8623542757120846,0.0,5208.808295719167,0.27135905814440314,92.31829575397347,2.1353498189609477,1.222342219636912,101053.57624049415,288.00298015403627,0.0,0.0,0.0,402.265,0.21589270653345596,0.86,nominal,4483.144968908296,nan,pitch_program,12.805,0.0,0.0,-2.9737228310044386,-0.0,0.0,-2.92550635522075,0.0,0.0,0.86,0.0,0.0,0.0,0.0,0.0,0.0,-0.05105971818662089,0.0,0.0,-0.05105971818662089,0.0,0.0,20.741263096664774,0.03437132162697338,3.0792570747069776,0.00018090547250278283,0.008154107804916499,0.00031243896187515646,1.0,15.8743046605842,-0.8136996524112691,19.577274217407865,88.699813047798,-0.030717796822290918,6.704758393506531,22.193917185004818,91.93032132583905,5109.694289609627,-2.8784403921857895
0.42,37.38995562994868,0.0,22.789891860432284,92.73731137157094,0.0,5.715133995373451,92.9132481243271,18.003384374856157,0.0,7.471229678218903,0.0,0.0,0.502909697460591,0.0,3.9447153811511635,0.0,5276.074873966096,0.2731083809116825,92.9132481243271,2.1452456697283018,1.2223220896506533,101051.52102396573,288.00186570290714,0.0,0.0,0.0,404.1773684210526,0.21691906078826353,0.86,nominal,4539.928331519495,nan,pitch_program,12.79,0.0,0.0,-3.02889102032148,-0.0,0.0,-2.9875371542811884,0.0,0.0,0.86,0.0,0.0,0.0,0.0,0.0,0.0,-0.05214235986786854,0.0,0.0,-0.05214235986786854,0.0,0.0,20.799986977310887,-0.005503377101904691,3.262077670351134,6.802806810365606e-05,0.009112570168022676,-1.929584876557359e-05,1.0,36.531723932312595,0.16830062346946406,20.659754298723385,92.66775245423483,0.17589421021839083,5.692961146994583,22.436140878770157,92.75451521165603,5311.330230240247,-0.8194639645199889
0.44999999999999996,40.19024403192228,0.0,22.957847061822267,93.34294673245346,0.0,5.59850671299944,93.51068913291753,17.99687680303251,0.0,7.449943908618455,0.0,0.0,0.7095256615088061,0.0,4.017579653357145,0.0,5344.058130404353,0.27486501469205743,93.51068913291753,2.1442797339345074,1.2223023706977985,101049.50778053436,288.00077399409815,0.0,0.0,0.0,404.14342105263154,0.21690084148196515,0.86,nominal,4597.2640619453905,nan,pitch_program,12.775,0.0,0.0,-3.0872600746512067,-0.0,0.0,-3.0473709065031995,0.0,0.0,0.86,0.0,0.0,0.0,0.0,0.0,0.0,-0.05318665584796511,0.0,0.0,-0.05318665584796511,0.0,0.0,20.732376301694682,-0.013621809577934199,3.3557293570400684,0.0023199345329737013,0.010799389539620875,1.3619540277149335e-05,1.0,36.531723932312595,0.16830062346946406,20.659754298723385,92.66775245423483,0.17589421021839083,5.692961146994583,22.436140878770157,92.9953638611937,5419.619719688015,-0.8194639645199889
0.48,43.00866760679845,0.0,23.1223879536444,93.9474524958721,0.0,5.48469639407104,94.10741588737459,17.99036977778805,0.0,7.423207325815009,0.0,0.0,0.8912194429537963,0.0,4.082045239253932,0.0,5412.395085072062,0.2766195449939245,94.10741588737459,2.1433465432426018,1.2222830528414583,101047.53549520331,287.9997044783013,0.0,0.0,0.0,404.1094736842105,0.2168826221756668,0.86,nominal,4654.856028325247,nan,pitch_program,12.76,0.0,0.0,-3.1424580799837414,-0.0,0.0,-3.1044232105915244,0.0,0.0,0.86,0.0,0.0,0.0,0.0,0.0,0.0,-0.054182406400155404,0.0,0.0,-0.054182406400155404,0.0,0.0,20.732235124736253,0.01824139871610894,3.440168451509906,0.002584426823194538,0.01759437855436772,-0.004806205346195003,1.0,36.531723932312595,0.16830062346946406,20.659754298723385,92.66775245423483,0.17589421021839083,5.692961146994583,23.717210461208953,94.13841090266727,5347.013252511174,-0.4024133511031869
0.51,45.845194336544004,0.0,23.283592381619698,94.55089099151866,0.0,5.373480932510015,94.70345972889318,17.98386329912278,0.0,7.39223308337046,0.0,0.0,1.0324747732967896,0.0,4.139519632598943,0.0,5481.08781247328,0.27837206397180797,94.70345972889318,2.1424478678999557,1.2222641269278127,101045.60323294865,287.99865664951943,0.0,0.0,0.0,404.0755263157895,0.21686440286936848,0.86,nominal,4712.7066835402575,nan,pitch_program,12.745,0.0,0.0,-3.189929146245363,-0.0,0.0,-3.1557267719838276,0.0,0.0,0.86,0.0,0.0,0.0,0.0,0.0,0.0,-0.05507782246445014,0.0,0.0,-0.05507782246445014,0.0,0.0,20.712453182777693,-0.015842018874148697,3.460901617891812,0.0011378141425206054,0.018665322868379484,-0.0008300345428058384,1.0,36.531723932312595,0.16830062346946406,20.659754298723385,92.66775245423483,0.17589421021839083,5.692961146994583,23.717210461208953,94.68611511849981,5392.567272612535,-0.4024133511031869
0.54,48.69979367055937,0.0,23.4415332000612,95.15331113384568,0.0,5.264693948050082,95.29884376056759,17.9773573670367,0.0,7.358074574610664,0.0,0.0,1.1386169923846423,0.0,4.191211528980073,0.0,5550.137521808261,0.28012263955657046,95.29884376056759,2.141583269550822,1.2222455843897586,101043.71011867048,287.9976300341996,0.0,0.0,0.0,404.0415789473684,0.2168461835630701,0.86,nominal,4770.817722606917,nan,pitch_program,12.73,0.0,0.0,-3.2304166190331043,-0.0,0.0,-3.2005406802133938,0.0,0.0,0.86,0.0,0.0,0.0,0.0,0.0,0.0,-0.05585997271374265,0.0,0.0,-0.05585997271374265,0.0,0.0,20.665333073498342,0.018552902949075772,3.6728292396562563,-0.001635953104452553,0.018835345661752326,-0.0025252950554402634,1.0,36.531723932312595,0.16830062346946406,20.659754298723385,92.66775245423483,0.17589421021839083,5.692961146994583,24.87160566810016,94.82821172652378,5625.826357506535,0.2807309353960876
0.57,51.572436195581936,0.0,23.596279532989676,95.75475083408548,0.0,5.158211097615862,95.89358398258645,17.97085198152981,0.0,7.321388540951483,0.0,0.0,1.2228678304180154,0.0,4.237903453878659,0.0,5619.544659354578,0.2818713187954813,95.89358398258646,2.140747609365468,1.2222274170988086,101041.85532207065,287.9966241830355,0.0,0.0,0.0,404.0076315789474,0.21682796425677175,0.86,nominal,4829.190179194874,nan,pitch_program,12.715,0.0,0.0,-3.266859672252449,-0.0,0.0,-3.240332075436827,0.0,0.0,0.86,0.0,0.0,0.0,0.0,0.0,0.0,-0.056554463574353904,0.0,0.0,-0.056554463574353904,0.0,0.0,20.708503510147583,0.008909993169541115,3.6775487339749615,-0.0014634941399726338,0.020029682360260093,0.003508287725685745,1.0,36.531723932312595,0.16830062346946406,20.659754298723385,92.66775245423483,0.17589421021839083,5.692961146994583,24.87160566810016,95.88110572011668,5620.497752856697,0.2807309353960876
0.6,54.46309346140902,0.0,23.747897326983686,96.35524219423604,0.0,5.053926466467058,96.48769284752507,17.964347142602104,0.0,7.282594355147291,0.0,0.0,1.2931395762092215,0.0,4.28012616767332,0.0,5689.30930162198,0.28361813830390653,96.4876928475251,2.1399350019846577,1.2222096173001393,101040.03805102025,287.9956386673746,0.0,0.0,0.0,403.9736842105263,0.21680974495047337,0.86,nominal,4887.824752840835,nan,pitch_program,12.7,0.0,0.0,-3.3010027942316174,-0.0,0.0,-3.276734506713701,0.0,0.0,0.86,0.0,0.0,0.0,0.0,0.0,0.0,-0.05718980585586632,0.0,0.0,-0.05718980585586632,0.0,0.0,20.560626012575916,0.01658975610433854,3.844867494184289,-0.002014894829848097,0.021407138243247074,-0.0013469942828624611,1.0,36.531723932312595,0.16830062346946406,20.659754298723385,92.66775245423483,0.17589421021839083,5.692961146994583,22.796871238744323,96.85793250145841,5642.213476997756,-1.448379584495484
0.63,57.37173788239092,0.0,23.896449610882218,96.95481403272994,0.0,4.951742796617745,97.08118108493068,17.95784285025359,0.0,7.242079343969971,0.0,0.0,1.3505004288503257,0.0,4.318370294525144,0.0,5759.431358819331,0.28536312962895083,97.08118108493069,2.1391421778127664,1.2221921775820606,101038.25754844128,287.9946730775292,0.0,0.0,0.0,403.9397368421053,0.21679152564417503,0.86,nominal,4946.721977999109,nan,pitch_program,12.685,0.0,0.0,-3.3328971643270835,-0.0,0.0,-3.3104321012817306,0.0,0.0,0.86,0.0,0.0,0.0,0.0,0.0,0.0,-0.057777939831080594,0.0,0.0,-0.057777939831080594,0.0,0.0,20.615163427436354,0.04838632706230056,3.949725225988236,0.0017348274988983503,0.02384647489101186,-0.0009170348139132105,1.0,59.671193710186024,1.2219469957568292,23.7089423301108,97.02863214577901,0.05242034264206829,5.1892739765774305,22.796871238744323,97.68070611345267,5631.296406474762,-1.448379584495484
0.6599999999999999,60.29834262993948,0.0,24.041996840181653,97.55349158495207,0.0,4.851574309981135,97.67405742417269,17.951339104484266,0.0,7.200249753914989,0.0,0.0,1.3943197304297958,0.0,4.353135891076057,0.0,5829.910535327426,0.2871063184355548,97.67405742417269,2.1383682685785357,1.222175090835558,101036.51308817496,287.9937270205388,0.0,0.0,0.0,403.9057894736842,0.21677330633787664,0.86,nominal,5005.882195163059,nan,pitch_program,12.67,0.0,0.0,-3.36215840888614,-0.0,0.0,-3.3414678858443763,0.0,0.0,0.86,0.0,0.0,0.0,0.0,0.0,0.0,-0.05831961645763839,0.0,0.0,-0.05831961645763839,0.0,0.0,20.61205485445906,-0.03177341791997571,3.9153479087683465,-0.0002804672540597616,0.02339934096170348,-0.001056500398851318,1.0,59.671193710186024,1.2219469957568292,23.7089423301108,97.02863214577901,0.05242034264206829,5.1892739765774305,24.226178907333324,97.01202559344785,5715.349512585962,0.12159876235094363
0.69,63.24288150403246,0.0,24.18459735354653,98.15129580309939,0.0,4.753350445495898,98.26632794749791,17.94483590529413,0.0,7.157476735289675,0.0,0.0,1.4257673537262392,0.0,4.384876539691274,0.0,5900.74624450398,0.28884772260600533,98.26632794749793,2.1376129015040073,1.222158350200657,101034.80396950504,287.9928001172019,0.0,0.0,0.0,403.8718421052631,0.21675508703157828,0.86,nominal,5065.305485779762,nan,pitch_program,12.655,0.0,0.0,-3.3888717180280037,-0.0,0.0,-3.369910185154553,0.0,0.0,0.86,0.0,0.0,0.0,0.0,0.0,0.0,-0.058816028227438685,0.0,0.0,-0.058816028227438685,0.0,0.0,20.629969164171236,0.010823245503162025,4.062291309303141,-0.0015177680503505348,0.02535570637084466,-0.0011826684799782596,1.0,59.671193710186024,1.2219469957568292,23.7089423301108,97.02863214577901,0.05242034264206829,5.1892739765774305,24.226178907333324,98.42880791885017,5975.769034478531,0.12159876235094363
0.72,66.20532881347022,0.0,24.324307793794006,98.74824364792536,0.0,4.657014674915943,98.85799618256691,17.938333252683183,0.0,7.114055050481671,0.0,0.0,1.4473895628744733,0.0,4.413959110702208,0.0,5971.937610057015,0.2905873525130315,98.85799618256694,2.1368751781197894,1.2221419490169836,101033.12951210926,287.99189199934034,0.0,0.0,0.0,403.8378947368421,0.21673686772527995,0.86,nominal,5124.991677642217,nan,pitch_program,12.64,0.0,0.0,-3.413508980012406,-0.0,0.0,-3.396069462069265,0.0,0.0,0.86,0.0,0.0,0.0,0.0,0.0,0.0,-0.05927259373954135,0.0,0.0,-0.05927259373954135,0.0,0.0,20.635648473446224,0.001199856790884052,4.149826420060308,-0.001858617829866771,0.027156006138225178,-0.002834765889404064,1.0,59.671193710186024,1.2219469957568292,23.7089423301108,97.02863214577901,0.05242034264206829,5.1892739765774305,24.019205078746914,98.50404875938493,5864.044293655308,-0.8102329936899125
0.75,69.18565928366105,0.0,24.461183412295007,99.34434900636134,0.0,4.562520616699997,99.44906371542942,17.931831146651426,0.0,7.070213850973047,0.0,0.0,1.4613733882557534,0.0,4.440677124558302,0.0,6043.483531152927,0.29232521282237517,99.44906371542942,2.1361539878493248,1.2221258807879976,101031.48905240715,287.99100230782005,0.0,0.0,0.0,403.80394736842106,0.21671864841898159,0.86,nominal,5184.940401247954,nan,pitch_program,12.625,0.0,0.0,-3.436488879265349,-0.0,0.0,-3.4203211123869157,0.0,0.0,0.86,0.0,0.0,0.0,0.0,0.0,0.0,-0.05969586488662668,0.0,0.0,-0.05969586488662668,0.0,0.0,20.55411614125626,-0.021640984013074495,4.188931645827315,-0.0004446332511166001,0.02740289925219882,0.003692671386962644,1.0,59.671193710186024,1.2219469957568292,23.7089423301108,97.02863214577901,0.05242034264206829,5.1892739765774305,24.019205078746914,99.79490210351864,5902.697667001496,-0.8102329936899125
0.78,72.18384798621413,0.0,24.595278289274386,99.93962341843606,0.0,4.469829232645915,100.03953069855851,17.925329587198856,0.0,7.026146470208088,0.0,0.0,1.4689127645762228,0.0,4.465282409241769,0.0,6115.382737408377,0.2940613039866698,100.03953069855851,2.1354485977753184,1.2221101391551166,101029.88194091759,287.9901306911197,0.0,0.0,0.0,403.77,0.21670042911268322,0.86,nominal,5245.151137029427,nan,pitch_program,12.61,0.0,0.0,-3.45800176841434,-0.0,0.0,-3.4429295060033707,0.0,0.0,0.86,0.0,0.0,0.0,0.0,0.0,0.0,-0.06009045579382069,0.0,0.0,-0.06009045579382069,0.0,0.0,20.52397122672892,-0.010235825304482178,4.279188656764268,0.0034439720364019153,0.025955956224120724,-0.002609255114583864,1.0,59.671193710186024,1.2219469957568292,23.7089423301108,97.02863214577901,0.05242034264206829,5.1892739765774305,24.99202770893894,100.85018477309481,6186.537233959067,1.9414464276996957
0.8099999999999999,75.19987027754871,0.0,24.726645528296928,100.53407637781935,0.0,4.378907967417998,100.62939604374226,17.918828574325477,0.0,6.982025250561976,0.0,0.0,1.4707073942136712,0.0,4.488000606868031,0.0,6187.6338073470115,0.29579562281292765,100.62939604374226,2.1347587409484734,1.2220947178748582,101028.3075399245,287.98927680406604,0.0,0.0,0.0,403.73605263157896,0.21668220980638486,0.86,nominal,5305.623232434238,nan,pitch_program,12.595,0.0,0.0,-3.478126093608745,-0.0,0.0,-3.464047458566595,0.0,0.0,0.86,0.0,0.0,0.0,0.0,0.0,0.0,-0.06045903359732893,0.0,0.0,-0.06045903359732893,0.0,0.0,20.446994427704322,0.0784620343211442,4.434733609511001,-0.0023331272648320746,0.02235733829811761,0.0008343013175021095,1.0,59.671193710186024,1.2219469957568292,23.7089423301108,97.02863214577901,0.05242034264206829,5.1892739765774305,24.99202770893894,100.25961696527544,6213.966074780554,1.9414464276996957
0.84,78.23370174160314,0.0,24.85533744323718,101.12771546848086,0.0,4.289730498008424,101.21865748773575,17.912328108031286,0.0,6.938000091390958,0.0,0.0,1.4675053779035736,0.0,4.509030026858165,0.0,6260.235171961361,0.2975281626560156,101.21865748773575,2.1340843335550104,1.2220796107968799,101026.76522123431,287.98844030661894,0.0,0.0,0.0,403.7021052631579,0.2166639905000865,0.86,nominal,5366.355906747505,nan,pitch_program,12.58,0.0,0.0,-3.4969648787305987,-0.0,0.0,-3.4837979106649968,0.0,0.0,0.86,0.0,0.0,0.0,0.0,0.0,0.0,-0.06080374401520347,0.0,0.0,-0.06080374401520347,0.0,0.0,20.436099210710303,0.013962122428919945,4.482638123351059,-0.00061359699911946,0.026995915165492435,0.00019129289406467215,1.0,78.3268637200032,-0.4405794203795874,22.51302501488829,100.91416971432844,-0.31774997157911533,4.705833388037141,25.110911750460616,100.89484651268502,6216.428119799356,0.7213369405506751
0.87,81.28531813883735,0.0,24.98140572453507,101.72054657447363,0.0,4.202276043262948,101.80731171852757,17.905828188316285,0.0,6.894195528757196,0.0,0.0,1.4601521589150845,0.0,4.528539268062525,0.0,6333.185126117661,0.29925891379026187,101.80731171852757,2.1334252669234224,1.2220648118444395,101025.25436418073,287.9876208627905,0.0,0.0,0.0,403.66815789473685,0.21664577119378817,0.86,nominal,5427.348262125232,nan,pitch_program,12.565,0.0,0.0,-3.5146596120110987,-0.0,0.0,-3.5023149314726583,0.0,0.0,0.86,0.0,0.0,0.0,0.0,0.0,0.0,-0.06112692699595746,0.0,0.0,-0.06112692699595746,0.0,0.0,20.477300729165776,0.046399378592331154,4.529151834604645,0.0019151252348490455,0.024272906857690988,0.0005562258765140452,1.0,78.3268637200032,-0.4405794203795874,22.51302501488829,100.91416971432844,-0.31774997157911533,4.705833388037141,25.110911750460616,101.93722883239296,6373.326585926864,0.7213369405506751
0.8999999999999999,84.35469536358526,0.0,25.1049015745579,102.31257415826373,0.0,4.116528334094414,102.3953545646267,17.89932881518047,0.0,6.85071376427174,0.0,0.0,1.4493922190775093,0.0,4.54667096122568,0.0,6406.48184841533,0.30098786396622684,102.3953545646267,2.132781420650926,1.2220503149984963,101023.77435400097,287.9868181397654,0.0,0.0,0.0,403.6342105263158,0.2166275518874898,0.86,nominal,5488.599301233947,nan,pitch_program,12.55,0.0,0.0,-3.531338987295089,-0.0,0.0,-3.5197293649661168,0.0,0.0,0.86,0.0,0.0,0.0,0.0,0.0,0.0,-0.06143086619778789,0.0,0.0,-0.06143086619778789,0.0,0.0,20.42774557257473,0.025417157087356756,4.616072374419379,0.0034454291711280846,0.024027025861553065,0.0006534133283425804,1.0,78.3268637200032,-0.4405794203795874,22.51302501488829,100.91416971432844,-0.31774997157911533,4.705833388037141,24.498219804842677,103.04391030158475,6344.780487742172,1.2879633690532784
0.9299999999999999,87.4418094086807,0.0,25.225875817004287,102.90380150318119,0.0,4.032474748212868,102.98278116462522,17.892829988623845,0.0,6.807640348638748,0.0,0.0,1.4357805887205488,0.0,4.563548048061657,0.0,6480.123419400275,0.30271499890943027,102.98278116462522,2.132152744476937,1.2220361142848502,101022.32458052237,287.9860318071895,0.0,0.0,0.0,403.6002631578947,0.21660933258119142,0.86,nominal,5550.107943281369,nan,pitch_program,12.535000000000002,0.0,0.0,-3.5470936087365588,-0.0,0.0,-3.5361479112283822,0.0,0.0,0.86,0.0,0.0,0.0,0.0,0.0,0.0,-0.06171742388845543,0.0,0.0,-0.06171742388845543,0.0,0.0,20.33931315906159,-0.07922457654086446,4.6484733432743,-0.0015689886651394605,0.027168601670155113,-0.0010566105457930856,1.0,78.3268637200032,-0.4405794203795874,22.51302501488829,100.91416971432844,-0.31774997157911533,4.705833388037141,24.498219804842677,102.85428220352064,6425.060698807436,1.2879633690532784
0.96,90.54663633511547,0.0,25.34437899000463,103.49423088115876,0.0,3.950105766678075,103.56958608225939,17.88633170864641,0.0,6.765047870460092,0.0,0.0,1.4197493380027502,0.0,4.5792778646708365,0.0,6554.1078336240635,0.30444030265883193,103.56958608225939,2.131539268431871,1.2220222037632025,101020.9044370452,287.98526153656496,0.0,0.0,0.0,403.56631578947366,0.21659111327489305,0.86,nominal,5611.873034847598,nan,pitch_program,12.520000000000001,0.0,0.0,-3.561990555674872,-0.0,0.0,-3.5516534978962757,0.0,0.0,0.86,0.0,0.0,0.0,0.0,0.0,0.0,-0.06198804742826351,0.0,0.0,-0.06198804742826351,0.0,0.0,20.3178142348268,0.030744803749083015,4.7964860545575805,-0.0035560830196392185,0.023646465279456335,-0.0027444998170283647,1.0,78.3268637200032,-0.4405794203795874,22.51302501488829,100.91416971432844,-0.31774997157911533,4.705833388037141,25.003529340004636,103.47264909675566,6633.8451797475045,1.0150910855626627
0.99,93.66915224552547,0.0,25.46046142729846,104.0838636803335,0.0,3.869414576461041,104.15576339209835,17.87983397524816,0.0,6.722997277095842,0.0,0.0,1.4016865083921084,0.0,4.593953761729825,0.0,6628.433008470046,0.30616375781894806,104.15576339209836,2.1309410537608846,1.2220085775176126,101019.51331936804,287.98450700072254,0.0,0.0,0.0,403.53236842105264,0.21657289396859472,0.86,nominal,5673.893357951404,nan,pitch_program,12.505,0.0,0.0,-3.576092382805829,-0.0,0.0,-3.566316828842008,0.0,0.0,0.86,0.0,0.0,0.0,0.0,0.0,0.0,-0.06224397083257611,0.0,0.0,-0.06224397083257611,0.0,0.0,20.33772356930776,0.010063903452626382,4.821017790171391,0.000880009543777772,0.026420037598209767,0.0008574123543115339,1.0,78.3268637200032,-0.4405794203795874,22.51302501488829,100.91416971432844,-0.31774997157911533,4.705833388037141,25.003529340004636,104.08995666458985,6608.658335901697,1.0150910855626627
1.02,96.80933326134537,0.0,25.57417332723184,104.67270052733022,0.0,3.7903966644460674,104.74130676365462,17.873336788429103,0.0,6.681538815472774,0.0,0.0,1.3819487810653563,0.0,4.607656338474987,0.0,6703.096793156123,0.3078853458072964,104.74130676365462,2.130358157093279,1.2219952296483894,101018.15062495942,287.983767873373,0.0,0.0,0.0,403.49842105263156,0.21655467466229633,0.86,nominal,5736.167638138498,nan,pitch_program,12.49,0.0,0.0,-3.5894597668490484,-0.0,0.0,-3.5802025916462323,0.0,0.0,0.86,0.0,0.0,0.0,0.0,0.0,0.0,-0.06248632311266079,0.0,0.0,-0.06248632311266079,0.0,0.0,20.27961781845175,-0.07149877395332492,4.892504690462152,0.0015433596327193626,0.026715959951071167,0.0017691326407156868,1.0,78.3268637200032,-0.4405794203795874,22.51302501488829,100.91416971432844,-0.31774997157911533,4.705833388037141,25.096931160503196,105.07440581811801,6680.195387116859,0.6246935362139315
1.05,99.96715550350434,0.0,25.685564809563566,105.26074140529886,0.0,3.7130494110575496,105.32620954502327,17.866840148189233,0.0,6.64071357326203,0.0,0.0,1.360841464600466,0.0,4.62045526679507,0.0,6778.096978048061,0.3096050471004256,105.32620954502327,2.1297906303508145,1.2219821542654101,101016.81575227568,287.98304382873783,0.0,0.0,0.0,403.46447368421053,0.216536455355998,0.86,nominal,5798.694552700783,nan,pitch_program,12.475,0.0,0.0,-3.602145645907027,-0.0,0.0,-3.5933684242027097,0.0,0.0,0.86,0.0,0.0,0.0,0.0,0.0,0.0,-0.06271611023953758,0.0,0.0,-0.06271611023953758,0.0,0.0,20.273886640194032,0.010958121273379022,4.979928265738029,0.0024224776073093115,0.02240078635155109,-0.0008770321213788976,1.0,100.33573565119623,-1.2463131672287617,23.517607841837645,105.19562897033838,-0.16568623046589318,3.776277991056234,25.096931160503196,105.69850717833546,6653.238778658576,0.6246935362139315
1.08,103.14259507615931,0.0,25.794685961972824,105.84798575516538,0.0,3.637371746975274,105.9104648354042,17.860344054528554,0.0,6.600555141332041,0.0,0.0,1.3386144524664585,0.0,4.63241119226532,0.0,6853.431302901335,0.3113228414472371,105.91046483540418,2.129238529770455,1.2219693454826521,101015.50810020206,287.98233454124716,0.0,0.0,0.0,403.43052631578945,0.21651823604969964,0.86,nominal,5861.472737914674,nan,pitch_program,12.46,0.0,0.0,-3.6141932823634946,-0.0,0.0,-3.6058633390991806,0.0,0.0,0.86,0.0,0.0,0.0,0.0,0.0,0.0,-0.06293418764423749,0.0,0.0,-0.06293418764423749,0.0,0.0,20.324988089249928,-0.024969171319847987,5.121180576435843,-0.001974955573334541,0.023431177502800247,-0.0017439301210364,1.0,100.33573565119623,-1.2463131672287617,23.517607841837645,105.19562897033838,-0.16568623046589318,3.776277991056234,26.878554413891635,106.38491114988493,6922.061596502702,-0.001121769853672865
1.1099999999999999,106.33562805288224,0.0,25.901586878499028,106.43443255743097,0.0,3.5633638842067747,106.49406554354844,17.85384850744706,0.0,6.561090829231845,0.0,0.0,1.3154771220140644,0.0,4.643577139578847,0.0,6929.097463588803,0.313038708040911,106.49406554354844,2.1287019129684372,1.2219567974136696,101014.22706759087,287.98163968528974,0.0,0.0,0.0,403.3965789473684,0.21650001674340127,0.86,nominal,5924.500794958828,nan,pitch_program,12.445,0.0,0.0,-3.62563931072697,-0.0,0.0,-3.6177289220758544,0.0,0.0,0.86,0.0,0.0,0.0,0.0,0.0,0.0,-0.06314128113484903,0.0,0.0,-0.06314128113484903,0.0,0.0,20.260195618721646,0.0022821163168796925,5.070419650263594,0.00414339149250787,0.023035201249366824,-1.6360358167475075e-05,1.0,100.33573565119623,-1.2463131672287617,23.517607841837645,105.19562897033838,-0.16568623046589318,3.776277991056234,26.878554413891635,106.35709648258636,6876.034160086309,-0.001121769853672865
1.14,109.5462304649204,0.0,26.006317691194432,107.02008040127193,0.0,3.491027089846752,107.07700443716546,17.84735350694476,0.0,6.522342485642312,0.0,0.0,1.2916115022123482,0.0,4.653999493325065,0.0,7005.093117901578,0.3147526256642422,107.07700443716546,2.128180828928083,1.2219445041678694,101012.97205288085,287.9809589350072,0.0,0.0,0.0,403.3626315789474,0.21648179743710294,0.86,nominal,5987.777295004727,nan,pitch_program,12.43,0.0,0.0,-3.6365165733902383,-0.0,0.0,-3.629001512864485,0.0,0.0,0.86,0.0,0.0,0.0,0.0,0.0,0.0,-0.06333802495934061,0.0,0.0,-0.06333802495934061,0.0,0.0,20.215626224569156,0.022284809028692988,5.220356280910146,-0.0012670219321105909,0.02124161737853118,0.001557627162202714,1.0,100.33573565119623,-1.2463131672287617,23.517607841837645,105.19562897033838,-0.16568623046589318,3.776277991056234,27.119240062395587,107.16221535734913,6926.385827681342,0.8409725478803646
1.17,112.77437829130673,0.0,26.108928595614113,107.6049275462112,0.0,3.420363480655978,107.65927418743435,17.840859053021646,0.0,6.484327221329571,0.0,0.0,1.267175523577827,0.0,4.663718864566178,0.0,7081.415890922213,0.3164645728205683,107.65927418743436,2.1276753123595475,1.22193245984751,101011.74245379053,287.98029196412847,0.0,0.0,0.0,403.3286842105263,0.21646357813080455,0.86,nominal,6051.300783894763,nan,pitch_program,12.415,0.0,0.0,-3.6468545310992466,-0.0,0.0,-3.6397133238053416,0.0,0.0,0.86,0.0,0.0,0.0,0.0,0.0,0.0,-0.06352498132910972,0.0,0.0,-0.06352498132910972,0.0,0.0,20.107236246814924,0.054409263518330135,5.2297437032402065,-0.0023190444574796025,0.01910446755942347,-0.0017673334440264968,1.0,100.33573565119623,-1.2463131672287617,23.517607841837645,105.19562897033838,-0.16568623046589318,3.776277991056234,27.119240062395587,107.75122876354783,7122.025156275694,0.8409725478803646
1.2,116.02004745060614,0.0,26.209469870819998,108.1889719766471,0.0,3.351375840196194,108.24086740869173,17.834365145677722,0.0,6.447058129259238,0.0,0.0,1.2423031128135797,0.0,4.672770937637405,0.0,7158.063379954483,0.318174527850502,108.24086740869173,2.1271853836396075,1.221920658545345,101010.53766707737,287.97963844583967,0.0,0.0,0.0,403.2947368421053,0.21644535882450622,0.86,nominal,6115.069786401667,nan,pitch_program,12.4,0.0,0.0,-3.65667888576128,-0.0,0.0,-3.649892660978905,0.0,0.0,0.86,0.0,0.0,0.0,0.0,0.0,0.0,-0.06370264427845905,0.0,0.0,-0.06370264427845905,0.0,0.0,20.147070970404055,0.02386902719090904,5.27925699233588,0.0018161027275018446,0.022013832590784963,0.0008328707378424785,1.0,100.33573565119623,-1.2463131672287617,23.517607841837645,105.19562897033838,-0.16568623046589318,3.776277991056234,26.594956250316287,108.37076007650805,7192.998625392406,0.6056948064070032
1.23,119.28321379405813,0.0,26.307991894741956,108.77221144839937,0.0,3.2840674640652603,108.82177669236906,17.827871784912986,0.0,6.410544919896356,0.0,0.0,1.217107019953682,0.0,4.681187212945199,0.0,7235.033158861576,0.3198824690317474,108.82177669236904,2.126711049110597,1.2219090943428068,101009.35708835206,287.9789980526842,0.0,0.0,0.0,403.26078947368416,0.2164271395182078,0.86,nominal,6179.08280995649,nan,pitch_program,12.385,0.0,0.0,-3.666011933490119,-0.0,0.0,-3.6595642244856332,0.0,0.0,0.86,0.0,0.0,0.0,0.0,0.0,0.0,-0.06387144490546719,0.0,0.0,-0.06387144490546719,0.0,0.0,20.157779402260225,-0.010026995585394986,5.412598400892181,0.0009306957330355283,0.02196381577767452,0.0017029844525752805,1.0,100.33573565119623,-1.2463131672287617,23.517607841837645,105.19562897033838,-0.16568623046589318,3.776277991056234,26.594956250316287,108.08851187917601,7379.418382872427,0.6056948064070032
1.26,122.56385309990257,0.0,26.40454515563903,109.35464352814807,0.0,3.2184420299025347,109.40199463569292,17.82137897072744,0.0,6.374794425165861,0.0,0.0,1.1916831963463979,0.0,4.688995601752687,0.0,7312.322781851882,0.32158837466350865,109.4019946356929,2.1262522994776734,1.2218977613086597,101008.2001119408,287.97837045648834,0.0,0.0,0.0,403.22684210526313,0.21640892021190947,0.86,nominal,6243.338347884638,nan,pitch_program,12.37,0.0,0.0,-3.674873378614492,-0.0,0.0,-3.6687497169629486,0.0,0.0,0.86,0.0,0.0,0.0,0.0,0.0,0.0,-0.06403176199261351,0.0,0.0,-0.06403176199261351,0.0,0.0,20.18388556293681,-0.022950637327485937,5.492405794862626,-0.005788269837112395,0.01923070402336562,-7.121327740848745e-05,1.0,123.63930978501789,0.03514977485018226,24.693803188702226,109.57585539217469,-0.25726347614683276,3.4335616156536948,27.050810498361656,109.71942724759732,7426.832381132374,-1.181386272968421
1.29,125.86194106872672,0.0,26.499180260192684,109.93626562747161,0.0,3.1545034851218188,109.98151386642958,17.814886703121083,0.0,6.339811010721265,0.0,0.0,1.1661138510474092,0.0,4.696220916946421,0.0,7389.92978685786,0.3232922231392607,109.9815138664296,2.125809108012082,1.2218866534980377,101007.06613078671,287.9777553283087,0.0,0.0,0.0,403.1928947368421,0.21639070090561113,0.86,nominal,6307.83488227444,nan,pitch_program,12.355,0.0,0.0,-3.6832808683811455,-0.0,0.0,-3.677468407813867,0.0,0.0,0.86,0.0,0.0,0.0,0.0,0.0,0.0,-0.06418393185442554,0.0,0.0,-0.06418393185442554,0.0,0.0,20.053702758149687,0.032573580783254355,5.515838732651189,2.2739652537909368e-05,0.018210737018440795,0.001472012707252352,1.0,123.63930978501789,0.03514977485018226,24.693803188702226,109.57585539217469,-0.25726347614683276,3.4335616156536948,27.050810498361656,110.21810299057302,7271.282364593753,-1.181386272968421
1.3199999999999998,129.17745331970178,0.0,26.591947938657082,110.51707503250167,0.0,3.092255948813273,110.56032706442475,17.808394982093915,0.0,6.305596940944593,0.0,0.0,1.1404690264453576,0.0,4.7028853065480405,0.0,7467.851698589252,0.32499399301008935,110.56032706442477,2.1253814299810734,1.2218757649518326,101005.95453638726,287.9771523383987,0.0,0.0,0.0,403.158947368421,0.21637248159931274,0.86,nominal,6372.570886548918,nan,pitch_program,12.34,0.0,0.0,-3.6912501837252965,-0.0,0.0,-3.6857374733607244,0.0,0.0,0.86,0.0,0.0,0.0,0.0,0.0,0.0,-0.06432825427428143,0.0,0.0,-0.06432825427428143,0.0,0.0,20.0901438440655,-0.032352286967633676,5.533111148207953,-0.001223485994813487,0.020079628722594545,0.0014982426387160864,1.0,123.63930978501789,0.03514977485018226,24.693803188702226,109.57585539217469,-0.25726347614683276,3.4335616156536948,25.822039888900182,110.65683162759828,7442.537852554279,1.5172383459011753
1.3499999999999999,132.51036538758774,0.0,26.682899047475075,111.09706892953153,0.0,3.031703627266402,111.13842698012537,17.801903807645935,0.0,6.272152701887342,0.0,0.0,1.1148080002281187,0.0,4.709008635856475,0.0,7546.08603126967,0.3266936630391522,111.13842698012537,2.1249692027812914,1.2218650896963794,101004.86471876175,287.9765611561914,0.0,0.0,0.0,403.125,0.2163542622930144,0.86,nominal,6437.544827752252,nan,pitch_program,12.325,0.0,0.0,-3.698795409981267,-0.0,0.0,-3.6935722353330505,0.0,0.0,0.86,0.0,0.0,0.0,0.0,0.0,0.0,-0.06446499666680856,0.0,0.0,-0.06446499666680856,0.0,0.0,19.972373169810044,-0.029743685994889246,5.632464944502913,0.002041090120562373,0.01945047691123946,0.00024132672703973697,1.0,123.63930978501789,0.03514977485018226,24.693803188702226,109.57585539217469,-0.25726347614683276,3.4335616156536948,25.822039888900182,111.1572710208052,7424.173492882772,1.5172383459011753
1.38,135.86065272039608,0.0,26.77208456973858,111.67624442694415,0.0,2.972850742116919,111.71580645030264,17.795413179777146,0.0,6.239477274202152,0.0,0.0,1.08918095235967,0.0,4.714608811145514,0.0,7624.630291070937,0.32839121224790374,111.71580645030264,2.124572345923422,1.221854621743394,101003.79606644477,287.9759814502967,0.0,0.0,0.0,403.0910526315789,0.21633604298671602,0.86,nominal,6502.755168566567,nan,pitch_program,12.31,0.0,0.0,-3.7059292016864696,-0.0,0.0,-3.7009864151451017,0.0,0.0,0.86,0.0,0.0,0.0,0.0,0.0,0.0,-0.06459439851586375,0.0,0.0,-0.06459439851586375,0.0,0.0,20.0893295164742,0.04421191354968219,5.767827688285892,-0.0016260586614393298,0.019653776380634196,0.0009612141343321978,1.0,123.63930978501789,0.03514977485018226,24.693803188702226,109.57585539217469,-0.25726347614683276,3.4335616156536948,26.290046898157907,111.48035484773085,7582.140647708236,-0.5573304851213219
1.41,139.22829067761717,0.0,26.859555613808563,112.25459857403618,0.0,2.915701468999389,112.29245841139257,17.788923098487544,0.0,6.2075683610934895,0.0,0.0,1.0636304644462165,0.0,4.719702051355169,0.0,7703.481978288137,0.33008661995531063,112.29245841139257,2.124190760871749,1.2218443550901292,101002.74796650196,287.9754128885102,0.0,0.0,0.0,403.0571052631579,0.2163178236804177,0.86,nominal,6568.200369097321,nan,pitch_program,12.295,0.0,0.0,-3.7126630305396366,-0.0,0.0,-3.7079923843818223,0.0,0.0,0.86,0.0,0.0,0.0,0.0,0.0,0.0,-0.06471667574633796,0.0,0.0,-0.06471667574633796,0.0,0.0,19.97055369317915,-0.055622107121255156,5.842136931538604,-0.0019951611744375482,0.02012231080350037,-0.003766370715518699,1.0,123.63930978501789,0.03514977485018226,24.693803188702226,109.57585539217469,-0.25726347614683276,3.4335616156536948,26.290046898157907,112.27747294967256,7678.076562354381,-0.5573304851213219
1.44,142.61325452893493,0.0,26.945363410353778,112.83212837725891,0.0,2.860259884840515,112.86837591084166,17.782433563777133,0.0,6.176422583523674,0.0,0.0,1.0381926112257835,0.0,4.7243031212330635,0.0,7782.638589296658,0.3317798658111972,112.86837591084166,2.1238243310925538,1.2218342837197143,101001.71980456437,287.97485513783266,0.0,0.0,0.0,403.02315789473687,0.21629960437411935,0.86,nominal,6633.878888463678,nan,pitch_program,12.28,0.0,0.0,-3.719007349604927,-0.0,0.0,-3.714601363515685,0.0,0.0,0.86,0.0,0.0,0.0,0.0,0.0,0.0,-0.06483202419241947,0.0,0.0,-0.06483202419241947,0.0,0.0,19.957004264121878,-0.006457272981117265,5.907008741146056,0.0003587648514461242,0.01673227287075794,-2.1226965830959616e-06,1.0,123.63930978501789,0.03514977485018226,24.693803188702226,109.57585539217469,-0.25726347614683276,3.4335616156536948,26.85074517646258,113.9171428335327,7768.019331371358,-0.7111886953733434
1.47,146.01551945336138,0.0,27.029559308035843,113.40883081421477,0.0,2.806529922735535,113.44355211669986,17.77594457564591,0.0,6.146035649410008,0.0,0.0,1.0128978275305855,0.0,4.728425533418829,0.0,7862.0976183146595,0.3334709298244324,113.44355211669988,2.1234729223409152,1.2218244016016548,101000.7109648793,287.97430786449775,0.0,0.0,0.0,402.9892105263158,0.21628138506782096,0.86,nominal,6699.789186215348,nan,pitch_program,12.265,0.0,0.0,-3.7249717158510136,-0.0,0.0,-3.720823574916882,0.0,0.0,0.86,0.0,0.0,0.0,0.0,0.0,0.0,-0.06494062226812548,0.0,0.0,-0.06494062226812548,0.0,0.0,19.983350563575154,0.051403114979145105,5.999009563702299,0.0029561372509677992,0.020363152464014215,-0.0006626125158396659,1.0,145.23521802870226,3.185126443744854,26.29142968302742,113.30608195718206,0.02070323208002961,3.0076854157688784,26.85074517646258,113.02713742142156,7809.800147081241,-0.7111886953733434
1.5,149.43506053873153,0.0,27.11219476804413,113.98470284567208,0.0,2.7545153336095805,114.01798032564537,17.769456134093875,0.0,6.116402498407936,0.0,0.0,0.9877717220874925,0.0,4.7320817216595925,0.0,7941.856558987701,0.3351597923865024,114.01798032564537,2.1231363829979677,1.2218147026924662,100999.72083037473,287.9737707340077,0.0,0.0,0.0,402.9552631578947,0.2162631657615226,0.86,nominal,6765.9297235916665,nan,pitch_program,12.25,0.0,0.0,-3.7305649129831795,-0.0,0.0,-3.7266683777566607,0.0,0.0,0.86,0.0,0.0,0.0,0.0,0.0,0.0,-0.06504263332180954,0.0,0.0,-0.06504263332180954,0.0,0.0,19.891030257464955,0.045473007882915806,6.079387440885583,-0.0014849291761733611,0.018789047764426265,0.001995799319675362,1.0,145.23521802870226,3.185126443744854,26.29142968302742,113.30608195718206,0.02070323208002961,3.0076854157688784,26.72250364465999,114.50187053130243,7914.415934460403,-1.2046117589282743
1.53,152.8718527815076,0.0,27.193321357656483,114.55974142586957,0.0,2.704219653745086,114.59165396964039,17.76296823912103,0.0,6.087517424620788,0.0,0.0,0.9628358132974991,0.0,4.735283188125051,0.0,8021.912905815543,0.33684643429105493,114.59165396964039,2.122814544391464,1.2218051809364219,100998.7487827356,287.9732434111752,0.0,0.0,0.0,402.9213157894737,0.21624494645522424,0.86,nominal,6832.2989646409615,nan,pitch_program,12.235,0.0,0.0,-3.735795067058011,-0.0,0.0,-3.732144391337471,0.0,0.0,0.86,0.0,0.0,0.0,0.0,0.0,0.0,-0.0651382077886786,0.0,0.0,-0.0651382077886786,0.0,0.0,19.89672766036546,-0.026208546237680888,6.095929936606056,0.0001372338562424598,0.017385291103346967,-0.0007410360260659113,1.0,145.23521802870226,3.185126443744854,26.29142968302742,113.30608195718206,0.02070323208002961,3.0076854157688784,26.72250364465999,114.40547434671483,8055.559355035492,-1.2046117589282743
1.56,156.3258710868486,0.0,27.27299074297528,115.13394351136557,0.0,2.6556461772932454,115.16456662141047,17.756480890727374,0.0,6.059374181217515,0.0,0.0,0.9381081323039054,0.0,4.738040629386132,0.0,8102.264155441204,0.3385308367499798,115.16456662141047,2.1225072211573854,1.2217958302664065,100997.79420249048,287.97272556017066,0.0,0.0,0.0,402.8873684210526,0.21622672714892588,0.86,nominal,6898.895377218244,nan,pitch_program,12.220000000000002,0.0,0.0,-3.7406697389896926,-0.0,0.0,-3.737259599928804,0.0,0.0,0.86,0.0,0.0,0.0,0.0,0.0,0.0,-0.06522748502052367,0.0,0.0,-0.06522748502052367,0.0,0.0,19.890306069668274,0.029657189251694832,6.129951323007118,-0.0025061265301474403,0.013223921225948095,-0.0014919267213510299,1.0,145.23521802870226,3.185126443744854,26.29142968302742,113.30608195718206,0.02070323208002961,3.0076854157688784,27.03038879178737,114.5455914236944,8103.329316920086,-0.030627589741409774
1.5899999999999999,159.79709026890762,0.0,27.35125468096816,115.70730606863465,0.0,2.608797933096031,115.73671199890043,17.749994088912906,0.0,6.031966070191373,0.0,0.0,0.9136037182930025,0.0,4.740364044744484,0.0,8182.907807817876,0.3402129814064789,115.73671199890043,2.122214211665139,1.2217866446048307,100996.85646910506,287.97221684457367,0.0,0.0,0.0,402.8534210526316,0.21620850784262752,0.86,nominal,6965.7174338753275,nan,pitch_program,12.205000000000002,0.0,0.0,-3.7451959983794354,-0.0,0.0,-3.7420214389991826,0.0,0.0,0.86,0.0,0.0,0.0,0.0,0.0,0.0,-0.06531059479075188,0.0,0.0,-0.06531059479075188,0.0,0.0,19.803551506723775,0.009571021988391708,6.2094900451505355,0.0007545929896839563,0.016987305624837412,0.002386967851806491,1.0,145.23521802870226,3.185126443744854,26.29142968302742,113.30608195718206,0.02070323208002961,3.0076854157688784,27.03038879178737,115.48626729603576,8086.245781858848,-0.030627589741409774
1.6199999999999999,163.2854850513249,0.0,27.42816501092673,116.27982608057673,0.0,2.5636776652856557,116.30808396883106,17.74350783367763,0.0,6.0052860191341,0.0,0.0,0.889335051312371,0.0,4.7422628291529,0.0,8263.841367266412,0.34189285034548816,116.30808396883106,2.1219352984695314,1.2217776178646422,100995.93496108493,287.97171692742893,0.0,0.0,0.0,402.8194736842105,0.21619028853632916,0.86,nominal,7032.763612654732,nan,pitch_program,12.19,0.0,0.0,-3.749380488952705,-0.0,0.0,-3.7464368689712964,0.0,0.0,0.86,0.0,0.0,0.0,0.0,0.0,0.0,-0.0653876585816565,0.0,0.0,-0.0653876585816565,0.0,0.0,19.787855052931484,-0.005525985027323219,6.322548632229032,-0.00035738214179200284,0.015643875639959018,0.0009608152270756758,1.0,145.23521802870226,3.185126443744854,26.29142968302742,113.30608195718206,0.02070323208002961,3.0076854157688784,28.143200723436188,116.49192425281815,8179.306572351358,-0.27014876986443936
1.65,166.7910300678875,0.0,27.503773645441697,116.85150055208669,0.0,2.5202878171656025,116.87867654947017,17.73702212502154,0.0,5.979326646616119,0.0,0.0,0.8653124320684448,0.0,4.743745852649089,0.0,8345.062343434725,0.3435704261017882,116.87867654947017,2.1216702487655126,1.2217687439503693,100995.02905608198,287.9712254713046,0.0,0.0,0.0,402.78552631578947,0.21617206923003082,0.86,nominal,7100.032397797905,nan,pitch_program,12.175,0.0,0.0,-3.7532294870808225,-0.0,0.0,-3.7505124398370118,0.0,0.0,0.86,0.0,0.0,0.0,0.0,0.0,0.0,-0.0654587907121616,0.0,0.0,-0.0654587907121616,0.0,0.0,19.737346525591988,0.045962557921327855,6.44309786140171,-0.0006229318938769471,0.014836698805378103,0.0004459095067751501,1.0,145.23521802870226,3.185126443744854,26.29142968302742,113.30608195718206,0.02070323208002961,3.0076854157688784,28.143200723436188,117.11452256229997,8306.293210557355,-0.27014876986443936
1.68,170.31369986333206,0.0,27.578132560979267,117.42232651481817,0.0,2.478630517918938,117.44848391272204,17.730536962944637,0.0,5.954080317922284,0.0,0.0,0.8415443034103901,0.0,4.744821528349873,0.0,8426.568252170298,0.34524569166610675,117.44848391272204,2.1214188148522966,1.2217600167592224,100994.13813100687,287.9707421383536,0.0,0.0,0.0,402.75157894736844,0.21615384992373246,0.86,nominal,7167.522280377591,nan,pitch_program,12.16,0.0,0.0,-3.7567489510907435,-0.0,0.0,-3.7542543465892506,0.0,0.0,0.86,0.0,0.0,0.0,0.0,0.0,0.0,-0.06552409930529077,0.0,0.0,-0.06552409930529077,0.0,0.0,19.79823939599355,-0.034905967151725094,6.44430407847051,-0.002065962287150466,0.013147575452907238,-0.0003468404974362892,1.0,169.49089866300264,1.2349531948176247,27.85680921464309,117.43592275123902,-0.1231664577341807,2.424374570245957,28.31705767330194,117.27776892858765,8471.702402696817,-0.8932117378378687
1.71,173.8534688942697,0.0,27.651293788132186,117.99230103125441,0.0,2.4387075717639735,118.01750038562392,17.724052347446925,0.0,5.929539192672047,0.0,0.0,0.8180375208477865,0.0,4.745497870783796,0.0,8508.35661631511,0.3469186304894777,118.01750038562392,2.121180734611681,1.221751430182237,100993.26156214513,287.9702665903771,0.0,0.0,0.0,402.71763157894736,0.2161356306174341,0.86,nominal,7235.231758862757,nan,pitch_program,12.145,0.0,0.0,-3.759944562351862,-0.0,0.0,-3.7576684760468173,0.0,0.0,0.86,0.0,0.0,0.0,0.0,0.0,0.0,-0.06558368710541464,0.0,0.0,-0.06558368710541464,0.0,0.0,19.743398233486495,0.05499293696780546,6.537731359266881,-0.0024460040185911858,0.01714422135830974,-0.000675431347589877,1.0,169.49089866300264,1.2349531948176247,27.85680921464309,117.43592275123902,-0.1231664577341807,2.424374570245957,28.31705767330194,118.11942268426118,8496.852976081711,-0.8932117378378687
1.74,177.41031153021513,0.0,27.723309401609395,118.56142119818128,0.0,2.400520449240261,118.58572045132487,17.7175682785284,0.0,5.905695265464243,0.0,0.0,0.7947975850640956,0.0,4.745782545910565,0.0,8590.424966430786,0.34858922648607366,118.58572045132487,2.120955731992599,1.2217429781054392,100992.39872527645,287.9697984888895,0.0,0.0,0.0,402.68368421052634,0.21611741131113574,0.86,nominal,7303.159339623177,nan,pitch_program,12.13,0.0,0.0,-3.762821760741985,-0.0,0.0,-3.760760446863918,0.0,0.0,0.86,0.0,0.0,0.0,0.0,0.0,0.0,-0.06563765217654863,0.0,0.0,-0.06563765217654863,0.0,0.0,19.68598746827037,-0.02804520729105082,6.621668756822387,4.538996920898402e-05,0.01232041846526573,-0.003598456467160891,1.0,169.49089866300264,1.2349531948176247,27.85680921464309,117.43592275123902,-0.1231664577341807,2.424374570245957,28.064927654623663,118.95404204382164,8579.052328370148,-1.17557313039781
1.77,180.98420205470447,0.0,27.79423151001975,119.12968414964502,0.0,2.3640702803451545,119.15313874961328,17.711084756189067,0.0,5.8825404005005195,0.0,0.0,0.7718288426286821,0.0,4.745682913963178,0.0,8672.770841461166,0.35025746403471136,119.15313874961328,2.1207435174952978,1.2217346544110397,100991.54899579608,287.96933749518485,0.0,0.0,0.0,402.64973684210526,0.21609919200483738,0.86,nominal,7371.303537380032,nan,pitch_program,12.115,0.0,0.0,-3.7653857755141455,-0.0,0.0,-3.7635356440540546,0.0,0.0,0.86,0.0,0.0,0.0,0.0,0.0,0.0,-0.0656860885049086,0.0,0.0,-0.0656860885049086,0.0,0.0,19.74489486655691,-0.019185221992065123,6.6140609107765025,0.0014942588009757886,0.016408968577099985,0.0033251030742457695,1.0,169.49089866300264,1.2349531948176247,27.85680921464309,117.43592275123902,-0.1231664577341807,2.424374570245957,28.064927654623663,119.40872107253915,8738.000148228284,-1.17557313039781
1.7999999999999998,184.5751146664885,0.0,27.864112245497946,119.6970870594676,0.0,2.3293578492732383,119.71975007705177,17.70460178042892,0.0,5.860066361076399,0.0,0.0,0.7491346570757028,0.0,4.745206066160658,0.0,8755.39178933856,0.3519233279792001,119.71975007705177,2.120543788655474,1.2217264529786507,100990.71174883895,287.96888327040426,0.0,0.0,0.0,402.6157894736842,0.216080972698539,0.86,nominal,7439.662875608182,nan,pitch_program,12.1,0.0,0.0,-3.7676416516114575,-0.0,0.0,-3.7659992485884963,0.0,0.0,0.86,0.0,0.0,0.0,0.0,0.0,0.0,-0.06572908651550168,0.0,0.0,-0.06572908651550168,0.0,0.0,19.640968528081093,-0.02284683723283758,6.7708279841660515,0.00304006521792368,0.014826712492760219,-0.0006042631283279857,1.0,169.49089866300264,1.2349531948176247,27.85680921464309,117.43592275123902,-0.1231664577341807,2.424374570245957,28.241541099719683,119.22342475666716,8961.075175184695,1.0410647437515628
1.8299999999999998,188.18302348078996,0.0,27.933003753214336,120.26362714338188,0.0,2.2963835905463386,120.28554938677094,17.698119351247964,0.0,5.83826483471017,0.0,0.0,0.7267175543091985,0.0,4.744358856197252,0.0,8838.285367539222,0.3535868036276856,120.28554938677094,2.1203562305288024,1.2217183676865064,100989.88635940426,287.9684354756041,0.0,0.0,0.0,402.58184210526315,0.21606275339224065,0.86,nominal,7508.235886895115,nan,pitch_program,12.085,0.0,0.0,-3.7695942719933684,-0.0,0.0,-3.768156262631419,0.0,0.0,0.86,0.0,0.0,0.0,0.0,0.0,0.0,-0.06576673351256243,0.0,0.0,-0.06576673351256243,0.0,0.0,19.657986647623762,-0.02730972153344134,6.809867446508889,-0.0015941490940907911,0.012132753265443589,0.0017596947239680496,1.0,169.49089866300264,1.2349531948176247,27.85680921464309,117.43592275123902,-0.1231664577341807,2.424374570245957,28.241541099719683,120.0293876592866,8911.824823604657,1.0410647437515628
1.8599999999999999,191.80790253061514,0.0,28.000958180804915,120.82930166083953,0.0,2.2651475863525747,120.85053178796574,17.691637468646196,0.0,5.817127454537061,0.0,0.0,0.7045793470947908,0.0,4.743147927251124,0.0,8921.449143592936,0.35524787675111774,120.85053178796575,2.1201805161738814,1.221710392412703,100989.07220248177,287.96799377182475,0.0,0.0,0.0,402.54789473684207,0.2160445340859423,0.86,nominal,7577.021113260849,nan,pitch_program,12.07,0.0,0.0,-3.77124837680837,-0.0,0.0,-3.77001153113759,0.0,0.0,0.86,0.0,0.0,0.0,0.0,0.0,0.0,-0.06579911405650367,0.0,0.0,-0.06579911405650367,0.0,0.0,19.574938366485146,-0.023039139604466824,6.875168286876793,-0.002634147596689807,0.015058282866298676,0.0019428805965237888,1.0,169.49089866300264,1.2349531948176247,27.85680921464309,117.43592275123902,-0.1231664577341807,2.424374570245957,27.652115504182845,121.25916631060392,8928.335878466232,0.11433403046483422
1.89,195.44972576811128,0.0,28.068027667753,121.39410791653806,0.0,2.2356495649361743,121.41469254513346,17.685156132623618,0.0,5.796645817500945,0.0,0.0,0.6827212418073622,0.0,4.741579735144727,0.0,9004.880695550899,0.3569065335809573,121.41469254513346,2.1200163071318876,1.221702521036439,100988.26865317838,287.9675578201596,0.0,0.0,0.0,402.51394736842104,0.21602631477964393,0.86,nominal,7646.017106442613,nan,pitch_program,12.055,0.0,0.0,-3.7726085799164024,-0.0,0.0,-3.7715697604048777,0.0,0.0,0.86,0.0,0.0,0.0,0.0,0.0,0.0,-0.06582631028771878,0.0,0.0,-0.06582631028771878,0.0,0.0,19.638143464287932,0.024585957805801514,6.934076975155908,0.00060884507888095,0.01146515612438367,-0.0003863375855919881,1.0,197.0825711666905,0.5699508133106089,28.19419929918093,121.53319317012593,0.07773124722197809,2.319118004010787,27.652115504182845,120.72333132642758,9018.756515409803,0.11433403046483422
1.92,199.1084670659625,0.0,28.134264334749993,121.9580432617065,0.0,2.207888899899771,121.97802707708702,17.678675343180227,0.0,5.776811499813852,0.0,0.0,0.6611439295055481,0.0,4.739660568213726,0.0,9088.57761241574,0.35856276080622107,121.978027077087,2.119863253902926,1.2216947474392612,100987.47508684518,287.9671272818241,0.0,0.0,0.0,402.48,0.2160080954733456,0.86,nominal,7715.222428147663,nan,pitch_program,12.040000000000001,0.0,0.0,-3.773679383012732,-0.0,0.0,-3.77283553396959,0.0,0.0,0.86,0.0,0.0,0.0,0.0,0.0,0.0,-0.06584840220400771,0.0,0.0,-0.06584840220400771,0.0,0.0,19.501222642086876,-0.020537067528387687,6.9345878680032245,-0.0009831468796987117,0.014462388478270458,0.001073923334277875,1.0,197.0825711666905,0.5699508133106089,28.19419929918093,121.53319317012593,0.07773124722197809,2.319118004010787,28.201760544221045,121.6485622014746,9168.391601530782,-0.32844358173332977
