time_s,x_m,y_m,altitude_m,vx_mps,vy_mps,vz_mps,speed_mps,mass_kg,roll_deg,pitch_deg,yaw_deg,p_dps,q_dps,r_dps,alpha_deg,beta_deg,qbar_pa,mach,airspeed_mps,load_factor_g,density_kgpm3,pressure_pa,temperature_k,wind_x_mps,wind_y_mps,wind_z_mps,thrust_n,mass_flow_kgps,propulsion_throttle_actual,propulsion_health,energy_j_per_kg,target_distance_m,guidance_mode,pitch_command_deg,heading_command_deg,roll_command_deg
0.0,0.0,0.0,20.0,85.0,0.0,8.0,85.37564055396598,18.085553992840946,0.0,6.000000000000002,0.0,0.0,0.0,0.0,0.623294571949261,0.0,4455.946741876431,0.2509445034436674,85.37564055396597,1.7377595449110712,1.2226496753673843,101084.96761777384,288.02,0.0,0.0,0.0,326.8,0.17539118863220368,0.86,nominal,3840.633,nan,pitch_program,13.0,0.0,0.0
0.03,2.565235148996817,0.0,20.232942485333158,85.5078382998939,0.0,7.764749511105262,85.85966308861812,18.08029225718198,0.0,6.265582975204377,0.0,0.0,-8.852781691043555,0.0,1.0769294759759587,0.0,4506.513584930804,0.2523678535693573,85.85966308861812,1.7657007217667187,1.2226223209738645,101082.17464592103,288.0184858738453,0.0,0.0,0.0,332.605,0.1785066900092231,0.86,nominal,3884.3582582692984,nan,pitch_program,12.985,0.0,0.0
0.06,5.145890403822941,0.0,20.45931356861288,86.02184182753749,0.0,7.545702775990792,86.35215632388963,18.074937056481705,0.0,6.641298079802917,0.0,0.0,-12.523881697597158,0.0,1.6282324588862682,0.0,4558.261705882298,0.2538160904080648,86.35215632388963,1.7942126460413002,1.2225957387074649,101079.46052480591,288.01701446180397,0.0,0.0,0.0,338.40999999999997,0.18162219138624247,0.86,nominal,3928.9847783003743,nan,pitch_program,12.97,0.0,0.0
0.09,7.742118797583946,0.0,20.67973040353324,86.54094645870018,0.0,7.347227830678697,86.8522721105413,18.06948839074012,0.0,6.946385032984092,0.0,0.0,-10.16958913441264,0.0,2.093675402952936,0.0,4611.116093839243,0.25528672262303825,86.85227211054129,1.8238128573533074,1.2225698560604263,101076.81785003831,288.015581752377,0.0,0.0,0.0,344.215,0.18473769276326188,0.86,nominal,3974.4574635435642,nan,pitch_program,12.955,0.0,0.0
0.12,10.354093574188456,0.0,20.894662427931376,87.065825886817,0.0,7.164400813271186,87.36009773556079,18.06394625995722,0.0,7.124603745680162,0.0,0.0,-5.940628546282453,0.0,2.4204942873243467,0.0,4665.099862984664,0.2567800080101859,87.3600977355608,1.853839467228214,1.2225446178759225,101074.2409889614,288.01418469421844,0.0,0.0,0.0,350.02,0.1878531941402813,0.86,nominal,4020.79997948224,nan,pitch_program,12.94,0.0,0.0
0.15,12.982024323723175,0.0,21.10439076788479,87.59769165115735,0.0,6.990944665113829,87.87621344779214,18.05831066413301,0.0,7.21932649630834,0.0,0.0,-3.157425740082307,0.0,2.656369973898883,0.0,4720.289596940901,0.25829765282225453,87.87621344779214,1.8842053868968003,1.2225199911132458,101071.72656713019,288.01282146000875,0.0,0.0,0.0,355.825,0.1909686955173007,0.86,nominal,4068.0778186848397,nan,pitch_program,12.925,0.0,0.0
0.18,15.626141871105157,0.0,21.309106765996617,88.13725157939936,0.0,6.8238666037274855,88.40101962871131,18.05258160326749,0.0,7.288986426286434,0.0,0.0,-2.3219979519597715,0.0,2.8617967187558055,0.0,4776.744178845252,0.2598408343839094,88.40101962871131,1.9150218825023766,1.2224959532767863,101069.27228684576,288.011490806021,0.0,0.0,0.0,361.63,0.19408419689432013,0.86,nominal,4116.341087564662,nan,pitch_program,12.91,0.0,0.0
0.21,18.28667977071041,0.0,21.509002845735907,88.68459665350848,0.0,6.6632026579762655,88.93455994863162,18.04675907736066,0.0,7.358187029238188,0.0,0.0,-2.3066870454609187,0.0,3.0614156796163123,0.0,4834.485000595291,0.26140968154009314,88.9345599486316,1.9462302249504662,1.2224724817460386,101066.87583772096,288.0101914815027,0.0,0.0,0.0,367.435,0.19719969827133954,0.86,nominal,4165.609239385511,nan,pitch_program,12.895,0.0,0.0
0.24,20.96386821919763,0.0,21.704294640938357,89.23961494957398,0.0,6.5097265067484065,89.47673114022936,18.040843086412522,0.0,7.421165774072442,0.0,0.0,-2.0992917058407046,0.0,3.249023262767568,0.0,4893.51776145703,0.2630038913090537,89.47673114022935,1.9776484183814318,1.2224495511771718,101064.53463137914,288.0089220848339,0.0,0.0,0.0,373.24,0.20031519964835895,0.86,nominal,4215.889128811003,nan,pitch_program,12.88,0.0,0.0
0.27,23.65793787234993,0.0,21.895198001267637,89.8023217717434,0.0,6.363445344309299,90.02749820052621,18.034833630423073,0.0,7.466017996066516,0.0,0.0,-1.4950741428183032,0.0,3.4127803671652277,0.0,4953.85567297886,0.26462336136806097,90.02749820052621,2.009116228561847,1.2224271362030346,101062.24607712611,288.0076812129917,0.0,0.0,0.0,379.045,0.20343070102537836,0.86,nominal,4267.193759602006,nan,pitch_program,12.865,0.0,0.0
0.3,26.369124786883308,0.0,22.081905602162323,90.37289715111257,0.0,6.223586696489556,90.58693929510089,18.02873070939231,0.0,7.4896970891741255,0.0,0.0,-0.7893031148213945,0.0,3.5502067991206756,0.0,5015.524664267325,0.2662683219760162,90.58693929510089,2.040589655829962,1.2224052141793669,101060.00786233215,288.0064676135859,0.0,0.0,0.0,384.84999999999997,0.20654620240239774,0.86,nominal,4319.546305000591,nan,pitch_program,12.850000000000001,0.0,0.0
0.32999999999999996,29.09767156475578,0.0,22.26458341762762,90.95155926241583,0.0,6.089260515509953,91.15517114179802,18.022534323320237,0.0,7.497335670781373,0.0,0.0,-0.25461938728533184,0.0,3.667065538142044,0.0,5078.555458091037,0.26793911663952846,91.15517114179802,2.072106179635501,1.2223837655986673,101057.81799467877,288.0052802077854,0.0,0.0,0.0,390.655,0.20966170377941715,0.86,nominal,4372.973589917721,nan,pitch_program,12.835,0.0,0.0
0.36,31.843825460398325,0.0,22.443380426286513,91.53846318808473,0.0,5.959900288629747,91.7322770582239,18.016244472206854,0.0,7.495172894581509,0.0,0.0,0.0720925400040825,0.0,3.770008311444897,0.0,5142.975642612998,0.269635990645754,91.73227705822393,2.1036968031243095,1.2223627729503366,101055.67468577356,288.00411802722914,0.0,0.0,0.0,396.46,0.21277720515643656,0.86,nominal,4427.499703800819,nan,pitch_program,12.82,0.0,0.0
0.39,34.60783628880155,0.0,22.61843784057108,92.13369428010765,0.0,5.835247142818882,92.31829575397347,18.00986115605216,0.0,7.486316969055542,0.0,0.0,0.2951975181198913,0.0,3.8623542757120846,0.0,5208.808295719167,0.27135905814440314,92.31829575397347,2.1353498189609477,1.222342219636912,101053.57624049415,288.00298015403627,0.0,0.0,0.0,402.265,0.21589270653345596,0.86,nominal,4483.144968908296,nan,pitch_program,12.805,0.0,0.0
0.42,37.38995562994868,0.0,22.789891860432284,92.73731137157094,0.0,5.715133995373451,92.9132481243271,18.003384374856157,0.0,7.471229678218903,0.0,0.0,0.502909697460591,0.0,3.9447153811511635,0.0,5276.074873966096,0.2731083809116825,92.9132481243271,2.1452456697283018,1.2223220896506533,101051.52102396573,288.00186570290714,0.0,0.0,0.0,404.1773684210526,0.21691906078826353,0.86,nominal,4539.928331519495,nan,pitch_program,12.79,0.0,0.0
0.44999999999999996,40.19024403192228,0.0,22.957847061822267,93.34294673245346,0.0,5.59850671299944,93.51068913291753,17.99687680303251,0.0,7.449943908618455,0.0,0.0,0.7095256615088061,0.0,4.017579653357145,0.0,5344.058130404353,0.27486501469205743,93.51068913291753,2.1442797339345074,1.2223023706977985,101049.50778053436,288.00077399409815,0.0,0.0,0.0,404.14342105263154,0.21690084148196515,0.86,nominal,4597.2640619453905,nan,pitch_program,12.775,0.0,0.0
0.48,43.00866760679845,0.0,23.1223879536444,93.9474524958721,0.0,5.48469639407104,94.10741588737459,17.99036977778805,0.0,7.423207325815009,0.0,0.0,0.8912194429537963,0.0,4.082045239253932,0.0,5412.395085072062,0.2766195449939245,94.10741588737459,2.1433465432426018,1.2222830528414583,101047.53549520331,287.9997044783013,0.0,0.0,0.0,404.1094736842105,0.2168826221756668,0.86,nominal,4654.856028325247,nan,pitch_program,12.76,0.0,0.0
0.51,45.845194336544004,0.0,23.283592381619698,94.55089099151866,0.0,5.373480932510015,94.70345972889318,17.98386329912278,0.0,7.39223308337046,0.0,0.0,1.0324747732967896,0.0,4.139519632598943,0.0,5481.08781247328,0.27837206397180797,94.70345972889318,2.1424478678999557,1.2222641269278127,101045.60323294865,287.99865664951943,0.0,0.0,0.0,404.0755263157895,0.21686440286936848,0.86,nominal,4712.7066835402575,nan,pitch_program,12.745,0.0,0.0
0.54,48.69979367055937,0.0,23.4415332000612,95.15331113384568,0.0,5.264693948050082,95.29884376056759,17.9773573670367,0.0,7.358074574610664,0.0,0.0,1.1386169923846423,0.0,4.191211528980073,0.0,5550.137521808261,0.28012263955657046,95.29884376056759,2.141583269550822,1.2222455843897586,101043.71011867048,287.9976300341996,0.0,0.0,0.0,404.0415789473684,0.2168461835630701,0.86,nominal,4770.817722606917,nan,pitch_program,12.73,0.0,0.0
0.57,51.572436195581936,0.0,23.596279532989676,95.75475083408548,0.0,5.158211097615862,95.89358398258645,17.97085198152981,0.0,7.321388540951483,0.0,0.0,1.2228678304180154,0.0,4.237903453878659,0.0,5619.544659354578,0.2818713187954813,95.89358398258646,2.140747609365468,1.2222274170988086,101041.85532207065,287.9966241830355,0.0,0.0,0.0,404.0076315789474,0.21682796425677175,0.86,nominal,4829.190179194874,nan,pitch_program,12.715,0.0,0.0
0.6,54.46309346140902,0.0,23.747897326983686,96.35524219423604,0.0,5.053926466467058,96.48769284752507,17.964347142602104,0.0,7.282594355147291,0.0,0.0,1.2931395762092215,0.0,4.28012616767332,0.0,5689.30930162198,0.28361813830390653,96.4876928475251,2.1399350019846577,1.2222096173001393,101040.03805102025,287.9956386673746,0.0,0.0,0.0,403.9736842105263,0.21680974495047337,0.86,nominal,4887.824752840835,nan,pitch_program,12.7,0.0,0.0
0.63,57.37173788239092,0.0,23.896449610882218,96.95481403272994,0.0,4.951742796617745,97.08118108493068,17.95784285025359,0.0,7.242079343969971,0.0,0.0,1.3505004288503257,0.0,4.318370294525144,0.0,5759.431358819331,0.28536312962895083,97.08118108493069,2.1391421778127664,1.2221921775820606,101038.25754844128,287.9946730775292,0.0,0.0,0.0,403.9397368421053,0.21679152564417503,0.86,nominal,4946.721977999109,nan,pitch_program,12.685,0.0,0.0
0.6599999999999999,60.29834262993948,0.0,24.041996840181653,97.55349158495207,0.0,4.851574309981135,97.67405742417269,17.951339104484266,0.0,7.200249753914989,0.0,0.0,1.3943197304297958,0.0,4.353135891076057,0.0,5829.910535327426,0.2871063184355548,97.67405742417269,2.1383682685785357,1.222175090835558,101036.51308817496,287.9937270205388,0.0,0.0,0.0,403.9057894736842,0.21677330633787664,0.86,nominal,5005.882195163059,nan,pitch_program,12.67,0.0,0.0
0.69,63.24288150403246,0.0,24.18459735354653,98.15129580309939,0.0,4.753350445495898,98.26632794749791,17.94483590529413,0.0,7.157476735289675,0.0,0.0,1.4257673537262392,0.0,4.384876539691274,0.0,5900.74624450398,0.28884772260600533,98.26632794749793,2.1376129015040073,1.222158350200657,101034.80396950504,287.9928001172019,0.0,0.0,0.0,403.8718421052631,0.21675508703157828,0.86,nominal,5065.305485779762,nan,pitch_program,12.655,0.0,0.0
0.72,66.20532881347022,0.0,24.324307793794006,98.74824364792536,0.0,4.657014674915943,98.85799618256691,17.938333252683183,0.0,7.114055050481671,0.0,0.0,1.4473895628744733,0.0,4.413959110702208,0.0,5971.937610057015,0.2905873525130315,98.85799618256694,2.1368751781197894,1.2221419490169836,101033.12951210926,287.99189199934034,0.0,0.0,0.0,403.8378947368421,0.21673686772527995,0.86,nominal,5124.991677642217,nan,pitch_program,12.64,0.0,0.0
0.75,69.18565928366105,0.0,24.461183412295007,99.34434900636134,0.0,4.562520616699997,99.44906371542942,17.931831146651426,0.0,7.070213850973047,0.0,0.0,1.4613733882557534,0.0,4.440677124558302,0.0,6043.483531152927,0.29232521282237517,99.44906371542942,2.1361539878493248,1.2221258807879976,101031.48905240715,287.99100230782005,0.0,0.0,0.0,403.80394736842106,0.21671864841898159,0.86,nominal,5184.940401247954,nan,pitch_program,12.625,0.0,0.0
0.78,72.18384798621413,0.0,24.595278289274386,99.93962341843606,0.0,4.469829232645915,100.03953069855851,17.925329587198856,0.0,7.026146470208088,0.0,0.0,1.4689127645762228,0.0,4.465282409241769,0.0,6115.382737408377,0.2940613039866698,100.03953069855851,2.1354485977753184,1.2221101391551166,101029.88194091759,287.9901306911197,0.0,0.0,0.0,403.77,0.21670042911268322,0.86,nominal,5245.151137029427,nan,pitch_program,12.61,0.0,0.0
0.8099999999999999,75.19987027754871,0.0,24.726645528296928,100.53407637781935,0.0,4.378907967417998,100.62939604374226,17.918828574325477,0.0,6.982025250561976,0.0,0.0,1.4707073942136712,0.0,4.488000606868031,0.0,6187.6338073470115,0.29579562281292765,100.62939604374226,2.1347587409484734,1.2220947178748582,101028.3075399245,287.98927680406604,0.0,0.0,0.0,403.73605263157896,0.21668220980638486,0.86,nominal,5305.623232434238,nan,pitch_program,12.595,0.0,0.0
0.84,78.23370174160314,0.0,24.85533744323718,101.12771546848086,0.0,4.289730498008424,101.21865748773575,17.912328108031286,0.0,6.938000091390958,0.0,0.0,1.4675053779035736,0.0,4.509030026858165,0.0,6260.235171961361,0.2975281626560156,101.21865748773575,2.1340843335550104,1.2220796107968799,101026.76522123431,287.98844030661894,0.0,0.0,0.0,403.7021052631579,0.2166639905000865,0.86,nominal,5366.355906747505,nan,pitch_program,12.58,0.0,0.0
0.87,81.28531813883735,0.0,24.98140572453507,101.72054657447363,0.0,4.202276043262948,101.80731171852757,17.905828188316285,0.0,6.894195528757196,0.0,0.0,1.4601521589150845,0.0,4.528539268062525,0.0,6333.185126117661,0.29925891379026187,101.80731171852757,2.1334252669234224,1.2220648118444395,101025.25436418073,287.9876208627905,0.0,0.0,0.0,403.66815789473685,0.21664577119378817,0.86,nominal,5427.348262125232,nan,pitch_program,12.565,0.0,0.0
0.8999999999999999,84.35469536358526,0.0,25.1049015745579,102.31257415826373,0.0,4.116528334094414,102.3953545646267,17.89932881518047,0.0,6.85071376427174,0.0,0.0,1.4493922190775093,0.0,4.54667096122568,0.0,6406.48184841533,0.30098786396622684,102.3953545646267,2.132781420650926,1.2220503149984963,101023.77435400097,287.9868181397654,0.0,0.0,0.0,403.6342105263158,0.2166275518874898,0.86,nominal,5488.599301233947,nan,pitch_program,12.55,0.0,0.0
0.9299999999999999,87.4418094086807,0.0,25.225875817004287,102.90380150318119,0.0,4.032474748212868,102.98278116462522,17.892829988623845,0.0,6.807640348638748,0.0,0.0,1.4357805887205488,0.0,4.563548048061657,0.0,6480.123419400275,0.30271499890943027,102.98278116462522,2.132152744476937,1.2220361142848502,101022.32458052237,287.9860318071895,0.0,0.0,0.0,403.6002631578947,0.21660933258119142,0.86,nominal,5550.107943281369,nan,pitch_program,12.535000000000002,0.0,0.0
0.96,90.54663633511547,0.0,25.34437899000463,103.49423088115876,0.0,3.950105766678075,103.56958608225939,17.88633170864641,0.0,6.765047870460092,0.0,0.0,1.4197493380027502,0.0,4.5792778646708365,0.0,6554.1078336240635,0.30444030265883193,103.56958608225939,2.131539268431871,1.2220222037632025,101020.9044370452,287.98526153656496,0.0,0.0,0.0,403.56631578947366,0.21659111327489305,0.86,nominal,5611.873034847598,nan,pitch_program,12.520000000000001,0.0,0.0
0.99,93.66915224552547,0.0,25.46046142729846,104.0838636803335,0.0,3.869414576461041,104.15576339209835,17.87983397524816,0.0,6.722997277095842,0.0,0.0,1.4016865083921084,0.0,4.593953761729825,0.0,6628.433008470046,0.30616375781894806,104.15576339209836,2.1309410537608846,1.2220085775176126,101019.51331936804,287.98450700072254,0.0,0.0,0.0,403.53236842105264,0.21657289396859472,0.86,nominal,5673.893357951404,nan,pitch_program,12.505,0.0,0.0
1.02,96.80933326134537,0.0,25.57417332723184,104.67270052733022,0.0,3.7903966644460674,104.74130676365462,17.873336788429103,0.0,6.681538815472774,0.0,0.0,1.3819487810653563,0.0,4.607656338474987,0.0,6703.096793156123,0.3078853458072964,104.74130676365462,2.130358157093279,1.2219952296483894,101018.15062495942,287.983767873373,0.0,0.0,0.0,403.49842105263156,0.21655467466229633,0.86,nominal,5736.167638138498,nan,pitch_program,12.49,0.0,0.0
1.05,99.96715550350434,0.0,25.685564809563566,105.26074140529886,0.0,3.7130494110575496,105.32620954502327,17.866840148189233,0.0,6.64071357326203,0.0,0.0,1.360841464600466,0.0,4.62045526679507,0.0,6778.096978048061,0.3096050471004256,105.32620954502327,2.1297906303508145,1.2219821542654101,101016.81575227568,287.98304382873783,0.0,0.0,0.0,403.46447368421053,0.216536455355998,0.86,nominal,5798.694552700783,nan,pitch_program,12.475,0.0,0.0
1.08,103.14259507615931,0.0,25.794685961972824,105.84798575516538,0.0,3.637371746975274,105.9104648354042,17.860344054528554,0.0,6.600555141332041,0.0,0.0,1.3386144524664585,0.0,4.63241119226532,0.0,6853.431302901335,0.3113228414472371,105.91046483540418,2.129238529770455,1.2219693454826521,101015.50810020206,287.98233454124716,0.0,0.0,0.0,403.43052631578945,0.21651823604969964,0.86,nominal,5861.472737914674,nan,pitch_program,12.46,0.0,0.0
1.1099999999999999,106.33562805288224,0.0,25.901586878499028,106.43443255743097,0.0,3.5633638842067747,106.49406554354844,17.85384850744706,0.0,6.561090829231845,0.0,0.0,1.3154771220140644,0.0,4.643577139578847,0.0,6929.097463588803,0.313038708040911,106.49406554354844,2.1287019129684372,1.2219567974136696,101014.22706759087,287.98163968528974,0.0,0.0,0.0,403.3965789473684,0.21650001674340127,0.86,nominal,5924.500794958828,nan,pitch_program,12.445,0.0,0.0
1.14,109.5462304649204,0.0,26.006317691194432,107.02008040127193,0.0,3.491027089846752,107.07700443716546,17.84735350694476,0.0,6.522342485642312,0.0,0.0,1.2916115022123482,0.0,4.653999493325065,0.0,7005.093117901578,0.3147526256642422,107.07700443716546,2.128180828928083,1.2219445041678694,101012.97205288085,287.9809589350072,0.0,0.0,0.0,403.3626315789474,0.21648179743710294,0.86,nominal,5987.777295004727,nan,pitch_program,12.43,0.0,0.0
1.17,112.77437829130673,0.0,26.108928595614113,107.6049275462112,0.0,3.420363480655978,107.65927418743435,17.840859053021646,0.0,6.484327221329571,0.0,0.0,1.267175523577827,0.0,4.663718864566178,0.0,7081.415890922213,0.3164645728205683,107.65927418743436,2.1276753123595475,1.22193245984751,101011.74245379053,287.98029196412847,0.0,0.0,0.0,403.3286842105263,0.21646357813080455,0.86,nominal,6051.300783894763,nan,pitch_program,12.415,0.0,0.0
1.2,116.02004745060614,0.0,26.209469870819998,108.1889719766471,0.0,3.351375840196194,108.24086740869173,17.834365145677722,0.0,6.447058129259238,0.0,0.0,1.2423031128135797,0.0,4.672770937637405,0.0,7158.063379954483,0.318174527850502,108.24086740869173,2.1271853836396075,1.221920658545345,101010.53766707737,287.97963844583967,0.0,0.0,0.0,403.2947368421053,0.21644535882450622,0.86,nominal,6115.069786401667,nan,pitch_program,12.4,0.0,0.0
1.23,119.28321379405813,0.0,26.307991894741956,108.77221144839937,0.0,3.2840674640652603,108.82177669236906,17.827871784912986,0.0,6.410544919896356,0.0,0.0,1.217107019953682,0.0,4.681187212945199,0.0,7235.033158861576,0.3198824690317474,108.82177669236904,2.126711049110597,1.2219090943428068,101009.35708835206,287.9789980526842,0.0,0.0,0.0,403.26078947368416,0.2164271395182078,0.86,nominal,6179.08280995649,nan,pitch_program,12.385,0.0,0.0
1.26,122.56385309990257,0.0,26.40454515563903,109.35464352814807,0.0,3.2184420299025347,109.40199463569292,17.82137897072744,0.0,6.374794425165861,0.0,0.0,1.1916831963463979,0.0,4.688995601752687,0.0,7312.322781851882,0.32158837466350865,109.4019946356929,2.1262522994776734,1.2218977613086597,101008.2001119408,287.97837045648834,0.0,0.0,0.0,403.22684210526313,0.21640892021190947,0.86,nominal,6243.338347884638,nan,pitch_program,12.37,0.0,0.0
1.29,125.86194106872672,0.0,26.499180260192684,109.93626562747161,0.0,3.1545034851218188,109.98151386642958,17.814886703121083,0.0,6.339811010721265,0.0,0.0,1.1661138510474092,0.0,4.696220916946421,0.0,7389.92978685786,0.3232922231392607,109.9815138664296,2.125809108012082,1.2218866534980377,101007.06613078671,287.9777553283087,0.0,0.0,0.0,403.1928947368421,0.21639070090561113,0.86,nominal,6307.83488227444,nan,pitch_program,12.355,0.0,0.0
1.3199999999999998,129.17745331970178,0.0,26.591947938657082,110.51707503250167,0.0,3.092255948813273,110.56032706442475,17.808394982093915,0.0,6.305596940944593,0.0,0.0,1.1404690264453576,0.0,4.7028853065480405,0.0,7467.851698589252,0.32499399301008935,110.56032706442477,2.1253814299810734,1.2218757649518326,101005.95453638726,287.9771523383987,0.0,0.0,0.0,403.158947368421,0.21637248159931274,0.86,nominal,6372.570886548918,nan,pitch_program,12.34,0.0,0.0
1.3499999999999999,132.51036538758774,0.0,26.682899047475075,111.09706892953153,0.0,3.031703627266402,111.13842698012537,17.801903807645935,0.0,6.272152701887342,0.0,0.0,1.1148080002281187,0.0,4.709008635856475,0.0,7546.08603126967,0.3266936630391522,111.13842698012537,2.1249692027812914,1.2218650896963794,101004.86471876175,287.9765611561914,0.0,0.0,0.0,403.125,0.2163542622930144,0.86,nominal,6437.544827752252,nan,pitch_program,12.325,0.0,0.0
1.38,135.86065272039608,0.0,26.77208456973858,111.67624442694415,0.0,2.972850742116919,111.71580645030264,17.795413179777146,0.0,6.239477274202152,0.0,0.0,1.08918095235967,0.0,4.714608811145514,0.0,7624.630291070937,0.32839121224790374,111.71580645030264,2.124572345923422,1.221854621743394,101003.79606644477,287.9759814502967,0.0,0.0,0.0,403.0910526315789,0.21633604298671602,0.86,nominal,6502.755168566567,nan,pitch_program,12.31,0.0,0.0
1.41,139.22829067761717,0.0,26.859555613808563,112.25459857403618,0.0,2.915701468999389,112.29245841139257,17.788923098487544,0.0,6.2075683610934895,0.0,0.0,1.0636304644462165,0.0,4.719702051355169,0.0,7703.481978288137,0.33008661995531063,112.29245841139257,2.124190760871749,1.2218443550901292,101002.74796650196,287.9754128885102,0.0,0.0,0.0,403.0571052631579,0.2163178236804177,0.86,nominal,6568.200369097321,nan,pitch_program,12.295,0.0,0.0
1.44,142.61325452893493,0.0,26.945363410353778,112.83212837725891,0.0,2.860259884840515,112.86837591084166,17.782433563777133,0.0,6.176422583523674,0.0,0.0,1.0381926112257835,0.0,4.7243031212330635,0.0,7782.638589296658,0.3317798658111972,112.86837591084166,2.1238243310925538,1.2218342837197143,101001.71980456437,287.97485513783266,0.0,0.0,0.0,403.02315789473687,0.21629960437411935,0.86,nominal,6633.878888463678,nan,pitch_program,12.28,0.0,0.0
1.47,146.01551945336138,0.0,27.029559308035843,113.40883081421477,0.0,2.806529922735535,113.44355211669986,17.77594457564591,0.0,6.146035649410008,0.0,0.0,1.0128978275305855,0.0,4.728425533418829,0.0,7862.0976183146595,0.3334709298244324,113.44355211669988,2.1234729223409152,1.2218244016016548,101000.7109648793,287.97430786449775,0.0,0.0,0.0,402.9892105263158,0.21628138506782096,0.86,nominal,6699.789186215348,nan,pitch_program,12.265,0.0,0.0
1.5,149.43506053873153,0.0,27.11219476804413,113.98470284567208,0.0,2.7545153336095805,114.01798032564537,17.769456134093875,0.0,6.116402498407936,0.0,0.0,0.9877717220874925,0.0,4.7320817216595925,0.0,7941.856558987701,0.3351597923865024,114.01798032564537,2.1231363829979677,1.2218147026924662,100999.72083037473,287.9737707340077,0.0,0.0,0.0,402.9552631578947,0.2162631657615226,0.86,nominal,6765.9297235916665,nan,pitch_program,12.25,0.0,0.0
1.53,152.8718527815076,0.0,27.193321357656483,114.55974142586957,0.0,2.704219653745086,114.59165396964039,17.76296823912103,0.0,6.087517424620788,0.0,0.0,0.9628358132974991,0.0,4.735283188125051,0.0,8021.912905815543,0.33684643429105493,114.59165396964039,2.122814544391464,1.2218051809364219,100998.7487827356,287.9732434111752,0.0,0.0,0.0,402.9213157894737,0.21624494645522424,0.86,nominal,6832.2989646409615,nan,pitch_program,12.235,0.0,0.0
1.56,156.3258710868486,0.0,27.27299074297528,115.13394351136557,0.0,2.6556461772932454,115.16456662141047,17.756480890727374,0.0,6.059374181217515,0.0,0.0,0.9381081323039054,0.0,4.738040629386132,0.0,8102.264155441204,0.3385308367499798,115.16456662141047,2.1225072211573854,1.2217958302664065,100997.79420249048,287.97272556017066,0.0,0.0,0.0,402.8873684210526,0.21622672714892588,0.86,nominal,6898.895377218244,nan,pitch_program,12.220000000000002,0.0,0.0
1.5899999999999999,159.79709026890762,0.0,27.35125468096816,115.70730606863465,0.0,2.608797933096031,115.73671199890043,17.749994088912906,0.0,6.031966070191373,0.0,0.0,0.9136037182930025,0.0,4.740364044744484,0.0,8182.907807817876,0.3402129814064789,115.73671199890043,2.122214211665139,1.2217866446048307,100996.85646910506,287.97221684457367,0.0,0.0,0.0,402.8534210526316,0.21620850784262752,0.86,nominal,6965.7174338753275,nan,pitch_program,12.205000000000002,0.0,0.0
1.6199999999999999,163.2854850513249,0.0,27.42816501092673,116.27982608057673,0.0,2.5636776652856557,116.30808396883106,17.74350783367763,0.0,6.0052860191341,0.0,0.0,0.889335051312371,0.0,4.7422628291529,0.0,8263.841367266412,0.34189285034548816,116.30808396883106,2.1219352984695314,1.2217776178646422,100995.93496108493,287.97171692742893,0.0,0.0,0.0,402.8194736842105,0.21619028853632916,0.86,nominal,7032.763612654732,nan,pitch_program,12.19,0.0,0.0
1.65,166.7910300678875,0.0,27.503773645441697,116.85150055208669,0.0,2.5202878171656025,116.87867654947017,17.73702212502154,0.0,5.979326646616119,0.0,0.0,0.8653124320684448,0.0,4.743745852649089,0.0,8345.062343434725,0.3435704261017882,116.87867654947017,2.1216702487655126,1.2217687439503693,100995.02905608198,287.9712254713046,0.0,0.0,0.0,402.78552631578947,0.21617206923003082,0.86,nominal,7100.032397797905,nan,pitch_program,12.175,0.0,0.0
1.68,170.31369986333206,0.0,27.578132560979267,117.42232651481817,0.0,2.478630517918938,117.44848391272204,17.730536962944637,0.0,5.954080317922284,0.0,0.0,0.8415443034103901,0.0,4.744821528349873,0.0,8426.568252170298,0.34524569166610675,117.44848391272204,2.1214188148522966,1.2217600167592224,100994.13813100687,287.9707421383536,0.0,0.0,0.0,402.75157894736844,0.21615384992373246,0.86,nominal,7167.522280377591,nan,pitch_program,12.16,0.0,0.0
1.71,173.8534688942697,0.0,27.651293788132186,117.99230103125441,0.0,2.4387075717639735,118.01750038562392,17.724052347446925,0.0,5.929539192672047,0.0,0.0,0.8180375208477865,0.0,4.745497870783796,0.0,8508.35661631511,0.3469186304894777,118.01750038562392,2.121180734611681,1.221751430182237,100993.26156214513,287.9702665903771,0.0,0.0,0.0,402.71763157894736,0.2161356306174341,0.86,nominal,7235.231758862757,nan,pitch_program,12.145,0.0,0.0
1.74,177.41031153021513,0.0,27.723309401609395,118.56142119818128,0.0,2.400520449240261,118.58572045132487,17.7175682785284,0.0,5.905695265464243,0.0,0.0,0.7947975850640956,0.0,4.745782545910565,0.0,8590.424966430786,0.34858922648607366,118.58572045132487,2.120955731992599,1.2217429781054392,100992.39872527645,287.9697984888895,0.0,0.0,0.0,402.68368421052634,0.21611741131113574,0.86,nominal,7303.159339623177,nan,pitch_program,12.13,0.0,0.0
1.77,180.98420205470447,0.0,27.79423151001975,119.12968414964502,0.0,2.3640702803451545,119.15313874961328,17.711084756189067,0.0,5.8825404005005195,0.0,0.0,0.7718288426286821,0.0,4.745682913963178,0.0,8672.770841461166,0.35025746403471136,119.15313874961328,2.1207435174952978,1.2217346544110397,100991.54899579608,287.96933749518485,0.0,0.0,0.0,402.64973684210526,0.21609919200483738,0.86,nominal,7371.303537380032,nan,pitch_program,12.115,0.0,0.0
1.7999999999999998,184.5751146664885,0.0,27.864112245497946,119.6970870594676,0.0,2.3293578492732383,119.71975007705177,17.70460178042892,0.0,5.860066361076399,0.0,0.0,0.7491346570757028,0.0,4.745206066160658,0.0,8755.39178933856,0.3519233279792001,119.71975007705177,2.120543788655474,1.2217264529786507,100990.71174883895,287.96888327040426,0.0,0.0,0.0,402.6157894736842,0.216080972698539,0.86,nominal,7439.662875608182,nan,pitch_program,12.1,0.0,0.0
1.8299999999999998,188.18302348078996,0.0,27.933003753214336,120.26362714338188,0.0,2.2963835905463386,120.28554938677094,17.698119351247964,0.0,5.83826483471017,0.0,0.0,0.7267175543091985,0.0,4.744358856197252,0.0,8838.285367539222,0.3535868036276856,120.28554938677094,2.1203562305288024,1.2217183676865064,100989.88635940426,287.9684354756041,0.0,0.0,0.0,402.58184210526315,0.21606275339224065,0.86,nominal,7508.235886895115,nan,pitch_program,12.085,0.0,0.0
1.8599999999999999,191.80790253061514,0.0,28.000958180804915,120.82930166083953,0.0,2.2651475863525747,120.85053178796574,17.691637468646196,0.0,5.817127454537061,0.0,0.0,0.7045793470947908,0.0,4.743147927251124,0.0,8921.449143592936,0.35524787675111774,120.85053178796575,2.1201805161738814,1.221710392412703,100989.07220248177,287.96799377182475,0.0,0.0,0.0,402.54789473684207,0.2160445340859423,0.86,nominal,7577.021113260849,nan,pitch_program,12.07,0.0,0.0
1.89,195.44972576811128,0.0,28.068027667753,121.39410791653806,0.0,2.2356495649361743,121.41469254513346,17.685156132623618,0.0,5.796645817500945,0.0,0.0,0.6827212418073622,0.0,4.741579735144727,0.0,9004.880695550899,0.3569065335809573,121.41469254513346,2.1200163071318876,1.221702521036439,100988.26865317838,287.9675578201596,0.0,0.0,0.0,402.51394736842104,0.21602631477964393,0.86,nominal,7646.017106442613,nan,pitch_program,12.055,0.0,0.0
1.92,199.1084670659625,0.0,28.134264334749993,121.9580432617065,0.0,2.207888899899771,121.97802707708702,17.678675343180227,0.0,5.776811499813852,0.0,0.0,0.6611439295055481,0.0,4.739660568213726,0.0,9088.57761241574,0.35856276080622107,121.978027077087,2.119863253902926,1.2216947474392612,100987.47508684518,287.9671272818241,0.0,0.0,0.0,402.48,0.2160080954733456,0.86,nominal,7715.222428147663,nan,pitch_program,12.040000000000001,0.0,0.0
1.95,202.784100218818,0.0,28.19972027305899,122.52110509518414,0.0,2.1818646102998556,122.5405309557733,17.672195100316028,0.0,5.757616070085788,0.0,0.0,0.639847663586894,0.0,4.7373965643612586,0.0,9172.537494536893,0.3602165455699514,122.5405309557733,2.1197209964189834,1.2216870655063068,100986.690879204,287.9667018182251,0.0,0.0,0.0,402.44605263157894,0.2159898761670472,0.86,nominal,7784.635650277212,nan,pitch_program,12.025,0.0,0.0
1.98,206.47659894474765,0.0,28.264447533901958,123.0832908643217,0.0,2.15757536143228,123.1021999049224,17.665715404031015,0.0,5.739051100462912,0.0,0.0,0.618832326176742,0.0,4.7347937256994115,0.0,9256.75795397437,0.3618678754651884,123.1021999049224,2.1195891645129343,1.2216794691275454,100985.91540647435,287.9662810910296,0.0,0.0,0.0,402.4121052631579,0.21597165686074887,0.86,nominal,7854.255355124079,nan,pitch_program,12.01,0.0,0.0
2.01,210.18593688671956,0.0,28.3284981178885,123.64459806573008,0.0,2.135019466218111,123.66302979855003,17.659236254325194,0.0,5.721108176063508,0.0,0.0,0.5980974848681745,0.0,4.731857931122449,0.0,9341.236614833468,0.36351673853050875,123.66302979855003,2.1194673783832467,1.2216719521990203,100985.1480454997,287.9658647622337,0.0,0.0,0.0,402.37815789473683,0.2159534375544505,0.86,nominal,7924.080135546328,nan,pitch_program,11.995000000000001,0.0,0.0
2.04,213.91208761409652,0.0,28.391923964501853,124.20502424589878,0.0,2.1141948871117755,124.22301665933328,17.65275765119856,0.0,5.703778902962256,0.0,0.0,0.5776424411118443,0.0,4.728594947109957,0.0,9425.971113572608,0.36516312324519135,124.22301665933328,2.1193552490544367,1.2216645086240712,100984.38817387253,287.9654524942307,0.0,0.0,0.0,402.3442105263158,0.21593521824815215,0.86,nominal,7994.10859511898,nan,pitch_program,11.98,0.0,0.0
2.07,217.6550246241476,0.0,28.45477694165577,124.7645670017024,0.0,2.0950992384639027,124.78215665687662,17.646279594651116,0.0,5.687054914936097,0.0,0.0,0.5574662714965914,0.0,4.725010437014139,0.0,9510.959099286529,0.36680701852405884,124.78215665687664,2.1192523788331425,1.2216571323145669,100983.63517005972,287.9650439498792,0.0,0.0,0.0,402.3102631578947,0.2159169989418538,0.86,nominal,8064.339348265538,nan,pitch_program,11.965,0.0,0.0
2.1,221.41472134357193,0.0,28.517108835334174,125.3232239808115,0.0,2.0777297892801267,125.3404461058836,17.63980208468286,0.0,5.670927879153016,0.0,0.0,0.5375678629851782,0.0,4.721109969048003,0.0,9596.198233966355,0.3684484137120414,125.34044610588359,2.1191583617597165,1.2216498171921084,100982.88841352564,287.9646387925703,0.0,0.0,0.0,402.27631578947364,0.2158987796355554,0.86,nominal,8134.771020370985,nan,pitch_program,11.95,0.0,0.0
2.13,225.19115113003258,0.0,28.578971339323914,125.88099288202153,0.0,2.062083466324696,125.89788146424722,17.633325121293794,0.0,5.655389500959779,0.0,0.0,0.5179459429490334,0.0,4.716899023161047,0.0,9681.686192738443,0.3700872985785006,125.89788146424722,2.1190727840553003,1.221642557189237,100982.14728485506,287.9642366862944,0.0,0.0,0.0,402.2423684210526,0.21588056032925707,0.86,nominal,8205.402247877604,nan,pitch_program,11.935,0.0,0.0
2.16,228.98428727369793,0.0,28.640416045049648,126.4378714555115,0.0,2.0481568575244364,126.45445933107094,17.626848704483915,0.0,5.640431527901403,0.0,0.0,0.4985991047776639,0.0,4.712382996961614,0.0,9767.420664083134,0.37172366331134765,126.45445933107095,2.1189952245642965,1.2216353462506229,100981.41116587467,287.96383729570715,0.0,0.0,0.0,402.2084210526316,0.2158623410229587,0.86,nominal,8276.231678364922,nan,pitch_program,11.92,0.0,0.0
2.19,232.7941029987892,0.0,28.701494431518675,126.99385750304275,0.0,2.0359462156342842,127.01017644463015,17.620372834253228,0.0,5.626045753086774,0.0,0.0,0.47952582967350954,0.0,4.707567210823223,0.0,9853.399350034908,0.3733574985109868,127.01017644463013,2.1189252551922797,1.221628178334246,100980.6794397734,287.9634402861951,0.0,0.0,0.0,402.1744736842105,0.21584412171666034,0.86,nominal,8347.257970614894,nan,pitch_program,11.905,0.0,0.0
2.2199999999999998,236.6205714651324,0.0,28.762257855382597,127.54894887810627,0.0,2.0254474621306877,127.56502968028354,17.613897510601728,0.0,5.612224017996805,0.0,0.0,0.46072450523324443,0.0,4.7024569122909945,0.0,9939.619966364893,0.3749887951841108,127.56502968028353,2.1188624413392034,1.221621047412553,100979.95149122053,287.96304532394,0.0,0.0,0.0,402.1405263157895,0.215825902410362,0.86,nominal,8418.479794663297,nan,pitch_program,11.890000000000002,0.0,0.0
2.25,240.46366576971317,0.0,28.822757541121696,128.103143486026,0.0,2.0166561913033467,128.1190160483419,17.60742273352942,0.0,5.598958214818745,0.0,0.0,0.44219344124406024,0.0,4.697057279888942,0.0,10026.080242746892,0.37661754473736897,128.1190160483419,2.1188063423278876,1.2216139474736156,100979.2267064839,287.9626520759827,0.0,0.0,0.0,402.1065789473684,0.21580768310406362,0.86,nominal,8489.895831838285,nan,pitch_program,11.875,0.0,0.0
2.28,244.3233589482339,0.0,28.88304457135728,128.6564392840243,0.0,2.0095676745195665,128.67213269190148,17.600948503036296,0.0,5.586240288377488,0.0,0.0,0.4239308831157623,0.0,4.691373426413823,0.0,10112.777922907726,0.3782437389709326,128.67213269190148,2.11875651182774,1.2216068725222609,100978.50447354508,287.96226021028616,0.0,0.0,0.0,402.0726315789474,0.21578946379776529,0.86,nominal,8561.504774786852,nan,pitch_program,11.86,0.0,0.0
2.31,248.19962397667155,0.0,28.94316987729644,129.2088342812551,0.0,2.004176864638699,129.22437688464817,17.594474819122365,0.0,5.574062237724533,0.0,0.0,0.4059350232934501,0.0,4.685410401789081,0.0,10199.71076476281,0.3798673700719726,129.22437688464817,2.1187124982736076,1.2215998165811939,100977.78418221413,287.9618693957976,0.0,0.0,0.0,402.03868421052636,0.21577124449146692,0.86,nominal,8633.305327489987,nan,pitch_program,11.845,0.0,0.0
2.34,252.09243377283582,0.0,29.00318422931315,129.76032653880924,0.0,2.0004784005569456,129.7757460286378,17.58800168178762,0.0,5.562416117436009,0.0,0.0,0.3882040109539703,0.0,4.679173195541515,0.0,10286.876540537609,0.38148843060806703,129.7757460286378,2.118673845279649,1.2215927736920966,100977.06522424176,287.9614793025094,0.0,0.0,0.0,402.0047368421053,0.21575302518516856,0.86,nominal,8705.296205267143,nan,pitch_program,11.83,0.0,0.0
2.37,256.00176119792667,0.0,29.063138227669103,130.31091416969554,0.0,1.9984666118651604,130.32623765205724,17.581529091032067,0.0,5.551294038664685,0.0,0.0,0.3707359602083446,0.0,4.67266673895534,0.0,10374.2730368758,0.38310691352055093,130.32623765205724,2.1186400920482273,1.2215857379167263,100976.34699343114,287.96108960152014,0.0,0.0,0.0,401.9707894736842,0.21573480587887017,0.86,nominal,8777.47613477062,nan,pitch_program,11.815,0.0,0.0
2.4,259.9275790580907,0.0,29.123082293377237,130.86059533880123,0.0,1.9981355236044933,130.8758494069711,17.5750570468557,0.0,5.540688169982701,0.0,0.0,0.3535289570755824,0.0,4.6658959069488475,0.0,10461.898054934525,0.38472281211782466,130.8758494069711,2.1186107737735775,1.2215787033379728,100975.6288857461,287.960699965093,0.0,0.0,0.0,401.9368421052631,0.2157165865725718,0.86,nominal,8849.843853970437,nan,pitch_program,11.8,0.0,0.0
2.4299999999999997,263.86986010597576,0.0,29.18306665921043,131.40936826283433,0.0,1.999478861106387,131.4245790670574,17.568585549258522,0.0,5.530590738048039,0.0,0.0,0.33658106535988463,0.0,4.658865519714158,0.0,10549.749410467695,0.3863361200686281,131.42457906705744,2.1184818765896445,1.221571664060927,100974.91029942011,287.9603100667151,0.0,0.0,0.0,401.9028947368421,0.21569836726627348,0.86,nominal,8922.398112130157,nan,pitch_program,11.785,0.0,0.0
2.46,267.8285772682103,0.0,29.24313902757357,131.95723874115242,0.0,2.0024122787713035,131.9724308752539,17.562114598240534,0.0,5.523869819427507,0.0,0.0,0.224030620941316,0.0,4.6544899476606405,0.0,10637.825959970187,0.3879468500513297,131.9724308752539,2.118549718570426,1.2215646144877197,100974.1906630123,287.95991959632073,0.0,0.0,0.0,401.86894736842106,0.21568014795997512,0.86,nominal,8995.138484906589,nan,pitch_program,11.77,0.0,0.0
2.4899999999999998,271.8037016732707,0.0,29.303353678044417,132.50414683534598,0.0,2.007155015694863,132.5193480206568,17.555644193801733,0.0,5.521238942205825,0.0,0.0,0.08769590740480705,0.0,4.653396544923835,0.0,10726.116682353295,0.3895548353023918,132.5193480206568,2.1188884975335744,1.2215575482487504,100973.469326305,287.95952820109267,0.0,0.0,0.0,401.835,0.21566192865367675,0.86,nominal,9068.056533256773,nan,pitch_program,11.755,0.0,0.0
2.52,275.79520217856833,0.0,29.363773545716214,133.05001684325453,0.0,2.0139955890598897,133.065259028129,17.549174335942123,0.0,5.520615469394373,0.0,0.0,0.02078242704853543,0.0,4.653387958360105,0.0,10814.6080135777,0.3911598659928377,133.065259028129,2.119240953863224,1.221550457958805,100972.74553540834,287.95913547195283,0.0,0.0,0.0,401.80105263157895,0.2156437093473784,0.86,nominal,9141.14182995363,nan,pitch_program,11.74,0.0,0.0
2.55,279.8030469037335,0.0,29.424462598707755,133.59482417217285,0.0,2.0229684330514406,133.61013976070416,17.5427050246617,0.0,5.5220362501234055,0.0,0.0,-0.047359357636766256,0.0,4.654497435334895,0.0,10903.29392564831,0.3927618714580424,133.61013976070416,2.119667195791674,1.221543336111574,100972.01852407497,287.9587409931084,0.0,0.0,0.0,401.7671052631579,0.21562549004108003,0.86,nominal,9214.390129581068,nan,pitch_program,11.725000000000001,0.0,0.0
2.58,283.82720307620156,0.0,29.485487167295304,134.13853908226912,0.0,2.0341522862515906,134.15396171059987,17.536236259960468,0.0,5.525827380172709,0.0,0.0,-0.1263710016895448,0.0,4.657028532755849,0.0,10992.16760931169,0.3943607681997686,134.15396171059987,2.120230286873876,1.2215361749236895,100971.28749777917,287.9583443334126,0.0,0.0,0.0,401.73315789473685,0.2156072707347817,0.86,nominal,9287.796574053706,nan,pitch_program,11.71,0.0,0.0
2.61,287.86763674422883,0.0,29.54691751868235,134.68112226757617,0.0,2.0476783795682088,134.69668771725588,17.529768041838423,0.0,5.531391619622573,0.0,0.0,-0.1854746484746127,0.0,4.660339402879388,0.0,11081.220753573627,0.39595644730602775,134.69668771725588,2.1208599922382936,1.2215289661499327,100970.55161485323,287.95794503612854,0.0,0.0,0.0,401.6992105263158,0.21558905142848334,0.86,nominal,9361.355119684564,nan,pitch_program,11.695,0.0,0.0
2.6399999999999997,291.9243132106212,0.0,29.608825752650702,135.2225488797455,0.0,2.063607798945045,135.2382941429055,17.52330037029557,0.0,5.538501720803871,0.0,0.0,-0.2370033730140361,0.0,4.6641886647433095,0.0,11170.447182901627,0.39754883962957105,135.2382941429055,2.121549360222383,1.2215217013301882,100969.81001169737,287.9575426326077,0.0,0.0,0.0,401.6652631578947,0.21557083212218495,0.86,nominal,9435.061492408744,nan,pitch_program,11.68,0.0,0.0
2.67,295.99719715266633,0.0,29.67128542226739,135.76279806817095,0.0,2.0819889872228377,135.77876128998187,17.516833245331902,0.0,5.547173622041406,0.0,0.0,-0.28906337513630853,0.0,4.6685836577051285,0.0,11259.841313298411,0.3991378876172754,135.77876128998187,2.12231786647548,1.2215143718339612,100969.0618073242,287.9571366447552,0.0,0.0,0.0,401.63131578947366,0.21555261281588659,0.86,nominal,9508.91191990722,nan,pitch_program,11.665,0.0,0.0
2.6999999999999997,300.0862525717663,0.0,29.734371920759557,136.3018473033328,0.0,2.102883283072255,136.31806812159303,17.510366666947426,0.0,5.55719464930914,0.0,0.0,-0.33403424310927443,0.0,4.673297761656526,0.0,11349.397285983661,0.4007235297922276,136.318068121593,2.123146079328187,1.2215069688149853,100968.30609872534,287.95672658251505,0.0,0.0,0.0,401.59736842105264,0.21553439350958825,0.86,nominal,9582.902426598355,nan,pitch_program,11.65,0.0,0.0
2.73,304.19144293516325,0.0,29.79816185447105,136.8396787798995,0.0,2.1263311237164806,136.85619815205214,17.503900635142138,0.0,5.568409553035096,0.0,0.0,-0.37383012539212257,0.0,4.678170725835517,0.0,11439.109948596755,0.4023057180669385,136.85619815205214,2.1240249102824054,1.2214994832848098,100967.54196838362,287.9563119479459,0.0,0.0,0.0,401.56342105263155,0.21551617420328986,0.86,nominal,9657.029630267027,nan,pitch_program,11.635,0.0,0.0
2.76,308.3127312674354,0.0,29.86273269910854,137.37627774240585,0.0,2.1523614879163744,137.39313791573906,17.49743514991604,0.0,5.5807569407380875,0.0,0.0,-0.4115795916925538,0.0,4.683140976725447,0.0,11528.97461375813,0.403884413240924,137.39313791573906,2.124956894250029,1.2214919061531555,100966.76848839266,287.95589223745577,0.0,0.0,0.0,401.52947368421053,0.21549795489699153,0.86,nominal,9731.290540790362,nan,pitch_program,11.620000000000001,0.0,0.0
2.79,312.45008017249614,0.0,29.928162781726083,137.91163016869024,0.0,2.1810027539181114,137.9288748188652,17.49097021126913,0.0,5.594128561930693,0.0,0.0,-0.44572070844321743,0.0,4.688100283512961,0.0,11618.98670721912,0.4054595786856874,137.92887481886518,2.125934484250617,1.2214842282300213,100965.98472067241,287.95546694191876,0.0,0.0,0.0,401.49552631578945,0.21547973559069317,0.86,nominal,9805.682271942509,nan,pitch_program,11.605,0.0,0.0
2.82,316.60345189958093,0.0,29.994531020305153,138.44572423616034,0.0,2.2122746193023874,138.4633984786816,17.48450581920141,0.0,5.608429576216901,0.0,0.0,-0.476700478681827,0.0,4.692957374360916,0.0,11709.141997649804,0.40703118428035023,138.4633984786816,2.1269517838004113,1.2214764402562643,100965.18972009083,287.955035548368,0.0,0.0,0.0,401.4615789473684,0.2154615162843948,0.86,nominal,9880.202226763358,nan,pitch_program,11.59,0.0,0.0
2.85,320.77280839907775,0.0,30.06191671660779,138.97854998322723,0.0,2.2461898767545665,138.9967004083292,17.478041973712877,0.0,5.6235974797905195,0.0,0.0,-0.5055967887400371,0.0,4.6976560605300515,0.0,11799.436550711043,0.4085992054843144,138.9967004083292,2.1280067561095666,1.2214685329279058,100964.38253694537,287.954597541342,0.0,0.0,0.0,401.4276315789474,0.21544329697809647,0.86,nominal,9954.848057770332,nan,pitch_program,11.575,0.0,0.0
2.88,324.95811135452834,0.0,30.130399459036877,139.5100985150191,0.0,2.2827580809695203,139.52877327679252,17.471578674803535,0.0,5.6395633793662405,0.0,0.0,-0.5321966559678671,0.0,4.702134947317442,0.0,11889.866609322105,0.41016362116136723,139.52877327679255,2.1290948505194627,1.2214604969075435,100963.56221812821,287.9541524035162,0.0,0.0,0.0,401.3936842105263,0.21542507767179808,0.86,nominal,10029.617567918249,nan,pitch_program,11.56,0.0,0.0
2.9099999999999997,329.1593222230274,0.0,30.200058973954466,140.0403622833014,0.0,2.3219838305862694,140.05961115663504,17.46511592247338,0.0,5.656265510204787,0.0,0.0,-0.5567376985606337,0.0,4.706341634681627,0.0,11980.428640062484,0.4117244143072456,140.05961115663507,2.1302119790369054,1.2214523228418053,100962.72780890811,287.95369961666927,0.0,0.0,0.0,401.3597368421053,0.21540685836549975,0.86,nominal,10104.508747010834,nan,pitch_program,11.545,0.0,0.0
2.94,333.37640227110916,0.0,30.270974996883584,140.56933493605845,0.0,2.3638674309706453,140.58920937823424,17.458653716722417,0.0,5.673654177120588,0.0,0.0,-0.5796222349755955,0.0,4.710237352745907,0.0,12071.119312920298,0.4132815716205334,140.58920937823424,2.1313552414461983,1.221444001376467,100961.87835447393,287.9532386625202,0.0,0.0,0.0,401.3257894736842,0.21538863905920136,0.86,nominal,10179.519753751683,nan,pitch_program,11.53,0.0,0.0
2.9699999999999998,337.60931260220286,0.0,30.34322718070671,141.09701103645597,0.0,2.408406127437534,141.11756426290972,17.45219205755064,0.0,5.691681122686856,0.0,0.0,-0.6008981904992283,0.0,4.713785799194378,0.0,12161.935459534649,0.41483508271770425,141.11756426290972,2.1325211424803805,1.2214355231672374,100961.01290103592,287.9527690233254,0.0,0.0,0.0,401.29184210526313,0.215370419752903,0.86,nominal,10254.648880579905,nan,pitch_program,11.515,0.0,0.0
3.0,341.85801418461267,0.0,30.416894996582478,141.623386080326,0.0,2.4555938625256792,141.6446731298948,17.445730944958054,0.0,5.7103029278129664,0.0,0.0,-0.6207268430010987,0.0,4.716956620089575,0.0,12252.874077771165,0.41638494015312005,141.64467312989478,2.133706450253589,1.2214268788913916,100960.13049701329,287.9522901825222,0.0,0.0,0.0,401.2578947368421,0.21535220044660466,0.86,nominal,10329.89455635561,nan,pitch_program,11.5,0.0,0.0
3.03,346.12246787653703,0.0,30.492057646974533,142.14845639747907,0.0,2.505421679735168,142.17053419741833,17.439270378944656,0.0,5.729481524893349,0.0,0.0,-0.6392865753151183,0.0,4.719725740413714,0.0,12343.932317905175,0.41793113912779895,142.17053419741833,2.13490831123324,1.2214180592579875,100959.23019407757,287.95180162529465,0.0,0.0,0.0,401.223947368421,0.21533398114030627,0.86,nominal,10405.25533411335,nan,pitch_program,11.485,0.0,0.0
3.06,350.40263444763565,0.0,30.56879399284694,142.6722190366204,0.0,2.5578781957468055,142.69514646860858,17.432810359510448,0.0,5.749181190555586,0.0,0.0,-0.6566555285433718,0.0,4.722072150804826,0.0,12435.107465744732,0.41947367715362144,142.69514646860858,2.136123773499804,1.2214090550164105,100958.31104802513,287.9513028390465,0.0,0.0,0.0,401.19,0.21531576183400794,0.86,nominal,10480.729876458783,nan,pitch_program,11.47,0.0,0.0
3.09,354.6984745996319,0.0,30.64718248312741,143.1946717332074,0.0,2.612949676015734,143.21850969337174,17.426350886655428,0.0,5.769369402728609,0.0,0.0,-0.6729404127296604,0.0,4.7239787225088214,0.0,12526.396938587754,0.4210125539408794,143.21850969337174,2.137350057327082,1.2213998569646702,100957.3721196242,287.95079331385966,0.0,0.0,0.0,401.156052631579,0.21529754252770958,0.86,nominal,10556.31695149337,nan,pitch_program,11.455,0.0,0.0
3.12,359.0099489849581,0.0,30.72730109204297,143.71581284420765,0.0,2.670620297185455,143.74062430031066,17.419891960379598,0.0,5.7900164692635006,0.0,0.0,-0.688235558610839,0.0,4.7254317202442735,0.0,12617.798275749794,0.422547771197782,143.74062430031066,2.138584526217374,1.2213904559567537,100956.41247536606,287.9502725429017,0.0,0.0,0.0,401.1221052631579,0.21527932322141122,0.86,nominal,10632.015424375812,nan,pitch_program,11.44,0.0,0.0
3.15,363.33701822369073,0.0,30.809227263165816,144.2356412910883,0.0,2.7308723707614933,144.2614913362429,17.413433580682955,0.0,5.811094636013754,0.0,0.0,-0.7026055662658821,0.0,4.726419812583704,0.0,12709.309130149666,0.42407933245232865,144.2614913362429,2.1398245728322918,1.221380842909206,100955.43118813685,287.9497400227894,0.0,0.0,0.0,401.08815789473687,0.21526110391511288,0.86,nominal,10707.824249818768,nan,pitch_program,11.425,0.0,0.0
3.1799999999999997,367.6796429194612,0.0,30.89303785710078,144.75415652568176,0.0,2.7936864644987742,144.78111242673714,17.406975747565504,0.0,5.832578211907465,0.0,0.0,-0.7161192048472318,0.0,4.726934142160651,0.0,12800.927263364892,0.4256072429359783,144.78111242673714,2.1410677007246015,1.221371008807276,100954.4273378454,287.94919525392885,0.0,0.0,0.0,401.0542105263158,0.2152428846088145,0.86,nominal,10783.742467463087,nan,pitch_program,11.410000000000002,0.0,0.0
3.21,372.0377836741105,0.0,30.978809104236213,145.27135848831207,0.0,2.8590415711810824,145.2994897298178,17.40051846102724,0.0,5.854443211042718,0.0,0.0,-0.7288333133535325,0.0,4.726967895410039,0.0,12892.650539307626,0.42713150944725636,145.2994897298178,2.1423114889328123,1.2213609447104716,100953.40001199034,287.94863774082245,0.0,0.0,0.0,401.0202631578947,0.21522466530251613,0.86,nominal,10859.76919617477,nan,pitch_program,11.395000000000001,0.0,0.0
3.2399999999999998,376.41140110134404,0.0,31.066616561425796,145.7872475744501,0.0,2.926915239652801,145.81662589757767,17.394061721068162,0.0,5.8766670573171815,0.0,0.0,-0.7407948851031709,0.0,4.726515951338378,0.0,12984.476919118342,0.42865214023862225,145.81662589757767,2.1435535718909025,1.2213506417576534,100952.34830618082,287.94806699235073,0.0,0.0,0.0,400.9863157894737,0.21520644599621777,0.86,nominal,10935.903629379165,nan,pitch_program,11.38,0.0,0.0
3.27,380.80045583957826,0.0,31.156535071844182,146.30182460780654,0.0,2.997283680612912,146.33252404382102,17.387605527688276,0.0,5.899228511144395,0.0,0.0,-0.7520484706245999,0.0,4.725574763543574,0.0,13076.404456978802,0.4301691449210759,146.33252404382102,2.144791658122428,1.2213400911717531,100951.27132461806,287.947482522033,0.0,0.0,0.0,400.9523684210526,0.2151882266899194,0.86,nominal,11012.145031180029,nan,pitch_program,11.365,0.0,0.0
3.3,385.20490856398084,0.0,31.24863872815412,146.81509081341855,0.0,3.0701218769979812,146.84718771189307,17.381149880887577,0.0,5.9221074513235985,0.0,0.0,-0.7626313494402421,0.0,4.724142096580331,0.0,13168.431295823531,0.4316825343693245,146.84718771189307,2.1460235114844073,1.2213292842641088,100950.1681805385,287.94688384826696,0.0,0.0,0.0,400.9184210526316,0.21517000738362105,0.86,nominal,11088.492732429431,nan,pitch_program,11.35,0.0,0.0
3.33,389.62471999785475,0.0,31.34300083834481,147.32704779579666,0.0,3.145403673022978,147.3606208472644,17.37469478066607,0.0,5.945284748635057,0.0,0.0,-0.772576587583746,0.0,4.722216863371733,0.0,13260.555663774581,0.433192320640938,147.3606208472644,2.14724695043221,1.2213182124384825,100949.03799662406,287.94627049455073,0.0,0.0,0.0,400.8844736842105,0.2151517880773227,0.86,nominal,11164.946127416963,nan,pitch_program,11.335,0.0,0.0
3.36,394.0598509234346,0.0,31.439693894016532,147.83769751932826,0.0,3.2231018557240305,147.87282777234216,17.368240227023747,0.0,5.968742167978394,0.0,0.0,-0.7819139890329724,0.0,4.719798994864527,0.0,13352.775870864916,0.43469851690205763,147.8728277723422,2.1484598485768025,1.2213068671947924,100947.87990538355,287.94564198968885,0.0,0.0,0.0,400.85052631578947,0.21513356877102435,0.86,nominal,11241.50467082014,nan,pitch_program,11.32,0.0,0.0
3.3899999999999997,398.51026219214543,0.0,31.53878954094154,148.34704229036018,0.0,3.303188230833559,148.38381316298023,17.361786219960617,0.0,5.992462251087168,0.0,0.0,-0.7906694482519409,0.0,4.7168892931524065,0.0,13445.090305965541,0.4362011373581097,148.38381316298023,2.1496601279113956,1.2212952401325778,100946.69304950674,287.94499786798383,0.0,0.0,0.0,400.81657894736844,0.215115349464726,0.86,nominal,11318.167874844788,nan,pitch_program,11.305,0.0,0.0
3.42,402.97591473439957,0.0,31.640358551597846,148.85508474180517,0.0,3.3856336885435243,148.89358202744333,17.355332759476674,0.0,6.016428242774599,0.0,0.0,-0.7988664012286861,0.0,4.713489332662413,0.0,13537.49743406219,0.43770019719174,148.89358202744336,2.150845759502991,1.2212833229542355,100945.47658219493,287.9443376694146,0.0,0.0,0.0,400.78263157894736,0.21509713015842763,0.86,nominal,11394.935306671527,nan,pitch_program,11.29,0.0,0.0
3.4499999999999997,407.4567695689697,0.0,31.744470799547827,149.36182781900578,0.0,3.4704082649993353,149.40213968668624,17.348879845571922,0.0,6.04062401685216,0.0,0.0,-0.806525814571244,0.0,4.709601363181225,0.0,13629.995793685033,0.43919571250462003,149.40213968668624,2.1520147612937723,1.2212711074680302,100944.22966746874,287.9436609398029,0.0,0.0,0.0,400.74868421052633,0.21507891085212927,0.86,nominal,11471.806586046438,nan,pitch_program,11.275,0.0,0.0
3.48,411.9527878119815,0.0,31.851195235490344,149.86727476705974,0.0,3.557481198083904,149.9094917561263,17.342427478246357,0.0,6.065034012609605,0.0,0.0,-0.8136665375552671,0.0,4.705228226104788,0.0,13722.58399453104,0.4406877002636512,149.9094917561263,2.1531651965095446,1.2212585855909257,100942.95148045734,287.9429672309693,0.0,0.0,0.0,400.71473684210525,0.2150606915458309,0.86,nominal,11548.781383046171,nan,pitch_program,11.26,0.0,0.0
3.51,416.46393068556296,0.0,31.960599864841527,150.37142911938093,0.0,3.6468209783727104,150.41564412870525,17.335975657499983,0.0,6.0896431852487884,0.0,0.0,-0.8203057672502642,0.0,4.700373286898503,0.0,13815.260715248092,0.4421761782509646,150.41564412870525,2.154295173503588,1.2212457493512152,100941.64120766745,287.9422561008785,0.0,0.0,0.0,400.6807894736842,0.21504247223953252,0.86,nominal,11625.859415991199,nan,pitch_program,11.245000000000001,0.0,0.0
3.54,420.9901595261775,0.0,32.07275172674104,150.87429468715098,0.0,3.7383953966503474,150.92060295892995,17.329524383332796,0.0,6.114436959009967,0.0,0.0,-0.8264591382693985,0.0,4.695040371918269,0.0,13908.024701330514,0.44366116501680397,150.92060295892995,2.155402844627004,1.2212325908910056,100940.298047237,287.94152711377615,0.0,0.0,0.0,400.64684210526315,0.21502425293323418,0.86,nominal,11703.04044946453,nan,pitch_program,11.23,0.0,0.0
3.57,425.5314357926678,0.0,32.187716874371596,151.375875549679,0.0,3.83217158768532,151.4243746479059,17.3230736557448,0.0,6.139401189792969,0.0,0.0,-0.832141039264581,0.0,4.689233716466569,0.0,14000.874763132944,0.4451426798353327,151.4243746479059,2.1564864061027795,1.2212191024685322,100938.92120917203,287.94077984031657,0.0,0.0,0.0,400.61289473684207,0.21500603362693582,0.86,nominal,11780.324292440739,nan,pitch_program,11.215,0.0,0.0
3.5999999999999996,430.08772107403075,0.0,32.30556035650886,151.8761760454309,0.0,3.9281160712421874,151.92696582915053,17.31662347473599,0.0,6.164522132328186,0.0,0.0,-0.8373647645879806,0.0,4.682957918723078,0.0,14093.80977396811,0.4466207426627384,151.92696582915053,2.15754409778489,1.2212052764603336,100937.50991556894,287.9400138576827,0.0,0.0,0.0,400.57894736842104,0.21498781432063746,0.86,nominal,11857.710796496092,nan,pitch_program,11.2,0.0,0.0
3.63,434.6589770969403,0.0,32.42634620022458,152.37520076365263,0.0,4.026194790523877,152.42838335511757,17.310173840306373,0.0,6.189786411974054,0.0,0.0,-0.84214266850725,0.0,4.676217899519277,0.0,14186.828668279592,0.4480953740974324,152.4283833551176,2.1585742030585577,1.2211911053632956,100936.06340082342,287.93922874969854,0.0,0.0,0.0,400.545,0.21496959501433913,0.86,nominal,11935.199854091776,nan,pitch_program,11.185,0.0,0.0
3.6599999999999997,439.2451657330351,0.0,32.55013739467569,152.87295453649273,0.0,4.126373148370331,152.928634284349,17.303724752455942,0.0,6.215181001109691,0.0,0.0,-0.8464863183784609,0.0,4.669018867771554,0.0,14279.930439877431,0.44956659534209864,152.92863428434902,2.1595750489987298,1.2211765817965619,100934.58091182582,287.9384241069346,0.0,0.0,0.0,400.51105263157893,0.21495137570804074,0.86,nominal,12012.791396919578,nan,pitch_program,11.17,0.0,0.0
3.69,443.8462490059807,0.0,32.676995875923325,153.3694424315214,0.0,4.228616041587907,153.42772586916269,17.297276211184702,0.0,6.240693198435645,0.0,0.0,-0.850406591582397,0.0,4.661366289717813,0.0,14373.114140222606,0.45103442816732287,153.42772586916266,2.160545006483325,1.2211616985033258,100933.0617081445,287.9375995268065,0.0,0.0,0.0,400.4771052631579,0.2149331564017424,0.86,nominal,12090.48539429809,nan,pitch_program,11.155,0.0,0.0
3.7199999999999998,448.46218909831856,0.0,32.80698251273013,153.8646697445946,0.0,4.3328878935601605,153.92566554383103,17.29082821649265,0.0,6.266310611574517,0.0,0.0,-0.8539137855209097,0.0,4.653265862269786,0.0,14466.378876754688,0.4524988948766686,153.92566554383103,2.1614824904845613,1.2211464483525083,100931.50506219726,287.93675461366723,0.0,0.0,0.0,400.4431578947368,0.21491493709544401,0.86,nominal,12168.281851614129,nan,pitch_program,11.14,0.0,0.0
3.75,453.09294835810823,0.0,32.94015709329255,154.35864199298817,0.0,4.439152685413955,154.4224609131842,17.284380768379787,0.0,6.292021141964411,0.0,0.0,-0.8570176940439974,0.0,4.644723489350741,0.0,14559.723811252525,0.45396001827300536,154.42246091318424,2.1623859603588995,1.2211308243403232,100929.91025941158,287.93588897889356,0.0,0.0,0.0,400.4092105263158,0.21489671778914568,0.86,nominal,12246.18080880089,nan,pitch_program,11.125,0.0,0.0
3.78,457.738489305371,0.0,33.07657831286898,154.85136490875843,0.0,4.547373985881085,154.9181197416007,17.277933866846112,0.0,6.317812971939582,0.0,0.0,-0.8597276803567924,0.0,4.63574526104284,0.0,14653.148158223345,0.4554178216259807,154.91811974160066,2.163253920198243,1.2211148195917414,100928.27659837439,287.93500224096636,0.0,0.0,0.0,400.3752631578947,0.21487849848284732,0.86,nominal,12324.182338848363,nan,pitch_program,11.11,0.0,0.0
3.81,462.3987746383395,0.0,33.21630376226958,155.3428444322826,0.0,4.65751498001992,155.41264994234368,17.27148751189163,0.0,6.343674553594358,0.0,0.0,-0.86205273646168,0.0,4.626337435063086,0.0,14746.65118331422,0.456872328640513,155.41264994234368,2.1640849192007034,1.2210984273618457,100926.60339097054,287.9340940255452,0.0,0.0,0.0,400.34131578947364,0.21486027917654893,0.86,nominal,12402.28654634099,nan,pitch_program,11.095,0.0,0.0
3.84,467.0737672395178,0.0,33.35938991717724,155.83308670594252,0.0,4.769538496921909,155.90605956721316,17.26504170351633,0.0,6.369594599143102,0.0,0.0,-0.8640015330267985,0.0,4.616506420220316,0.0,14840.232201742065,0.45832356342621466,155.90605956721313,2.164877552046062,1.2210816410371026,100924.88996251306,287.9331639655383,0.0,0.0,0.0,400.3073684210526,0.2148420598702506,0.86,nominal,12480.493566018997,nan,pitch_program,11.080000000000002,0.0,0.0
3.8699999999999997,471.76343018155546,0.0,33.50589212827245,156.3220980679222,0.0,4.883407036506954,156.39835679648715,17.258596441720226,0.0,6.395562072589844,0.0,0.0,-0.8655824630410434,0.0,4.606258761615917,0.0,14933.890576738726,0.45977155046767193,156.39835679648715,2.165630459277297,1.2210644541365219,100923.13565186172,287.9322117011662,0.0,0.0,0.0,400.2734210526316,0.21482384056395223,0.86,nominal,12558.803561360372,nan,pitch_program,11.065000000000001,0.0,0.0
3.9,476.4677267329382,0.0,33.655864612137535,156.80988504609212,0.0,4.999082795502901,156.88954992912983,17.252151726503307,0.0,6.421566182457078,0.0,0.0,-0.8668036771203211,0.0,4.595601127291499,0.0,15027.625718008416,0.4612163145955105,156.8895499291298,2.1663423276638305,1.2210468603127356,100921.3398115336,287.93123688002106,0.0,0.0,0.0,400.2394736842105,0.21480562125765387,0.86,nominal,12637.216723181078,nan,pitch_program,11.05,0.0,0.0
3.9299999999999997,481.186620363497,0.0,33.809360442917956,157.29645435196025,0.0,5.116527692680819,157.37964737324927,17.24570755786558,0.0,6.447596375446768,0.0,0.0,-0.8676731145803136,0.0,4.584540296160216,0.0,15121.43708019581,0.46265788095820143,157.37964737324927,2.1670118905506683,1.2210288533529876,100919.50180780416,287.93023915712104,0.0,0.0,0.0,400.2055263157895,0.21478740195135554,0.86,nominal,12715.733268251683,nan,pitch_program,11.035,0.0,0.0
3.96,485.9200747497372,0.0,33.96643154472036,157.78181287467208,0.0,5.235703393413261,157.86865763678944,17.23926393580704,0.0,6.473642330857152,0.0,0.0,-0.8681985286305275,0.0,4.573083147011693,0.0,15215.324161362787,0.46409627499455736,157.86865763678944,2.1676379281767373,1.2210104271800288,100917.6210207991,287.9292181949593,0.0,0.0,0.0,400.1715789473684,0.21476918264505715,0.86,nominal,12794.35343792895,nan,pitch_program,11.02,0.0,0.0
