time_s,x_m,y_m,altitude_m,vx_mps,vy_mps,vz_mps,speed_mps,mass_kg,roll_deg,pitch_deg,yaw_deg,p_dps,q_dps,r_dps,alpha_deg,beta_deg,qbar_pa,mach,airspeed_mps,load_factor_g,density_kgpm3,pressure_pa,temperature_k,wind_x_mps,wind_y_mps,wind_z_mps,thrust_n,mass_flow_kgps,propulsion_throttle_actual,propulsion_health,energy_j_per_kg,target_distance_m,guidance_mode,pitch_command_deg,heading_command_deg,roll_command_deg
0.0,0.0,0.0,20.0,85.0,0.0,8.0,85.37564055396598,18.0,0.0,6.000000000000002,0.0,0.0,0.0,0.0,0.623294571949261,0.0,4455.946741876431,0.2509445034436674,85.37564055396597,1.7460191153368827,1.2226496753673843,101084.96761777384,288.02,0.0,0.0,0.0,326.8,0.17539118863220368,0.86,nominal,3840.633,nan,pitch_program,13.0,0.0,0.0
0.03,2.5653075616539396,0.0,20.23295089060798,85.51025205513132,0.0,7.765029686932638,85.86209229090004,17.994738264341034,0.0,6.265582975204377,0.0,0.0,-8.852781691043555,0.0,1.0768889448804941,0.0,4506.768587835821,0.25237499376300476,85.86209229090004,1.774089403005167,1.222622319986844,101082.17454514331,288.01848581921104,0.0,0.0,0.0,332.605,0.1785066900092231,0.86,nominal,3884.5669141368985,nan,pitch_program,12.985,0.0,0.0
0.06,5.146108487635077,0.0,20.45934109706695,86.02669753270457,0.0,7.546340215298981,86.35704915655975,17.98938306364076,0.0,6.641308868012124,0.0,0.0,-12.524241308436645,0.0,1.6281034559280652,0.0,4558.778263294931,0.2538304720578223,86.35704915655977,1.8027331753915474,1.2225957354748862,101079.46019475175,288.01701428286907,0.0,0.0,0.0,338.40999999999997,0.18162219138624247,0.86,nominal,3929.4075668837904,nan,pitch_program,12.97,0.0,0.0
0.09,7.742556498860226,0.0,20.67979074078805,86.54826704083828,0.0,7.348321457369993,86.85965896786091,17.983934397899173,0.0,6.946402982422518,0.0,0.0,-10.169827843745363,0.0,2.093383042827227,0.0,4611.900458915065,0.2553084351430113,86.8596589678609,1.8324705748552441,1.222569848975327,101076.817126636,288.01558136018485,0.0,0.0,0.0,344.215,0.18473769276326188,0.86,nominal,3975.099647874699,nan,pitch_program,12.955,0.0,0.0
0.12,10.354825627841963,0.0,20.894771499631656,87.07563763272458,0.0,7.166025294786852,87.37000965818355,17.978392267116273,0.0,7.1246251580176185,0.0,0.0,-5.94074397652938,0.0,2.419981663794166,0.0,4666.158483523259,0.25680914272098526,87.37000965818353,1.8626362816144963,1.2225446050683844,101074.23968129342,288.0141839852524,0.0,0.0,0.0,350.02,0.1878531941402813,0.86,nominal,4021.667004762406,nan,pitch_program,12.94,0.0,0.0
0.15,12.98312643446072,0.0,21.10456580349498,87.61002688729191,0.0,6.993143462110928,87.88868452010006,17.972756671292064,0.0,7.219372527884283,0.0,0.0,-3.1582463819261175,0.0,2.655626861537001,0.0,4721.629385260782,0.25833430999508267,87.88868452010006,1.8931428390875156,1.2225199705603382,101071.72446865878,288.01282032227726,0.0,0.0,0.0,355.825,0.1909686955173007,0.86,nominal,4069.175523573682,nan,pitch_program,12.925,0.0,0.0
0.18,15.62769081196946,0.0,21.309365882970546,88.15214591695799,0.0,6.826669315852168,88.41608588776508,17.967027610426545,0.0,7.289096473856473,0.0,0.0,-2.324131819218925,0.0,2.8608410103677087,0.0,4778.3724076099525,0.25988512003259406,88.41608588776508,1.924102176278503,1.2224959228513945,101069.2691803987,288.0114891217607,0.0,0.0,0.0,361.63,0.19408419689432013,0.86,nominal,4117.675614792559,nan,pitch_program,12.91,0.0,0.0
0.21,18.28875338347562,0.0,21.509365109477947,88.702085716872,0.0,6.666640883580016,88.95225748228052,17.961205084519715,0.0,7.3583908530681486,0.0,0.0,-2.309812921933199,0.0,3.0602551081538674,0.0,4836.409100534509,0.26146170183112255,88.95225748228052,1.9554552722251854,1.2224724392098258,101066.87149477287,288.01018912678836,0.0,0.0,0.0,367.435,0.19719969827133954,0.86,nominal,4167.186870947827,nan,pitch_program,12.895,0.0,0.0
0.24,20.966545387897153,0.0,21.704780215068432,89.25973348071774,0.0,6.513836853016193,89.49709543664797,17.955289093571576,0.0,7.421470478718536,0.0,0.0,-2.102654400729176,0.0,3.2476405587292363,0.0,4895.745249426913,0.2630637506502275,89.49709543664798,1.9870191278200713,1.222449494162944,101064.52881025113,288.00891892860204,0.0,0.0,0.0,373.24,0.20031519964835895,0.86,nominal,4217.7162286943385,nan,pitch_program,12.88,0.0,0.0
0.27,23.66129852424268,0.0,21.895828144440966,89.82510454485103,0.0,6.368264312417766,90.05056466700378,17.949279637582126,0.0,7.466420915886547,0.0,0.0,-1.4983479824521349,0.0,3.41114944135543,0.0,4956.394210273478,0.26469116393353154,90.05056466700378,2.0186326536213155,1.22242706221511,101062.23852302358,288.0076771170611,0.0,0.0,0.0,379.045,0.20343070102537836,0.86,nominal,4269.276821495798,nan,pitch_program,12.865,0.0,0.0
0.3,26.373249921963826,0.0,22.082702534109604,90.39837992403814,0.0,6.229146322287903,90.61274389839,17.943176716551363,0.0,7.490204425537437,0.0,0.0,-0.7927836664132903,0.0,3.5483140274750715,0.0,5018.382132688214,0.266344173588249,90.61274389839,2.050251729764188,1.2224051206093114,101059.99830895136,288.00646243352827,0.0,0.0,0.0,384.84999999999997,0.20654620240239774,0.86,nominal,4321.892013203733,nan,pitch_program,12.850000000000001,0.0,0.0
0.32999999999999996,29.102643287603925,0.0,22.265570185727235,90.97977885466993,0.0,6.095588387254314,91.18375051636929,17.93698033047929,0.0,7.497966408189535,0.0,0.0,-0.2587327554656837,0.0,3.6649135173633343,0.0,5081.73997822997,0.26802312508724024,91.18375051636929,2.0819141565276866,1.2223836497409626,101057.80616580685,288.00527379379275,0.0,0.0,0.0,390.655,0.20966170377941715,0.86,nominal,4375.5888329776,nan,pitch_program,12.835,0.0,0.0
0.36,31.84972699744148,0.0,22.444580843305577,91.5694569945851,0.0,5.967021919278047,91.76366821824591,17.930690479365907,0.0,7.495948810638605,0.0,0.0,0.06725325170463956,0.0,3.7676043027493864,0.0,5146.4955460314,0.26972826483725704,91.7636682182459,2.1136511027526335,1.222362632009692,101055.6602960348,288.0041102245185,0.0,0.0,0.0,396.46,0.21277720515643656,0.86,nominal,4430.391551161159,nan,pitch_program,12.82,0.0,0.0
0.39,34.614751993909245,0.0,22.6198764718499,92.16749988225892,0.0,5.843187618144069,92.35253584004627,17.924307163211214,0.0,7.487253094271877,0.0,0.0,0.2898572127806597,0.0,3.85969962337037,0.0,5212.672099065854,0.27145970736324604,92.35253584004627,2.145450708994319,1.2223420507297686,101053.5589955038,288.00297080293296,0.0,0.0,0.0,402.265,0.21589270653345596,0.86,nominal,4486.320649646183,nan,pitch_program,12.805,0.0,0.0
0.42,37.397970988709325,0.0,22.791594011723976,92.77396649333592,0.0,5.723917995802586,92.95037437326053,17.91783038201521,0.0,7.472334095737439,0.0,0.0,0.49729995395766585,0.0,3.941805291552594,0.0,5280.291278019596,0.27321751472790357,92.95037437326052,2.155389216258753,1.2223218898066133,101051.50062047581,288.00185463892376,0.0,0.0,0.0,404.1773684210526,0.21691906078826353,0.86,nominal,4543.395233479718,nan,pitch_program,12.79,0.0,0.0
0.44999999999999996,40.19944474860826,0.0,22.959838624392784,93.38245866329784,0.0,5.608153755626969,93.55070803873845,17.911322810191564,0.0,7.4512234926832415,0.0,0.0,0.7036867764340459,0.0,4.014410259035693,0.0,5348.632180389922,0.2749826523133298,93.55070803873845,2.1544139837453704,1.2223021368778086,101049.48390829029,288.0007610489414,0.0,0.0,0.0,404.14342105263154,0.21690084148196515,0.86,nominal,4601.026588720543,nan,pitch_program,12.775,0.0,0.0
0.48,43.01913915280134,0.0,23.124695303540094,93.98981347310264,0.0,5.495222638243633,94.15031868534749,17.904815784947104,0.0,7.424671501005863,0.0,0.0,0.8850664050854897,0.0,4.078616924212972,0.0,5417.3299422705595,0.276745660778391,94.15031868534749,2.1534715976598164,1.2222827819496451,101047.50783815203,287.99968948052697,0.0,0.0,0.0,404.1094736842105,0.2168826221756668,0.86,nominal,4658.917047474708,nan,pitch_program,12.76,0.0,0.0
0.51,45.857021957403596,0.0,23.286242350293822,94.59609348674186,0.0,5.384901558457562,94.74923782145524,17.898309306281835,0.0,7.393892885878138,0.0,0.0,1.0259538622625504,0.0,4.135835353135741,0.0,5486.386631824921,0.2785066327709817,94.74923782145524,2.1525638673666903,1.2222638158149173,101045.57146958947,287.9986394247231,0.0,0.0,0.0,404.0755263157895,0.21686440286936848,0.86,nominal,4717.0690624178515,nan,pitch_program,12.745,0.0,0.0
0.54,48.713062390197706,0.0,23.44455305666712,95.2013477598038,0.0,5.27702354577665,95.34748865484492,17.891803374195753,0.0,7.359939956099115,0.0,0.0,1.1317643590869828,0.0,4.187273851117574,0.0,5555.803445105646,0.28026563653167696,95.34748865484492,2.1516903349572716,1.2222452298552224,101043.67392226783,287.99761040513164,0.0,0.0,0.0,404.0415789473684,0.2168461835630701,0.86,nominal,4775.484322626055,nan,pitch_program,12.73,0.0,0.0
0.57,51.587230819273586,0.0,23.59969697092817,95.80561430252935,0.0,5.171463808701682,95.94508726250515,17.885297988688862,0.0,7.323467284727976,0.0,0.0,1.2157557534251997,0.0,4.233713361566031,0.0,5625.580812185803,0.2820227193354992,95.94508726250515,2.1508458044023264,1.222227015892348,101041.81436081491,287.9966019696889,0.0,0.0,0.0,404.0076315789474,0.21682796425677175,0.86,nominal,4834.163853204816,nan,pitch_program,12.715,0.0,0.0
0.6,54.47949857871657,0.0,23.751740449520476,96.4089253147662,0.0,5.068115953076802,96.54204617503193,17.878793149761158,0.0,7.28489297446375,0.0,0.0,1.2858103907085225,0.0,4.27568395641462,0.0,5695.718793757165,0.2837779180291677,96.54204617503191,2.1500243507890264,1.2222091661234344,101039.99198820005,287.9956136870781,0.0,0.0,0.0,403.9736842105263,0.21680974495047337,0.86,nominal,4893.108345310288,nan,pitch_program,12.7,0.0,0.0
0.63,57.38983787002692,0.0,23.900746916517196,97.01130971034509,0.0,4.9668822332240365,97.13837620032163,17.872288857412645,0.0,7.244604238392249,0.0,0.0,1.3429579243855354,0.0,4.3136767084159064,0.0,5766.217284559927,0.285531264392114,97.13837620032163,2.149222699639118,1.2221916730904714,101038.20604261864,287.9946451450426,0.0,0.0,0.0,403.9397368421053,0.21679152564417503,0.86,nominal,4952.318325166469,nan,pitch_program,12.685,0.0,0.0
0.6599999999999999,60.318221653998606,0.0,24.046777210422086,97.6127927990561,0.0,4.867676463496278,97.73408613265248,17.86578511164332,0.0,7.203007411569141,0.0,0.0,1.3865609550056537,0.0,4.348192256123704,0.0,5837.075972159091,0.28728278428211224,97.73408613265248,2.1484399892487307,1.2221745296395556,101036.45579333146,287.99369594813226,0.0,0.0,0.0,403.9057894736842,0.21677330633787664,0.86,nominal,5011.794123822952,nan,pitch_program,12.67,0.0,0.0
0.69,63.264623521418166,0.0,24.189890043755277,98.21339558065203,0.0,4.770427777773081,98.32918210106595,17.859281912453184,0.0,7.1604732610162465,0.0,0.0,1.4178050835425733,0.0,4.379684214610624,0.0,5908.2942510516705,0.2890324957210591,98.32918210106597,2.147675842452721,1.2221577288668986,101034.74053515139,287.9927657147156,0.0,0.0,0.0,403.8718421052631,0.21675508703157828,0.86,nominal,5071.535811529888,nan,pitch_program,12.655,0.0,0.0
0.72,66.22901757278866,0.0,24.330142425809356,98.81313504568304,0.0,4.675079401802671,98.92366766840762,17.852779259842237,0.0,7.117295844620852,0.0,0.0,1.439247281291574,0.0,4.40851911711038,0.0,5979.871224720379,0.2907804091871927,98.92366766840762,2.146929346532493,1.222141264069176,101033.05958337357,287.9918540742322,0.0,0.0,0.0,403.8378947368421,0.21673686772527995,0.86,nominal,5131.54320370484,nan,pitch_program,12.64,0.0,0.0
0.75,69.21137832586886,0.0,24.46758996761267,99.41202510267323,0.0,4.581584726777135,99.51754445133365,17.84627715381048,0.0,7.073703726771208,0.0,0.0,1.453070665081409,0.0,4.434990240500085,0.0,6051.805771561012,0.2925265294383322,99.51754445133366,2.1461993794117737,1.2221251287076995,101031.4122701166,287.9909606652105,0.0,0.0,0.0,403.80394736842106,0.21671864841898159,0.86,nominal,5191.815917967473,nan,pitch_program,12.625,0.0,0.0
0.78,72.21168064507359,0.0,24.60228710268361,100.0100773068242,0.0,4.489904502364646,100.11081262959215,17.83977559435791,0.0,7.029889912869427,0.0,0.0,1.4604605345607218,0.0,4.459349407034723,0.0,6124.096600020459,0.2942708570094214,100.11081262959215,2.1454852045843875,1.2221093163824785,101029.79794167404,287.9900851338325,0.0,0.0,0.0,403.77,0.21670042911268322,0.86,nominal,5252.353421494186,nan,pitch_program,12.61,0.0,0.0
0.8099999999999999,75.22989967981984,0.0,24.734287282360803,100.60730115820857,0.0,4.4000059892397365,100.70347113701604,17.83327458148453,0.0,6.986026513368275,0.0,0.0,1.4621133881150998,0.0,4.48182232157876,0.0,6196.742266799903,0.2960133887744374,100.70347113701602,2.1447865546105387,1.2220938208092724,101028.21595617077,287.9892271326646,0.0,0.0,0.0,403.73605263157896,0.21668220980638486,0.86,nominal,5313.155047899475,nan,pitch_program,12.595,0.0,0.0
0.84,78.26601080695858,0.0,24.86364316369239,101.20370423795792,0.0,4.311862711052951,101.295517726714,17.82677411519034,0.0,6.942263137419798,0.0,0.0,1.4587792692051804,0.0,4.502607270302401,0.0,6269.741180324952,0.2977541181385132,101.29551772671401,2.144103342989798,1.2220786357975169,101026.66568130888,287.98838631943596,0.0,0.0,0.0,403.7021052631579,0.2166639905000865,0.86,nominal,5374.2200019927395,nan,pitch_program,12.58,0.0,0.0
0.87,81.31998957956871,0.0,24.990406776310675,101.79929242033784,0.0,4.225453753942757,101.88694909902918,17.82027419547534,0.0,6.898723982802532,0.0,0.0,1.4513052237469037,0.0,4.521872759799798,0.0,6343.091612332483,0.299493035414519,101.88694909902917,2.1434354562268867,1.222063755230716,101025.14649236551,287.98756235595397,0.0,0.0,0.0,403.66815789473685,0.21664577119378817,0.86,nominal,5435.547370966988,nan,pitch_program,12.565,0.0,0.0
0.8999999999999999,84.39181168417181,0.0,25.114629658129633,102.39407015343653,0.0,4.140762727298672,102.47776109259348,17.813774822339525,0.0,6.855510946316375,0.0,0.0,1.4404346178190772,0.0,4.539761347118622,0.0,6416.791717938142,0.30123012838503016,102.4777610925935,2.142782769704812,1.222049173050499,101023.65777056437,287.9867549072221,0.0,0.0,0.0,403.6342105263158,0.2166275518874898,0.86,nominal,5497.136142212231,nan,pitch_program,12.55,0.0,0.0
0.9299999999999999,87.48145290524516,0.0,25.23636296501681,102.98804070244522,0.0,4.057776896239186,103.06794885447253,17.8072759957829,0.0,6.812709335327105,0.0,0.0,1.4267204326577732,0.0,4.55639594858111,0.0,6490.839553918038,0.3029653828027642,103.06794885447253,2.1421452305641075,1.2220348832437338,101022.19890176012,287.9859636407274,0.0,0.0,0.0,403.6002631578947,0.21660933258119142,0.86,nominal,5558.9852194049645,nan,pitch_program,12.535000000000002,0.0,0.0
0.96,90.58888909476808,0.0,25.355657564188796,103.58120631743041,0.0,3.9764866390661937,103.65750695518756,17.800777715805463,0.0,6.770391524922334,0.0,0.0,1.410593744283244,0.0,4.57188389154446,0.0,6565.233090757788,0.3046987827289489,103.65750695518759,2.141522866687939,1.2220208798315453,101020.76927531646,287.98518822583276,0.0,0.0,0.0,403.56631578947366,0.21659111327489305,0.86,nominal,5621.093433334231,nan,pitch_program,12.520000000000001,0.0,0.0
0.99,93.7140961456073,0.0,25.472564115651245,104.17356836130743,0.0,3.8968850487482602,104.24642947464028,17.794279982407215,0.0,6.728618249937269,0.0,0.0,1.392442561182588,0.0,4.586318506857858,0.0,6639.970221502619,0.3064303107861314,104.24642947464028,2.1409157365465736,1.222007156859751,101019.3682831295,287.9844283332482,0.0,0.0,0.0,403.53236842105264,0.21657289396859472,0.86,nominal,5683.459549990327,nan,pitch_program,12.505,0.0,0.0
1.02,96.85704996859496,0.0,25.58713314136678,104.76512743292233,0.0,3.818967523851223,104.8347100868061,17.787782795588157,0.0,6.687439548538584,0.0,0.0,1.3726234390402534,0.0,4.599780367738625,0.0,6715.048770831236,0.30815994840733824,104.83471008680611,2.140323893508031,1.2219937083907273,101017.99531879691,287.9836836345811,0.0,0.0,0.0,403.49842105263156,0.21655467466229633,0.86,nominal,5746.0822787131265,nan,pitch_program,12.49,0.0,0.0
1.05,100.01772647316851,0.0,25.699415082156882,105.35588348578493,0.0,3.742731359670086,105.42234214387834,17.781286155348287,0.0,6.646896317055387,0.0,0.0,1.3514411058305826,0.0,4.612339129209695,0.0,6790.4665044343865,0.3098876760835869,105.42234214387834,2.1397473863183474,1.2219805284967127,101016.64977693402,287.98295380196595,0.0,0.0,0.0,403.46447368421053,0.216536455355998,0.86,nominal,5808.960280465907,nan,pitch_program,12.475,0.0,0.0
1.08,103.19610155105909,0.0,25.809460344274992,105.94583592968577,0.0,3.6681754039369525,106.00931874903237,17.774790061687607,0.0,6.607021974356934,0.0,0.0,1.3291448102605417,0.0,4.624055431877816,0.0,6866.2211372906295,0.3116134735779206,106.00931874903237,2.1391862682135403,1.2219676112543414,101015.33105261535,287.9822385077622,0.0,0.0,0.0,403.43052631578945,0.21651823604969964,0.86,nominal,5872.092175102157,nan,pitch_program,12.46,0.0,0.0
1.1099999999999999,106.39215106244094,0.0,25.91731933789565,106.53498371272838,0.0,3.5952997873551933,106.59563281500915,17.768294514606115,0.0,6.567843669807633,0.0,0.0,1.3059435358615876,0.0,4.6349823003808455,0.0,6942.310340414929,0.3133373200977357,106.59563281500915,2.138640593684682,1.221954950740108,101014.03854091128,287.98153742430367,0.0,0.0,0.0,403.3965789473684,0.21650001674340127,0.86,nominal,5935.476547301103,nan,pitch_program,12.445,0.0,0.0
1.14,109.60585082416256,0.0,26.023042508789082,107.12332539072041,0.0,3.524105696447854,107.18127711371002,17.761799514103814,0.0,6.529383098954822,0.0,0.0,1.2820190765663142,0.0,4.6451661201269525,0.0,7018.73174668779,0.31505919444066977,107.18127711371001,2.138110408299345,1.2219425410266436,101012.77163650755,287.98085022369287,0.0,0.0,0.0,403.3626315789474,0.21648179743710294,0.86,nominal,5999.111951681766,nan,pitch_program,12.43,0.0,0.0
1.17,112.83717659983755,0.0,26.126680363800897,107.71085918916627,0.0,3.454595167060494,107.76624432092214,17.7553050601807,0.0,6.491657227420478,0.0,0.0,1.2575290965776884,0.0,4.654647505588841,0.0,7095.482956261356,0.3167790751261581,107.76624432092214,2.1375957431482333,1.2219303761797118,101011.52973339845,287.9801765776353,0.0,0.0,0.0,403.3286842105263,0.21646357813080455,0.86,nominal,6062.99691750801,nan,pitch_program,12.415,0.0,0.0
1.2,116.08610409157905,0.0,26.22828349082241,108.29758305805004,0.0,3.3867709007170803,108.35052705616707,17.748811152836776,0.0,6.454679012470951,0.0,0.0,1.232607207769071,0.0,4.663462149149502,0.0,7172.561541516244,0.3184969405126385,108.35052705616705,2.137096614885526,1.2219184502558598,101010.31222464654,287.9795161573096,0.0,0.0,0.0,403.2947368421053,0.21644535882450622,0.86,nominal,6127.129952969869,nan,pitch_program,12.4,0.0,0.0
1.23,119.35260893313587,0.0,26.327902574103977,108.88349471856063,0.0,3.320636109385568,108.93411791673799,17.74231779207204,0.0,6.418458037239842,0.0,0.0,1.2073658812468413,0.0,4.671641563229965,0.0,7249.965051419416,0.3202127688976599,108.93411791673797,2.136613026004923,1.2219067573006137,101009.11850219824,287.9788686332683,0.0,0.0,0.0,403.26078947368416,0.2164271395182078,0.86,nominal,6191.509548927225,nan,pitch_program,12.385,0.0,0.0
1.26,122.63666668421642,0.0,26.42558840565629,109.46859170268525,0.0,3.2561943850770847,109.51700950648085,17.735824977886494,0.0,6.383001012759295,0.0,0.0,1.1819008537371742,0.0,4.679213673505993,0.0,7327.691015327361,0.3219265386025289,109.51700950648085,2.1361449631764327,1.2218952913471237,101007.94795674527,287.9782336753632,0.0,0.0,0.0,403.22684210526313,0.21640892021190947,0.86,nominal,6256.134182159637,nan,pitch_program,12.37,0.0,0.0
1.29,125.93825282583845,0.0,26.521391893270682,110.05287138740096,0.0,3.1934495871463926,110.0991944606202,17.729332710280136,0.0,6.348312189403059,0.0,0.0,1.1562941471945356,0.0,4.686203309210752,0.0,7405.7369463829145,0.32363822804531794,110.0991944606202,2.1356923954459517,1.2218840464152254,101006.79997762854,287.97761095269374,0.0,0.0,0.0,403.1928947368421,0.21639070090561113,0.86,nominal,6321.002318248874,nan,pitch_program,12.355,0.0,0.0
1.3199999999999998,129.25734275657246,0.0,26.615364065585247,110.63633102446654,0.0,3.1324057438188406,110.68066546736719,17.72284098925297,0.0,6.314393721835946,0.0,0.0,1.1306156185891896,0.0,4.692632636914682,0.0,7484.100344584905,0.32534781580440636,110.68066546736718,2.1352552736973847,1.2218730165108265,101005.67395277527,287.97700013357365,0.0,0.0,0.0,403.158947368421,0.21637248159931274,0.86,nominal,6386.112414163395,nan,pitch_program,12.34,0.0,0.0
1.3499999999999999,132.59391178955667,0.0,26.707556074608668,111.21896776614055,0.0,3.0730669674474216,111.26141528648746,17.71634981480499,0.0,6.281245991633015,0.0,0.0,1.1049243709163634,0.0,4.6985215425977955,0.0,7562.778699538492,0.3270552806730745,111.26141528648748,2.1348335307994573,1.2218621956256126,101004.56926866878,287.97640088551503,0.0,0.0,0.0,403.125,0.2163542622930144,0.86,nominal,6451.462920555175,nan,pitch_program,12.325,0.0,0.0
1.38,135.94793515017267,0.0,26.798019196082524,111.80077868719971,0.0,3.0154373824619127,111.84143676505482,17.7098591869362,0.0,6.248867879533006,0.0,0.0,1.0792704320551905,0.0,4.703887954878129,0.0,7641.76949290119,0.3287606017058192,111.84143676505482,2.1344270815831186,1.2218515777369896,101003.4853103423,287.9758128752254,0.0,0.0,0.0,403.0910526315789,0.21633604298671602,0.86,nominal,6517.052283785141,nan,pitch_program,12.31,0.0,0.0
1.41,139.319387974288,0.0,26.886804827997974,112.3817608038441,0.0,2.9595210638482574,112.42072285081515,17.703369105646598,0.0,6.217256992837341,0.0,0.0,1.0536962499165332,0.0,4.708748116341758,0.0,7721.070200568761,0.3304637582576367,112.42072285081515,2.134035822680574,1.221841156808258,101002.42146139656,287.975235768618,0.0,0.0,0.0,403.0571052631579,0.2163178236804177,0.86,nominal,6582.878947716382,nan,pitch_program,12.295,0.0,0.0
1.44,142.70824530698832,0.0,26.973964487526846,112.96191109001052,0.0,2.9053219842957274,112.99926660354869,17.696879570936186,0.0,6.186409860320028,0.0,0.0,1.028237775413947,0.0,4.713116816558723,0.0,7800.678294642053,0.3321647300174154,112.99926660354869,2.133659632585898,1.2218309267889569,101001.37710403473,287.97466923083107,0.0,0.0,0.0,403.02315789473687,0.21629960437411935,0.86,nominal,6648.941355311542,nan,pitch_program,12.28,0.0,0.0
1.47,146.11448210173123,0.0,27.0595498065959,113.54122649143001,0.0,2.852843968968498,113.57706120467058,17.690390582804962,0.0,6.156322101168595,0.0,0.0,1.0029253280951906,0.0,4.717007594055906,0.0,7880.591245198115,0.33386349703614543,113.5770612046706,2.133298371953702,1.2218208816153835,101000.35161911516,287.9741129262571,0.0,0.0,0.0,402.9892105263158,0.21628138506782096,0.86,nominal,6715.237950055597,nan,pitch_program,12.265,0.0,0.0
1.5,149.53807321986204,0.0,27.14361252630884,114.11970393769379,0.0,2.802090657097943,114.1540999652552,17.68390214125293,0.0,6.126988569447486,0.0,0.0,0.9777844120608505,0.0,4.720432909335353,0.0,7960.80652188226,0.3355600397504874,114.1540999652552,2.132951883942528,1.221811015211241,100999.34438621742,287.973566518579,0.0,0.0,0.0,402.9552631578947,0.2162631657615226,0.86,nominal,6781.767177219865,nan,pitch_program,12.25,0.0,0.0
1.53,152.9789934304401,0.0,27.22620449039274,114.69734035260196,0.0,2.7530654694632988,114.73037633268603,17.677414246280083,0.0,6.098403476506435,0.0,0.0,0.9528364511321774,0.0,4.723404291995974,0.0,8041.321595341384,0.33725433900229973,114.73037633268605,2.1326199945414017,1.221801321488396,100998.35478371929,287.9730296708124,0.0,0.0,0.0,402.9213157894737,0.21624494645522424,0.86,nominal,6848.527484985592,nan,pitch_program,12.235,0.0,0.0
1.56,156.43721741033164,0.0,27.307377637818973,115.27413266305118,0.0,2.7057715808744294,115.3058838961247,17.670926897886428,0.0,6.0705604953713355,0.0,0.0,0.9280993894342323,0.0,4.725932466581396,0.0,8122.133938518816,0.338946376054687,115.30588389612471,2.132302512940711,1.2217917943477439,100997.38218888496,287.97250204535413,0.0,0.0,0.0,402.8873684210526,0.21622672714892588,0.86,nominal,6915.517325445212,nan,pitch_program,12.220000000000002,0.0,0.0
1.5899999999999999,159.91271974453156,0.0,27.387183994728517,115.85007780666432,0.0,2.660211896984764,115.88061639095227,17.66444009607196,0.0,6.043452850313361,0.0,0.0,0.9035881854540536,0.0,4.728027460803605,0.0,8203.241027826385,0.34063613260502656,115.88061639095228,2.131999231967369,1.2217824276801479,100996.42597796078,287.97198330403427,0.0,0.0,0.0,402.8534210526316,0.21620850784262752,0.86,nominal,6982.735155495422,nan,pitch_program,12.205000000000002,0.0,0.0
1.6199999999999999,163.40547492668136,0.0,27.465675665775507,116.42517273832722,0.0,2.6163890348996124,116.45456770230729,17.657953840836683,0.0,6.017073393436189,0.0,0.0,0.8793152447718896,0.0,4.729698698349035,0.0,8284.640344206087,0.3423235907953343,116.45456770230729,2.1317099285454066,1.2217732153674468,100995.48552627783,287.97147310817246,0.0,0.0,0.0,402.8194736842105,0.21619028853632916,0.86,nominal,7050.179437633414,nan,pitch_program,12.19,0.0,0.0
1.65,166.9154573597548,0.0,27.542904824987897,116.99941443578193,0.0,2.574305307079682,117.02773186783513,17.651468132180593,0.0,5.991414669883074,0.0,0.0,0.8552907993979555,0.0,4.730955078203252,0.0,8366.329374093319,0.34400873322031045,117.02773186783513,2.1314343641590288,1.221764151283528,100994.56020836129,287.9709711186376,0.0,0.0,0.0,402.78552631578947,0.21617206923003082,0.86,nominal,7117.848640666925,nan,pitch_program,12.175,0.0,0.0
1.68,170.44264135688712,0.0,27.618923706230387,117.57279990441066,0.0,2.533962708083052,117.60010307975304,17.64498297010369,0.0,5.966468973426668,0.0,0.0,0.8315232283488087,0.0,4.731805042556123,0.0,8448.305610292446,0.34569154293336946,117.60010307975304,2.131172285325735,1.2217552292954357,100993.6493980435,287.9704769959095,0.0,0.0,0.0,402.75157894736844,0.21615384992373246,0.86,nominal,7185.741240347976,nan,pitch_program,12.16,0.0,0.0
1.71,173.98700114232685,0.0,27.693784593343334,118.14532618132374,0.0,2.495362903764945,118.1716756863203,17.63849835460598,0.0,5.942228393963252,0.0,0.0,0.8080193274998048,0.0,4.73225663505881,0.0,8530.566552774353,0.34737200345092,118.1716756863203,2.1309234240838615,1.2217464432645233,100992.75246858137,287.9699904001432,0.0,0.0,0.0,402.71763157894736,0.2161356306174341,0.86,nominal,7253.855719938743,nan,pitch_program,12.145,0.0,0.0
1.74,177.54851085249226,0.0,27.767539810021848,118.71699033884676,0.0,2.4585072226171647,118.74244419278851,17.632014285687454,0.0,5.9186848580418925,0.0,0.0,0.784784541754429,0.0,4.732317550772059,0.0,8613.109709403789,0.3490500987551129,118.74244419278851,2.130687498485972,1.2217377870476411,100991.86879277744,287.9695109912348,0.0,0.0,0.0,402.68368421052634,0.21611741131113574,0.86,nominal,7322.190570716698,nan,pitch_program,12.13,0.0,0.0
1.77,181.12714453711698,0.0,27.84024170949082,119.28778948749023,0.0,2.423396648965737,119.31240326189898,17.62553076334812,0.0,5.895830163383241,0.0,0.0,0.7618231653897599,0.0,4.731995178943329,0.0,8695.932596603525,0.35072581329525715,119.31240326189898,2.130464213091694,1.2217292544983365,100990.99774310229,287.96903842888827,0.0,0.0,0.0,402.64973684210526,0.21609919200483738,0.86,nominal,7390.744292425379,nan,pitch_program,12.115,0.0,0.0
1.7999999999999998,184.72287616047123,0.0,27.911942664024153,119.85772077847477,0.0,2.3900318177778077,119.88154771398646,17.619047787587974,0.0,5.873656008279428,0.0,0.0,0.7391385126860185,0.0,4.731296639663838,0.0,8779.032739961944,0.35239913198807504,119.88154771398648,2.1302532594605887,1.2217208394680843,100990.1386918199,287.9685723726838,0.0,0.0,0.0,402.6157894736842,0.216080972698539,0.86,nominal,7459.515393676559,nan,pitch_program,12.1,0.0,0.0
1.8299999999999998,188.33567960264745,0.0,27.982695054350096,120.42678140587415,0.0,2.3584130108647905,120.44987252674039,17.612565358407018,0.0,5.852154016642826,0.0,0.0,0.7167330629651767,0.0,4.73022881530947,0.0,8862.407674789374,0.3540700402169497,120.4498725267404,2.130054316645398,1.2217125358075214,100989.29101111373,287.9681124821467,0.0,0.0,0.0,402.58184210526315,0.21606275339224065,0.86,nominal,7528.502392308748,nan,pitch_program,12.085,0.0,0.0
1.8599999999999999,191.96552866090033,0.0,28.05255125897908,120.99496860842973,0.0,2.3285401542994992,121.01737283466817,17.60608347580525,0.0,5.831315759327682,0.0,0.0,0.6946085848281014,0.0,4.728798377505476,0.0,8946.054946628266,0.3557385238302942,121.01737283466817,2.1298670516834393,1.2217043373676992,100988.45407321422,287.9676584168166,0.0,0.0,0.0,402.54789473684207,0.2160445340859423,0.86,nominal,7597.703815706408,nan,pitch_program,12.07,0.0,0.0
1.89,195.61239705103281,0.0,28.12156364348572,121.56227967108231,0.0,2.300412816888106,121.58404392829898,17.59960213978267,0.0,5.811132772257421,0.0,0.0,0.6727662426320865,0.0,4.7270118102482765,0.0,9029.97211172123,0.3574045691391576,121.58404392829898,2.1296911200846345,1.2216962380013319,100987.62725052632,287.9672098363173,0.0,0.0,0.0,402.51394736842104,0.21602631477964393,0.86,nominal,7667.1182010836565,nan,pitch_program,12.055,0.0,0.0
1.92,199.27625840882067,0.0,28.189784549772465,122.12871192626163,0.0,2.274030209558067,122.14988125316283,17.59312135033928,0.0,5.791596571827088,0.0,0.0,0.6512066873202982,0.0,4.724875429740714,0.0,9114.156737440995,0.35906816291416654,122.14988125316283,2.129526166316089,1.2216882315640611,100986.80991575816,287.9667664004265,0.0,0.0,0.0,402.48,0.2160080954733456,0.86,nominal,7736.744095735917,nan,pitch_program,12.040000000000001,0.0,0.0
1.95,202.9570862914697,0.0,28.25726628533873,122.69426275496771,0.0,2.249391185542155,122.71488040857413,17.58664110747508,0.0,5.772698667982483,0.0,0.0,0.629930133864229,0.0,4.72239540141694,0.0,9198.606402685398,0.36072929238189333,122.71488040857413,2.1293718242831594,1.2216803119157003,100986.00144204826,287.96632776914527,0.0,0.0,0.0,402.44605263157894,0.2159898761670472,0.86,nominal,7806.580057262443,nan,pitch_program,12.025,0.0,0.0
1.98,206.6548541790999,0.0,28.32406111257638,123.25892958767358,0.0,2.2264942412550632,123.27903714624564,17.58016141119007,0.0,5.754430575312842,0.0,0.0,0.6089364274800158,0.0,4.719577754557801,0.0,9283.318698240542,0.36238794522072226,123.27903714624566,2.129227717806368,1.2216724729214972,100985.20120309423,287.96589360276823,0.0,0.0,0.0,402.4121052631579,0.21597165686074887,0.86,nominal,7876.624653762354,nan,pitch_program,12.01,0.0,0.0
2.01,210.36953547625217,0.0,28.390221238109554,123.82270990507487,0.0,2.205337517772395,123.84234736875598,17.573682261484247,0.0,5.7367838224464105,0.0,0.0,0.5882251001976618,0.0,4.7164283948415155,0.0,9368.291227114565,0.36404410955628497,123.842347368756,2.129093461093866,1.2216647084533756,100984.40857327926,287.9654635619523,0.0,0.0,0.0,402.37815789473683,0.2159534375544505,0.86,nominal,7946.876464006517,nan,pitch_program,11.995000000000001,0.0,0.0
2.04,214.10110351341342,0.0,28.455798802194565,124.38560123870809,0.0,2.1859188028336614,124.40480712788988,17.567203658357613,0.0,5.719749959998923,0.0,0.0,0.5677954190983316,0.0,4.712953115127408,0.0,9453.521604844425,0.36569777395652037,124.4048071278899,2.1289686592095096,1.22165701239118,100983.62292779924,287.96503730778574,0.0,0.0,0.0,402.3442105263158,0.21593521824815215,0.86,nominal,8017.334077587282,nan,pitch_program,11.98,0.0,0.0
2.07,217.8495315485571,0.0,28.520845868193607,124.94760117145637,0.0,2.168235533301395,124.96641262286917,17.56072560181017,0.0,5.703320567287032,0.0,0.0,0.5476464274821196,0.0,4.709157604725929,0.0,9539.007459777673,0.36734892742641256,124.96641262286917,2.128852908536327,1.2216493786239049,100982.84364278811,287.9646145018567,0.0,0.0,0.0,402.3102631578947,0.2159169989418538,0.86,nominal,8087.996095047919,nan,pitch_program,11.965,0.0,0.0
2.1,221.61479276869588,0.0,28.585414412134128,125.50870733795885,0.0,2.152284798017304,125.52716019848924,17.554248091841913,0.0,5.687487257988461,0.0,0.0,0.527776979977768,0.0,4.705047457372253,0.0,9624.746433331085,0.3689975594024499,125.52716019848924,2.12874579723535,1.2216418010509196,100982.07009544289,287.96419480632113,0.0,0.0,0.0,402.27631578947364,0.2158987796355554,0.86,nominal,8158.861127993347,nan,pitch_program,11.95,0.0,0.0
2.13,225.396860291444,0.0,28.64955631236425,126.06891742493752,0.0,2.13806334100412,126.0870463431746,17.547771128452847,0.0,5.672241684904028,0.0,0.0,0.5081857724794248,0.0,4.70062817808933,0.0,9710.73618022767,0.37064365974684466,126.08704634317462,2.1286469056997266,1.2216342735831769,100981.30166414684,287.9637778839696,0.0,0.0,0.0,402.2423684210526,0.21588056032925707,0.86,nominal,8229.927799183577,nan,pitch_program,11.935,0.0,0.0
2.16,229.1957071665876,0.0,28.713323339313305,126.62822917145328,0.0,2.125567564968439,126.64606768696507,17.54129471164297,0.0,5.657575543954407,0.0,0.0,0.4888713676566746,0.0,4.695905189099762,0.0,9796.974368713589,0.3722872187415486,126.64606768696505,2.128555807004089,1.2216267901444184,100980.53772859249,287.96336339829446,0.0,0.0,0.0,402.2084210526316,0.2158623410229587,0.86,nominal,8301.194742611146,nan,pitch_program,11.92,0.0,0.0
2.19,233.01130637766065,0.0,28.776767145365273,127.18664036910153,0.0,2.114793535065648,127.20422099944294,17.53481884141228,0.0,5.6434805775244445,0.0,0.0,0.4698322167015156,0.0,4.690883834922273,0.0,9883.458680756188,0.37392822708209483,127.20422099944295,2.1284720673490463,1.2216193446723527,100979.7776699019,287.9629510135551,0.0,0.0,0.0,402.1744736842105,0.21584412171666034,0.86,nominal,8372.660603563656,nan,pitch_program,11.905,0.0,0.0
2.2199999999999998,236.84363084352532,0.0,28.83993925485206,127.74414886215577,0.0,2.1057369828929127,127.76150318761022,17.52834351776078,0.0,5.629948577253423,0.0,0.0,0.4510666777974626,0.0,4.685569386771079,0.0,9970.186812224272,0.37556667587128995,127.76150318761022,2.1283952465009137,1.2216119311198341,100979.02087074696,287.9625403948434,0.0,0.0,0.0,402.1405263157895,0.215825902410362,0.86,nominal,8444.324038672463,nan,pitch_program,11.890000000000002,0.0,0.0
2.25,240.69265341995532,0.0,28.902891054172482,128.30075254766678,0.0,2.098393310680734,128.31791129372365,17.521868740688472,0.0,5.616971386352495,0.0,0.0,0.4325730318801295,0.0,4.67996704635648,0.0,10057.156473051773,0.3772025566127843,128.31791129372365,2.128324898226429,1.2216045434560185,100978.26671546712,287.96213120814787,0.0,0.0,0.0,402.1065789473684,0.21580768310406362,0.86,nominal,8516.183715948368,nan,pitch_program,11.875,0.0,0.0
2.28,244.55834690122103,0.0,28.965673782042195,128.85644937552354,0.0,2.092757595657088,128.8734424930949,17.51539451019535,0.0,5.604540901521085,0.0,0.0,0.4143494960055665,0.0,4.674081949173491,0.0,10144.365387385522,0.3788358612045368,128.87344249309493,2.1282605707225293,1.2215971756675035,100977.51459018598,287.9617231204167,0.0,0.0,0.0,402.0726315789474,0.21578946379776529,0.86,nominal,8588.238314805183,nan,pitch_program,11.86,0.0,0.0
2.31,248.44068402167548,0.0,29.028338519879043,129.41123734848134,0.0,2.088824594561552,129.42809409186174,17.508920826281418,0.0,5.592649074522094,0.0,0.0,0.39639423472266144,0.0,4.667919167351257,0.0,10231.811293718201,0.3804665819321952,129.42809409186174,2.128201807041014,1.2215898217594623,100976.76388292683,287.96131579962076,0.0,0.0,0.0,402.03868421052636,0.21577124449146692,0.86,nominal,8660.48652607188,nan,pitch_program,11.845,0.0,0.0
2.34,252.33963745734033,0.0,29.090936182327727,129.96511452216154,0.0,2.0865887482895396,129.98186352473581,17.502447688946674,0.0,5.581287913468089,0.0,0.0,0.37870536970769536,0.0,4.661483712126687,0.0,10319.491945007014,0.38209471146240737,129.98186352473584,2.1281481455080944,1.2215824757567457,100976.01398372526,287.96090891481487,0.0,0.0,0.0,402.0047368421053,0.21575302518516856,0.86,nominal,8732.92705199395,nan,pitch_program,11.83,0.0,0.0
2.37,256.25517982749113,0.0,29.153517507927205,130.518079005027,0.0,2.0860441866492714,130.5347483527322,17.49597509819112,0.0,5.570449483861891,0.0,0.0,0.36128098795057617,0.0,4.654780535995543,0.0,10407.405108778921,0.3837202428360765,130.5347483527322,2.1280991201386446,1.2215751317049843,100975.26428474145,287.96050213619844,0.0,0.0,0.0,401.9707894736842,0.21573480587887017,0.86,nominal,8805.558606224675,nan,pitch_program,11.815,0.0,0.0
2.4,260.1872836962412,0.0,29.216133049923688,131.07012895833617,0.0,2.087184733216125,131.08674626088424,17.489503054014754,0.0,5.560125909429498,0.0,0.0,0.34411914867747456,0.0,4.647814534587422,0.0,10495.54856722299,0.38534316946157515,131.08674626088424,2.1280542610451043,1.221567783671662,100974.51418036997,287.9600951351755,0.0,0.0,0.0,401.9368421052631,0.2157165865725718,0.86,nominal,8878.379913806757,nan,pitch_program,11.8,0.0,0.0
2.4299999999999997,264.1359215741236,0.0,29.278833167231813,131.6212625960788,0.0,2.0900039102708887,131.6378550559484,17.483031556417576,0.0,5.550309372777315,0.0,0.0,0.3272178892064897,0.0,4.640590548304112,0.0,10583.920117270398,0.3869634851079282,131.6378550559484,2.1278376011014735,1.2215604257471744,100973.7630673476,287.95968758441296,0.0,0.0,0.0,401.9028947368421,0.21569836726627348,0.86,nominal,8951.389711144873,nan,pitch_program,11.785,0.0,0.0
2.46,268.1010663040324,0.0,29.341664060201495,132.17149099695916,0.0,2.0943630989893594,132.18808338556718,17.476560605399587,0.0,5.545845551926286,0.0,0.0,0.14879402844291797,0.0,4.638024027592201,0.0,10672.519305964011,0.388581215397538,132.18808338556718,2.128081173236827,1.2215530525100375,100973.01039224288,287.95927918360866,0.0,0.0,0.0,401.86894736842106,0.21568014795997512,0.86,nominal,9024.588124430808,nan,pitch_program,11.77,0.0,0.0
2.4899999999999998,272.0826874245103,0.0,29.4046861208835,132.7207040159306,0.0,2.1007353560667896,132.73732844803112,17.470090200960787,0.0,5.5444127643095,0.0,0.0,0.04775958722869227,0.0,4.637597052975034,0.0,10761.327619275351,0.39019605840103544,132.7373284480311,2.1284366510884305,1.221545656873476,100972.2554316315,287.9588695402142,0.0,0.0,0.0,401.835,0.21566192865367675,0.86,nominal,9097.960646907606,nan,pitch_program,11.755,0.0,0.0
2.52,276.0807530441292,0.0,29.467963871423656,133.26885398729715,0.0,2.109258351338505,133.28554465462568,17.463620343101177,0.0,5.544420760558463,0.0,0.0,-0.0002665416320899829,0.0,4.637670921009017,0.0,10850.335579695293,0.3918078803948744,133.2855446546257,2.128756081461823,1.221538231266183,100971.49741263156,287.95845823483575,0.0,0.0,0.0,401.80105263157895,0.2156437093473784,0.86,nominal,9171.500214839805,nan,pitch_program,11.74,0.0,0.0
2.55,280.0952309004535,0.0,29.531561280839554,133.8159285441433,0.0,2.119913647196647,133.83271934023773,17.457151031820754,0.0,5.546953766051562,0.0,0.0,-0.08443351645036892,0.0,4.63934921793498,0.0,10939.538972316304,0.39341664444002483,133.83271934023773,2.1292309946968446,1.2215307681818997,100970.73556900572,287.9580448516745,0.0,0.0,0.0,401.7671052631579,0.21562549004108003,0.86,nominal,9245.204068436164,nan,pitch_program,11.725000000000001,0.0,0.0
2.58,284.1260874289577,0.0,29.59554687646252,134.3618842834739,0.0,2.13285318743217,134.37881161449812,17.45068226711952,0.0,5.551693232457463,0.0,0.0,-0.15798221362017226,0.0,4.642259550435497,0.0,11028.928912270716,0.3950222306508186,134.3788116144981,2.12981928820603,1.2215232595796064,100969.96907993202,287.957628945303,0.0,0.0,0.0,401.73315789473685,0.2156072707347817,0.86,nominal,9319.065675238448,nan,pitch_program,11.71,0.0,0.0
2.61,288.1732880103932,0.0,29.659992443218858,134.90668604784955,0.0,2.1481855585445424,134.9237882717758,17.444214048997477,0.0,5.557940787267708,0.0,0.0,-0.20825182721448401,0.0,4.645668990265622,0.0,11118.497670648825,0.3966245417509168,134.92378827177578,2.1304455992605997,1.2215156970361638,100969.19708558617,287.95721004911906,0.0,0.0,0.0,401.6992105263158,0.21558905142848334,0.86,nominal,9393.079485696784,nan,pitch_program,11.695,0.0,0.0
2.6399999999999997,292.23679746339553,0.0,29.724970744038323,135.45031510007743,0.0,2.1659433606488983,135.4676314525053,17.437746377454623,0.0,5.565798754902253,0.0,0.0,-0.2619322548953597,0.0,4.6496780558079,0.0,11208.239970599956,0.398223525584811,135.4676314525053,2.131150415211253,1.221508072013831,100968.4187144503,287.9567876901637,0.0,0.0,0.0,401.6652631578947,0.21557083212218495,0.86,nominal,9467.241970022924,nan,pitch_program,11.68,0.0,0.0
2.67,296.31657990588786,0.0,29.790556443168935,135.99274808307848,0.0,2.1861899710203616,136.0103193062094,17.431279252490956,0.0,5.575175854421617,0.0,0.0,-0.3125699846764731,0.0,4.654180641880435,0.0,11298.149824943515,0.39981911827878147,136.0103193062094,2.131931744859999,1.221500375751928,100967.63307225409,287.9563613831194,0.0,0.0,0.0,401.63131578947366,0.21555261281588659,0.86,nominal,9541.54903923192,nan,pitch_program,11.665,0.0,0.0
2.6999999999999997,300.41259880269894,0.0,29.856825938748756,136.53396322703617,0.0,2.2089831859939997,136.55183162886416,17.42481267410648,0.0,5.585796387985992,0.0,0.0,-0.35401778649279303,0.0,4.658888759599308,0.0,11388.22146362915,0.4014112608119778,136.55183162886416,2.1327618451090444,1.2214925992864836,100966.83924398062,287.95593063139813,0.0,0.0,0.0,401.59736842105264,0.21553439350958825,0.86,nominal,9615.996802691065,nan,pitch_program,11.65,0.0,0.0
2.73,304.5248171557006,0.0,29.923856513324345,137.07394510005417,0.0,2.2343524858529973,137.092154247877,17.41834664230119,0.0,5.597595100395104,0.0,0.0,-0.3932904150269182,0.0,4.6637368764095,0.0,11478.450074618271,0.40299991190289847,137.092154247877,2.1336455459948476,1.2214847335499324,100966.03630404393,287.9554949326634,0.0,0.0,0.0,401.56342105263155,0.21551617420328986,0.86,nominal,9690.582165638243,nan,pitch_program,11.635,0.0,0.0
2.76,308.6531975225917,0.0,29.9917263599472,137.61267889637102,0.0,2.262328220761795,137.6312737789423,17.411881157075094,0.0,5.610497448021209,0.0,0.0,-0.4300782560209289,0.0,4.668649761333206,0.0,11568.830942486175,0.40458503259671785,137.6312737789423,2.134581373077775,1.2214767693680608,100965.22331597726,287.95505377866033,0.0,0.0,0.0,401.52947368421053,0.21549795489699153,0.86,nominal,9765.302124314863,nan,pitch_program,11.620000000000001,0.0,0.0
2.79,312.797702054107,0.0,30.060514469539704,138.1501510505102,0.0,2.2929369864167355,138.169178166849,17.405416218428183,0.0,5.624375978228997,0.0,0.0,-0.4626176758548459,0.0,4.67350079308389,0.0,11659.359542565922,0.40616658785460086,138.16917816684898,2.1355585043264567,1.2214686974732274,100964.39933378312,287.95460665594794,0.0,0.0,0.0,401.49552631578945,0.21547973559069317,0.86,nominal,9840.153841873944,nan,pitch_program,11.605,0.0,0.0
2.82,316.9582925765824,0.0,30.13030028964799,138.6863507491803,0.0,2.326194003609596,138.70585806903432,17.398951826360463,0.0,5.639160853567984,0.0,0.0,-0.4928291807009049,0.0,4.678225612091569,0.0,11750.031780245843,0.40774455061932685,138.7058580690343,2.1365749138001764,1.2214605085444215,100963.56340602245,287.9541530481173,0.0,0.0,0.0,401.4615789473684,0.2154615162843948,0.86,nominal,9915.134840669021,nan,pitch_program,11.59,0.0,0.0
2.85,321.13493062764576,0.0,30.201163618773617,139.22126836877908,0.0,2.362110970854135,139.24130541778987,17.39248798087193,0.0,5.654789447420966,0.0,0.0,-0.5209531316628057,0.0,4.682768385335773,0.0,11840.843755563254,0.40931889758824597,139.24130541778985,2.137627757509663,1.221452193219658,100962.71457708052,287.9536924364779,0.0,0.0,0.0,401.4276315789474,0.21544329697809647,0.86,nominal,9990.242808427165,nan,pitch_program,11.575,0.0,0.0
2.88,325.3275774901852,0.0,30.27318449365137,139.7548954179817,0.0,2.400695829258474,139.77551335536427,17.38602468196259,0.0,5.671189137427563,0.0,0.0,-0.5466563372853814,0.0,4.6870646708850074,0.0,11931.791756524479,0.41088960902199234,139.7755133553643,2.1387115386656155,1.2214437421092297,100961.8518885195,287.95322430079125,0.0,0.0,0.0,401.3936842105263,0.21542507767179808,0.86,nominal,10065.475591592474,nan,pitch_program,11.56,0.0,0.0
2.9099999999999997,329.5361942367772,0.0,30.346443020015535,140.2872248863991,0.0,2.4419508788054154,140.3084765451525,17.379561929632434,0.0,5.688306042827267,0.0,0.0,-0.5705635175670261,0.0,4.69107090101151,0.0,12022.872316667512,0.4124566696584814,140.3084765451525,2.1398232699205644,1.2214351458155581,100960.97438110546,287.9527481203699,0.0,0.0,0.0,401.3597368421053,0.21540685836549975,0.86,nominal,10140.83124065304,nan,pitch_program,11.545,0.0,0.0
2.94,333.76074175953687,0.0,30.421019273346076,140.81825075865518,0.0,2.4858751110180415,140.84019071910924,17.37309972388147,0.0,5.706091481249778,0.0,0.0,-0.5928479521774755,0.0,4.694749847355007,0.0,12114.082142346504,0.41402006738199293,140.84019071910924,2.140959836461192,1.2214263949448585,100960.08109599921,287.9522633747232,0.0,0.0,0.0,401.3257894736842,0.21538863905920136,0.86,nominal,10216.307949554493,nan,pitch_program,11.53,0.0,0.0
2.9699999999999998,338.0011807976642,0.0,30.496993204590268,141.34796793757758,0.0,2.532464374806403,141.37065259767363,17.366638064709694,0.0,5.724497389857419,0.0,0.0,-0.6135302921976188,0.0,4.698065953937594,0.0,12205.41810254733,0.4155797929873099,141.3706525976736,2.1421175354494846,1.2214174801182087,100959.17107588662,287.95176954417013,0.0,0.0,0.0,401.29184210526313,0.215370419752903,0.86,nominal,10291.904046355858,nan,pitch_program,11.515,0.0,0.0
3.0,342.2574719658992,0.0,30.57444453820583,141.87637227450026,0.0,2.581711120518799,141.89985990860737,17.360176952117108,0.0,5.74348330917787,0.0,0.0,-0.632863983139258,0.0,4.70099240612347,0.0,12296.87723552652,0.41713584023458433,141.8998599086074,2.143293461704086,1.2214083919835177,100958.24336620049,287.95126611050165,0.0,0.0,0.0,401.2578947368421,0.21535220044660466,0.86,nominal,10367.617997571793,nan,pitch_program,11.5,0.0,0.0
3.03,346.5295757774979,0.0,30.653452694804812,142.40346038662335,0.0,2.6336052199659763,142.42781121164236,17.35371638610371,0.0,5.763012003088159,0.0,0.0,-0.6509564699781568,0.0,4.703506399743265,0.0,12388.456721694783,0.41868820533345397,142.42781121164236,2.144484688552157,1.2213991212246165,100957.29701604885,287.9507525574837,0.0,0.0,0.0,401.223947368421,0.21533398114030627,0.86,nominal,10443.448385139125,nan,pitch_program,11.485,0.0,0.0
3.06,350.8174526656387,0.0,30.73409671839705,142.92922960469517,0.0,2.6881341197412927,142.95450584167463,17.3472563666695,0.0,5.783048546964768,0.0,0.0,-0.6678848026933968,0.0,4.705588154411873,0.0,12480.153876499257,0.4202368867756589,142.95450584167463,2.1456882455553994,1.221389658569805,100956.33107908782,287.9502283713304,0.0,0.0,0.0,401.19,0.21531576183400794,0.86,nominal,10519.393899802162,nan,pitch_program,11.47,0.0,0.0
3.09,355.1210630037592,0.0,30.816455206905527,143.45367793734934,0.0,2.74528295028256,143.47994386753106,17.34079689381448,0.0,5.803561721338739,0.0,0.0,-0.6837724864362762,0.0,4.707222251936786,0.0,12571.96614579706,0.4217818852134424,143.47994386753106,2.14690145078933,1.2213799948000086,100955.34461435446,287.9496930411551,0.0,0.0,0.0,401.156052631579,0.21529754252770958,0.86,nominal,10595.453336569732,nan,pitch_program,11.455,0.0,0.0
3.12,359.44036712342546,0.0,30.900606253079527,143.97680398887556,0.0,2.805034872466667,144.00412600855174,17.33433796753865,0.0,5.824522434434865,0.0,0.0,-0.698690444329882,0.0,4.708395910101727,0.0,12663.89109362475,0.42332320321398786,144.00412600855174,2.1481216432046777,1.221370120755729,100954.33668697647,287.949146059355,0.0,0.0,0.0,401.1221052631579,0.21527932322141122,0.86,nominal,10671.625584055188,nan,pitch_program,11.44,0.0,0.0
3.15,363.7753253310925,0.0,30.986627389189664,144.4986069222346,0.0,2.867371203671241,144.52705359235034,17.32787958784201,0.0,5.845903585028165,0.0,0.0,-0.712705028047393,0.0,4.709098787847455,0.0,12755.926396899033,0.42486084513491584,144.52705359235034,2.1493462299190074,1.2213600273435372,100953.30636883558,287.9485869219702,0.0,0.0,0.0,401.08815789473687,0.21526110391511288,0.86,nominal,10747.90961952925,nan,pitch_program,11.425,0.0,0.0
3.1799999999999997,368.1258979237258,0.0,31.074595536096737,145.01908642110956,0.0,2.9322715635691257,145.04872851195822,17.321421754724557,0.0,5.867680129746632,0.0,0.0,-0.7258848326870709,0.0,4.709322988431204,0.0,12848.069839829877,0.4263948169979861,145.04872851195825,2.150572741768494,1.221349705542065,100952.25273917918,287.94801512901535,0.0,0.0,0.0,401.0542105263158,0.2152428846088145,0.86,nominal,10824.304503781943,nan,pitch_program,11.410000000000002,0.0,0.0
3.21,372.4920452031351,0.0,31.164586957564364,145.5382426469769,0.0,2.999714048920918,145.56915317863746,17.314964468186293,0.0,5.889828498937934,0.0,0.0,-0.7382789822368439,0.0,4.709062401147132,0.0,12940.3193073827,0.4279251263500869,145.56915317863746,2.151798751991619,1.2213391464073684,100951.17488516837,287.9474301847758,0.0,0.0,0.0,401.0202631578947,0.21522466530251613,0.86,nominal,10900.809375260207,nan,pitch_program,11.395000000000001,0.0,0.0
3.2399999999999998,376.8737274894896,0.0,31.256677217670973,146.05607621181738,0.0,3.0696753368869056,146.08833048900962,17.308507728227216,0.0,5.912326542727029,0.0,0.0,-0.7499348026055629,0.0,4.70831260302875,0.0,13032.672781101599,0.42945178216631935,146.08833048900962,2.153021906633231,1.2213283410779467,100950.07190239041,287.9468315980851,0.0,0.0,0.0,400.9863157894737,0.21520644599621777,0.86,nominal,10977.423446169723,nan,pitch_program,11.38,0.0,0.0
3.27,381.2709051339799,0.0,31.35094114168654,146.57258814967605,0.0,3.1421308005189594,146.606263791361,17.30205153484733,0.0,5.9351533745050595,0.0,0.0,-0.7608944026654342,0.0,4.707070654203586,0.0,13125.128334646472,0.43097479475067285,146.606263791361,2.1542399205117557,1.2213172807793313,100948.94289532764,287.946218882579,0.0,0.0,0.0,400.9523684210526,0.2151882266899194,0.86,nominal,11054.145998378182,nan,pitch_program,11.365,0.0,0.0
3.3,385.68353853071665,0.0,31.44745278007159,147.0877798912237,0.0,3.2170546128349633,147.12295685483974,17.29559588804663,0.0,5.958289149365536,0.0,0.0,-0.7711925058278315,0.0,4.7053348337173535,0.0,13217.68412970998,0.43249417564521403,147.1229568548397,2.1554505577653935,1.2213059568283289,100947.7869777909,287.9455915569295,0.0,0.0,0.0,400.9184210526316,0.21517000738362105,0.86,nominal,11130.976379661208,nan,pitch_program,11.35,0.0,0.0
3.33,390.1115881280224,0.0,31.54628537494975,147.6016532435254,0.0,3.294419829272074,147.63841384352992,17.289140787825122,0.0,5.981714995336888,0.0,0.0,-0.7808615432561118,0.0,4.703104537509043,0.0,13310.3384126863,0.4340099375536214,147.63841384352992,2.1566516421092126,1.221294360636963,100946.6032733222,287.9449491450628,0.0,0.0,0.0,400.8844736842105,0.2151517880773227,0.86,nominal,11207.914000588957,nan,pitch_program,11.335,0.0,0.0
3.36,394.55501443913204,0.0,31.64751132907306,148.1142103703215,0.0,3.3741984707769195,148.15263929118524,17.2826862341828,0.0,6.005412883042209,0.0,0.0,-0.7899296014384858,0.0,4.700380115286901,0.0,13403.089511351038,0.43552209426666744,148.15263929118524,2.157841048366355,1.2212824837161282,100945.39091556796,287.944291176361,0.0,0.0,0.0,400.85052631578947,0.21513356877102435,0.86,nominal,11284.958331447278,nan,pitch_program,11.32,0.0,0.0
3.3899999999999997,399.01377805238775,0.0,31.751202176925823,148.62545377518987,0.0,3.4563615950921114,148.66563807873402,17.27623222711967,0.0,6.0293655300299624,0.0,0.0,-0.7984215778867039,0.0,4.697162747342726,0.0,13495.93583193978,0.43703066059585705,148.66563807873402,2.159016700041055,1.2212703176789887,100944.14904862657,287.94361718585,0.0,0.0,0.0,400.81657894736844,0.215115349464726,0.86,nominal,11362.108899506913,nan,pitch_program,11.305,0.0,0.0
3.42,403.48783964098493,0.0,31.85742855776029,149.13538628657207,0.0,3.5408793611488614,149.17741541364524,17.269778766635728,0.0,6.053556333440018,0.0,0.0,-0.8063601256470124,0.0,4.6934543529417,0.0,13588.875856472556,0.43853565231254354,149.17741541364526,2.160176570243844,1.221257854244156,100942.87682737282,287.94292671437455,0.0,0.0,0.0,400.78263157894736,0.21509713015842763,0.86,nominal,11439.365286513597,nan,pitch_program,11.29,0.0,0.0
3.4499999999999997,407.977159972303,0.0,31.966260190446317,149.6440110439361,0.0,3.6277210895341754,149.6879768105011,17.263325852730976,0.0,6.077969292506515,0.0,0.0,-0.8137653145281678,0.0,4.68925749056325,0.0,13681.908140213387,0.4400370860905976,149.68797681050114,2.1613186779156606,1.2212450852386494,100941.57341776058,287.94221930876205,0.0,0.0,0.0,400.74868421052633,0.21507891085212927,0.86,nominal,11516.727126307202,nan,pitch_program,11.275,0.0,0.0
3.48,412.4816999168704,0.0,32.07776584993526,150.15133148557968,0.0,3.716855316298215,150.1973280732208,17.25687348540541,0.0,6.102588955699931,0.0,0.0,-0.8206554524074499,0.0,4.684575285789145,0.0,13775.031309352724,0.4415349794539378,150.1973280732208,2.162441088118286,1.2212320026006709,100940.23799710638,287.9414945219754,0.0,0.0,0.0,400.71473684210525,0.2150606915458309,0.86,nominal,11594.19410263963,nan,pitch_program,11.26,0.0,0.0
3.51,417.0014204569912,0.0,32.192013345235395,150.6573513373586,0.0,3.808249843337704,150.70547527829765,17.250421664659036,0.0,6.127400370589351,0.0,0.0,-0.8270471759050055,0.0,4.67941136360757,0.0,13868.24405880313,0.44302935072704624,150.70547527829768,2.163541911029377,1.2212185983821946,100938.86975435406,287.94075191325595,0.0,0.0,0.0,400.6807894736842,0.21504247223953252,0.86,nominal,11671.765947100846,nan,pitch_program,11.245000000000001,0.0,0.0
3.54,421.53628269506254,0.0,32.30906949878153,151.16207460237925,0.0,3.9018717848712243,151.21242475908136,17.24397039049185,0.0,6.152389040606156,0.0,0.0,-0.8329556804300912,0.0,4.673769789453679,0.0,13961.545150119244,0.4445202189885602,151.21242475908136,2.1646193012192754,1.2212048647514073,100937.46789032425,287.9399910482579,0.0,0.0,0.0,400.64684210526315,0.21502425293323418,0.86,nominal,11749.442437160647,nan,pitch_program,11.23,0.0,0.0
3.57,426.0862478616079,0.0,32.42900012709746,151.66550555151213,0.0,3.997687610530837,151.71818309097677,17.237519662903853,0.0,6.177540890543715,0.0,0.0,-0.8383950113822853,0.0,4.667655020575006,0.0,14054.933409523243,0.4460076040275661,151.71818309097674,2.1656714577469875,1.22119079399498,100936.03161794654,287.93921149917384,0.0,0.0,0.0,400.61289473684207,0.21500603362693582,0.86,nominal,11827.223394309975,nan,pitch_program,11.215,0.0,0.0
3.5999999999999996,430.65127732304325,0.0,32.55187002267491,152.1676487145111,0.0,4.095663185915025,152.22275707736776,17.231069481895045,0.0,6.2028422347247725,0.0,0.0,-0.8433781530737212,0.0,4.661071861292745,0.0,14148.407726004814,0.44749152630202793,152.22275707736773,2.166696623762923,1.22117637852021,100934.56016247868,287.93841284485256,0.0,0.0,0.0,400.57894736842104,0.21498781432063746,0.86,nominal,11905.108682275522,nan,pitch_program,11.2,0.0,0.0
3.63,435.23133258919495,0.0,32.67774293699086,152.6685088717227,0.0,4.195763810531627,152.7261537362512,17.224619847465426,0.0,6.228279751286202,0.0,0.0,-0.8479172326418942,0.0,4.6540254256034155,0.0,14241.967049496441,0.44897200689930905,152.72615373625123,2.167693086699401,1.2211616108570242,100933.05276171106,287.93759467090956,0.0,0.0,0.0,400.545,0.21496959501433913,0.86,nominal,11983.098205307562,nan,pitch_program,11.185,0.0,0.0
3.6599999999999997,439.8263753205819,0.0,32.80668156460313,153.16809104623178,0.0,4.297954253742424,153.22838028744548,17.218170759614996,0.0,6.253840459523318,0.0,0.0,-0.8520236220348487,0.0,4.646521103801679,0.0,14335.610389102105,0.450449067498387,153.22838028744548,2.1686591783586917,1.2211464836598485,100931.50866615817,287.93675656983004,0.0,0.0,0.0,400.51105263157893,0.21495137570804074,0.86,nominal,12061.191906522521,nan,pitch_program,11.17,0.0,0.0
3.69,444.43636733547373,0.0,32.93874752826833,153.66640049639292,0.0,4.40219878883983,153.7294441403282,17.211722218343755,0.0,6.279511700603857,0.0,0.0,-0.8557080503329461,0.0,4.6385645333605,0.0,14429.336811374273,0.4519227303336301,153.7294441403282,2.1695932751364113,1.2211309897093778,100929.92713923949,287.9358981410662,0.0,0.0,0.0,400.4771052631579,0.2149331564017424,0.86,nominal,12139.389766295239,nan,pitch_program,11.155,0.0,0.0
3.7199999999999998,449.06127061673396,0.0,33.07400136503383,154.16344270867458,0.0,4.508461225516783,154.22935288203988,17.205274223651703,0.0,6.305281121173473,0.0,0.0,-0.8589807001338252,0.0,4.63016157346995,0.0,14523.145438629106,0.4533930181599459,154.22935288203988,2.170493798344036,1.2211151219142053,100928.30745744609,287.93501899112727,0.0,0.0,0.0,400.4431578947368,0.21491493709544401,0.86,nominal,12217.691800692799,nan,pitch_program,11.14,0.0,0.0
3.75,453.7010473184566,0.0,33.21250251326226,154.65922339075334,0.0,4.616704940947544,154.72811426609812,17.19882677553884,0.0,6.331136659072476,0.0,0.0,-0.8618512779256184,0.0,4.621318282353331,0.0,14617.035447292752,0.4548599542191427,154.72811426609812,2.1713592145188243,1.2210988733123624,100926.64891049816,287.93411873366375,0.0,0.0,0.0,400.4092105263158,0.21489671778914568,0.86,nominal,12296.098059943042,nan,pitch_program,11.125,0.0,0.0
3.78,458.3556597724011,0.0,33.35430930055049,155.15374846481856,0.0,4.726892909607661,155.2257362013886,17.192379874005166,0.0,6.357066531225853,0.0,0.0,-0.8643290865313789,0.0,4.612040897357718,0.0,14711.0060662738,0.4563235622074019,155.2257362013886,2.1721880358187233,1.2210822370727437,100924.95080149085,287.9331969895464,0.0,0.0,0.0,400.3752631578947,0.21487849848284732,0.86,nominal,12374.608626933787,nan,pitch_program,11.11,0.0,0.0
3.81,463.0250704942323,0.0,33.49947893251076,155.64702406103885,0.0,4.838987732009005,155.72222674149037,17.185933519050682,0.0,6.383059223069081,0.0,0.0,-0.8664230763005115,0.0,4.602335817100638,0.0,14805.056575356155,0.4577838662437376,155.72222674149037,2.172978820392598,1.2210652064964331,100923.21244702983,287.93225338693867,0.0,0.0,0.0,400.34131578947364,0.21486027917654893,0.86,nominal,12453.223615737577,nan,pitch_program,11.095,0.0,0.0
3.84,467.70924218956714,0.0,33.64806748238407,156.13905651116147,0.0,4.952951662443606,156.2175940743109,17.179487710675385,0.0,6.4091034794786,0.0,0.0,-0.8681418952654752,0.0,4.592209585593606,0.0,14899.18630360923,0.4592408908393711,156.2175940743109,2.1737301727795724,1.2210477750179312,100921.43317735687,287.93128756136446,0.0,0.0,0.0,400.3073684210526,0.2148420598702506,0.86,nominal,12531.943170159211,nan,pitch_program,11.080000000000002,0.0,0.0
3.8699999999999997,472.4081377598335,0.0,33.80012988145967,156.62985234221284,0.0,5.0687466358531,156.71184651200392,17.17304244887928,0.0,6.435188296852772,0.0,0.0,-0.8694939274905298,0.0,4.581668877933034,0.0,14993.394627812126,0.46069466086794,156.71184651200392,2.174440744286491,1.2210299362062913,100919.61233646628,287.9302991557705,0.0,0.0,0.0,400.2734210526316,0.21482384056395223,0.86,nominal,12610.76746230295,nan,pitch_program,11.065000000000001,0.0,0.0
3.9,477.1217203079418,0.0,33.95571991027665,157.11941827027803,0.0,5.186334293899481,157.20499248115073,17.16659773366236,0.0,6.461302916226785,0.0,0.0,-0.8704873275367895,0.0,4.570720487403327,0.0,15087.680970889369,0.4621452015364871,157.20499248115073,2.1751092333559585,1.2210116837661553,100917.74928221061,287.92928782058317,0.0,0.0,0.0,400.2394736842105,0.21480562125765387,0.86,nominal,12689.696691157442,nan,pitch_program,11.05,0.0,0.0
3.9299999999999997,481.849953143772,0.0,34.11489019058603,157.60776119433908,0.0,5.305676010312706,157.6970405131885,17.160153565024633,0.0,6.487436817231175,0.0,0.0,-0.871130048582693,0.0,4.559371313764404,0.0,15182.044800356784,0.4635925383571783,157.6970405131885,2.175734385907305,1.2209930115387129,100915.84338639912,287.9282532137612,0.0,0.0,0.0,400.2055263157895,0.21478740195135554,0.86,nominal,12768.731081196622,nan,pitch_program,11.035,0.0,0.0
3.96,486.59279978947666,0.0,34.27769217805322,158.09488819015627,0.0,5.426732915572953,158.1879992350715,17.153709942966092,0.0,6.513579712768249,0.0,0.0,-0.8714298663544325,0.0,4.547628352567976,0.0,15276.485626775677,0.465036697119709,158.1879992350715,2.1763149956471786,1.2209739135025564,100913.89403488507,287.92719500084263,0.0,0.0,0.0,400.1715789473684,0.21476918264505715,0.86,nominal,12847.870880995393,nan,pitch_program,11.02,0.0,0.0
