time_s,x_m,y_m,altitude_m,vx_mps,vy_mps,vz_mps,speed_mps,mass_kg,roll_deg,pitch_deg,yaw_deg,p_dps,q_dps,r_dps,alpha_deg,beta_deg,qbar_pa,mach,airspeed_mps,load_factor_g,density_kgpm3,pressure_pa,temperature_k,wind_x_mps,wind_y_mps,wind_z_mps,thrust_n,mass_flow_kgps,propulsion_throttle_actual,propulsion_health,energy_j_per_kg,target_distance_m,guidance_mode,pitch_command_deg,heading_command_deg,roll_command_deg,elevator_command_deg,aileron_command_deg,rudder_command_deg,elevator_deg,aileron_deg,rudder_deg,throttle,elevator_saturated,aileron_saturated,rudder_saturated,elevator_failed,aileron_failed,rudder_failed,elevator_raw_rad,aileron_raw_rad,rudder_raw_rad,elevator_effective_rad,aileron_effective_rad,rudder_effective_rad,sensor_time_s,imu_valid,imu_ax_mps2,imu_ay_mps2,imu_az_mps2,gyro_p_rps,gyro_q_rps,gyro_r_rps,imu_accel_norm_mps2,imu_gyro_norm_rps,gps_valid,gps_latency_s,gps_x_m,gps_y_m,gps_z_m,gps_vx_mps,gps_vy_mps,gps_vz_mps,baro_valid,baro_alt_m,baro_bias_m,pitot_valid,pitot_airspeed_mps,pitot_qbar_pa,pitot_compressibility_factor,mag_valid,mag_heading_deg,mag_x_ut,mag_y_ut,mag_z_ut,radar_valid,radar_agl_m,optical_flow_valid,optical_flow_x_radps,optical_flow_y_radps,optical_flow_quality,horizon_valid,horizon_roll_deg,horizon_pitch_deg
0.0,0.0,0.0,20.0,85.0,0.0,8.0,85.37564055396598,18.1660882792304,0.0,6.000000000000002,0.0,0.0,0.0,0.0,0.670573726876594,-0.07903107478510403,4463.786944728638,0.25116517384833953,85.4507164248922,1.7293853291777264,1.2226496753673843,101084.96761777384,288.02,-0.08124286468442743,0.11786661907968898,0.06317710994907,326.8,0.17539118863220368,0.86,nominal,3840.633,nan,pitch_program,13.0,0.0,0.0,-20.05352282957881,-0.0,0.0,-2.6999999999999997,0.0,0.0,0.86,0.0,0.0,0.0,0.0,0.0,0.0,-0.047123889803846894,0.0,0.0,-0.047123889803846894,0.0,0.0,0.0,1.0,16.911415270186744,0.04947534379974074,0.22884005925179307,0.0020496890485300055,0.0034670290373362495,0.0014289454661326477,16.913035860633293,0.004273570016576025,1.0,0.0,-0.6470631796003397,1.3313514358594836,21.640168148178226,85.17703608167885,0.05225276163995546,7.880257797746393,1.0,19.512552440544518,0.0,1.0,85.4933992298977,4444.279135840035,1.0,1.0,1.4356082144579825,19.448508450116893,0.02515073517330344,-43.862311760623584,1.0,19.865327484861723,1.0,0.014473502116766398,4.261962511288229,0.95,1.0,0.5447866360085145,6.047405196481685
0.03,2.565157913911409,1.4287635596761128e-05,20.232966487473885,85.50526379704696,0.00047625451989203763,7.765549582462777,85.85717149747653,18.160826543571435,0.0007947632453122875,6.261721652284237,-0.0016218190608630204,0.02071843730646661,-8.724070618379283,-0.05369107238053745,1.1192305730304122,-0.07667069433009584,4514.160281869233,0.25258187331806653,85.93247607721786,1.757320379814055,1.2226223181553226,101082.17435813956,288.0184857178314,-0.08124286468442743,0.11786661907968898,0.06317710994907,332.605,0.1785066900092231,0.86,nominal,3884.144569577934,nan,pitch_program,12.985,0.0,0.0,-1.4651560726942172,0.0016027725447379645,0.005006014834540782,-1.9590936436165305,0.0,0.0,0.86,0.0,0.0,0.0,0.0,0.0,0.0,-0.034192634436000846,0.0,0.0,-0.034192634436000846,0.0,0.0,0.03,1.0,17.223416311973825,0.014029715945413893,0.6707148902371005,-0.0017489201511032288,-0.15036751287425335,-0.0003450930042083729,17.236476575927036,0.15037807931631936,1.0,0.0,-0.6470631796003397,1.3313514358594836,21.640168148178226,85.17703608167885,0.05225276163995546,7.880257797746393,1.0,19.512552440544518,0.0,1.0,85.70125743641019,4492.446144850427,1.0,1.0,1.4356082144579825,19.448508450116893,0.02515073517330344,-43.862311760623584,1.0,19.865327484861723,1.0,0.014473502116766398,4.261962511288229,0.95,1.0,0.5447866360085145,6.047405196481685
0.06,5.14565873878721,4.2214354985621254e-05,20.4593780770593,86.0166941625267,0.0009308906462953375,7.547052986180422,86.34714635870967,18.15547134287116,0.0023853316001725394,6.6327088048112195,-0.004838991659186254,0.04097723881684751,-12.36628457536803,-0.10621825188453313,1.6648818207584828,-0.07277358970656012,4565.708465845757,0.25402333443574665,86.42266388186049,1.785823771337818,1.2225957311324422,101079.45975137761,288.0170140424991,-0.08124286468442743,0.11786661907968898,0.06317710994907,338.40999999999997,0.18162219138624247,0.86,nominal,3928.5528021656078,nan,pitch_program,12.97,0.0,0.0,-0.34225980663981476,0.0034858133181325775,0.010611503425708643,-0.988993341430501,0.0,0.0,0.86,0.0,0.0,0.0,0.0,0.0,0.0,-0.017261190088262688,0.0,0.0,-0.017261190088262688,0.0,0.0,0.06,1.0,17.492250682141286,-0.0549745900429562,1.2022581837578434,0.0016478038135834244,-0.21605407916812552,-0.003043589080618081,17.533604332048657,0.21608179890283766,1.0,0.0,-0.6470631796003397,1.3313514358594836,21.640168148178226,85.17703608167885,0.05225276163995546,7.880257797746393,1.0,20.987791040886446,0.0,1.0,86.34677256514861,4540.991562720362,1.0,1.0,-0.1909048926276843,18.981348107317107,0.10615602195379362,-44.080921955383886,1.0,20.602842982684113,1.0,-0.016824382433985756,4.224864234630465,0.9488515548073517,1.0,-0.022861655811491327,6.4616620616716185
0.09,7.741655858817059,8.238018986075682e-05,20.679843741547238,86.53323733432829,0.001338861162504519,7.348855482931342,86.84472835043441,18.150022677129574,0.004757565170233232,6.934230773114812,-0.009584219844882707,0.06039124014961197,-10.050765244822198,-0.15644103840251913,2.1260434730230244,-0.06743821000804967,4618.357139880485,0.25548708990601277,86.92043987588923,1.8153673390807854,1.2225698427517153,101076.81649119324,288.0155810156799,-0.08124286468442743,0.11786661907968898,0.06317710994907,344.215,0.18473769276326188,0.86,nominal,3973.8034107584176,nan,pitch_program,12.955,0.0,0.0,-0.7474965011210991,0.005618870426333135,0.01667931416338155,-0.8440952372448598,0.0,0.0,0.86,0.0,0.0,0.0,0.0,0.0,0.0,-0.014732241090325473,0.0,0.0,-0.014732241090325473,0.0,0.0,0.09,1.0,17.74922049122521,-0.007741323742273929,1.6027609515754346,0.0008318218054503717,-0.17463892331530856,-0.006498902823539206,17.82144019550937,0.17476178415819646,1.0,0.0,-0.6470631796003397,1.3313514358594836,21.640168148178226,85.17703608167885,0.05225276163995546,7.880257797746393,1.0,20.987791040886446,0.0,1.0,87.03457916209399,4670.9900287579385,1.0,1.0,-0.1909048926276843,18.981348107317107,0.10615602195379362,-44.080921955383886,1.0,20.602842982684113,1.0,-0.016824382433985756,4.224864234630465,0.9488515548073517,1.0,-0.022861655811491327,6.4616620616716185
0.12,10.353322523881753,0.0001326070539732271,20.89482753529168,87.05555550215644,0.0016742288037490094,7.166126458148057,87.35000352035625,18.144480546346674,0.007866516159920017,7.110393343929991,-0.015751234140104597,0.07849988404935852,-5.872112761824704,-0.20337844155774834,2.450229069247991,-0.060785469906822445,4672.129630339069,0.25697340662325335,87.42589444631447,1.845303438766991,1.2225445984885044,101074.23900947822,288.0141836210206,-0.08124286468442743,0.11786661907968898,0.06317710994907,350.02,0.1878531941402813,0.86,nominal,4019.9198179520936,nan,pitch_program,12.94,0.0,0.0,-1.6886048711947594,0.007934865638788377,0.02306088979278803,-1.3508010176147995,0.0,0.0,0.86,0.0,0.0,0.0,0.0,0.0,0.0,-0.023575925296668174,0.0,0.0,-0.023575925296668174,0.0,0.0,0.12,1.0,18.011983272862246,0.008829406712991181,1.8023891023645162,0.0013716927274098146,-0.10010937200127093,-0.004840176060380075,18.101939836841094,0.1002356982702408,1.0,0.0,-0.6470631796003397,1.3313514358594836,21.640168148178226,85.17703608167885,0.05225276163995546,7.880257797746393,1.0,20.35015131847951,0.0,1.0,88.07697266599772,4595.6758610297875,1.0,1.0,-0.5342363795626877,18.63040887167744,-0.016107324751044774,-44.208349930511886,1.0,20.853251013381538,1.0,0.004192719460303388,4.18944557471457,0.9477629311617708,1.0,0.19221679661349927,7.3119448397525675
0.15,12.980867819306011,0.0001899568408814113,21.104607977597112,87.58484318080863,0.00191165956360614,6.992681410181145,87.86354393015101,18.138844950522465,0.011641402592611207,7.203952141774013,-0.02320846525321251,0.09485925488912347,-3.1186692306897656,-0.24610667371606632,2.6844357733794473,-0.052957728420198504,4727.102130346845,0.25848398231970404,87.9396049452996,1.8755627933870014,1.2225199656082006,101071.72396304083,288.0128200481456,-0.08124286468442743,0.11786661907968898,0.06317710994907,355.825,0.1909686955173007,0.86,nominal,4066.966679806291,nan,pitch_program,12.925,0.0,0.0,-2.3196093478768702,0.010365968295223363,0.02963350504125924,-1.9320860157720419,0.0,0.0,0.86,0.0,0.0,0.0,0.0,0.0,0.0,-0.033721262406961224,0.0,0.0,-0.033721262406961224,0.0,0.0,0.15,1.0,18.36263455310126,0.005511658567444847,2.005736132031573,0.0011858860344028967,-0.05280264333475373,-0.007990241913281435,18.47185306190111,0.05341693958527167,1.0,0.0,-0.6470631796003397,1.3313514358594836,21.640168148178226,85.17703608167885,0.05225276163995546,7.880257797746393,1.0,20.35015131847951,0.0,1.0,87.97402594432609,4659.02772910593,1.0,1.0,-0.5342363795626877,18.63040887167744,-0.016107324751044774,-44.208349930511886,1.0,20.853251013381538,1.0,0.004192719460303388,4.18944557471457,0.9477629311617708,1.0,0.19221679661349927,7.3119448397525675
0.18,15.624521792009716,0.0002507734934714535,21.30937498960262,88.12179909012352,0.0020272217530014065,6.825567066850326,88.38574457894097,18.133115889656946,0.01599769238263273,7.272667313641738,-0.03180430286832812,0.10910811965794108,-2.2905744964902146,-0.28369206841573,2.888456148613016,-0.04412275372654502,4783.333110379535,0.26001998601194914,88.46196892889499,1.9062669590361094,1.2224959217820972,101069.26907122294,288.01148906256753,-0.08124286468442743,0.11786661907968898,0.06317710994907,361.63,0.19408419689432013,0.86,nominal,4114.993504628683,nan,pitch_program,12.91,0.0,0.0,-2.4831414677119614,0.012859675317302408,0.036280040845021545,-2.262719286935994,0.0,0.0,0.86,0.0,0.0,0.0,0.0,0.0,0.0,-0.039491901605411404,0.0,0.0,-0.039491901605411404,0.0,0.0,0.18,1.0,18.552126549468777,0.04385960794198694,2.0622158783664735,0.004851840208831714,-0.04120639321455978,-0.005029351036420402,18.666442015062753,0.041794755257238886,1.0,0.0,-0.6470631796003397,1.3313514358594836,21.640168148178226,85.17703608167885,0.05225276163995546,7.880257797746393,1.0,20.096562395061557,0.0,1.0,88.2618102292315,4792.562071328328,1.0,1.0,-1.0982011508403693,18.540839045565683,0.05127999399946094,-44.19922153077744,1.0,21.422425757919722,1.0,0.003148846068898999,4.159771661215526,0.9467265625259934,1.0,0.5600640623629289,6.925504633844054
0.21,18.284517210910455,0.00031073367480105975,21.509319463501818,88.6665139633579,0.0019986727109868752,6.664815796639908,88.91664901474962,18.127293363750116,0.020841780480671993,7.340853048369667,-0.041361128363948466,0.12095450510811474,-2.2729595569885874,-0.3152433091268564,3.0866438710529867,-0.03447357730841115,4840.843817512321,0.26158154654388355,88.99303006831457,1.937360049923195,1.222472444569476,101066.87204199322,288.0101894234872,-0.08124286468442743,0.11786661907968898,0.06317710994907,367.435,0.19719969827133954,0.86,nominal,4164.019603722837,nan,pitch_program,12.895,0.0,0.0,-2.4443019206000076,0.015368103331655584,0.0428565419011587,-2.371668867134402,0.0,0.0,0.86,0.0,0.0,0.0,0.0,0.0,0.0,-0.041393430498539246,0.0,0.0,-0.041393430498539246,0.0,0.0,0.21,1.0,18.862483081643237,0.058298184779744563,2.2751428502428634,0.00384681229036641,-0.0412141124225598,-0.0045410982697304154,18.999287925410183,0.04164159700434243,1.0,0.0,18.186403719007835,0.5408553338871585,20.86010662428981,88.78295635492817,-0.05666639814299359,6.676972434998881,1.0,20.096562395061557,0.0,1.0,89.15998905094533,4784.307675183967,1.0,1.0,-1.0982011508403693,18.540839045565683,0.05127999399946094,-44.19922153077744,1.0,21.422425757919722,1.0,0.003148846068898999,4.159771661215526,0.9467265625259934,1.0,0.5600640623629289,6.925504633844054
0.24,20.96108356900317,0.000364910900812639,21.704655064294162,89.21887860309049,0.0018059075337193066,6.5111866930780815,89.45615604644779,18.121377372801977,0.026068892207469024,7.402797485108618,-0.051671663322653334,0.13013960280844453,-2.0649541193162646,-0.3399984752751953,3.2728551805407493,-0.024223028625410047,4899.639971434122,0.26316836571019603,89.53268672296305,1.9686593423742595,1.222449508857661,101064.53031057537,288.00891974208207,-0.08124286468442743,0.11786661907968898,0.06317710994907,373.24,0.20031519964835895,0.86,nominal,4214.051882889468,nan,pitch_program,12.88,0.0,0.0,-2.456510174110255,0.017835965150589946,0.049196858485425925,-2.422573651319914,0.0,0.0,0.86,0.0,0.0,0.0,0.0,0.0,0.0,-0.04228188658759357,0.0,0.0,-0.04228188658759357,0.0,0.0,0.24,1.0,19.27227914863383,0.013670949218630735,2.3844239775555587,-0.001276425386127664,-0.03326998282671986,-0.0026549883308176936,19.419227795730208,0.033400149432201105,1.0,0.0,18.186403719007835,0.5408553338871585,20.86010662428981,88.78295635492817,-0.05666639814299359,6.676972434998881,1.0,22.85630729068697,0.0,1.0,89.74415971262168,4845.338228535438,1.0,1.0,-0.9473536136343721,18.43192223913645,0.020058292584110887,-44.2677904012749,1.0,21.783601015728404,1.0,-0.014040691652940578,4.122612306715704,0.9457383623392646,1.0,0.33532230500984916,7.323829133588279
0.27,23.654450845090704,0.0004078615460835377,21.895595551578097,89.7789092029178,0.0014316881756966245,6.36468290946446,90.0042317241446,18.115367916812527,0.031561865505291276,7.446745444860695,-0.06250551913095335,0.13643251547831323,-1.4651119762416622,-0.35736383752274076,3.4354020904296494,-0.013597119324295252,4959.7347651188165,0.2647803447136705,90.08090509118487,2.0000045068476155,1.2224270895248772,101062.24131132694,288.00767862891473,-0.08124286468442743,0.11786661907968898,0.06317710994907,379.045,0.20343070102537836,0.86,nominal,4265.103306242642,nan,pitch_program,12.865,0.0,0.0,-2.5767209109390983,0.02020160842324479,0.055142600190455984,-2.5150620070914242,0.0,0.0,0.86,0.0,0.0,0.0,0.0,0.0,0.0,-0.04389611291556233,0.0,0.0,-0.04389611291556233,0.0,0.0,0.27,1.0,19.426823055354372,0.05028971653460768,2.6275281322856854,0.0025623169721929254,-0.026442987147942472,-0.008501608142922636,19.603772268764754,0.027893984630884973,1.0,0.0,18.186403719007835,0.5408553338871585,20.86010662428981,88.78295635492817,-0.05666639814299359,6.676972434998881,1.0,22.85630729068697,0.0,1.0,89.81954456530087,4955.432377713682,1.0,1.0,-0.9473536136343721,18.43192223913645,0.020058292584110887,-44.2677904012749,1.0,21.783601015728404,1.0,-0.014040691652940578,4.122612306715704,0.9457383623392646,1.0,0.33532230500984916,7.323829133588279
0.3,26.364854362892434,0.00043373076253234825,22.08233176216815,90.34678392672436,0.0008623072149603532,6.224540353001773,90.56095333669991,18.109264995781764,0.037194237739199186,7.46972219934727,-0.0736205263951663,0.1396535353808217,-0.7661121122346353,-0.366906115725919,3.5718694013759085,-0.0028301480816747154,5021.153968192727,0.2664177133767069,90.63776319178214,2.03135250139211,1.2224051641427023,101060.00275365385,288.00646484354587,-0.08124286468442743,0.11786661907968898,0.06317710994907,384.84999999999997,0.20654620240239774,0.86,nominal,4317.196833401436,nan,pitch_program,12.850000000000001,0.0,0.0,-2.7334421389865153,0.022405270265233774,0.06056064045721031,-2.646090086228479,0.0,0.03633638427432618,0.86,0.0,0.0,0.0,0.0,0.0,0.0,-0.04618298430906762,0.0,0.0006341895438568823,-0.04618298430906762,0.0,0.0006341895438568823,0.3,1.0,19.72489559267568,0.08686130339689646,2.778958422125111,-0.0005228856101484216,-0.0104421111057762,-0.008888932405673042,19.919881047332694,0.013723126940289494,1.0,0.0,18.186403719007835,0.5408553338871585,20.86010662428981,88.78295635492817,-0.05666639814299359,6.676972434998881,1.0,21.108128765219515,0.0,1.0,90.35417799029939,5077.345946650632,1.0,1.0,-0.8097233069494031,18.350076043752146,-0.010282592099290964,-44.29608655600872,1.0,22.137870163611698,1.0,0.0011258722349667474,4.110514056635951,0.9447941705945796,1.0,0.4129525907967848,7.5798840399875065
0.32999999999999996,29.09253590646809,0.00043925041579177685,22.26502819766398,90.92271811918856,0.00018398844198095265,6.0898811831943975,91.12643591757934,18.10306860970969,0.04291417529325302,7.476828645127804,-0.08537669215352042,0.13969622338744678,-0.23715309067423226,-0.3883777953464973,3.6879795198108813,0.008499128736799425,5083.928045413262,0.26808081220900376,91.20337672445194,2.0627414995325455,1.2223837133764726,101057.8126628827,288.00527731671514,-0.08124286468442743,0.11786661907968898,0.06317710994907,390.655,0.20966170377941715,0.86,nominal,4370.359000294969,nan,pitch_program,12.835,0.0,0.0,-2.856530004712462,0.024553190609399766,0.0672079860600583,-2.772354037318869,0.0,0.054859345345765455,0.86,0.0,0.0,0.0,0.0,0.0,0.0,-0.048386705982172006,0.0,0.0009574762017722342,-0.048386705982172006,0.0,0.0009574762017722342,0.32999999999999996,1.0,20.050958453149935,0.02478250109884298,2.942535585354266,0.0038672246440980655,-0.00268343899809352,-0.007345957707992425,20.2657362248052,0.008724641307929049,1.0,0.0,18.186403719007835,0.5408553338871585,20.86010662428981,88.78295635492817,-0.05666639814299359,6.676972434998881,1.0,21.108128765219515,0.0,1.0,91.63374792584823,5120.0881489790945,1.0,1.0,-0.8097233069494031,18.350076043752146,-0.010282592099290964,-44.29608655600872,1.0,22.137870163611698,1.0,0.0011258722349667474,4.110514056635951,0.9447941705945796,1.0,0.4129525907967848,7.5798840399875065
0.36,31.837741842683815,0.0004192978519071312,22.443832618779325,91.50686454052416,-0.0006650854628215206,5.9601473705114945,91.7007612572458,18.096778758596308,0.048624527132481214,7.474234467471194,-0.09783054920426441,0.13633568078225272,0.08614376417741257,-0.411669135566481,3.7903083656038583,0.020416156569152098,5148.084328104862,0.2697698837539434,91.77782807457889,2.0942028899841767,1.2223627198585343,101055.66926521389,288.00411508797794,-0.08124286468442743,0.11786661907968898,0.06317710994907,396.46,0.21277720515643656,0.86,nominal,4424.613618730148,nan,pitch_program,12.82,0.0,0.0,-2.9336287321627976,0.02653583756174814,0.0742991161344297,-2.8691188542252264,0.0,0.066523207818964,0.86,0.0,0.0,0.0,0.0,0.0,0.0,-0.05007557063727742,0.0,0.0011610490054293576,-0.05007557063727742,0.0,0.0011610490054293576,0.36,1.0,20.32500622361115,0.02795884703490093,2.9367671626933807,0.003405211387661417,0.0003794967577652982,-0.009145852614399801,20.53609653889545,0.009766580897537125,1.0,0.0,18.186403719007835,0.5408553338871585,20.86010662428981,88.78295635492817,-0.05666639814299359,6.676972434998881,1.0,22.544288419980482,0.0,1.0,92.43129148696413,5232.223111090678,1.0,1.0,0.32537167858551025,18.3856030893584,0.02528143771539427,-44.37154914763764,1.0,22.389780886444075,1.0,0.0012053555771892686,4.063751757012658,0.9438904184530517,1.0,0.786156376437282,7.12223617107899
0.39,34.60072106247737,0.0003676983016890667,22.6188851281225,92.09930732645171,-0.0017199850072688169,5.83508364477247,92.28396726469903,18.090395442441615,0.054204496294521454,7.465001717794653,-0.11090737691294442,0.12933252385147032,0.3073703680232902,-0.4324712272536643,3.8821257772902773,0.03283577969902487,5213.645679683302,0.27148504073836344,92.36115546886138,2.1257252025406173,1.2223421671216732,101053.57087882157,288.0029772466672,-0.08124286468442743,0.11786661907968898,0.06317710994907,402.265,0.21589270653345596,0.86,nominal,4479.980796897723,nan,pitch_program,12.805,0.0,0.0,-2.9889245044501234,0.028271522306468413,0.08145263885995727,-2.941002244360164,0.0,0.07548086644355996,0.86,0.0,0.0,0.0,0.0,0.0,0.0,-0.0513301724726277,0.0,0.0013173896416982238,-0.0513301724726277,0.0,0.0013173896416982238,0.39,1.0,20.61569413139075,-0.0614949786893736,3.188173198351185,0.0016340494290447954,0.0053866675996398815,-0.007435026135045729,20.860850282146888,0.009325551940468978,1.0,0.0,18.186403719007835,0.5408553338871585,20.86010662428981,88.78295635492817,-0.05666639814299359,6.676972434998881,1.0,22.544288419980482,0.0,1.0,92.1142409874002,5153.167106831885,1.0,1.0,0.32537167858551025,18.3856030893584,0.02528143771539427,-44.37154914763764,1.0,22.389780886444075,1.0,0.0012053555771892686,4.063751757012658,0.9438904184530517,1.0,0.786156376437282,7.12223617107899
0.42,37.38172420192801,0.0002775780936476068,22.790320858634725,92.70010464835462,-0.0030040069347153303,5.714524350407568,92.87607441850326,18.08391866124561,0.0595186035545125,7.449582237638518,-0.12446980665492502,0.1184626101642548,0.5135375621032616,-0.44876710875851844,3.964031871942561,0.04562125611945823,5280.633370570411,0.27322634438087384,92.95337961406132,2.1355893133351818,1.2223220392833694,101051.5158816138,288.00186291441884,-0.08124286468442743,0.11786661907968898,0.06317710994907,404.1773684210526,0.21691906078826353,0.86,nominal,4536.479299744009,nan,pitch_program,12.79,0.0,0.0,-3.043919751325007,0.029688356677420962,0.08844379810702131,-3.00275274853907,0.0,0.08325862544163677,0.86,0.0,0.0,0.0,0.0,0.0,0.0,-0.05240792208531612,0.0,0.0014531371446412796,-0.05240792208531612,0.0,0.0014531371446412796,0.42,1.0,20.62127155012358,0.03737920724439008,3.298672749274448,-0.0013473297797116446,0.005396601139451222,-0.01063282705269972,20.883473835927685,0.011999817187201106,1.0,0.0,35.61650644793049,1.0238827848657757,20.14236385941637,92.8392640542553,-0.09713983101375012,5.778425108204118,1.0,22.380552544792973,0.0,1.0,92.67455387498336,5294.859370956742,1.0,1.0,0.10133607560952922,18.35603070906075,0.00358970357314498,-44.333941850073415,1.0,22.623571408437776,1.0,-0.031292207388277045,4.08585890051071,0.9430241978534132,1.0,0.10785796340328997,7.639236965560232
0.44999999999999996,40.18081169429666,0.00014196937443521285,22.958243559266396,93.30291641228827,-0.004520290640413132,5.597423354389062,93.47066587801619,18.077411089421965,0.06442129642618204,7.428014512419247,-0.13834721881368717,0.10353415708392523,0.7184276554751248,-0.45946451483701617,4.036517912559674,0.05861135253494047,5348.332979251101,0.2749749349615902,93.54808423434858,2.1346408801779537,1.2223023241468958,101049.5030278418,288.0007714168647,-0.08124286468442743,0.11786661907968898,0.06317710994907,404.14342105263154,0.21690084148196515,0.86,nominal,4593.52614904035,nan,pitch_program,12.775,0.0,0.0,-3.102041244266579,0.030718608535281723,0.09511226432509262,-3.0623258459755753,0.0,0.09037080877171028,0.86,0.0,0.0,0.0,0.0,0.0,0.0,-0.05344766878119453,0.0,0.001577268160756517,-0.05344766878119453,0.0,0.001577268160756517,0.44999999999999996,1.0,20.644989949167076,0.004694068697419557,3.426255420731261,0.0038129330461500513,0.014645738302906204,-0.008184338002805436,20.927371030389388,0.017205217156310532,1.0,0.0,35.61650644793049,1.0238827848657757,20.14236385941637,92.8392640542553,-0.09713983101375012,5.778425108204118,1.0,22.380552544792973,0.0,1.0,93.08622917961345,5317.901009221409,1.0,1.0,0.10133607560952922,18.35603070906075,0.00358970357314498,-44.333941850073415,1.0,22.623571408437776,1.0,-0.031292207388277045,4.08585890051071,0.9430241978534132,1.0,0.10785796340328997,7.639236965560232
0.48,42.99794993576809,-4.615152585296019e-05,23.12273708947669,93.90460804904787,-0.006270696676272435,5.483117673676504,94.06455247111063,18.070904064177505,0.06876024355555516,7.40104655433465,-0.15234887830513053,0.08440245721931058,0.8983934439969217,-0.46386393829181094,4.10067915869358,0.0716280530168109,5416.382976377787,0.2767214395864758,94.14208058974377,2.1337246042373224,1.222283011851557,101047.53131028604,287.9997022089184,-0.08124286468442743,0.11786661907968898,0.06317710994907,404.1094736842105,0.2168826221756668,0.86,nominal,4650.826605473679,nan,pitch_program,12.76,0.0,0.0,-3.1569606134057966,0.03129766379338955,0.10132428753199534,-3.1191067064337084,0.0,0.09694289602788131,0.86,0.0,0.0,0.0,0.0,0.0,0.0,-0.05443868174830441,0.0,0.0016919727221050614,-0.05443868174830441,0.0,0.0016919727221050614,0.48,1.0,20.609716617264855,0.07226504501268625,3.4304740822352544,0.00160319188711893,0.015843935310481668,-0.009120443701775791,20.89339114910697,0.018351648527228103,1.0,0.0,35.61650644793049,1.0238827848657757,20.14236385941637,92.8392640542553,-0.09713983101375012,5.778425108204118,1.0,22.824915977670404,0.0,1.0,93.91461791650816,5389.63826500153,1.0,1.0,-0.6007021325274192,18.380762511630532,0.07141478395967976,-44.31070118176825,1.0,22.96370355712305,1.0,-0.028197517476245167,4.052530953944802,0.9421931572763083,1.0,0.9331720271937208,6.984626346020847
0.51,45.83310716588158,-0.0002939321383220721,23.28387873306203,94.50524100378286,-0.008259353748970397,5.371388119511272,94.6577648992962,18.064397585512236,0.07237910129444824,7.369882495050716,-0.1662699077975919,0.06097975537720173,1.038234416919833,-0.4614637316052894,4.157910673886934,0.08448011743411009,5484.785412638037,0.27846594924902646,94.73539962697619,2.1328423693324083,1.2222640933094395,101045.59980064962,287.99865478823506,-0.08124286468442743,0.11786661907968898,0.06317710994907,404.0755263157895,0.21686440286936848,0.86,nominal,4708.383077242798,nan,pitch_program,12.745,0.0,0.0,-3.204205067102124,0.03136411501786899,0.10695610658826381,-3.1701657228347573,0.0,0.10295082236411081,0.86,0.0,0.0,0.0,0.0,0.0,0.0,-0.0553298296973325,0.0,0.0017968308178895461,-0.0553298296973325,0.0,0.0017968308178895461,0.51,1.0,20.655998278790474,-0.05458271753091867,3.6074002552693147,0.004164523654302634,0.016434454317586895,-0.01249302749251513,20.968704794721233,0.021059683803724014,1.0,0.0,35.61650644793049,1.0238827848657757,20.14236385941637,92.8392640542553,-0.09713983101375012,5.778425108204118,1.0,22.824915977670404,0.0,1.0,94.37061089258343,5400.736351843259,1.0,1.0,-0.6007021325274192,18.380762511630532,0.07141478395967976,-44.31070118176825,1.0,22.96370355712305,1.0,-0.028197517476245167,4.052530953944802,0.9421931572763083,1.0,0.9331720271937208,6.984626346020847
0.54,48.68625307028234,-0.0006085288404841466,23.44174084945546,95.10486348002533,-0.010486556738735818,5.262070546447759,95.25032574200426,18.057891653426154,0.07511998206429382,7.335564417580904,-0.17989459679047864,0.03324099521803383,1.143355231761627,-0.4518939084915354,4.209406769084739,0.09696785570432319,5553.541478947059,0.2802085309066149,95.3280641184337,2.13199378544986,1.2222455600114859,101043.70762975694,287.9976286844785,-0.08124286468442743,0.11786661907968898,0.06317710994907,404.0415789473684,0.2168461835630701,0.86,nominal,4766.197224880273,nan,pitch_program,12.73,0.0,0.0,-3.244543336717008,0.030860128338936876,0.11188823463300766,-3.214792291164108,0.0,0.10831326972544891,0.86,0.0,0.0,0.0,0.0,0.0,0.0,-0.05610871024854589,0.0,0.0018904231803097782,-0.05610871024854589,0.0,0.0018904231803097782,0.54,1.0,20.51146985074021,0.03260664367992553,3.715593198214301,-0.0003985208292908595,0.017606014965880774,-0.010371579252641578,20.845313416824727,0.02043771606672384,1.0,0.0,35.61650644793049,1.0238827848657757,20.14236385941637,92.8392640542553,-0.09713983101375012,5.778425108204118,1.0,23.635501047095566,0.0,1.0,95.05707896227722,5564.051824871706,1.0,1.0,0.09316932679174539,18.440677988140656,-0.013842717036144918,-44.32849076136843,1.0,23.629781884455912,1.0,-0.016943689089144575,4.05452904162611,0.9413956478763613,1.0,-0.0014161044642884222,7.209058370401334
0.57,51.55735845650961,-0.0009969887358221544,23.59639211337849,95.7035128742424,-0.01294866317793359,5.155042130767635,95.8422506179198,18.051386267919263,0.07682588110498347,7.298741661656062,-0.19299939513560793,0.0012283824799594531,1.2268496552996244,-0.434896433389683,4.255939861945538,0.10888628922252545,5622.651613683638,0.28194923093175844,95.92008983520704,2.1311737807302094,1.2222274038818948,101041.8539726871,287.996623451263,-0.08124286468442743,0.11786661907968898,0.06317710994907,404.0076315789474,0.21682796425677175,0.86,nominal,4824.270060472738,nan,pitch_program,12.715,0.0,0.0,-3.280886155496352,0.02973222345453091,0.11600587487732052,-3.2544486097634544,0.0,0.11292883281657187,0.86,0.0,0.0,0.0,0.0,0.0,0.0,-0.05680084357732435,0.0,0.0019709799530834007,-0.05680084357732435,0.0,0.0019709799530834007,0.57,1.0,20.518932640999513,-0.019297705617840236,3.7412669059346526,-0.0002050865170425428,0.02009584047002417,-0.005326892313598149,20.857230093872946,0.020790878923143314,1.0,0.0,35.61650644793049,1.0238827848657757,20.14236385941637,92.8392640542553,-0.09713983101375012,5.778425108204118,1.0,23.635501047095566,0.0,1.0,96.9621577163776,5646.195063934016,1.0,1.0,0.09316932679174539,18.440677988140656,-0.013842717036144918,-44.32849076136843,1.0,23.629781884455912,1.0,-0.016943689089144575,4.05452904162611,0.9413956478763613,1.0,-0.0014161044642884222,7.209058370401334
0.6,54.446395083356926,-0.0014661269394269348,23.747898057191094,96.30122089491041,-0.015637940120159347,5.050198127086819,96.43355168984668,18.04488142899156,0.0773432503102791,7.2598303785552725,-0.20535634621573434,-0.03494435927333991,1.2964919528301426,-0.4103232678644746,4.298034964645536,0.12002825528839536,5692.115892592373,0.2836880854678938,96.51148906975953,2.1303765604419516,1.222209617214413,101040.03804226806,287.9956386626282,-0.08124286468442743,0.11786661907968898,0.06317710994907,403.9736842105263,0.21680974495047337,0.86,nominal,4882.6022702417185,nan,pitch_program,12.7,0.0,0.0,-3.314944968938868,0.02793241961745034,0.11920153495760683,-3.2907464252687024,0.0,0.11669245410119285,0.86,0.0,0.0,0.0,0.0,0.0,0.0,-0.05743435996917238,0.0,0.0020366675362981754,-0.05743435996917238,0.0,0.0020366675362981754,0.6,1.0,20.561313516683672,0.01325645418851875,3.87152369840614,-0.0006076831387582248,0.018328000661195856,-0.0039030173531486466,20.92263092950446,0.018748824802981817,1.0,0.0,35.61650644793049,1.0238827848657757,20.14236385941637,92.8392640542553,-0.09713983101375012,5.778425108204118,1.0,24.209589392671514,0.0,1.0,96.16863775311398,5708.273954600228,1.0,1.0,-1.0409316826928092,18.530448624142767,0.003303787040425523,-44.25566912430919,1.0,22.934188480986958,1.0,-0.018461982484201257,4.0593088791813425,0.9406302548570222,1.0,-0.14156602346678263,7.005036512930313
0.63,57.35333556426888,-0.0020224000338534,23.89632132799848,96.89801603039858,-0.018542436480882166,4.947442360246166,97.02423944745605,18.038377136643046,0.07652474353877842,7.219215985343399,-0.21673678155335832,-0.07508805729080101,1.3533066343592903,-0.37814120690886704,4.336178346316534,0.13018762010677717,5761.934228519211,0.28542512569175366,97.10227242606237,2.1295989277352003,1.222192192642114,101038.25908599014,287.994673911368,-0.08124286468442743,0.11786661907968898,0.06317710994907,403.9397368421053,0.21679152564417503,0.86,nominal,4941.19437972986,nan,pitch_program,12.685,0.0,0.0,-3.3467610838050383,0.025419482286034578,0.12137727581939291,-3.324355220390504,0.0,0.11950334713211287,0.86,0.0,0.0,0.0,0.0,0.0,0.0,-0.05802094410167603,0.0,0.0020857268746090926,-0.05802094410167603,0.0,0.0020857268746090926,0.63,1.0,20.51474005858218,-0.09461864263086234,3.9267512517900984,0.0006800592648993835,0.02182570713583861,-0.005581130573605635,20.887385852522684,0.022538256167299358,1.0,0.0,58.375859350761864,-0.8747474189302875,23.81547803697041,96.87555136454455,-0.0011423916360233342,4.8715851326366995,1.0,24.209589392671514,0.0,1.0,96.92317435685071,5734.758531640986,1.0,1.0,-1.0409316826928092,18.530448624142767,0.003303787040425523,-44.25566912430919,1.0,22.934188480986958,1.0,-0.018461982484201257,4.0593088791813425,0.9406302548570222,1.0,-0.14156602346678263,7.005036512930313
0.6599999999999999,60.27815326171116,-0.002671777276596383,24.041722029742346,97.49392324807597,-0.02164590809143277,4.846690058128919,97.61432242948077,18.03187339087372,0.07423205691052882,7.177302260084958,-0.22691504287573658,-0.11893514343003217,1.396680195993073,-0.33843917171233284,4.3708653064556975,0.13916267590908069,5832.106331779178,0.28716037699322255,97.6924485403218,2.128840046028997,1.222175123097191,101036.51638189997,287.99372880680664,-0.08124286468442743,0.11786661907968898,0.06317710994907,403.9057894736842,0.21677330633787664,0.86,nominal,5000.046725026288,nan,pitch_program,12.67,0.0,0.0,-3.3759561556487006,0.02216007553826341,0.12244634820081791,-3.3553157815454218,0.0,0.12126914777333589,0.86,0.0,0.0,0.0,0.0,0.0,0.0,-0.0585613078320944,0.0,0.0021165459097322614,-0.0585613078320944,0.0,0.0021165459097322614,0.6599999999999999,1.0,20.47413791737623,-0.0682689857974341,3.960662574814549,-0.0009265310921109694,0.024278816489957968,-0.0069389131825839424,20.8538205647239,0.025267922474416858,1.0,0.0,58.375859350761864,-0.8747474189302875,23.81547803697041,96.87555136454455,-0.0011423916360233342,4.8715851326366995,1.0,23.29928537999461,0.0,1.0,98.74890083731486,5836.754609808595,1.0,1.0,-1.5434002357464938,18.62877947063445,0.07435645994242829,-44.23692608705659,1.0,24.33917424919076,1.0,-0.021637412753032458,4.030974177304665,0.9398956949256442,1.0,-0.8970182630853107,7.22994909203247
0.69,63.220822161202946,-0.003419611328902419,24.184158174694694,98.08896331639275,-0.024927801743534535,4.747871498411624,98.20380659447663,18.025370191683585,0.07033879463014399,7.134457515630186,-0.23567227132591276,-0.16613811809562098,1.427791672244222,-0.2914355040978172,4.402544601794659,0.14675972313793165,5902.631627000447,0.288893857121299,98.28202344984109,2.128099546336995,1.2221584017579366,101034.80923318637,287.9928029718645,-0.08124286468442743,0.11786661907968898,0.06317710994907,403.8718421052631,0.21675508703157828,0.86,nominal,5059.159389586556,nan,pitch_program,12.655,0.0,0.0,-3.40262003133665,0.018129807653268475,0.12233496315736411,-3.3836983314201587,0.0,0.12190863700375283,0.86,0.0,0.0,0.0,0.0,0.0,0.0,-0.059056676777520065,0.0,0.0021277071023340817,-0.059056676777520065,0.0,0.0021277071023340817,0.69,1.0,20.439979040466493,-0.02310219713680388,4.075981243136434,-0.004041671287818724,0.025410589994440902,-0.001827174727619884,20.84243028009503,0.025794800990695997,1.0,0.0,58.375859350761864,-0.8747474189302875,23.81547803697041,96.87555136454455,-0.0011423916360233342,4.8715851326366995,1.0,23.29928537999461,0.0,1.0,98.46512033609774,5841.352597035974,1.0,1.0,-1.5434002357464938,18.62877947063445,0.07435645994242829,-44.23692608705659,1.0,24.33917424919076,1.0,-0.021637412753032458,4.030974177304665,0.9398956949256442,1.0,-0.8970182630853107,7.22994909203247
0.72,66.18131675434256,-0.004270510434228909,24.323686098565442,98.68315310465402,-0.028363303510882995,4.650930795691633,98.79269542035932,18.018867539072637,0.06473332696202032,7.0909741668006,-0.24280039127685923,-0.21626945689559277,1.4491661110790346,-0.23748386547043362,4.43157917707345,0.15279678958718293,5973.509255755948,0.2906255764823911,98.87100069413471,2.127376528880015,1.222142021999972,101033.13696320029,287.9918960403593,-0.08124286468442743,0.11786661907968898,0.06317710994907,403.8378947368421,0.21673686772527995,0.86,nominal,5118.53221048844,nan,pitch_program,12.64,0.0,0.0,-3.427221825304513,0.01331421832316731,0.12098448420547576,-3.4098124277507713,0.0,0.12135414532478658,0.86,0.0,0.0,0.0,0.0,0.0,0.0,-0.059512453739672226,0.0,0.0021180293968612093,-0.059512453739672226,0.0,0.0021180293968612093,0.72,1.0,20.427203601978153,-0.07997406490806584,4.121584061803486,-0.0021813103582911174,0.027932181745316604,-0.0034213628360338743,20.83901384485935,0.028225354126890596,1.0,0.0,58.375859350761864,-0.8747474189302875,23.81547803697041,96.87555136454455,-0.0011423916360233342,4.8715851326366995,1.0,24.475608865026736,0.0,1.0,98.26202429283232,5902.636939284598,1.0,1.0,-0.28569373557395455,18.736206077085537,0.016061365269515654,-44.33190388451586,1.0,24.325344943224906,1.0,-0.011008257735826425,4.049804542862202,0.9391907847535864,1.0,-0.07488389752237769,6.861008565324734
0.75,69.15961194900972,-0.005228214234261536,24.46036076051164,99.27650648890501,-0.031923460001087575,4.555822064873254,99.38099050842511,18.01236543304088,0.057321610011995844,7.047079769388391,-0.24810629050455543,-0.268822920657127,1.4629588751255322,-0.1770772558845354,4.45825985141539,0.15710742805872974,6044.738141248521,0.2923555399264577,99.4593819223179,2.1266698849669825,1.2221259773610125,101031.49891185688,287.99100765505665,-0.08124286468442743,0.11786661907968898,0.06317710994907,403.80394736842106,0.21671864841898159,0.86,nominal,5178.164834069913,nan,pitch_program,12.625,0.0,0.0,-3.450174844849044,0.007709701920840067,0.11835370661911906,-3.4340298780097354,0.0,0.11955388210138608,0.86,0.0,0.0,0.0,0.0,0.0,0.0,-0.0599351279831291,0.0,0.002086608876210304,-0.0599351279831291,0.0,0.002086608876210304,0.75,1.0,20.42663497431958,-0.08455724459192612,4.291784014650096,-0.004129857260496229,0.024167176891914388,-0.006342474897379503,20.872804706845578,0.025324595707356186,1.0,0.0,58.375859350761864,-0.8747474189302875,23.81547803697041,96.87555136454455,-0.0011423916360233342,4.8715851326366995,1.0,24.475608865026736,0.0,1.0,98.6681595119215,5974.790570741553,1.0,1.0,-0.28569373557395455,18.736206077085537,0.016061365269515654,-44.33190388451586,1.0,24.325344943224906,1.0,-0.011008257735826425,4.049804542862202,0.9391907847535864,1.0,-0.07488389752237769,6.861008565324734
0.78,72.15568300086923,-0.006295475631799056,24.594235960839697,99.86903506198377,-0.03557537991791736,4.462506677601906,99.96869207740511,18.00586387358831,0.04802991619174182,7.002966469031875,-0.2514160836348412,-0.32321636270736825,1.4703421328162214,-0.11085003562948965,4.482836681652943,0.15954453827228657,6116.317042129715,0.29408374820736133,100.04716738973721,2.1259788825037913,1.2221102615152815,101029.89443302265,287.9901374662545,-0.08124286468442743,0.11786661907968898,0.06317710994907,403.77,0.21670042911268322,0.86,nominal,5238.056761918889,nan,pitch_program,12.61,0.0,0.0,-3.471666704369602,0.0013243143000030916,0.11442087014068332,-3.4566119738256553,0.0,0.11647407492496442,0.86,0.0,0.0,0.0,0.0,0.0,0.0,-0.06032925990711774,0.0,0.0020328561006551964,-0.06032925990711774,0.0,0.0020328561006551964,0.78,1.0,20.356882756318853,0.04206787900072048,4.338554671055926,-0.005032806607214519,0.02360840149303646,-0.0015534058304110241,20.81411785050466,0.024188816281000256,1.0,0.0,58.375859350761864,-0.8747474189302875,23.81547803697041,96.87555136454455,-0.0011423916360233342,4.8715851326366995,1.0,24.07856353913423,0.0,1.0,99.78037349142669,6058.0176033397465,1.0,1.0,-0.1930400352601112,18.76437509218661,0.09501880876980434,-44.185551904213675,1.0,24.53709539396495,1.0,-0.01206521794208459,4.062280269000003,0.9385144100979007,1.0,0.34074282788003624,6.94810658700761
0.8099999999999999,75.1695054535296,-0.007473951212217133,24.725364533715705,100.46074842201216,-0.03928251934726924,4.370952429200258,100.55579914537738,17.999362860714932,0.03680741097886875,6.958805468755942,-0.2525793444092672,-0.3787961968368232,1.4720045248796945,-0.039577713299542044,4.505534164410044,0.15998415332000426,6188.244569931622,0.2958101985218508,100.63435614116597,2.1253032514155725,1.222094868250875,101028.32289220384,287.98928513053085,-0.08124286468442743,0.11786661907968898,0.06317710994907,403.73605263157896,0.21668220980638486,0.86,nominal,5298.207366987302,nan,pitch_program,12.595,0.0,0.0,-3.4917760805715012,-0.005821581512166636,0.10918535338371865,-3.4777104378731627,0.0,0.11210084200021697,0.86,0.0,0.0,0.0,0.0,0.0,0.0,-0.060697497571860395,0.0,0.001956528787161732,-0.060697497571860395,0.0,0.001956528787161732,0.8099999999999999,1.0,20.382062233753594,-0.0007320713591207548,4.3828085852222065,-0.009301091271648056,0.027626938900836846,-0.00022875016072553233,20.847960872258717,0.02915150731111741,1.0,0.0,58.375859350761864,-0.8747474189302875,23.81547803697041,96.87555136454455,-0.0011423916360233342,4.8715851326366995,1.0,24.07856353913423,0.0,1.0,100.8974088386768,6157.8936762505255,1.0,1.0,-0.1930400352601112,18.76437509218661,0.09501880876980434,-44.185551904213675,1.0,24.53709539396495,1.0,-0.01206521794208459,4.062280269000003,0.9385144100979007,1.0,0.34074282788003624,6.94810658700761
0.84,78.20105508252435,-0.008764102766796662,24.853798532531542,101.05165429982522,-0.043005051819317644,4.281133293861219,101.1423095862739,17.99286239442074,0.02362851250881483,6.914745496417508,-0.2514732342318376,-0.434843638180501,1.4686849254319452,0.035825868603516484,4.526550053930527,0.15832911756018347,6260.519191741441,0.2975348846789067,101.22094606824805,2.1246429050908073,1.2220797914479749,101026.78366432177,287.9884503095385,-0.08124286468442743,0.11786661907968898,0.06317710994907,403.7021052631579,0.2166639905000865,0.86,nominal,5358.615897601887,nan,pitch_program,12.58,0.0,0.0,-3.5106069183039965,-0.013694851405333504,0.10266913123753182,-3.497448326131663,0.0,0.10644181554260587,0.86,0.0,0.0,0.0,0.0,0.0,0.0,-0.06104198870936195,0.0,0.0018577601430189471,-0.06104198870936195,0.0,0.0018577601430189471,0.84,1.0,20.358795362951195,-0.02641709102200284,4.44997036545471,-0.005424511025335658,0.024900229621553728,0.002026079234960549,20.83946934896967,0.025564658263634743,1.0,0.0,80.01950210689508,-1.2997836758511203,26.894718316907646,101.03814561334251,-0.152262912363823,4.371105396609816,1.0,24.334820052464682,0.0,1.0,101.05952381448276,6204.821811380426,1.0,1.0,0.9615370082784876,18.780981775857168,0.016674875636923173,-44.15756229919723,1.0,24.7509648732649,1.0,-0.01825799428833677,4.050864915302246,0.9378655036686712,1.0,-0.2543346548656725,6.709582974731582
0.87,81.25030784522941,-0.010165112475665644,24.979589394833035,101.64175875683539,-0.04670032362896606,4.193028743383129,101.7282202446587,17.98636247470574,0.008494973673767874,6.87090994845433,-0.24800646224258316,-0.49058275626153597,1.46121711858126,0.11431423890251234,4.546053061952229,0.1545125739913905,6333.139240433666,0.29925779744134584,101.80693402555904,2.123997739187892,1.222065025059483,101025.27613173502,287.98763266893354,-0.08124286468442743,0.11786661907968898,0.06317710994907,403.66815789473685,0.21664577119378817,0.86,nominal,5419.281487411733,nan,pitch_program,12.565,0.0,0.0,-3.5283010760672338,-0.02224932393928541,0.0949179888372635,-3.515959976093005,0.0,0.09952751951940045,0.86,0.0,0.0,0.0,0.0,0.0,0.0,-0.061365077951164054,0.0,0.0017370829119564622,-0.061365077951164054,0.0,0.0017370829119564622,0.87,1.0,20.306920102737397,-0.0070800163535631,4.451900012210175,-0.0091412977434112,0.022573625084342682,0.0024603492432906603,20.78919113155461,0.024478259584396943,1.0,0.0,80.01950210689508,-1.2997836758511203,26.894718316907646,101.03814561334251,-0.152262912363823,4.371105396609816,1.0,24.334820052464682,0.0,1.0,101.84819336237067,6404.437895834105,1.0,1.0,0.9615370082784876,18.780981775857168,0.016674875636923173,-44.15756229919723,1.0,24.7509648732649,1.0,-0.01825799428833677,4.050864915302246,0.9378655036686712,1.0,-0.2543346548656725,6.709582974731582
0.8999999999999999,84.31723983865099,-0.011674814294337872,25.102788076931535,102.23106644738576,-0.05032339395574094,4.106622736616709,102.31352711012693,17.979863101569926,-0.008562374794267512,6.827399931584263,-0.24212299036863238,-0.5451903450787559,1.4503338655832552,0.19471703066077298,4.5641865857141,0.14850117766706952,6406.10293291697,0.30097892504336804,102.39231600654917,2.123367648764403,1.2220505630951957,101023.79968262342,287.9868318774999,-0.08124286468442743,0.11786661907968898,0.06317710994907,403.6342105263158,0.2166275518874898,0.86,nominal,5480.20317155198,nan,pitch_program,12.55,0.0,0.0,-3.5449874864463222,-0.031425745291364826,0.08600239762424276,-3.5333764823049956,0.0,0.09141244638230585,0.86,0.0,0.0,0.0,0.0,0.0,0.0,-0.06166905332875733,0.0,0.0015954481666740161,-0.06166905332875733,0.0,0.0015954481666740161,0.8999999999999999,1.0,20.316374902416054,0.025150355093561595,4.5662510386072075,-0.010706682621411032,0.028992868165035185,0.0043048840247707255,20.823217096872032,0.031204991326027665,1.0,0.0,80.01950210689508,-1.2997836758511203,26.894718316907646,101.03814561334251,-0.152262912363823,4.371105396609816,1.0,25.84774074085914,0.0,1.0,102.81567413688018,6309.935304459453,1.0,1.0,0.5790261324109499,18.905702827556755,0.061604818106703076,-44.138191087189334,1.0,25.1404469290601,1.0,-0.01599304152509419,4.060234697843305,0.9372430298076712,1.0,-0.21769183990858482,7.235095251293704
0.9299999999999999,87.40182726395795,-0.013289644012833836,25.223445163163824,102.81958084356536,-0.05382765728319881,4.021902874409619,102.89822547058014,17.9733642750133,-0.02748228364724937,6.784299885033613,-0.23380538242964868,-0.5978075963703281,1.4365816372585172,0.2757518188531685,4.5810748583461205,0.14029795159808198,6479.408386488192,0.3026982536457231,102.9770872982871,2.122752611147084,1.222036399608966,101022.35370967691,287.9860476064394,-0.08124286468442743,0.11786661907968898,0.06317710994907,403.6002631578947,0.21660933258119142,0.86,nominal,5541.379901006514,nan,pitch_program,12.535000000000002,0.0,0.0,-3.56075751325501,-0.041151980698188255,0.07601797278320832,-3.5498051008750044,0.0,0.08217576222284732,0.86,0.0,0.0,0.0,0.0,0.0,0.0,-0.06195578681435827,0.0,0.00143423761612466,-0.06195578681435827,0.0,0.00143423761612466,0.9299999999999999,1.0,20.254124260535427,-0.027051592432231916,4.671531444014545,-0.012109239631837363,0.023397991156808802,0.006211044719158726,20.78589635744101,0.027068002348506492,1.0,0.0,80.01950210689508,-1.2997836758511203,26.894718316907646,101.03814561334251,-0.152262912363823,4.371105396609816,1.0,25.84774074085914,0.0,1.0,102.83151925967344,6358.948834849771,1.0,1.0,0.5790261324109499,18.905702827556755,0.061604818106703076,-44.138191087189334,1.0,25.1404469290601,1.0,-0.01599304152509419,4.060234697843305,0.9372430298076712,1.0,-0.21769183990858482,7.235095251293704
0.96,90.50404639553705,-0.015004610313788747,25.341610959264425,103.4073043859696,-0.05716554336516366,3.9388598700201003,103.4823100116516,17.966865995035864,-0.04817220879312954,6.741681214599871,-0.2230776983896106,-0.6475535268342886,1.4203876825938646,0.3560391450284201,4.596826871974314,0.1299446994455478,6553.053629026422,0.30441576763204264,103.56124258218153,2.1221526964471353,1.2220225286877322,101020.93760897507,287.98527952876475,-0.08124286468442743,0.11786661907968898,0.06317710994907,403.56631578947366,0.21659111327489305,0.86,nominal,5602.810551787455,nan,pitch_program,12.520000000000001,0.0,0.0,-3.5756794923283612,-0.051343481654060726,0.06508547588354371,-3.565329735747018,0.0,0.07192159041926516,0.86,0.0,0.0,0.0,0.0,0.0,0.0,-0.06222674280804484,0.0,0.0012552685560869858,-0.06222674280804484,0.0,0.0012552685560869858,0.96,1.0,20.25888679203387,-0.02973749619748949,4.726303388253359,-0.009185021575134459,0.023768448267481302,0.0061262153975933835,20.80291619194145,0.026207523146557186,1.0,0.0,80.01950210689508,-1.2997836758511203,26.894718316907646,101.03814561334251,-0.152262912363823,4.371105396609816,1.0,25.373497364892597,0.0,1.0,103.32804322026573,6495.012288272639,1.0,1.0,-2.322128579150027,18.986390409110022,0.13078432663958325,-44.08389603774868,1.0,25.638671984646344,1.0,-0.005517053715546571,4.053768310450244,0.9366459726018389,1.0,-0.41494678383330874,7.277794358382507
0.99,93.62387355340717,-0.016813288956712486,25.457335574059314,103.9942385956706,-0.060289288097458,3.857487159829605,104.06577488819161,17.960368261637615,-0.07050795711644066,6.699603609222656,-0.21000783919112395,-0.6935400603129313,1.4021380738750484,0.43412078115042946,4.611537849688178,0.11752388753644809,6627.0366060657325,0.306131449822846,104.14477600670419,2.1215686003425662,1.2220089444419135,101019.55077900625,287.9845273187686,-0.08124286468442743,0.11786661907968898,0.06317710994907,403.53236842105264,0.21657289396859472,0.86,nominal,5664.493931447235,nan,pitch_program,12.505,0.0,0.0,-3.589817313702869,-0.06190403219628636,0.053350334597606824,-3.580022282520529,-0.03714241931777182,0.028768636167706065,0.86,0.0,0.0,0.0,0.0,0.0,0.0,-0.06248317612474587,-0.0006482575092514642,0.0005021074224347944,-0.06248317612474587,-0.0006482575092514642,0.0005021074224347944,0.99,1.0,20.2360998940342,-0.01932381229353944,4.799209004174324,-0.01103690840958878,0.02461823022395498,0.008699138473058508,20.79741617116897,0.028346880194736575,1.0,0.0,80.01950210689508,-1.2997836758511203,26.894718316907646,101.03814561334251,-0.152262912363823,4.371105396609816,1.0,25.373497364892597,0.0,1.0,103.94993202422634,6679.887210839734,1.0,1.0,-2.322128579150027,18.986390409110022,0.13078432663958325,-44.08389603774868,1.0,25.638671984646344,1.0,-0.005517053715546571,4.053768310450244,0.9366459726018389,1.0,-0.41494678383330874,7.277794358382507
1.02,96.7612850660181,-0.018711218566145937,25.570668993273244,104.58038375369793,-0.06326432031444834,3.7777806404643908,104.64861344046761,17.953871074818558,-0.09539974951491847,6.658114850175298,-0.1940020608211981,-0.7676750719246803,1.382190067546247,0.5319070066048658,4.625288494192244,0.10247753835791858,6701.355158915418,0.3078452810171917,104.72768103138638,2.1209992510148736,1.2219956409967359,101018.19261978159,287.9837906515437,-0.08124286468442743,0.11786661907968898,0.06317710994907,403.49842105263156,0.21655467466229633,0.86,nominal,5726.428748589092,nan,pitch_program,12.49,0.0,0.0,-3.6032430971106684,-0.0748762329943634,0.03879878989177141,-3.5939547712746127,-0.05978270752372677,0.011507454467082427,0.86,0.0,0.0,0.0,0.0,0.0,0.0,-0.06272634392650171,-0.0010434050820458181,0.00020084296897391777,-0.06272634392650171,-0.0010434050820458181,0.00020084296897391777,1.02,1.0,20.208710292794937,-0.10713629488278872,4.9099963608531505,-0.014382309754236386,0.023019417807645912,0.007880255162679548,20.796911168425673,0.02826380815634557,1.0,0.0,80.01950210689508,-1.2997836758511203,26.894718316907646,101.03814561334251,-0.152262912363823,4.371105396609816,1.0,26.051007275501103,0.0,1.0,105.30620127810384,6817.810954546417,1.0,1.0,-1.2040775467995517,19.07188622313146,0.21711423780076236,-44.06824612443422,1.0,25.775449384219133,1.0,-0.031042618625218114,4.070498717025016,0.9360733275168169,1.0,-0.32667365327285286,6.427842539576407
1.05,99.91625727598775,-0.02068931308861354,25.68166112812504,105.16574033232125,-0.06593648408225347,3.699737828393164,105.23081937941944,17.947374434578688,-0.12327530716016778,6.617255078383396,-0.17511522341543675,-0.8564139687781034,1.360796666799682,0.6279392794432476,4.63815191467805,0.08497789161950563,6776.007126453061,0.3095572423739308,105.30995123686297,2.1204451486846145,1.2219826124865154,101016.8625322511,287.98306920266714,-0.08124286468442743,0.11786661907968898,0.06317710994907,403.46447368421053,0.216536455355998,0.86,nominal,5788.613735734127,nan,pitch_program,12.475,0.0,0.0,-3.61599765580494,-0.08960562024813731,0.023183494085760408,-3.607180501992809,-0.0776764551583731,0.004602981786832971,0.86,0.0,0.0,0.0,0.0,0.0,0.0,-0.0629571764735164,-0.001355709893791344,8.033718758956712e-05,-0.0629571764735164,-0.001355709893791344,8.033718758956712e-05,1.05,1.0,20.227493533128282,0.027835980482736875,5.010321005902059,-0.015336812860080783,0.022716144182640213,0.012688340367899936,20.83880001479786,0.030203228577807988,1.0,0.0,100.17303619101311,-3.4539199322016967,27.00504734756104,105.03202030752213,-0.07755421818402651,3.5689439404287,1.0,26.051007275501103,0.0,1.0,105.37958744569346,6797.135523050686,1.0,1.0,-1.2040775467995517,19.07188622313146,0.21711423780076236,-44.06824612443422,1.0,25.775449384219133,1.0,-0.031042618625218114,4.070498717025016,0.9360733275168169,1.0,-0.32667365327285286,6.427842539576407
1.08,103.08876651376352,-0.022735445391410466,25.790361864631215,105.75030792585888,-0.06820441009323086,3.623357883539185,105.81238585632465,17.940878340918008,-0.15437522817678848,6.577057235813212,-0.15371493041295953,-0.9547095963652228,1.338207294788448,0.7118642570790604,4.650192927722122,0.06546447351832609,6850.990265271954,0.31126731358808823,105.89157970443111,2.119906676665699,1.2219698530488659,101015.55991771193,287.9823626478799,-0.08124286468442743,0.11786661907968898,0.06317710994907,403.43052631578945,0.21651823604969964,0.86,nominal,5851.047552483652,nan,pitch_program,12.46,0.0,0.0,-3.628122136454918,-0.10586453155624649,0.007492822766822498,-3.6197454826700746,-0.09458930099709713,0.0018411927147331884,0.86,0.0,0.0,0.0,0.0,0.0,0.0,-0.06317647675678414,-0.0016508947395593003,3.2134875035826845e-05,-0.06317647675678414,-0.0016508947395593003,3.2134875035826845e-05,1.08,1.0,20.158103840528113,-0.0027770545283313693,5.036638120305791,-0.020599346055427608,0.02253129328680513,0.009688809959616155,20.7777978070936,0.03202913163857003,1.0,0.0,100.17303619101311,-3.4539199322016967,27.00504734756104,105.03202030752213,-0.07755421818402651,3.5689439404287,1.0,26.708468860544897,0.0,1.0,105.30812519090156,6845.536494367896,1.0,1.0,0.8038106664620819,19.109395184789236,0.1616376121103876,-44.07003255444697,1.0,25.93492277530953,1.0,-0.009642060095562332,4.097861299065838,0.935524095338422,1.0,-0.4329516021866359,6.160586820472233
1.1099999999999999,106.27878907666363,-0.024835277615358545,25.89682110558496,106.33408543000368,-0.0699944074649359,3.5486413651248117,106.39330561172856,17.934382793836516,-0.1888748070265277,6.537547306507093,-0.13033526107774357,-1.060989836054986,1.314672713365098,0.778165666551441,4.661467740525832,0.044521962199085816,6926.302263482354,0.31297547324271124,106.47255913570241,2.119384112448683,1.2219573568197508,101014.28417730296,287.98167066281366,-0.08124286468442743,0.11786661907968898,0.06317710994907,403.3965789473684,0.21650001674340127,0.86,nominal,5913.728800190421,nan,pitch_program,12.445,0.0,0.0,-3.6396595579488458,-0.12360548054217284,-0.007604975241259054,-3.631693927837338,-0.11199900872414256,0.0007364770858932754,0.86,0.0,0.0,0.0,0.0,0.0,0.0,-0.06338501646544689,-0.0019547514612061412,1.285395001433074e-05,-0.06338501646544689,-0.0019547514612061412,1.285395001433074e-05,1.1099999999999999,1.0,20.153353587498668,0.030200598060866116,5.0375349769112665,-0.020740473604575208,0.01900780650063147,0.012251831470692403,20.77342849754159,0.03068503426254854,1.0,0.0,100.17303619101311,-3.4539199322016967,27.00504734756104,105.03202030752213,-0.07755421818402651,3.5689439404287,1.0,26.708468860544897,0.0,1.0,106.61720234754836,6844.068319495557,1.0,1.0,0.8038106664620819,19.109395184789236,0.1616376121103876,-44.07003255444697,1.0,25.93492277530953,1.0,-0.009642060095562332,4.097861299065838,0.935524095338422,1.0,-0.4329516021866359,6.160586820472233
1.14,109.48630121189892,-0.026972813351078977,26.001088803741183,106.91707117450984,-0.07125119119068102,3.475589938540874,106.97357108505042,17.927887793334214,-0.22693931468055484,6.498745460709785,-0.10560551101926267,-1.1752413202070129,1.2904145989711033,0.823684516315832,4.672024752843556,0.022818801957678003,7001.94075229654,0.3146816990992334,107.05288195134652,2.1188776612309543,1.2219451179295895,101013.034711607,287.98099292277567,-0.08124286468442743,0.11786661907968898,0.06317710994907,403.3626315789474,0.21648179743710294,0.86,nominal,5976.656032861377,nan,pitch_program,12.43,0.0,0.0,-3.6506466484118363,-0.14286960622825304,-0.021591685527848854,-3.6430655601820368,-0.13052136722660884,0.00029459083435731014,0.86,0.0,0.0,0.0,0.0,0.0,0.0,-0.06358348889118817,-0.002278027602308944,5.141580005732296e-06,-0.06358348889118817,-0.002278027602308944,5.141580005732296e-06,1.14,1.0,20.120786870382172,-0.06319703140707317,5.270301420546659,-0.02024075366418457,0.02516419570965235,0.01702345541131893,20.79966670914557,0.03650647735332801,1.0,0.0,100.17303619101311,-3.4539199322016967,27.00504734756104,105.03202030752213,-0.07755421818402651,3.5689439404287,1.0,24.59717847370986,0.0,1.0,107.29004456297336,6926.715392942442,1.0,1.0,0.036317740345055784,19.131760311125632,0.28427295125762003,-43.9887019055993,1.0,25.835571949024537,1.0,-0.012572327754007337,4.104838950433962,0.934997277990647,1.0,-0.11060101592224238,6.588554933634721
1.17,112.71127910284007,-0.029130856544261043,26.103214987521866,107.49926303137148,-0.07193477310606892,3.4042061260228254,107.55317450567428,17.9213933394111,-0.2687544497258417,6.460667400177938,-0.08020790750641901,-1.2982994641160166,1.2656182158127613,0.8466614466291628,4.68190562694588,0.0010693512052633036,7077.903316536544,0.31638596835417987,107.63254037839134,2.118387474789746,1.221933130500222,101011.81092034056,287.9803291025811,-0.08124286468442743,0.11786661907968898,0.06317710994907,403.3286842105263,0.21646357813080455,0.86,nominal,6039.827766381393,nan,pitch_program,12.415,0.0,0.0,-3.6611114179910467,-0.163755949146182,-0.03403962154820175,-3.6538930748674425,-0.15046211637835272,0.00011783633374292409,0.86,0.0,0.0,0.0,0.0,0.0,0.0,-0.06377246467225654,-0.002626059330321141,2.0566320022929186e-06,-0.06377246467225654,-0.002626059330321141,2.0566320022929186e-06,1.17,1.0,20.062344511100484,-0.01874070835836457,5.318371036032369,-0.024508610959416248,0.02117845981639565,0.014556862201448457,20.755314716311617,0.035511989644437865,1.0,0.0,100.17303619101311,-3.4539199322016967,27.00504734756104,105.03202030752213,-0.07755421818402651,3.5689439404287,1.0,24.59717847370986,0.0,1.0,107.35481915780733,6991.272451601493,1.0,1.0,0.036317740345055784,19.131760311125632,0.28427295125762003,-43.9887019055993,1.0,25.835571949024537,1.0,-0.012572327754007337,4.104838950433962,0.934997277990647,1.0,-0.11060101592224238,6.588554933634721
1.2,115.95369885811942,-0.03129144351529667,26.203249780974684,108.08065850931197,-0.07201956570118757,3.3344931150939168,108.13210797426898,17.914899432067177,-0.31454817812833086,6.423325225556319,-0.05484606139507793,-1.431606645079563,1.2404470551507245,0.8463822760741315,4.691145921593819,-0.0199951543789361,7154.187504557045,0.31808825787447476,108.21152653024913,2.1179136432653785,1.2219213886425626,101010.61220211412,287.97967887642363,-0.08124286468442743,0.11786661907968898,0.06317710994907,403.2947368421053,0.21644535882450622,0.86,nominal,6103.242486944077,nan,pitch_program,12.4,0.0,0.0,-3.6710766580583454,-0.18641474301574185,-0.044596243844290305,-3.6642032247819842,-0.1720336923607862,4.713453349716964e-05,0.86,0.0,0.0,0.0,0.0,0.0,0.0,-0.0639524107346395,-0.0030025543560587356,8.226528009171676e-07,-0.0639524107346395,-0.0030025543560587356,8.226528009171676e-07,1.2,1.0,20.06524115094029,-0.03148079297284844,5.319942458768744,-0.02591244588804226,0.02306722522754512,0.01445215872764326,20.75853273356102,0.037582131704947334,1.0,0.0,100.17303619101311,-3.4539199322016967,27.00504734756104,105.03202030752213,-0.07755421818402651,3.5689439404287,1.0,25.249398160248276,0.0,1.0,107.4983478180112,7154.315367597639,1.0,1.0,-0.40979723916708777,19.1913218402456,0.20913462964016458,-44.004806788973674,1.0,25.875256893527208,1.0,0.007088712840018285,4.107968193274599,0.9344918755475633,1.0,0.02696352342629906,6.445544593829738
