time_s,sensor_time_s,imu_valid,imu_ax_mps2,imu_ay_mps2,imu_az_mps2,gyro_p_rps,gyro_q_rps,gyro_r_rps,imu_accel_norm_mps2,imu_gyro_norm_rps,gps_valid,gps_latency_s,gps_x_m,gps_y_m,gps_z_m,gps_vx_mps,gps_vy_mps,gps_vz_mps,baro_valid,baro_alt_m,baro_bias_m,pitot_valid,pitot_airspeed_mps,pitot_qbar_pa,pitot_compressibility_factor,mag_valid,mag_heading_deg,mag_x_ut,mag_y_ut,mag_z_ut,radar_valid,radar_agl_m,optical_flow_valid,optical_flow_x_radps,optical_flow_y_radps,optical_flow_quality,horizon_valid,horizon_roll_deg,horizon_pitch_deg
0.0,0.0,1.0,16.911415270186744,0.04947534379974074,0.22884005925179307,0.0020496890485300055,0.0034670290373362495,0.0014289454661326477,16.913035860633293,0.004273570016576025,1.0,0.0,-0.6470631796003397,1.3313514358594836,21.640168148178226,85.17703608167885,0.05225276163995546,7.880257797746393,1.0,19.512552440544518,0.0,1.0,85.4933992298977,4444.279135840035,1.0,1.0,1.4356082144579825,19.448508450116893,0.02515073517330344,-43.862311760623584,1.0,19.865327484861723,1.0,0.014473502116766398,4.261962511288229,0.95,1.0,0.5447866360085145,6.047405196481685
0.03,0.03,1.0,17.223416311973825,0.014029715945413893,0.6707148902371005,-0.0017489201511032288,-0.15036751287425335,-0.0003450930042083729,17.236476575927036,0.15037807931631936,1.0,0.0,-0.6470631796003397,1.3313514358594836,21.640168148178226,85.17703608167885,0.05225276163995546,7.880257797746393,1.0,19.512552440544518,0.0,1.0,85.70125743641019,4492.446144850427,1.0,1.0,1.4356082144579825,19.448508450116893,0.02515073517330344,-43.862311760623584,1.0,19.865327484861723,1.0,0.014473502116766398,4.261962511288229,0.95,1.0,0.5447866360085145,6.047405196481685
0.06,0.06,1.0,17.492250682141286,-0.0549745900429562,1.2022581837578434,0.0016478038135834244,-0.21605407916812552,-0.003043589080618081,17.533604332048657,0.21608179890283766,1.0,0.0,-0.6470631796003397,1.3313514358594836,21.640168148178226,85.17703608167885,0.05225276163995546,7.880257797746393,1.0,20.987791040886446,0.0,1.0,86.34677256514861,4540.991562720362,1.0,1.0,-0.1909048926276843,18.981348107317107,0.10615602195379362,-44.080921955383886,1.0,20.602842982684113,1.0,-0.016824382433985756,4.224864234630465,0.9488515548073517,1.0,-0.022861655811491327,6.4616620616716185
0.09,0.09,1.0,17.74922049122521,-0.007741323742273929,1.6027609515754346,0.0008318218054503717,-0.17463892331530856,-0.006498902823539206,17.82144019550937,0.17476178415819646,1.0,0.0,-0.6470631796003397,1.3313514358594836,21.640168148178226,85.17703608167885,0.05225276163995546,7.880257797746393,1.0,20.987791040886446,0.0,1.0,87.03457916209399,4670.9900287579385,1.0,1.0,-0.1909048926276843,18.981348107317107,0.10615602195379362,-44.080921955383886,1.0,20.602842982684113,1.0,-0.016824382433985756,4.224864234630465,0.9488515548073517,1.0,-0.022861655811491327,6.4616620616716185
0.12,0.12,1.0,18.011983272862246,0.008829406712991181,1.8023891023645162,0.0013716927274098146,-0.10010937200127093,-0.004840176060380075,18.101939836841094,0.1002356982702408,1.0,0.0,-0.6470631796003397,1.3313514358594836,21.640168148178226,85.17703608167885,0.05225276163995546,7.880257797746393,1.0,20.35015131847951,0.0,1.0,88.07697266599772,4595.6758610297875,1.0,1.0,-0.5342363795626877,18.63040887167744,-0.016107324751044774,-44.208349930511886,1.0,20.853251013381538,1.0,0.004192719460303388,4.18944557471457,0.9477629311617708,1.0,0.19221679661349927,7.3119448397525675
0.15,0.15,1.0,18.36263455310126,0.005511658567444847,2.005736132031573,0.0011858860344028967,-0.05280264333475373,-0.007990241913281435,18.47185306190111,0.05341693958527167,1.0,0.0,-0.6470631796003397,1.3313514358594836,21.640168148178226,85.17703608167885,0.05225276163995546,7.880257797746393,1.0,20.35015131847951,0.0,1.0,87.97402594432609,4659.02772910593,1.0,1.0,-0.5342363795626877,18.63040887167744,-0.016107324751044774,-44.208349930511886,1.0,20.853251013381538,1.0,0.004192719460303388,4.18944557471457,0.9477629311617708,1.0,0.19221679661349927,7.3119448397525675
0.18,0.18,1.0,18.552126549468777,0.04385960794198694,2.0622158783664735,0.004851840208831714,-0.04120639321455978,-0.005029351036420402,18.666442015062753,0.041794755257238886,1.0,0.0,-0.6470631796003397,1.3313514358594836,21.640168148178226,85.17703608167885,0.05225276163995546,7.880257797746393,1.0,20.096562395061557,0.0,1.0,88.2618102292315,4792.562071328328,1.0,1.0,-1.0982011508403693,18.540839045565683,0.05127999399946094,-44.19922153077744,1.0,21.422425757919722,1.0,0.003148846068898999,4.159771661215526,0.9467265625259934,1.0,0.5600640623629289,6.925504633844054
0.21,0.21,1.0,18.862483081643237,0.058298184779744563,2.2751428502428634,0.00384681229036641,-0.0412141124225598,-0.0045410982697304154,18.999287925410183,0.04164159700434243,1.0,0.0,18.186403719007835,0.5408553338871585,20.86010662428981,88.78295635492817,-0.05666639814299359,6.676972434998881,1.0,20.096562395061557,0.0,1.0,89.15998905094533,4784.307675183967,1.0,1.0,-1.0982011508403693,18.540839045565683,0.05127999399946094,-44.19922153077744,1.0,21.422425757919722,1.0,0.003148846068898999,4.159771661215526,0.9467265625259934,1.0,0.5600640623629289,6.925504633844054
0.24,0.24,1.0,19.27227914863383,0.013670949218630735,2.3844239775555587,-0.001276425386127664,-0.03326998282671986,-0.0026549883308176936,19.419227795730208,0.033400149432201105,1.0,0.0,18.186403719007835,0.5408553338871585,20.86010662428981,88.78295635492817,-0.05666639814299359,6.676972434998881,1.0,22.85630729068697,0.0,1.0,89.74415971262168,4845.338228535438,1.0,1.0,-0.9473536136343721,18.43192223913645,0.020058292584110887,-44.2677904012749,1.0,21.783601015728404,1.0,-0.014040691652940578,4.122612306715704,0.9457383623392646,1.0,0.33532230500984916,7.323829133588279
0.27,0.27,1.0,19.426823055354372,0.05028971653460768,2.6275281322856854,0.0025623169721929254,-0.026442987147942472,-0.008501608142922636,19.603772268764754,0.027893984630884973,1.0,0.0,18.186403719007835,0.5408553338871585,20.86010662428981,88.78295635492817,-0.05666639814299359,6.676972434998881,1.0,22.85630729068697,0.0,1.0,89.81954456530087,4955.432377713682,1.0,1.0,-0.9473536136343721,18.43192223913645,0.020058292584110887,-44.2677904012749,1.0,21.783601015728404,1.0,-0.014040691652940578,4.122612306715704,0.9457383623392646,1.0,0.33532230500984916,7.323829133588279
0.3,0.3,1.0,19.72489559267568,0.08686130339689646,2.778958422125111,-0.0005228856101484216,-0.0104421111057762,-0.008888932405673042,19.919881047332694,0.013723126940289494,1.0,0.0,18.186403719007835,0.5408553338871585,20.86010662428981,88.78295635492817,-0.05666639814299359,6.676972434998881,1.0,21.108128765219515,0.0,1.0,90.35417799029939,5077.345946650632,1.0,1.0,-0.8097233069494031,18.350076043752146,-0.010282592099290964,-44.29608655600872,1.0,22.137870163611698,1.0,0.0011258722349667474,4.110514056635951,0.9447941705945796,1.0,0.4129525907967848,7.5798840399875065
0.32999999999999996,0.32999999999999996,1.0,20.050958453149935,0.02478250109884298,2.942535585354266,0.0038672246440980655,-0.00268343899809352,-0.007345957707992425,20.2657362248052,0.008724641307929049,1.0,0.0,18.186403719007835,0.5408553338871585,20.86010662428981,88.78295635492817,-0.05666639814299359,6.676972434998881,1.0,21.108128765219515,0.0,1.0,91.63374792584823,5120.0881489790945,1.0,1.0,-0.8097233069494031,18.350076043752146,-0.010282592099290964,-44.29608655600872,1.0,22.137870163611698,1.0,0.0011258722349667474,4.110514056635951,0.9447941705945796,1.0,0.4129525907967848,7.5798840399875065
0.36,0.36,1.0,20.32500622361115,0.02795884703490093,2.9367671626933807,0.003405211387661417,0.0003794967577652982,-0.009145852614399801,20.53609653889545,0.009766580897537125,1.0,0.0,18.186403719007835,0.5408553338871585,20.86010662428981,88.78295635492817,-0.05666639814299359,6.676972434998881,1.0,22.544288419980482,0.0,1.0,92.43129148696413,5232.223111090678,1.0,1.0,0.32537167858551025,18.3856030893584,0.02528143771539427,-44.37154914763764,1.0,22.389780886444075,1.0,0.0012053555771892686,4.063751757012658,0.9438904184530517,1.0,0.786156376437282,7.12223617107899
0.39,0.39,1.0,20.61569413139075,-0.0614949786893736,3.188173198351185,0.0016340494290447954,0.0053866675996398815,-0.007435026135045729,20.860850282146888,0.009325551940468978,1.0,0.0,18.186403719007835,0.5408553338871585,20.86010662428981,88.78295635492817,-0.05666639814299359,6.676972434998881,1.0,22.544288419980482,0.0,1.0,92.1142409874002,5153.167106831885,1.0,1.0,0.32537167858551025,18.3856030893584,0.02528143771539427,-44.37154914763764,1.0,22.389780886444075,1.0,0.0012053555771892686,4.063751757012658,0.9438904184530517,1.0,0.786156376437282,7.12223617107899
0.42,0.42,1.0,20.62127155012358,0.03737920724439008,3.298672749274448,-0.0013473297797116446,0.005396601139451222,-0.01063282705269972,20.883473835927685,0.011999817187201106,1.0,0.0,35.61650644793049,1.0238827848657757,20.14236385941637,92.8392640542553,-0.09713983101375012,5.778425108204118,1.0,22.380552544792973,0.0,1.0,92.67455387498336,5294.859370956742,1.0,1.0,0.10133607560952922,18.35603070906075,0.00358970357314498,-44.333941850073415,1.0,22.623571408437776,1.0,-0.031292207388277045,4.08585890051071,0.9430241978534132,1.0,0.10785796340328997,7.639236965560232
0.44999999999999996,0.44999999999999996,1.0,20.644989949167076,0.004694068697419557,3.426255420731261,0.0038129330461500513,0.014645738302906204,-0.008184338002805436,20.927371030389388,0.017205217156310532,1.0,0.0,35.61650644793049,1.0238827848657757,20.14236385941637,92.8392640542553,-0.09713983101375012,5.778425108204118,1.0,22.380552544792973,0.0,1.0,93.08622917961345,5317.901009221409,1.0,1.0,0.10133607560952922,18.35603070906075,0.00358970357314498,-44.333941850073415,1.0,22.623571408437776,1.0,-0.031292207388277045,4.08585890051071,0.9430241978534132,1.0,0.10785796340328997,7.639236965560232
0.48,0.48,1.0,20.609716617264855,0.07226504501268625,3.4304740822352544,0.00160319188711893,0.015843935310481668,-0.009120443701775791,20.89339114910697,0.018351648527228103,1.0,0.0,35.61650644793049,1.0238827848657757,20.14236385941637,92.8392640542553,-0.09713983101375012,5.778425108204118,1.0,22.824915977670404,0.0,1.0,93.91461791650816,5389.63826500153,1.0,1.0,-0.6007021325274192,18.380762511630532,0.07141478395967976,-44.31070118176825,1.0,22.96370355712305,1.0,-0.028197517476245167,4.052530953944802,0.9421931572763083,1.0,0.9331720271937208,6.984626346020847
0.51,0.51,1.0,20.655998278790474,-0.05458271753091867,3.6074002552693147,0.004164523654302634,0.016434454317586895,-0.01249302749251513,20.968704794721233,0.021059683803724014,1.0,0.0,35.61650644793049,1.0238827848657757,20.14236385941637,92.8392640542553,-0.09713983101375012,5.778425108204118,1.0,22.824915977670404,0.0,1.0,94.37061089258343,5400.736351843259,1.0,1.0,-0.6007021325274192,18.380762511630532,0.07141478395967976,-44.31070118176825,1.0,22.96370355712305,1.0,-0.028197517476245167,4.052530953944802,0.9421931572763083,1.0,0.9331720271937208,6.984626346020847
0.54,0.54,1.0,20.51146985074021,0.03260664367992553,3.715593198214301,-0.0003985208292908595,0.017606014965880774,-0.010371579252641578,20.845313416824727,0.02043771606672384,1.0,0.0,35.61650644793049,1.0238827848657757,20.14236385941637,92.8392640542553,-0.09713983101375012,5.778425108204118,1.0,23.635501047095566,0.0,1.0,95.05707896227722,5564.051824871706,1.0,1.0,0.09316932679174539,18.440677988140656,-0.013842717036144918,-44.32849076136843,1.0,23.629781884455912,1.0,-0.016943689089144575,4.05452904162611,0.9413956478763613,1.0,-0.0014161044642884222,7.209058370401334
0.57,0.57,1.0,20.518932640999513,-0.019297705617840236,3.7412669059346526,-0.0002050865170425428,0.02009584047002417,-0.005326892313598149,20.857230093872946,0.020790878923143314,1.0,0.0,35.61650644793049,1.0238827848657757,20.14236385941637,92.8392640542553,-0.09713983101375012,5.778425108204118,1.0,23.635501047095566,0.0,1.0,96.9621577163776,5646.195063934016,1.0,1.0,0.09316932679174539,18.440677988140656,-0.013842717036144918,-44.32849076136843,1.0,23.629781884455912,1.0,-0.016943689089144575,4.05452904162611,0.9413956478763613,1.0,-0.0014161044642884222,7.209058370401334
0.6,0.6,1.0,20.561313516683672,0.01325645418851875,3.87152369840614,-0.0006076831387582248,0.018328000661195856,-0.0039030173531486466,20.92263092950446,0.018748824802981817,1.0,0.0,35.61650644793049,1.0238827848657757,20.14236385941637,92.8392640542553,-0.09713983101375012,5.778425108204118,1.0,24.209589392671514,0.0,1.0,96.16863775311398,5708.273954600228,1.0,1.0,-1.0409316826928092,18.530448624142767,0.003303787040425523,-44.25566912430919,1.0,22.934188480986958,1.0,-0.018461982484201257,4.0593088791813425,0.9406302548570222,1.0,-0.14156602346678263,7.005036512930313
0.63,0.63,1.0,20.51474005858218,-0.09461864263086234,3.9267512517900984,0.0006800592648993835,0.02182570713583861,-0.005581130573605635,20.887385852522684,0.022538256167299358,1.0,0.0,58.375859350761864,-0.8747474189302875,23.81547803697041,96.87555136454455,-0.0011423916360233342,4.8715851326366995,1.0,24.209589392671514,0.0,1.0,96.92317435685071,5734.758531640986,1.0,1.0,-1.0409316826928092,18.530448624142767,0.003303787040425523,-44.25566912430919,1.0,22.934188480986958,1.0,-0.018461982484201257,4.0593088791813425,0.9406302548570222,1.0,-0.14156602346678263,7.005036512930313
0.6599999999999999,0.6599999999999999,1.0,20.47413791737623,-0.0682689857974341,3.960662574814549,-0.0009265310921109694,0.024278816489957968,-0.0069389131825839424,20.8538205647239,0.025267922474416858,1.0,0.0,58.375859350761864,-0.8747474189302875,23.81547803697041,96.87555136454455,-0.0011423916360233342,4.8715851326366995,1.0,23.29928537999461,0.0,1.0,98.74890083731486,5836.754609808595,1.0,1.0,-1.5434002357464938,18.62877947063445,0.07435645994242829,-44.23692608705659,1.0,24.33917424919076,1.0,-0.021637412753032458,4.030974177304665,0.9398956949256442,1.0,-0.8970182630853107,7.22994909203247
0.69,0.69,1.0,20.439979040466493,-0.02310219713680388,4.075981243136434,-0.004041671287818724,0.025410589994440902,-0.001827174727619884,20.84243028009503,0.025794800990695997,1.0,0.0,58.375859350761864,-0.8747474189302875,23.81547803697041,96.87555136454455,-0.0011423916360233342,4.8715851326366995,1.0,23.29928537999461,0.0,1.0,98.46512033609774,5841.352597035974,1.0,1.0,-1.5434002357464938,18.62877947063445,0.07435645994242829,-44.23692608705659,1.0,24.33917424919076,1.0,-0.021637412753032458,4.030974177304665,0.9398956949256442,1.0,-0.8970182630853107,7.22994909203247
0.72,0.72,1.0,20.427203601978153,-0.07997406490806584,4.121584061803486,-0.0021813103582911174,0.027932181745316604,-0.0034213628360338743,20.83901384485935,0.028225354126890596,1.0,0.0,58.375859350761864,-0.8747474189302875,23.81547803697041,96.87555136454455,-0.0011423916360233342,4.8715851326366995,1.0,24.475608865026736,0.0,1.0,98.26202429283232,5902.636939284598,1.0,1.0,-0.28569373557395455,18.736206077085537,0.016061365269515654,-44.33190388451586,1.0,24.325344943224906,1.0,-0.011008257735826425,4.049804542862202,0.9391907847535864,1.0,-0.07488389752237769,6.861008565324734
0.75,0.75,1.0,20.42663497431958,-0.08455724459192612,4.291784014650096,-0.004129857260496229,0.024167176891914388,-0.006342474897379503,20.872804706845578,0.025324595707356186,1.0,0.0,58.375859350761864,-0.8747474189302875,23.81547803697041,96.87555136454455,-0.0011423916360233342,4.8715851326366995,1.0,24.475608865026736,0.0,1.0,98.6681595119215,5974.790570741553,1.0,1.0,-0.28569373557395455,18.736206077085537,0.016061365269515654,-44.33190388451586,1.0,24.325344943224906,1.0,-0.011008257735826425,4.049804542862202,0.9391907847535864,1.0,-0.07488389752237769,6.861008565324734
0.78,0.78,1.0,20.356882756318853,0.04206787900072048,4.338554671055926,-0.005032806607214519,0.02360840149303646,-0.0015534058304110241,20.81411785050466,0.024188816281000256,1.0,0.0,58.375859350761864,-0.8747474189302875,23.81547803697041,96.87555136454455,-0.0011423916360233342,4.8715851326366995,1.0,24.07856353913423,0.0,1.0,99.78037349142669,6058.0176033397465,1.0,1.0,-0.1930400352601112,18.76437509218661,0.09501880876980434,-44.185551904213675,1.0,24.53709539396495,1.0,-0.01206521794208459,4.062280269000003,0.9385144100979007,1.0,0.34074282788003624,6.94810658700761
0.8099999999999999,0.8099999999999999,1.0,20.382062233753594,-0.0007320713591207548,4.3828085852222065,-0.009301091271648056,0.027626938900836846,-0.00022875016072553233,20.847960872258717,0.02915150731111741,1.0,0.0,58.375859350761864,-0.8747474189302875,23.81547803697041,96.87555136454455,-0.0011423916360233342,4.8715851326366995,1.0,24.07856353913423,0.0,1.0,100.8974088386768,6157.8936762505255,1.0,1.0,-0.1930400352601112,18.76437509218661,0.09501880876980434,-44.185551904213675,1.0,24.53709539396495,1.0,-0.01206521794208459,4.062280269000003,0.9385144100979007,1.0,0.34074282788003624,6.94810658700761
0.84,0.84,1.0,20.358795362951195,-0.02641709102200284,4.44997036545471,-0.005424511025335658,0.024900229621553728,0.002026079234960549,20.83946934896967,0.025564658263634743,1.0,0.0,80.01950210689508,-1.2997836758511203,26.894718316907646,101.03814561334251,-0.152262912363823,4.371105396609816,1.0,24.334820052464682,0.0,1.0,101.05952381448276,6204.821811380426,1.0,1.0,0.9615370082784876,18.780981775857168,0.016674875636923173,-44.15756229919723,1.0,24.7509648732649,1.0,-0.01825799428833677,4.050864915302246,0.9378655036686712,1.0,-0.2543346548656725,6.709582974731582
0.87,0.87,1.0,20.306920102737397,-0.0070800163535631,4.451900012210175,-0.0091412977434112,0.022573625084342682,0.0024603492432906603,20.78919113155461,0.024478259584396943,1.0,0.0,80.01950210689508,-1.2997836758511203,26.894718316907646,101.03814561334251,-0.152262912363823,4.371105396609816,1.0,24.334820052464682,0.0,1.0,101.84819336237067,6404.437895834105,1.0,1.0,0.9615370082784876,18.780981775857168,0.016674875636923173,-44.15756229919723,1.0,24.7509648732649,1.0,-0.01825799428833677,4.050864915302246,0.9378655036686712,1.0,-0.2543346548656725,6.709582974731582
0.8999999999999999,0.8999999999999999,1.0,20.316374902416054,0.025150355093561595,4.5662510386072075,-0.010706682621411032,0.028992868165035185,0.0043048840247707255,20.823217096872032,0.031204991326027665,1.0,0.0,80.01950210689508,-1.2997836758511203,26.894718316907646,101.03814561334251,-0.152262912363823,4.371105396609816,1.0,25.84774074085914,0.0,1.0,102.81567413688018,6309.935304459453,1.0,1.0,0.5790261324109499,18.905702827556755,0.061604818106703076,-44.138191087189334,1.0,25.1404469290601,1.0,-0.01599304152509419,4.060234697843305,0.9372430298076712,1.0,-0.21769183990858482,7.235095251293704
0.9299999999999999,0.9299999999999999,1.0,20.254124260535427,-0.027051592432231916,4.671531444014545,-0.012109239631837363,0.023397991156808802,0.006211044719158726,20.78589635744101,0.027068002348506492,1.0,0.0,80.01950210689508,-1.2997836758511203,26.894718316907646,101.03814561334251,-0.152262912363823,4.371105396609816,1.0,25.84774074085914,0.0,1.0,102.83151925967344,6358.948834849771,1.0,1.0,0.5790261324109499,18.905702827556755,0.061604818106703076,-44.138191087189334,1.0,25.1404469290601,1.0,-0.01599304152509419,4.060234697843305,0.9372430298076712,1.0,-0.21769183990858482,7.235095251293704
0.96,0.96,1.0,20.25888679203387,-0.02973749619748949,4.726303388253359,-0.009185021575134459,0.023768448267481302,0.0061262153975933835,20.80291619194145,0.026207523146557186,1.0,0.0,80.01950210689508,-1.2997836758511203,26.894718316907646,101.03814561334251,-0.152262912363823,4.371105396609816,1.0,25.373497364892597,0.0,1.0,103.32804322026573,6495.012288272639,1.0,1.0,-2.322128579150027,18.986390409110022,0.13078432663958325,-44.08389603774868,1.0,25.638671984646344,1.0,-0.005517053715546571,4.053768310450244,0.9366459726018389,1.0,-0.41494678383330874,7.277794358382507
0.99,0.99,1.0,20.2360998940342,-0.01932381229353944,4.799209004174324,-0.01103690840958878,0.02461823022395498,0.008699138473058508,20.79741617116897,0.028346880194736575,1.0,0.0,80.01950210689508,-1.2997836758511203,26.894718316907646,101.03814561334251,-0.152262912363823,4.371105396609816,1.0,25.373497364892597,0.0,1.0,103.94993202422634,6679.887210839734,1.0,1.0,-2.322128579150027,18.986390409110022,0.13078432663958325,-44.08389603774868,1.0,25.638671984646344,1.0,-0.005517053715546571,4.053768310450244,0.9366459726018389,1.0,-0.41494678383330874,7.277794358382507
1.02,1.02,1.0,20.208710292794937,-0.10713629488278872,4.9099963608531505,-0.014382309754236386,0.023019417807645912,0.007880255162679548,20.796911168425673,0.02826380815634557,1.0,0.0,80.01950210689508,-1.2997836758511203,26.894718316907646,101.03814561334251,-0.152262912363823,4.371105396609816,1.0,26.051007275501103,0.0,1.0,105.30620127810384,6817.810954546417,1.0,1.0,-1.2040775467995517,19.07188622313146,0.21711423780076236,-44.06824612443422,1.0,25.775449384219133,1.0,-0.031042618625218114,4.070498717025016,0.9360733275168169,1.0,-0.32667365327285286,6.427842539576407
1.05,1.05,1.0,20.227493533128282,0.027835980482736875,5.010321005902059,-0.015336812860080783,0.022716144182640213,0.012688340367899936,20.83880001479786,0.030203228577807988,1.0,0.0,100.17303619101311,-3.4539199322016967,27.00504734756104,105.03202030752213,-0.07755421818402651,3.5689439404287,1.0,26.051007275501103,0.0,1.0,105.37958744569346,6797.135523050686,1.0,1.0,-1.2040775467995517,19.07188622313146,0.21711423780076236,-44.06824612443422,1.0,25.775449384219133,1.0,-0.031042618625218114,4.070498717025016,0.9360733275168169,1.0,-0.32667365327285286,6.427842539576407
1.08,1.08,1.0,20.158103840528113,-0.0027770545283313693,5.036638120305791,-0.020599346055427608,0.02253129328680513,0.009688809959616155,20.7777978070936,0.03202913163857003,1.0,0.0,100.17303619101311,-3.4539199322016967,27.00504734756104,105.03202030752213,-0.07755421818402651,3.5689439404287,1.0,26.708468860544897,0.0,1.0,105.30812519090156,6845.536494367896,1.0,1.0,0.8038106664620819,19.109395184789236,0.1616376121103876,-44.07003255444697,1.0,25.93492277530953,1.0,-0.009642060095562332,4.097861299065838,0.935524095338422,1.0,-0.4329516021866359,6.160586820472233
1.1099999999999999,1.1099999999999999,1.0,20.153353587498668,0.030200598060866116,5.0375349769112665,-0.020740473604575208,0.01900780650063147,0.012251831470692403,20.77342849754159,0.03068503426254854,1.0,0.0,100.17303619101311,-3.4539199322016967,27.00504734756104,105.03202030752213,-0.07755421818402651,3.5689439404287,1.0,26.708468860544897,0.0,1.0,106.61720234754836,6844.068319495557,1.0,1.0,0.8038106664620819,19.109395184789236,0.1616376121103876,-44.07003255444697,1.0,25.93492277530953,1.0,-0.009642060095562332,4.097861299065838,0.935524095338422,1.0,-0.4329516021866359,6.160586820472233
1.14,1.14,1.0,20.120786870382172,-0.06319703140707317,5.270301420546659,-0.02024075366418457,0.02516419570965235,0.01702345541131893,20.79966670914557,0.03650647735332801,1.0,0.0,100.17303619101311,-3.4539199322016967,27.00504734756104,105.03202030752213,-0.07755421818402651,3.5689439404287,1.0,24.59717847370986,0.0,1.0,107.29004456297336,6926.715392942442,1.0,1.0,0.036317740345055784,19.131760311125632,0.28427295125762003,-43.9887019055993,1.0,25.835571949024537,1.0,-0.012572327754007337,4.104838950433962,0.934997277990647,1.0,-0.11060101592224238,6.588554933634721
1.17,1.17,1.0,20.062344511100484,-0.01874070835836457,5.318371036032369,-0.024508610959416248,0.02117845981639565,0.014556862201448457,20.755314716311617,0.035511989644437865,1.0,0.0,100.17303619101311,-3.4539199322016967,27.00504734756104,105.03202030752213,-0.07755421818402651,3.5689439404287,1.0,24.59717847370986,0.0,1.0,107.35481915780733,6991.272451601493,1.0,1.0,0.036317740345055784,19.131760311125632,0.28427295125762003,-43.9887019055993,1.0,25.835571949024537,1.0,-0.012572327754007337,4.104838950433962,0.934997277990647,1.0,-0.11060101592224238,6.588554933634721
1.2,1.2,1.0,20.06524115094029,-0.03148079297284844,5.319942458768744,-0.02591244588804226,0.02306722522754512,0.01445215872764326,20.75853273356102,0.037582131704947334,1.0,0.0,100.17303619101311,-3.4539199322016967,27.00504734756104,105.03202030752213,-0.07755421818402651,3.5689439404287,1.0,25.249398160248276,0.0,1.0,107.4983478180112,7154.315367597639,1.0,1.0,-0.40979723916708777,19.1913218402456,0.20913462964016458,-44.004806788973674,1.0,25.875256893527208,1.0,0.007088712840018285,4.107968193274599,0.9344918755475633,1.0,0.02696352342629906,6.445544593829738
1.23,1.23,1.0,20.02293146501746,0.025170891422453646,5.386771551507805,-0.029213007314034,0.020431614714037576,0.01503921939434632,20.734891506219537,0.03869145637145187,1.0,0.0,100.17303619101311,-3.4539199322016967,27.00504734756104,105.03202030752213,-0.07755421818402651,3.5689439404287,1.0,25.249398160248276,0.0,1.0,108.68248226739283,7229.375818332521,1.0,1.0,-0.40979723916708777,19.1913218402456,0.20913462964016458,-44.004806788973674,1.0,25.875256893527208,1.0,0.007088712840018285,4.107968193274599,0.9344918755475633,1.0,0.02696352342629906,6.445544593829738
1.26,1.26,1.0,20.089477532786116,0.0046714165614042645,5.413484808465987,-0.03245633797008486,0.02345599966445752,0.01430923014737715,20.806079571460426,0.04252472059988179,1.0,0.0,122.69347625447217,1.228031405014059,23.564279251873668,109.0641178767574,0.005514153996937957,3.1406177008155645,1.0,27.891956707238467,0.0,1.0,109.338763322154,7328.618341499472,1.0,1.0,-1.7319699246796536,19.250558610515085,0.28030531363334005,-43.9864066181339,1.0,26.710965947108143,1.0,-0.007910462826572416,4.136746156715304,0.9340068843624972,1.0,-0.6284274609178061,6.6103053674032
1.29,1.29,1.0,19.980611417512335,0.006823114664805828,5.498331306439675,-0.03211680808186884,0.019955448275185216,0.011695755896108585,20.72333289622817,0.039579034642251536,1.0,0.0,122.69347625447217,1.228031405014059,23.564279251873668,109.0641178767574,0.005514153996937957,3.1406177008155645,1.0,27.891956707238467,0.0,1.0,110.17827993973569,7323.07759230905,1.0,1.0,-1.7319699246796536,19.250558610515085,0.28030531363334005,-43.9864066181339,1.0,26.710965947108143,1.0,-0.007910462826572416,4.136746156715304,0.9340068843624972,1.0,-0.6284274609178061,6.6103053674032
1.3199999999999998,1.3199999999999998,1.0,19.959627734082016,-0.03405385352588504,5.63861982814847,-0.041782215916164094,0.01682996912795736,0.013818072655138338,20.74082767187619,0.04711624517738691,1.0,0.0,122.69347625447217,1.228031405014059,23.564279251873668,109.0641178767574,0.005514153996937957,3.1406177008155645,1.0,27.007449302516804,0.0,1.0,110.18331115250972,7552.638575239895,1.0,1.0,2.3791585762080727,19.325330010968628,0.40363195001202956,-43.89435531712069,1.0,26.6253025177614,1.0,6.106707372471962e-05,4.138659088498864,0.9335412958221411,1.0,-0.20778098599262915,6.397128424503593
1.3499999999999999,1.3499999999999999,1.0,20.003594333262292,0.008877985198847249,5.672570977039125,-0.03731802240398989,0.0196610837003227,0.013218728699350313,20.792352597959933,0.04420325550050374,1.0,0.0,122.69347625447217,1.228031405014059,23.564279251873668,109.0641178767574,0.005514153996937957,3.1406177008155645,1.0,27.007449302516804,0.0,1.0,110.9713828351841,7469.3200248497715,1.0,1.0,2.3791585762080727,19.325330010968628,0.40363195001202956,-43.89435531712069,1.0,26.6253025177614,1.0,6.106707372471962e-05,4.138659088498864,0.9335412958221411,1.0,-0.20778098599262915,6.397128424503593
1.38,1.38,1.0,19.8486574121186,0.10749135691409867,5.746547481564104,-0.04163041571578073,0.02057652316095216,0.009066326124609551,20.664064542420803,0.047314723791434116,1.0,0.0,122.69347625447217,1.228031405014059,23.564279251873668,109.0641178767574,0.005514153996937957,3.1406177008155645,1.0,26.842800828427997,0.0,1.0,111.27746061751331,7442.50741661852,1.0,1.0,-0.6620521257602074,19.383277165409726,0.42028995739797925,-43.9664781873813,1.0,26.75011825857227,1.0,0.0009893289304030318,4.155486519916999,0.9330940962769271,1.0,-1.094359767087345,6.50866979757526
1.41,1.41,1.0,19.881474196124024,0.05961098340622764,5.78743510510821,-0.05196025953340964,0.019506834195723816,0.01151149612817701,20.706785718124554,0.0566824460854309,1.0,0.0,122.69347625447217,1.228031405014059,23.564279251873668,109.0641178767574,0.005514153996937957,3.1406177008155645,1.0,26.842800828427997,0.0,1.0,111.5797101149792,7732.8930435866805,1.0,1.0,-0.6620521257602074,19.383277165409726,0.42028995739797925,-43.9664781873813,1.0,26.75011825857227,1.0,0.0009893289304030318,4.155486519916999,0.9330940962769271,1.0,-1.094359767087345,6.50866979757526
1.44,1.44,1.0,19.870983928032036,0.043239554911952985,5.914767706300548,-0.05328380541253131,0.01824115495026097,0.006938753111583777,20.732639700402654,0.056745483942807685,1.0,0.0,122.69347625447217,1.228031405014059,23.564279251873668,109.0641178767574,0.005514153996937957,3.1406177008155645,1.0,26.393371270142318,0.0,1.0,112.83893842674733,7706.146506249722,1.0,1.0,0.4797656235602718,19.476901998192712,0.6695720952244228,-43.93001779688756,1.0,27.042312447219913,1.0,0.0011383644039534946,4.16756852240696,0.9326642671392356,1.0,-0.7138298737091917,6.138231466438743
1.47,1.47,1.0,19.825188194172323,0.06249485989241546,6.028282234332324,-0.061484145352021735,0.01856511470753365,0.008856306216801063,20.721539017134546,0.06483361607667867,1.0,0.0,144.69956003328207,-1.8732496087249553,26.8667914143786,113.1212444575692,-0.06041487725910458,2.7919121010281724,1.0,26.393371270142318,0.0,1.0,113.88919386323943,7829.799603065471,1.0,1.0,0.4797656235602718,19.476901998192712,0.6695720952244228,-43.93001779688756,1.0,27.042312447219913,1.0,0.0011383644039534946,4.16756852240696,0.9326642671392356,1.0,-0.7138298737091917,6.138231466438743
1.5,1.5,1.0,19.908858218544083,0.06867798764755292,6.024745336338989,-0.0696090598821038,0.01600203212275242,0.0067632390448135685,20.80059875580066,0.07174418200875386,1.0,0.0,144.69956003328207,-1.8732496087249553,26.8667914143786,113.1212444575692,-0.06041487725910458,2.7919121010281724,1.0,27.55123387643974,0.0,1.0,114.39934069102121,8030.283400092366,1.0,1.0,-0.0916435922718524,19.440759349555037,0.8184682465619899,-43.84491980373164,1.0,27.32253558130585,1.0,-0.0002465220161191892,4.186222518759286,0.932250785512477,1.0,-1.0223271274539496,5.676004306651559
1.53,1.53,1.0,19.802402125119528,0.03551719442688292,6.0497725771548785,-0.082130342238142,0.017252996212924077,0.0082372806889999,20.705944548156538,0.08432622241999742,1.0,0.0,144.69956003328207,-1.8732496087249553,26.8667914143786,113.1212444575692,-0.06041487725910458,2.7919121010281724,1.0,27.55123387643974,0.0,1.0,114.46025071171067,8003.966500033171,1.0,1.0,-0.0916435922718524,19.440759349555037,0.8184682465619899,-43.84491980373164,1.0,27.32253558130585,1.0,-0.0002465220161191892,4.186222518759286,0.932250785512477,1.0,-1.0223271274539496,5.676004306651559
1.56,1.56,1.0,19.739118550334798,0.07093912249604827,6.149079488158669,-0.08579549803730804,0.01689471366221606,0.002365167498360153,20.674840073262125,0.08747509845946615,1.0,0.0,144.69956003328207,-1.8732496087249553,26.8667914143786,113.1212444575692,-0.06041487725910458,2.7919121010281724,1.0,26.83879990623944,0.0,1.0,114.68596790998932,8044.2984045660505,1.0,1.0,0.8369978133090593,19.394603017073646,1.0057115852040603,-43.8050672793477,1.0,27.18798127219635,1.0,0.01234882562189153,4.203997917582249,0.931852625370418,1.0,-1.4105169457857543,5.8202763723366
1.5899999999999999,1.5899999999999999,1.0,19.76708147458914,-0.010059848776759747,6.244568783623568,-0.10175419084071505,0.01412358009521442,-0.0024119227305718577,20.72998433470244,0.10275800815319867,1.0,0.0,144.69956003328207,-1.8732496087249553,26.8667914143786,113.1212444575692,-0.06041487725910458,2.7919121010281724,1.0,26.83879990623944,0.0,1.0,115.74217419276013,8116.580444860198,1.0,1.0,0.8369978133090593,19.394603017073646,1.0057115852040603,-43.8050672793477,1.0,27.18798127219635,1.0,0.01234882562189153,4.203997917582249,0.931852625370418,1.0,-1.4105169457857543,5.8202763723366
1.6199999999999999,1.6199999999999999,1.0,19.750341260479487,0.0064446848513403975,6.300401695075895,-0.11576696893290171,0.015927052306089814,0.001691429363114042,20.73092093850817,0.11686968394054446,1.0,0.0,144.69956003328207,-1.8732496087249553,26.8667914143786,113.1212444575692,-0.06041487725910458,2.7919121010281724,1.0,26.830136237608166,0.0,1.0,115.72006758913395,8132.776884875157,1.0,1.0,-1.7831878401723198,19.49989400607682,1.2970417043849414,-43.84186966378825,1.0,27.04289936876026,1.0,0.0036630855658738954,4.226466197764841,0.9314687593399216,1.0,-1.684202723877817,5.742703835277401
1.65,1.65,1.0,19.71371372635813,0.006663015426615498,6.367936323780743,-0.1288288921642023,0.01854586723658093,0.0013610423013568616,20.716688111382613,0.1301640698655302,1.0,0.0,144.69956003328207,-1.8732496087249553,26.8667914143786,113.1212444575692,-0.06041487725910458,2.7919121010281724,1.0,26.830136237608166,0.0,1.0,116.85131276200345,8262.256116496806,1.0,1.0,-1.7831878401723198,19.49989400607682,1.2970417043849414,-43.84186966378825,1.0,27.04289936876026,1.0,0.0036630855658738954,4.226466197764841,0.9314687593399216,1.0,-1.684202723877817,5.742703835277401
1.68,1.68,1.0,19.656017828537422,0.0874113126157871,6.485181691945118,-0.14850456314465657,0.016959700832121765,0.0013052662428949206,20.698411996839138,0.1494755513355452,1.0,0.0,170.26183650124918,1.108641583525486,26.53036511672662,117.21902060823322,-0.13639945266283343,2.4548246436790615,1.0,27.50233150523641,0.0,1.0,117.28540314397569,8348.979987772194,1.0,1.0,0.7602566253406856,19.617149753220488,1.6801729928504099,-43.73502994993091,1.0,27.25007597510548,1.0,0.0022291693393884753,4.23913930969531,0.9310981612081399,1.0,-1.9164654620678419,5.9171580544341404
1.71,1.71,1.0,19.715181898516498,0.017037950268532543,6.506722110751605,-0.17078486020973704,0.015972118324870666,0.0014994620829434672,20.76116856561513,0.17153665913495364,1.0,0.0,170.26183650124918,1.108641583525486,26.53036511672662,117.21902060823322,-0.13639945266283343,2.4548246436790615,1.0,27.50233150523641,0.0,1.0,118.10967824372416,8482.546309417849,1.0,1.0,0.7602566253406856,19.617149753220488,1.6801729928504099,-43.73502994993091,1.0,27.25007597510548,1.0,0.0022291693393884753,4.23913930969531,0.9310981612081399,1.0,-1.9164654620678419,5.9171580544341404
1.74,1.74,1.0,19.70581541255476,-0.06535972821754607,6.657766097526514,-0.1909089930514273,0.01467100200593596,0.005185042893793852,20.800223132868712,0.19154207526697256,1.0,0.0,170.26183650124918,1.108641583525486,26.53036511672662,117.21902060823322,-0.13639945266283343,2.4548246436790615,1.0,27.313337376947597,0.0,1.0,118.57857085664006,8646.31754864073,1.0,1.0,0.7184691805403781,19.57220310661597,2.1865172529157495,-43.707035569585166,1.0,27.54584961916292,1.0,-0.010664040032036234,4.26721941203093,0.9307398093265078,1.0,-2.719738065489061,5.639781960783234
1.77,1.77,1.0,19.58859585769741,-0.03974229027799114,6.713808565741955,-0.21901594037951733,0.008278959298089153,0.008973515913750934,20.70724251519904,0.2193559830395288,1.0,0.0,170.26183650124918,1.108641583525486,26.53036511672662,117.21902060823322,-0.13639945266283343,2.4548246436790615,1.0,27.313337376947597,0.0,1.0,118.62593321345857,8661.55947657107,1.0,1.0,0.7184691805403781,19.57220310661597,2.1865172529157495,-43.707035569585166,1.0,27.54584961916292,1.0,-0.010664040032036234,4.26721941203093,0.9307398093265078,1.0,-2.719738065489061,5.639781960783234
1.7999999999999998,1.7999999999999998,1.0,19.596401505657077,-0.04585506909244242,6.700165155295421,-0.25580629124109633,0.013698991340636275,0.009283612025941523,20.710221335526942,0.25634099643740876,1.0,0.0,170.26183650124918,1.108641583525486,26.53036511672662,117.21902060823322,-0.13639945266283343,2.4548246436790615,1.0,27.639241865266627,0.0,1.0,120.84263314000202,8777.276226055392,1.0,1.0,-0.14638879055514342,19.705767883190546,2.713573081629265,-43.64214593621502,1.0,27.604309223316093,1.0,0.000561697899454568,4.275212312822387,0.9303926911235827,1.0,-4.246156680975944,6.23854784755807
1.8299999999999998,1.8299999999999998,1.0,19.591311324934154,-0.09812212577724343,6.741818442566702,-0.29001562585764973,0.010331031617565595,0.010041241128624548,20.71910285930819,0.29037324253327923,1.0,0.0,170.26183650124918,1.108641583525486,26.53036511672662,117.21902060823322,-0.13639945266283343,2.4548246436790615,1.0,27.639241865266627,0.0,1.0,119.62907300393823,8729.82203994931,1.0,1.0,-0.14638879055514342,19.705767883190546,2.713573081629265,-43.64214593621502,1.0,27.604309223316093,1.0,0.000561697899454568,4.275212312822387,0.9303926911235827,1.0,-4.246156680975944,6.23854784755807
1.8599999999999999,1.8599999999999999,1.0,19.517808557833536,-0.12309016318296048,6.861620634922539,-0.3333093278741351,0.01159472046140547,0.018723180402133166,20.689172043030315,0.33403608049858424,1.0,0.0,170.26183650124918,1.108641583525486,26.53036511672662,117.21902060823322,-0.13639945266283343,2.4548246436790615,1.0,28.171078951054575,0.0,1.0,120.78064449045618,8886.115471608811,1.0,1.0,0.9109407288926488,19.663755037809274,3.5051200935040057,-43.630975800802865,1.0,28.171168291028295,1.0,-0.024997475240512275,4.300077585459423,0.9300558089078275,1.0,-4.920095307306704,5.315609522031293
1.89,1.89,1.0,19.486749430836394,-0.10661214776358541,6.853842620713846,-0.3817682767241594,0.009492493131882218,0.024756386459037254,20.657200395982194,0.38268786655615616,1.0,0.0,195.20460308166366,0.18708094996218413,27.322164979630337,121.34773797173465,0.27773025641026194,2.0585477746695515,1.0,28.171078951054575,0.0,1.0,121.24960848985295,8985.72850763255,1.0,1.0,0.9109407288926488,19.663755037809274,3.5051200935040057,-43.630975800802865,1.0,28.171168291028295,1.0,-0.024997475240512275,4.300077585459423,0.9300558089078275,1.0,-4.920095307306704,5.315609522031293
1.92,1.92,1.0,19.484573461732083,-0.10500478200607313,6.96361948401672,-0.441105860788867,0.010939156181280583,0.02770643403618871,20.691825084029094,0.44211049755377607,1.0,0.0,195.20460308166366,0.18708094996218413,27.322164979630337,121.34773797173465,0.27773025641026194,2.0585477746695515,1.0,28.91624230279941,0.0,1.0,121.50149422710894,9132.823074427963,1.0,1.0,1.7714659477500891,19.70321722872106,4.64386928603571,-43.547799130614074,1.0,28.075609025496714,1.0,-0.028394427372412004,4.318563961142581,0.9297281870738042,1.0,-6.279531765814105,6.370990559993847
1.95,1.95,1.0,19.437907758153795,-0.09476153492834066,7.06816846415952,-0.5074369019733928,0.008095051560651224,0.041460625571552924,20.683332497466086,0.5091922258017189,1.0,0.0,195.20460308166366,0.18708094996218413,27.322164979630337,121.34773797173465,0.27773025641026194,2.0585477746695515,1.0,28.91624230279941,0.0,1.0,122.65039679782939,9154.533911551462,1.0,1.0,1.7714659477500891,19.70321722872106,4.64386928603571,-43.547799130614074,1.0,28.075609025496714,1.0,-0.028394427372412004,4.318563961142581,0.9297281870738042,1.0,-6.279531765814105,6.370990559993847
1.98,1.98,1.0,19.521512511487998,-0.13235471164301826,7.108993992556853,-0.5784670150818108,0.003860760491683995,0.049987224134179956,20.776062285526727,0.5806356134322754,1.0,0.0,195.20460308166366,0.18708094996218413,27.322164979630337,121.34773797173465,0.27773025641026194,2.0585477746695515,1.0,27.668924730790835,0.0,1.0,123.19211639454196,9268.276810795021,1.0,1.0,-0.3060943238616409,19.716127136553865,6.017241979515209,-43.34210189791475,1.0,27.995645934305646,1.0,-0.0075910544391166405,4.326766483383147,0.9294088807697769,1.0,-8.623991075291157,5.521195309460794
2.01,2.01,1.0,19.432626382440343,-0.12274433869958273,7.263496951424977,-0.6689991310151026,0.005277821932767315,0.06139345405953477,20.746094144574762,0.6718309675094447,1.0,0.0,195.20460308166366,0.18708094996218413,27.322164979630337,121.34773797173465,0.27773025641026194,2.0585477746695515,1.0,27.668924730790835,0.0,1.0,123.39801148076624,9234.609718692183,1.0,1.0,-0.3060943238616409,19.716127136553865,6.017241979515209,-43.34210189791475,1.0,27.995645934305646,1.0,-0.0075910544391166405,4.326766483383147,0.9294088807697769,1.0,-8.623991075291157,5.521195309460794
2.04,2.04,1.0,19.351808731761533,-0.267768773606095,7.270047811771133,-0.7733678177857107,9.575666287704005e-05,0.07354224126778543,20.674085142811972,0.7768566482991955,1.0,0.0,195.20460308166366,0.18708094996218413,27.322164979630337,121.34773797173465,0.27773025641026194,2.0585477746695515,1.0,28.152925032930213,0.0,1.0,124.64521609026202,9535.094550794624,1.0,1.0,0.9656261344574891,19.776098318358237,7.7629717786109245,-43.07354742977165,1.0,28.655033317106692,1.0,-0.03323026131040906,4.358949534672232,0.9290969862929448,1.0,-10.953337233943875,5.80491471709431
2.07,2.07,1.0,19.27444772839392,-0.21743123878796253,7.372153323444711,-0.8851785440184233,-0.005358657111795108,0.08960169180519761,20.637350997707223,0.8897180638668472,1.0,0.0,195.20460308166366,0.18708094996218413,27.322164979630337,121.34773797173465,0.27773025641026194,2.0585477746695515,1.0,28.152925032930213,0.0,1.0,124.53836123804572,9361.607194319135,1.0,1.0,0.9656261344574891,19.776098318358237,7.7629717786109245,-43.07354742977165,1.0,28.655033317106692,1.0,-0.03323026131040906,4.358949534672232,0.9290969862929448,1.0,-10.953337233943875,5.80491471709431
2.1,2.1,1.0,19.286004216916258,-0.21265403387516146,7.45483570675557,-1.0218308798376652,-0.011930778032621124,0.10861343832080098,20.677759932056297,1.0276563479286969,1.0,0.0,219.9768720481291,-1.849978945208464,28.29804124766991,125.10146310597214,0.37705510891351024,2.245823284727413,1.0,26.99067659891631,0.0,1.0,125.01860534157473,9444.177180229883,1.0,1.0,0.5008107960733629,19.8042453042319,10.055870964868692,-42.52970480312251,1.0,28.233022816045597,1.0,-0.03268493085320093,4.372389095266673,0.9287916546665,1.0,-14.085323894465704,5.308722102419687
2.13,2.13,1.0,19.18980803037603,-0.33238898343661566,7.659713587155336,-1.1761380425455215,-0.02165130131481328,0.12849956442042015,20.66471453749716,1.183334953437814,1.0,0.0,219.9768720481291,-1.849978945208464,28.29804124766991,125.10146310597214,0.37705510891351024,2.245823284727413,1.0,26.99067659891631,0.0,1.0,126.14410944593551,9674.75873111266,1.0,1.0,0.5008107960733629,19.8042453042319,10.055870964868692,-42.52970480312251,1.0,28.233022816045597,1.0,-0.03268493085320093,4.372389095266673,0.9287916546665,1.0,-14.085323894465704,5.308722102419687
2.16,2.16,1.0,19.29004376246569,-0.2389024456314051,7.763605545350917,-1.3599705907584436,-0.024951969981928068,0.1504142996672675,20.795106005985485,1.3684908001438094,1.0,0.0,219.9768720481291,-1.849978945208464,28.29804124766991,125.10146310597214,0.37705510891351024,2.245823284727413,1.0,28.25679525559925,0.0,1.0,126.08319387778315,9760.546179833167,1.0,1.0,1.9759215398732113,19.873176714474816,13.062360538808113,-41.69301469676281,1.0,28.576071598143752,1.0,-0.018845398494172702,4.403049531126764,0.9284921140454663,1.0,-18.204276005072035,5.564864951007747
2.19,2.19,1.0,19.221934603100518,-0.3468277318806322,7.895888647755498,-1.5616604327923993,-0.03688307182038058,0.1800410394750044,20.78336153992488,1.572437103426236,1.0,0.0,219.9768720481291,-1.849978945208464,28.29804124766991,125.10146310597214,0.37705510891351024,2.245823284727413,1.0,28.25679525559925,0.0,1.0,126.8510365790147,9776.059625104752,1.0,1.0,1.9759215398732113,19.873176714474816,13.062360538808113,-41.69301469676281,1.0,28.576071598143752,1.0,-0.018845398494172702,4.403049531126764,0.9284921140454663,1.0,-18.204276005072035,5.564864951007747
2.2199999999999998,2.2199999999999998,1.0,19.198606534185313,-0.29168427964091453,8.10450858543183,-1.805333740521621,-0.05410713805547475,0.2044805107245697,20.84117635798879,1.8176825290243956,1.0,0.0,219.9768720481291,-1.849978945208464,28.29804124766991,125.10146310597214,0.37705510891351024,2.245823284727413,1.0,28.835507796566063,0.0,1.0,127.07448796361327,9811.501645313549,1.0,1.0,3.097959816563529,19.909231938794342,16.961947140677772,-40.196581189077115,1.0,28.761784734778193,1.0,0.007765036964349142,4.430374507676414,0.9281977195049491,1.0,-23.94769126350623,5.533515580828311
2.25,2.25,1.0,19.034511000735165,-0.34881537594013995,8.373307066994307,-2.0823932591331,-0.074632484001015,0.24005091118512212,20.797753543154055,2.097511891101441,1.0,0.0,219.9768720481291,-1.849978945208464,28.29804124766991,125.10146310597214,0.37705510891351024,2.245823284727413,1.0,28.835507796566063,0.0,1.0,127.62963161931889,9846.687433056095,1.0,1.0,3.097959816563529,19.909231938794342,16.961947140677772,-40.196581189077115,1.0,28.761784734778193,1.0,0.007765036964349142,4.430374507676414,0.9281977195049491,1.0,-23.94769126350623,5.533515580828311
2.28,2.28,1.0,18.998431459416608,-0.3968463753600573,8.709832059391204,-2.387541436130381,-0.09829521702050578,0.27477984552368195,20.903565711777162,2.4053107953931128,1.0,0.0,219.9768720481291,-1.849978945208464,28.29804124766991,125.10146310597214,0.37705510891351024,2.245823284727413,1.0,29.76666869586468,0.0,1.0,128.69885050535441,10207.19549373099,1.0,1.0,2.7894958537033867,20.0696734293504,21.89245318924509,-37.650218305767204,1.0,28.78092283852397,1.0,0.025196155556681844,4.437825547585272,0.9279080866188809,1.0,-31.671872744794058,5.749169109712322
2.31,2.31,1.0,18.94735492732529,-0.424349301921303,9.016705759839372,-2.7011080239533882,-0.13461159627139524,0.3140260757136723,20.987694342914363,2.722630568979978,1.0,0.0,249.89366390354493,0.7696144341815545,27.573193772192298,128.89139681265547,1.0577466089465088,1.862440057426438,1.0,29.76666869586468,0.0,1.0,129.2179399831029,10274.901561804414,1.0,1.0,2.7894958537033867,20.0696734293504,21.89245318924509,-37.650218305767204,1.0,28.78092283852397,1.0,0.025196155556681844,4.437825547585272,0.9279080866188809,1.0,-31.671872744794058,5.749169109712322
2.34,2.34,1.0,18.919648425936774,-0.5192671675065115,9.545751801378128,-3.017929879107623,-0.18009609841123908,0.3583211680313791,21.197738379502088,3.044458805655428,1.0,0.0,249.89366390354493,0.7696144341815545,27.573193772192298,128.89139681265547,1.0577466089465088,1.862440057426438,1.0,28.629253827940385,0.0,1.0,129.31783575190732,10222.160684409955,1.0,1.0,4.378033491065496,20.21085148717673,27.735445724798016,-33.63277159202277,1.0,28.898612025068324,1.0,0.004912547688583539,4.442001043061155,0.9276234360455509,1.0,-41.621447815377316,5.66273510050316
2.37,2.37,1.0,18.715774543967925,-0.6206144989865622,10.306375101870938,-3.3346282301106904,-0.2411549182829677,0.41264747120578843,21.374909283490663,3.3687058439637845,1.0,0.0,249.89366390354493,0.7696144341815545,27.573193772192298,128.89139681265547,1.0577466089465088,1.862440057426438,1.0,28.629253827940385,0.0,1.0,129.9296625188421,10492.748662879978,1.0,1.0,4.378033491065496,20.21085148717673,27.735445724798016,-33.63277159202277,1.0,28.898612025068324,1.0,0.004912547688583539,4.442001043061155,0.9276234360455509,1.0,-41.621447815377316,5.66273510050316
2.4,2.4,1.0,18.494453963722858,-0.8010578382352772,11.142812596647795,-3.651879523009745,-0.322108263924421,0.47119355584487993,21.60668400380945,3.6962144352480455,1.0,0.0,249.89366390354493,0.7696144341815545,27.573193772192298,128.89139681265547,1.0577466089465088,1.862440057426438,1.0,29.952411492167002,0.0,1.0,130.73154591734502,10477.654573981956,1.0,1.0,7.583878395426331,20.53514467192869,33.49902114442343,-27.59397904312377,1.0,29.045378293094313,1.0,0.00970516133352705,4.476643062605003,0.9273453245549856,1.0,-53.82145692876447,4.721380683128962
2.4299999999999997,2.4299999999999997,1.0,18.381378908921764,-0.9857037778362566,12.435709048032637,-3.968932358469462,-0.4301392952453403,0.5354808269193425,22.214714989355937,4.027925470439882,1.0,0.0,249.89366390354493,0.7696144341815545,27.573193772192298,128.89139681265547,1.0577466089465088,1.862440057426438,1.0,29.952411492167002,0.0,1.0,130.56303794496034,10499.933703962732,1.0,1.0,7.583878395426331,20.53514467192869,33.49902114442343,-27.59397904312377,1.0,29.045378293094313,1.0,0.00970516133352705,4.476643062605003,0.9273453245549856,1.0,-53.82145692876447,4.721380683128962
2.46,2.46,1.0,18.12659653787733,-1.1808150144135379,14.026422268785705,-4.2866742826085344,-0.5955135837486828,0.6083153347343884,22.950127402860716,4.370384465934273,1.0,0.0,249.89366390354493,0.7696144341815545,27.573193772192298,128.89139681265547,1.0577466089465088,1.862440057426438,1.0,29.191261813211145,0.0,1.0,131.12301022294224,10513.305866533381,1.0,1.0,7.48426384422013,21.062658446921848,38.630396267614856,-19.19405472805063,1.0,28.81679272289689,1.0,0.009046418919843834,4.451739980293917,0.9270783371463387,1.0,-69.07182612441267,3.251403955731673
2.4899999999999998,2.4899999999999998,1.0,17.752833095835225,-1.5193581254935595,16.06178131448198,-4.60972044215129,-0.8100443053422126,0.6873768857036827,23.988587933355483,4.7305582455355655,1.0,0.0,249.89366390354493,0.7696144341815545,27.573193772192298,128.89139681265547,1.0577466089465088,1.862440057426438,1.0,29.191261813211145,0.0,1.0,132.40766657117084,10672.806571924397,1.0,1.0,7.48426384422013,21.062658446921848,38.630396267614856,-19.19405472805063,1.0,28.81679272289689,1.0,0.009046418919843834,4.451739980293917,0.9270783371463387,1.0,-69.07182612441267,3.251403955731673
2.52,2.52,1.0,16.79701211268532,-2.0589882987996813,17.96465636436829,-4.9309754905653245,-1.1309519179208514,0.779204747485384,24.68011197337098,5.118665018118352,1.0,0.0,274.2191213044104,0.474403521583127,28.700468765831992,132.30924244376106,3.4196649724458053,1.5295097815342704,1.0,29.778928231225674,0.0,1.0,132.16277515461525,10659.87137962736,1.0,1.0,12.403803470423952,22.035687325810034,41.70619549225941,-8.896323894750237,1.0,28.85049284830729,1.0,-0.01962205304994736,4.438676032094867,0.9268342401398887,0.0,-69.07182612441267,3.251403955731673
2.55,2.55,1.0,14.95936210664573,-2.975500219331567,20.301206404528383,-5.26023273477369,-1.6760411286158479,0.8774136208878313,25.392422052105516,5.590082016474899,1.0,0.0,274.2191213044104,0.474403521583127,28.700468765831992,132.30924244376106,3.4196649724458053,1.5295097815342704,1.0,29.778928231225674,0.0,1.0,133.47280388562538,10915.17292123738,1.0,1.0,12.403803470423952,22.035687325810034,41.70619549225941,-8.896323894750237,1.0,28.85049284830729,1.0,-0.01962205304994736,4.438676032094867,0.9268342401398887,0.0,-69.07182612441267,3.251403955731673
2.58,2.58,1.0,12.605074864699887,-3.7818008057680608,23.88829228377942,-5.595413375579723,-2.250779256290783,0.9915934423038678,27.27343832219312,6.112112209292741,1.0,0.0,274.2191213044104,0.474403521583127,28.700468765831992,132.30924244376106,3.4196649724458053,1.5295097815342704,1.0,29.665967534688534,0.0,1.0,133.23809151699518,10835.563181111458,1.0,1.0,16.85492609939341,23.994730589184183,41.54339817305234,2.0453587396409545,1.0,29.46265571912924,1.0,-0.1389153338279557,4.341767442499219,0.9266419835004648,0.0,-69.07182612441267,3.251403955731673
2.61,2.61,1.0,10.682851821730136,-5.021183464979591,26.23609241439996,-5.940854580566793,-2.827192670892734,1.0783908758484126,28.769222297638883,6.667060703706255,1.0,0.0,274.2191213044104,0.474403521583127,28.700468765831992,132.30924244376106,3.4196649724458053,1.5295097815342704,1.0,29.665967534688534,0.0,1.0,133.29238822928977,11046.187060474684,1.0,1.0,16.85492609939341,23.994730589184183,41.54339817305234,2.0453587396409545,1.0,29.46265571912924,1.0,-0.1389153338279557,4.341767442499219,0.9266419835004648,0.0,-69.07182612441267,3.251403955731673
2.6399999999999997,2.6399999999999997,1.0,10.80417987231746,-6.909767694506201,24.628527740232414,-6.315503607728626,-3.4048153714951277,1.142352094226051,27.7675993012869,7.265213131105339,1.0,0.0,274.2191213044104,0.474403521583127,28.700468765831992,132.30924244376106,3.4196649724458053,1.5295097815342704,1.0,29.603345527002453,0.0,1.0,133.9124403501845,10912.170426149898,1.0,1.0,27.529985105431503,28.037855606835038,37.10812644270944,11.649015246855155,1.0,29.322941078617706,1.0,-0.4575868506295029,4.061441680907103,0.9265598784909153,0.0,-69.07182612441267,3.251403955731673
2.67,2.67,1.0,10.71548369806397,-9.536807353268122,23.20102883334323,-6.708220948475273,-3.9821111171386296,1.189143745847017,27.277463670628315,7.8912293143140015,1.0,0.0,274.2191213044104,0.474403521583127,28.700468765831992,132.30924244376106,3.4196649724458053,1.5295097815342704,1.0,29.603345527002453,0.0,1.0,133.37813430107232,11027.23982196105,1.0,1.0,27.529985105431503,28.037855606835038,37.10812644270944,11.649015246855155,1.0,29.322941078617706,1.0,-0.4575868506295029,4.061441680907103,0.9265598784909153,0.0,-69.07182612441267,3.251403955731673
2.6999999999999997,2.6999999999999997,1.0,10.679570000266741,-13.116272793760286,22.11005073980228,-7.151087876826609,-4.557518274022953,1.2405458509929699,27.837819079582452,8.570179965938028,1.0,0.0,274.2191213044104,0.474403521583127,28.700468765831992,132.30924244376106,3.4196649724458053,1.5295097815342704,1.0,29.224716818077027,0.0,1.0,133.23044922601392,10895.795765414474,1.0,1.0,33.41155167918136,34.29581328543959,28.632742765017138,17.512005757096656,1.0,29.344065025357704,1.0,-1.128526047389067,3.587818056510181,0.9266517519594357,0.0,-69.07182612441267,3.251403955731673
2.73,2.73,1.0,11.855511357292349,-17.45844090381182,22.715767525204317,-7.646166506523154,-5.130940419766002,1.3188386706456854,31.005747896057994,9.30213670485741,1.0,0.0,304.0740368762106,0.5770804523957058,29.043846079115976,132.57278486028218,8.618651400068085,-1.6868619472173407,1.0,29.224716818077027,0.0,1.0,133.4599096805611,10736.37046724555,1.0,1.0,33.41155167918136,34.29581328543959,28.632742765017138,17.512005757096656,1.0,29.344065025357704,1.0,-1.128526047389067,3.587818056510181,0.9266517519594357,0.0,-69.07182612441267,3.251403955731673
2.76,2.76,1.0,13.192256587479068,-22.511713852579238,22.725897856881897,-8.209772233342491,-5.70844673384425,1.4429521233377356,34.60172434795298,10.102912207217448,1.0,0.0,304.0740368762106,0.5770804523957058,29.043846079115976,132.57278486028218,8.618651400068085,-1.6868619472173407,1.0,29.042405160006506,0.0,1.0,132.46872543952304,10793.461127929693,1.0,1.0,38.68831171876953,41.74105413176742,17.294908294116738,16.111775750084444,1.0,28.897022876667,1.0,-2.1141934673209293,2.881855840461171,0.9269638081578501,0.0,-69.07182612441267,3.251403955731673
2.79,2.79,1.0,14.400749637237483,-24.728606446502084,22.15815324946339,-8.784689374890249,-6.2837904500839015,1.6299509945603958,36.19211685335751,10.923073289076829,1.0,0.0,304.0740368762106,0.5770804523957058,29.043846079115976,132.57278486028218,8.618651400068085,-1.6868619472173407,1.0,29.042405160006506,0.0,1.0,132.7971011966475,10930.361611104416,1.0,1.0,38.68831171876953,41.74105413176742,17.294908294116738,16.111775750084444,1.0,28.897022876667,1.0,-2.1141934673209293,2.881855840461171,0.9269638081578501,0.0,-69.07182612441267,3.251403955731673
2.82,2.82,1.0,15.687240920729677,-25.69184848989007,20.918852089838094,-9.076133180931224,-6.829720811343783,1.6473859353659976,36.65731822281884,11.477593837514238,1.0,0.0,304.0740368762106,0.5770804523957058,29.043846079115976,132.57278486028218,8.618651400068085,-1.6868619472173407,1.0,28.450211679038865,0.0,1.0,131.70970321578758,10549.167241794892,1.0,1.0,20.766026665400858,47.168355283933735,6.974388953730148,4.665947430907377,1.0,29.34905315169226,1.0,-3.2308916028739443,2.1782066026530282,0.9275705960404053,0.0,-69.07182612441267,3.251403955731673
2.85,2.85,1.0,16.572794436459095,-26.45233276401009,19.020332855358788,-9.075690272492833,-7.298643614173929,1.4677106839403173,36.553474335823296,11.738506173303971,1.0,0.0,304.0740368762106,0.5770804523957058,29.043846079115976,132.57278486028218,8.618651400068085,-1.6868619472173407,1.0,28.450211679038865,0.0,1.0,132.14184686140183,10502.171016820597,1.0,1.0,20.766026665400858,47.168355283933735,6.974388953730148,4.665947430907377,1.0,29.34905315169226,1.0,-3.2308916028739443,2.1782066026530282,0.9275705960404053,0.0,-69.07182612441267,3.251403955731673
2.88,2.88,1.0,17.323041465116304,-26.716807784064137,17.591596304073498,-9.076844149143362,-7.660829048591048,1.140912977695828,36.377738306528364,11.93227069095607,1.0,0.0,304.0740368762106,0.5770804523957058,29.043846079115976,132.57278486028218,8.618651400068085,-1.6868619472173407,1.0,29.03154416034213,0.0,1.0,130.35550054165475,10157.354492496293,1.0,1.0,-34.09459004273004,45.86060547287817,5.537836017712227,-13.356201185393058,1.0,28.65156563872374,1.0,-4.02713053834756,1.7634778886378095,0.9285179860730853,1.0,61.78247268660574,-63.523829749647724
2.9099999999999997,2.9099999999999997,1.0,19.56849519111738,-21.308493573182595,19.875055026403505,-9.07337045726537,-7.470716474304649,0.6832375965152389,35.09979650518953,11.773039951835498,1.0,0.0,304.0740368762106,0.5770804523957058,29.043846079115976,132.57278486028218,8.618651400068085,-1.6868619472173407,1.0,29.03154416034213,0.0,1.0,129.00929396591104,10270.3847051228,1.0,1.0,-34.09459004273004,45.86060547287817,5.537836017712227,-13.356201185393058,1.0,28.65156563872374,1.0,-4.02713053834756,1.7634778886378095,0.9285179860730853,1.0,61.78247268660574,-63.523829749647724
2.94,2.94,1.0,20.784110707184148,-17.87614167181411,-19.58412806085448,-9.07649551603308,-7.162641805619268,0.20166312357424124,33.69085589389506,11.564033747079053,1.0,0.0,328.4249894795766,3.178717777026846,25.54158094859242,128.7544289731455,7.928855055729274,-8.461485104101607,1.0,27.963538438386895,0.0,1.0,129.22868145148837,10237.519057256068,1.0,1.0,-59.35802013647521,37.00329166005458,15.622922998881448,-26.31316426181615,1.0,27.99279136984295,1.0,-4.243453902095746,1.7502287382890653,0.929742250829519,1.0,11.572295886687158,-41.7277157567447
2.9699999999999998,2.9699999999999998,1.0,19.507437348815895,-19.342167060619186,-20.725216335030513,-9.076700358004294,-7.7402184905607205,-0.2862491465803989,34.41212185629789,11.932284368239443,1.0,0.0,328.4249894795766,3.178717777026846,25.54158094859242,128.7544289731455,7.928855055729274,-8.461485104101607,1.0,27.963538438386895,0.0,1.0,128.44198387275677,10214.584100734268,1.0,1.0,-59.35802013647521,37.00329166005458,15.622922998881448,-26.31316426181615,1.0,27.99279136984295,1.0,-4.243453902095746,1.7502287382890653,0.929742250829519,1.0,11.572295886687158,-41.7277157567447
3.0,3.0,1.0,18.307289148893886,-19.42211168535125,-17.30358788361631,-9.073860396203571,-8.316493013582457,-0.8643112336500421,31.808637379578187,12.33880190469768,1.0,0.0,328.4249894795766,3.178717777026846,25.54158094859242,128.7544289731455,7.928855055729274,-8.461485104101607,1.0,27.904429427455185,0.0,1.0,128.5237532755745,9981.227677709401,1.0,1.0,-60.02898396793638,22.653122248963893,31.739052168382415,-27.899168018758854,1.0,27.736808153815534,1.0,-3.8344150338397984,2.199114867475838,0.93128038561415,1.0,-20.020336068472083,-13.940286712238068
3.03,3.03,1.0,17.814640386764705,-18.266299279149493,-17.551772634299244,-9.077910425797414,-8.896355418701752,-1.431874022072967,30.969078515050157,12.7907724805718,1.0,0.0,328.4249894795766,3.178717777026846,25.54158094859242,128.7544289731455,7.928855055729274,-8.461485104101607,1.0,27.904429427455185,0.0,1.0,128.64027754796422,10078.53452564309,1.0,1.0,-60.02898396793638,22.653122248963893,31.739052168382415,-27.899168018758854,1.0,27.736808153815534,1.0,-3.8344150338397984,2.199114867475838,0.93128038561415,1.0,-20.020336068472083,-13.940286712238068
3.06,3.06,1.0,17.085004155869136,-17.95178616088801,-17.226657180798895,-9.079418499711615,-9.080286711486444,-2.0081502127759494,30.181479602515942,12.99692711115881,1.0,0.0,328.4249894795766,3.178717777026846,25.54158094859242,128.7544289731455,7.928855055729274,-8.461485104101607,1.0,26.706439799408717,0.0,1.0,128.17459410213723,10104.720259956754,1.0,1.0,-47.67687341972005,6.541227853694303,45.231802239075094,-14.499385697300296,1.0,26.579441818340143,1.0,-3.1469262913906095,2.9289208791404144,0.9330390836394661,1.0,-50.073497856681854,13.198779324611344
