time_s,x_m,y_m,altitude_m,vx_mps,vy_mps,vz_mps,speed_mps,mass_kg,roll_deg,pitch_deg,yaw_deg,p_dps,q_dps,r_dps,alpha_deg,beta_deg,qbar_pa,mach,airspeed_mps,load_factor_g,density_kgpm3,pressure_pa,temperature_k,wind_x_mps,wind_y_mps,wind_z_mps,thrust_n,mass_flow_kgps,propulsion_throttle_actual,propulsion_health,energy_j_per_kg,target_distance_m,guidance_mode,pitch_command_deg,heading_command_deg,roll_command_deg
0.0,0.0,0.0,20.0,85.0,0.0,8.0,85.37564055396598,18.1660882792304,0.0,6.000000000000002,0.0,0.0,0.0,0.0,0.670573726876594,-0.07903107478510403,4463.786944728638,0.25116517384833953,85.4507164248922,1.7293853291777264,1.2226496753673843,101084.96761777384,288.02,-0.08124286468442743,0.11786661907968898,0.06317710994907,326.8,0.17539118863220368,0.86,nominal,3840.633,nan,pitch_program,13.0,0.0,0.0
0.03,2.565157913911409,1.4287635596761128e-05,20.232966487473885,85.50526379704696,0.00047625451989203763,7.765549582462777,85.85717149747653,18.160826543571435,0.0007947632453122875,6.261721652284237,-0.0016218190608630204,0.02071843730646661,-8.724070618379283,-0.05369107238053745,1.1192305730304122,-0.07667069433009584,4514.160281869233,0.25258187331806653,85.93247607721786,1.757320379814055,1.2226223181553226,101082.17435813956,288.0184857178314,-0.08124286468442743,0.11786661907968898,0.06317710994907,332.605,0.1785066900092231,0.86,nominal,3884.144569577934,nan,pitch_program,12.985,0.0,0.0
0.06,5.14565873878721,4.2214354985621254e-05,20.4593780770593,86.0166941625267,0.0009308906462953375,7.547052986180422,86.34714635870967,18.15547134287116,0.0023853316001725394,6.6327088048112195,-0.004838991659186254,0.04097723881684751,-12.36628457536803,-0.10621825188453313,1.6648818207584828,-0.07277358970656012,4565.708465845757,0.25402333443574665,86.42266388186049,1.785823771337818,1.2225957311324422,101079.45975137761,288.0170140424991,-0.08124286468442743,0.11786661907968898,0.06317710994907,338.40999999999997,0.18162219138624247,0.86,nominal,3928.5528021656078,nan,pitch_program,12.97,0.0,0.0
0.09,7.741655858817059,8.238018986075682e-05,20.679843741547238,86.53323733432829,0.001338861162504519,7.348855482931342,86.84472835043441,18.150022677129574,0.004757565170233232,6.934230773114812,-0.009584219844882707,0.06039124014961197,-10.050765244822198,-0.15644103840251913,2.1260434730230244,-0.06743821000804967,4618.357139880485,0.25548708990601277,86.92043987588923,1.8153673390807854,1.2225698427517153,101076.81649119324,288.0155810156799,-0.08124286468442743,0.11786661907968898,0.06317710994907,344.215,0.18473769276326188,0.86,nominal,3973.8034107584176,nan,pitch_program,12.955,0.0,0.0
0.12,10.353322523881753,0.0001326070539732271,20.89482753529168,87.05555550215644,0.0016742288037490094,7.166126458148057,87.35000352035625,18.144480546346674,0.007866516159920017,7.110393343929991,-0.015751234140104597,0.07849988404935852,-5.872112761824704,-0.20337844155774834,2.450229069247991,-0.060785469906822445,4672.129630339069,0.25697340662325335,87.42589444631447,1.845303438766991,1.2225445984885044,101074.23900947822,288.0141836210206,-0.08124286468442743,0.11786661907968898,0.06317710994907,350.02,0.1878531941402813,0.86,nominal,4019.9198179520936,nan,pitch_program,12.94,0.0,0.0
0.15,12.980867819306011,0.0001899568408814113,21.104607977597112,87.58484318080863,0.00191165956360614,6.992681410181145,87.86354393015101,18.138844950522465,0.011641402592611207,7.203952141774013,-0.02320846525321251,0.09485925488912347,-3.1186692306897656,-0.24610667371606632,2.6844357733794473,-0.052957728420198504,4727.102130346845,0.25848398231970404,87.9396049452996,1.8755627933870014,1.2225199656082006,101071.72396304083,288.0128200481456,-0.08124286468442743,0.11786661907968898,0.06317710994907,355.825,0.1909686955173007,0.86,nominal,4066.966679806291,nan,pitch_program,12.925,0.0,0.0
0.18,15.624521792009716,0.0002507734934714535,21.30937498960262,88.12179909012352,0.0020272217530014065,6.825567066850326,88.38574457894097,18.133115889656946,0.01599769238263273,7.272667313641738,-0.03180430286832812,0.10910811965794108,-2.2905744964902146,-0.28369206841573,2.888456148613016,-0.04412275372654502,4783.333110379535,0.26001998601194914,88.46196892889499,1.9062669590361094,1.2224959217820972,101069.26907122294,288.01148906256753,-0.08124286468442743,0.11786661907968898,0.06317710994907,361.63,0.19408419689432013,0.86,nominal,4114.993504628683,nan,pitch_program,12.91,0.0,0.0
0.21,18.284517210910455,0.00031073367480105975,21.509319463501818,88.6665139633579,0.0019986727109868752,6.664815796639908,88.91664901474962,18.127293363750116,0.020841780480671993,7.340853048369667,-0.041361128363948466,0.12095450510811474,-2.2729595569885874,-0.3152433091268564,3.0866438710529867,-0.03447357730841115,4840.843817512321,0.26158154654388355,88.99303006831457,1.937360049923195,1.222472444569476,101066.87204199322,288.0101894234872,-0.08124286468442743,0.11786661907968898,0.06317710994907,367.435,0.19719969827133954,0.86,nominal,4164.019603722837,nan,pitch_program,12.895,0.0,0.0
0.24,20.96108356900317,0.000364910900812639,21.704655064294162,89.21887860309049,0.0018059075337193066,6.5111866930780815,89.45615604644779,18.121377372801977,0.026068892207469024,7.402797485108618,-0.051671663322653334,0.13013960280844453,-2.0649541193162646,-0.3399984752751953,3.2728551805407493,-0.024223028625410047,4899.639971434122,0.26316836571019603,89.53268672296305,1.9686593423742595,1.222449508857661,101064.53031057537,288.00891974208207,-0.08124286468442743,0.11786661907968898,0.06317710994907,373.24,0.20031519964835895,0.86,nominal,4214.051882889468,nan,pitch_program,12.88,0.0,0.0
0.27,23.654450845090704,0.0004078615460835377,21.895595551578097,89.7789092029178,0.0014316881756966245,6.36468290946446,90.0042317241446,18.115367916812527,0.031561865505291276,7.446745444860695,-0.06250551913095335,0.13643251547831323,-1.4651119762416622,-0.35736383752274076,3.4354020904296494,-0.013597119324295252,4959.7347651188165,0.2647803447136705,90.08090509118487,2.0000045068476155,1.2224270895248772,101062.24131132694,288.00767862891473,-0.08124286468442743,0.11786661907968898,0.06317710994907,379.045,0.20343070102537836,0.86,nominal,4265.103306242642,nan,pitch_program,12.865,0.0,0.0
0.3,26.364854362892434,0.00043373076253234825,22.08233176216815,90.34678392672436,0.0008623072149603532,6.224540353001773,90.56095333669991,18.109264995781764,0.037194237739199186,7.46972219934727,-0.0736205263951663,0.1396535353808217,-0.7661121122346353,-0.366906115725919,3.5718694013759085,-0.0028301480816747154,5021.153968192727,0.2664177133767069,90.63776319178214,2.03135250139211,1.2224051641427023,101060.00275365385,288.00646484354587,-0.08124286468442743,0.11786661907968898,0.06317710994907,384.84999999999997,0.20654620240239774,0.86,nominal,4317.196833401436,nan,pitch_program,12.850000000000001,0.0,0.0
0.32999999999999996,29.09253590646809,0.00043925041579177685,22.26502819766398,90.92271811918856,0.00018398844198095265,6.0898811831943975,91.12643591757934,18.10306860970969,0.04291417529325302,7.476828645127804,-0.08537669215352042,0.13969622338744678,-0.23715309067423226,-0.3883777953464973,3.6879795198108813,0.008499128736799425,5083.928045413262,0.26808081220900376,91.20337672445194,2.0627414995325455,1.2223837133764726,101057.8126628827,288.00527731671514,-0.08124286468442743,0.11786661907968898,0.06317710994907,390.655,0.20966170377941715,0.86,nominal,4370.359000294969,nan,pitch_program,12.835,0.0,0.0
0.36,31.837741842683815,0.0004192978519071312,22.443832618779325,91.50686454052416,-0.0006650854628215206,5.9601473705114945,91.7007612572458,18.096778758596308,0.048624527132481214,7.474234467471194,-0.09783054920426441,0.13633568078225272,0.08614376417741257,-0.411669135566481,3.7903083656038583,0.020416156569152098,5148.084328104862,0.2697698837539434,91.77782807457889,2.0942028899841767,1.2223627198585343,101055.66926521389,288.00411508797794,-0.08124286468442743,0.11786661907968898,0.06317710994907,396.46,0.21277720515643656,0.86,nominal,4424.613618730148,nan,pitch_program,12.82,0.0,0.0
0.39,34.60072106247737,0.0003676983016890667,22.6188851281225,92.09930732645171,-0.0017199850072688169,5.83508364477247,92.28396726469903,18.090395442441615,0.054204496294521454,7.465001717794653,-0.11090737691294442,0.12933252385147032,0.3073703680232902,-0.4324712272536643,3.8821257772902773,0.03283577969902487,5213.645679683302,0.27148504073836344,92.36115546886138,2.1257252025406173,1.2223421671216732,101053.57087882157,288.0029772466672,-0.08124286468442743,0.11786661907968898,0.06317710994907,402.265,0.21589270653345596,0.86,nominal,4479.980796897723,nan,pitch_program,12.805,0.0,0.0
0.42,37.38172420192801,0.0002775780936476068,22.790320858634725,92.70010464835462,-0.0030040069347153303,5.714524350407568,92.87607441850326,18.08391866124561,0.0595186035545125,7.449582237638518,-0.12446980665492502,0.1184626101642548,0.5135375621032616,-0.44876710875851844,3.964031871942561,0.04562125611945823,5280.633370570411,0.27322634438087384,92.95337961406132,2.1355893133351818,1.2223220392833694,101051.5158816138,288.00186291441884,-0.08124286468442743,0.11786661907968898,0.06317710994907,404.1773684210526,0.21691906078826353,0.86,nominal,4536.479299744009,nan,pitch_program,12.79,0.0,0.0
0.44999999999999996,40.18081169429666,0.00014196937443521285,22.958243559266396,93.30291641228827,-0.004520290640413132,5.597423354389062,93.47066587801619,18.077411089421965,0.06442129642618204,7.428014512419247,-0.13834721881368717,0.10353415708392523,0.7184276554751248,-0.45946451483701617,4.036517912559674,0.05861135253494047,5348.332979251101,0.2749749349615902,93.54808423434858,2.1346408801779537,1.2223023241468958,101049.5030278418,288.0007714168647,-0.08124286468442743,0.11786661907968898,0.06317710994907,404.14342105263154,0.21690084148196515,0.86,nominal,4593.52614904035,nan,pitch_program,12.775,0.0,0.0
0.48,42.99794993576809,-4.615152585296019e-05,23.12273708947669,93.90460804904787,-0.006270696676272435,5.483117673676504,94.06455247111063,18.070904064177505,0.06876024355555516,7.40104655433465,-0.15234887830513053,0.08440245721931058,0.8983934439969217,-0.46386393829181094,4.10067915869358,0.0716280530168109,5416.382976377787,0.2767214395864758,94.14208058974377,2.1337246042373224,1.222283011851557,101047.53131028604,287.9997022089184,-0.08124286468442743,0.11786661907968898,0.06317710994907,404.1094736842105,0.2168826221756668,0.86,nominal,4650.826605473679,nan,pitch_program,12.76,0.0,0.0
0.51,45.83310716588158,-0.0002939321383220721,23.28387873306203,94.50524100378286,-0.008259353748970397,5.371388119511272,94.6577648992962,18.064397585512236,0.07237910129444824,7.369882495050716,-0.1662699077975919,0.06097975537720173,1.038234416919833,-0.4614637316052894,4.157910673886934,0.08448011743411009,5484.785412638037,0.27846594924902646,94.73539962697619,2.1328423693324083,1.2222640933094395,101045.59980064962,287.99865478823506,-0.08124286468442743,0.11786661907968898,0.06317710994907,404.0755263157895,0.21686440286936848,0.86,nominal,4708.383077242798,nan,pitch_program,12.745,0.0,0.0
0.54,48.68625307028234,-0.0006085288404841466,23.44174084945546,95.10486348002533,-0.010486556738735818,5.262070546447759,95.25032574200426,18.057891653426154,0.07511998206429382,7.335564417580904,-0.17989459679047864,0.03324099521803383,1.143355231761627,-0.4518939084915354,4.209406769084739,0.09696785570432319,5553.541478947059,0.2802085309066149,95.3280641184337,2.13199378544986,1.2222455600114859,101043.70762975694,287.9976286844785,-0.08124286468442743,0.11786661907968898,0.06317710994907,404.0415789473684,0.2168461835630701,0.86,nominal,4766.197224880273,nan,pitch_program,12.73,0.0,0.0
0.57,51.55735845650961,-0.0009969887358221544,23.59639211337849,95.7035128742424,-0.01294866317793359,5.155042130767635,95.8422506179198,18.051386267919263,0.07682588110498347,7.298741661656062,-0.19299939513560793,0.0012283824799594531,1.2268496552996244,-0.434896433389683,4.255939861945538,0.10888628922252545,5622.651613683638,0.28194923093175844,95.92008983520704,2.1311737807302094,1.2222274038818948,101041.8539726871,287.996623451263,-0.08124286468442743,0.11786661907968898,0.06317710994907,404.0076315789474,0.21682796425677175,0.86,nominal,4824.270060472738,nan,pitch_program,12.715,0.0,0.0
0.6,54.446395083356926,-0.0014661269394269348,23.747898057191094,96.30122089491041,-0.015637940120159347,5.050198127086819,96.43355168984668,18.04488142899156,0.0773432503102791,7.2598303785552725,-0.20535634621573434,-0.03494435927333991,1.2964919528301426,-0.4103232678644746,4.298034964645536,0.12002825528839536,5692.115892592373,0.2836880854678938,96.51148906975953,2.1303765604419516,1.222209617214413,101040.03804226806,287.9956386626282,-0.08124286468442743,0.11786661907968898,0.06317710994907,403.9736842105263,0.21680974495047337,0.86,nominal,4882.6022702417185,nan,pitch_program,12.7,0.0,0.0
0.63,57.35333556426888,-0.0020224000338534,23.89632132799848,96.89801603039858,-0.018542436480882166,4.947442360246166,97.02423944745605,18.038377136643046,0.07652474353877842,7.219215985343399,-0.21673678155335832,-0.07508805729080101,1.3533066343592903,-0.37814120690886704,4.336178346316534,0.13018762010677717,5761.934228519211,0.28542512569175366,97.10227242606237,2.1295989277352003,1.222192192642114,101038.25908599014,287.994673911368,-0.08124286468442743,0.11786661907968898,0.06317710994907,403.9397368421053,0.21679152564417503,0.86,nominal,4941.19437972986,nan,pitch_program,12.685,0.0,0.0
0.6599999999999999,60.27815326171116,-0.002671777276596383,24.041722029742346,97.49392324807597,-0.02164590809143277,4.846690058128919,97.61432242948077,18.03187339087372,0.07423205691052882,7.177302260084958,-0.22691504287573658,-0.11893514343003217,1.396680195993073,-0.33843917171233284,4.3708653064556975,0.13916267590908069,5832.106331779178,0.28716037699322255,97.6924485403218,2.128840046028997,1.222175123097191,101036.51638189997,287.99372880680664,-0.08124286468442743,0.11786661907968898,0.06317710994907,403.9057894736842,0.21677330633787664,0.86,nominal,5000.046725026288,nan,pitch_program,12.67,0.0,0.0
0.69,63.220822161202946,-0.003419611328902419,24.184158174694694,98.08896331639275,-0.024927801743534535,4.747871498411624,98.20380659447663,18.025370191683585,0.07033879463014399,7.134457515630186,-0.23567227132591276,-0.16613811809562098,1.427791672244222,-0.2914355040978172,4.402544601794659,0.14675972313793165,5902.631627000447,0.288893857121299,98.28202344984109,2.128099546336995,1.2221584017579366,101034.80923318637,287.9928029718645,-0.08124286468442743,0.11786661907968898,0.06317710994907,403.8718421052631,0.21675508703157828,0.86,nominal,5059.159389586556,nan,pitch_program,12.655,0.0,0.0
0.72,66.18131675434256,-0.004270510434228909,24.323686098565442,98.68315310465402,-0.028363303510882995,4.650930795691633,98.79269542035932,18.018867539072637,0.06473332696202032,7.0909741668006,-0.24280039127685923,-0.21626945689559277,1.4491661110790346,-0.23748386547043362,4.43157917707345,0.15279678958718293,5973.509255755948,0.2906255764823911,98.87100069413471,2.127376528880015,1.222142021999972,101033.13696320029,287.9918960403593,-0.08124286468442743,0.11786661907968898,0.06317710994907,403.8378947368421,0.21673686772527995,0.86,nominal,5118.53221048844,nan,pitch_program,12.64,0.0,0.0
0.75,69.15961194900972,-0.005228214234261536,24.46036076051164,99.27650648890501,-0.031923460001087575,4.555822064873254,99.38099050842511,18.01236543304088,0.057321610011995844,7.047079769388391,-0.24810629050455543,-0.268822920657127,1.4629588751255322,-0.1770772558845354,4.45825985141539,0.15710742805872974,6044.738141248521,0.2923555399264577,99.4593819223179,2.1266698849669825,1.2221259773610125,101031.49891185688,287.99100765505665,-0.08124286468442743,0.11786661907968898,0.06317710994907,403.80394736842106,0.21671864841898159,0.86,nominal,5178.164834069913,nan,pitch_program,12.625,0.0,0.0
0.78,72.15568300086923,-0.006295475631799056,24.594235960839697,99.86903506198377,-0.03557537991791736,4.462506677601906,99.96869207740511,18.00586387358831,0.04802991619174182,7.002966469031875,-0.2514160836348412,-0.32321636270736825,1.4703421328162214,-0.11085003562948965,4.482836681652943,0.15954453827228657,6116.317042129715,0.29408374820736133,100.04716738973721,2.1259788825037913,1.2221102615152815,101029.89443302265,287.9901374662545,-0.08124286468442743,0.11786661907968898,0.06317710994907,403.77,0.21670042911268322,0.86,nominal,5238.056761918889,nan,pitch_program,12.61,0.0,0.0
0.8099999999999999,75.1695054535296,-0.007473951212217133,24.725364533715705,100.46074842201216,-0.03928251934726924,4.370952429200258,100.55579914537738,17.999362860714932,0.03680741097886875,6.958805468755942,-0.2525793444092672,-0.3787961968368232,1.4720045248796945,-0.039577713299542044,4.505534164410044,0.15998415332000426,6188.244569931622,0.2958101985218508,100.63435614116597,2.1253032514155725,1.222094868250875,101028.32289220384,287.98928513053085,-0.08124286468442743,0.11786661907968898,0.06317710994907,403.73605263157896,0.21668220980638486,0.86,nominal,5298.207366987302,nan,pitch_program,12.595,0.0,0.0
0.84,78.20105508252435,-0.008764102766796662,24.853798532531542,101.05165429982522,-0.043005051819317644,4.281133293861219,101.1423095862739,17.99286239442074,0.02362851250881483,6.914745496417508,-0.2514732342318376,-0.434843638180501,1.4686849254319452,0.035825868603516484,4.526550053930527,0.15832911756018347,6260.519191741441,0.2975348846789067,101.22094606824805,2.1246429050908073,1.2220797914479749,101026.78366432177,287.9884503095385,-0.08124286468442743,0.11786661907968898,0.06317710994907,403.7021052631579,0.2166639905000865,0.86,nominal,5358.615897601887,nan,pitch_program,12.58,0.0,0.0
0.87,81.25030784522941,-0.010165112475665644,24.979589394833035,101.64175875683539,-0.04670032362896606,4.193028743383129,101.7282202446587,17.98636247470574,0.008494973673767874,6.87090994845433,-0.24800646224258316,-0.49058275626153597,1.46121711858126,0.11431423890251234,4.546053061952229,0.1545125739913905,6333.139240433666,0.29925779744134584,101.80693402555904,2.123997739187892,1.222065025059483,101025.27613173502,287.98763266893354,-0.08124286468442743,0.11786661907968898,0.06317710994907,403.66815789473685,0.21664577119378817,0.86,nominal,5419.281487411733,nan,pitch_program,12.565,0.0,0.0
0.8999999999999999,84.31723983865099,-0.011674814294337872,25.102788076931535,102.23106644738576,-0.05032339395574094,4.106622736616709,102.31352711012693,17.979863101569926,-0.008562374794267512,6.827399931584263,-0.24212299036863238,-0.5451903450787559,1.4503338655832552,0.19471703066077298,4.5641865857141,0.14850117766706952,6406.10293291697,0.30097892504336804,102.39231600654917,2.123367648764403,1.2220505630951957,101023.79968262342,287.9868318774999,-0.08124286468442743,0.11786661907968898,0.06317710994907,403.6342105263158,0.2166275518874898,0.86,nominal,5480.20317155198,nan,pitch_program,12.55,0.0,0.0
0.9299999999999999,87.40182726395795,-0.013289644012833836,25.223445163163824,102.81958084356536,-0.05382765728319881,4.021902874409619,102.89822547058014,17.9733642750133,-0.02748228364724937,6.784299885033613,-0.23380538242964868,-0.5978075963703281,1.4365816372585172,0.2757518188531685,4.5810748583461205,0.14029795159808198,6479.408386488192,0.3026982536457231,102.9770872982871,2.122752611147084,1.222036399608966,101022.35370967691,287.9860476064394,-0.08124286468442743,0.11786661907968898,0.06317710994907,403.6002631578947,0.21660933258119142,0.86,nominal,5541.379901006514,nan,pitch_program,12.535000000000002,0.0,0.0
0.96,90.50404639553705,-0.015004610313788747,25.341610959264425,103.4073043859696,-0.05716554336516366,3.9388598700201003,103.4823100116516,17.966865995035864,-0.04817220879312954,6.741681214599871,-0.2230776983896106,-0.6475535268342886,1.4203876825938646,0.3560391450284201,4.596826871974314,0.1299446994455478,6553.053629026422,0.30441576763204264,103.56124258218153,2.1221526964471353,1.2220225286877322,101020.93760897507,287.98527952876475,-0.08124286468442743,0.11786661907968898,0.06317710994907,403.56631578947366,0.21659111327489305,0.86,nominal,5602.810551787455,nan,pitch_program,12.520000000000001,0.0,0.0
0.99,93.62387355340717,-0.016813288956712486,25.457335574059314,103.9942385956706,-0.060289288097458,3.857487159829605,104.06577488819161,17.960368261637615,-0.07050795711644066,6.699603609222656,-0.21000783919112395,-0.6935400603129313,1.4021380738750484,0.43412078115042946,4.611537849688178,0.11752388753644809,6627.0366060657325,0.306131449822846,104.14477600670419,2.1215686003425662,1.2220089444419135,101019.55077900625,287.9845273187686,-0.08124286468442743,0.11786661907968898,0.06317710994907,403.53236842105264,0.21657289396859472,0.86,nominal,5664.493931447235,nan,pitch_program,12.505,0.0,0.0
1.02,96.7612850660181,-0.018711218566145937,25.570668993273244,104.58038375369793,-0.06326432031444834,3.7777806404643908,104.64861344046761,17.953871074818558,-0.09539974951491847,6.658114850175298,-0.1940020608211981,-0.7676750719246803,1.382190067546247,0.5319070066048658,4.625288494192244,0.10247753835791858,6701.355158915418,0.3078452810171917,104.72768103138638,2.1209992510148736,1.2219956409967359,101018.19261978159,287.9837906515437,-0.08124286468442743,0.11786661907968898,0.06317710994907,403.49842105263156,0.21655467466229633,0.86,nominal,5726.428748589092,nan,pitch_program,12.49,0.0,0.0
1.05,99.91625727598775,-0.02068931308861354,25.68166112812504,105.16574033232125,-0.06593648408225347,3.699737828393164,105.23081937941944,17.947374434578688,-0.12327530716016778,6.617255078383396,-0.17511522341543675,-0.8564139687781034,1.360796666799682,0.6279392794432476,4.63815191467805,0.08497789161950563,6776.007126453061,0.3095572423739308,105.30995123686297,2.1204451486846145,1.2219826124865154,101016.8625322511,287.98306920266714,-0.08124286468442743,0.11786661907968898,0.06317710994907,403.46447368421053,0.216536455355998,0.86,nominal,5788.613735734127,nan,pitch_program,12.475,0.0,0.0
1.08,103.08876651376352,-0.022735445391410466,25.790361864631215,105.75030792585888,-0.06820441009323086,3.623357883539185,105.81238585632465,17.940878340918008,-0.15437522817678848,6.577057235813212,-0.15371493041295953,-0.9547095963652228,1.338207294788448,0.7118642570790604,4.650192927722122,0.06546447351832609,6850.990265271954,0.31126731358808823,105.89157970443111,2.119906676665699,1.2219698530488659,101015.55991771193,287.9823626478799,-0.08124286468442743,0.11786661907968898,0.06317710994907,403.43052631578945,0.21651823604969964,0.86,nominal,5851.047552483652,nan,pitch_program,12.46,0.0,0.0
1.1099999999999999,106.27878907666363,-0.024835277615358545,25.89682110558496,106.33408543000368,-0.0699944074649359,3.5486413651248117,106.39330561172856,17.934382793836516,-0.1888748070265277,6.537547306507093,-0.13033526107774357,-1.060989836054986,1.314672713365098,0.778165666551441,4.661467740525832,0.044521962199085816,6926.302263482354,0.31297547324271124,106.47255913570241,2.119384112448683,1.2219573568197508,101014.28417730296,287.98167066281366,-0.08124286468442743,0.11786661907968898,0.06317710994907,403.3965789473684,0.21650001674340127,0.86,nominal,5913.728800190421,nan,pitch_program,12.445,0.0,0.0
1.14,109.48630121189892,-0.026972813351078977,26.001088803741183,106.91707117450984,-0.07125119119068102,3.475589938540874,106.97357108505042,17.927887793334214,-0.22693931468055484,6.498745460709785,-0.10560551101926267,-1.1752413202070129,1.2904145989711033,0.823684516315832,4.672024752843556,0.022818801957678003,7001.94075229654,0.3146816990992334,107.05288195134652,2.1188776612309543,1.2219451179295895,101013.034711607,287.98099292277567,-0.08124286468442743,0.11786661907968898,0.06317710994907,403.3626315789474,0.21648179743710294,0.86,nominal,5976.656032861377,nan,pitch_program,12.43,0.0,0.0
1.17,112.71127910284007,-0.029130856544261043,26.103214987521866,107.49926303137148,-0.07193477310606892,3.4042061260228254,107.55317450567428,17.9213933394111,-0.2687544497258417,6.460667400177938,-0.08020790750641901,-1.2982994641160166,1.2656182158127613,0.8466614466291628,4.68190562694588,0.0010693512052633036,7077.903316536544,0.31638596835417987,107.63254037839134,2.118387474789746,1.221933130500222,101011.81092034056,287.9803291025811,-0.08124286468442743,0.11786661907968898,0.06317710994907,403.3286842105263,0.21646357813080455,0.86,nominal,6039.827766381393,nan,pitch_program,12.415,0.0,0.0
1.2,115.95369885811942,-0.03129144351529667,26.203249780974684,108.08065850931197,-0.07201956570118757,3.3344931150939168,108.13210797426898,17.914899432067177,-0.31454817812833086,6.423325225556319,-0.05484606139507793,-1.431606645079563,1.2404470551507245,0.8463822760741315,4.691145921593819,-0.0199951543789361,7154.187504557045,0.31808825787447476,108.21152653024913,2.1179136432653785,1.2219213886425626,101010.61220211412,287.97967887642363,-0.08124286468442743,0.11786661907968898,0.06317710994907,403.2947368421053,0.21644535882450622,0.86,nominal,6103.242486944077,nan,pitch_program,12.4,0.0,0.0
1.23,119.21353650348566,-0.033436265626452515,26.301243418590417,108.66125484554125,-0.0714940703718615,3.266454587191153,108.71036354267216,17.90840607130244,-0.3646102322809227,6.386727951499239,-0.03021721008618959,-1.5771519225641286,1.2150525975689142,0.8230532594793729,4.699775442593614,-0.039652362257915956,7230.790838410091,0.3197885444304616,108.78983248596971,2.1174561783102557,1.221909886454851,101009.43795425317,287.9790419177791,-0.08124286468442743,0.11786661907968898,0.06317710994907,403.26078947368416,0.2164271395182078,0.86,nominal,6166.898659560891,nan,pitch_program,12.385,0.0,0.0
1.26,122.49076797641752,-0.035547079710493736,26.397246255001097,109.24104909772849,-0.07036046946804078,3.2000945470227045,109.28793329401867,17.901913257116895,-0.41931166343216103,6.350882017808442,-0.006985911357613805,-1.7374812164384121,1.1895718757836942,0.7777536646223461,4.707818677202456,-0.05721306490135641,7307.710824371615,0.32148680492938275,109.36745036965493,2.1170146101559704,1.2218986180215048,101008.28757268094,287.97841789934245,-0.08124286468442743,0.11786661907968898,0.06317710994907,403.22684210526313,0.21640892021190947,0.86,nominal,6230.794736825544,nan,pitch_program,12.37,0.0,0.0
1.29,125.78536911950005,-0.03761022694840086,26.491308799908815,109.82003810275083,-0.0687715745969042,3.1354181635905896,109.86480940446623,17.895420989510537,-0.47922068856396355,6.3157850906141055,0.01510563236548469,-1.9157351692717954,1.1641229680355571,0.7410415080825323,4.715295953297509,-0.07297219717072168,7384.944981009688,0.32318301702582164,109.94437255808123,2.1165890956404407,1.22188757740901,101007.16045149857,287.9778064928006,-0.08124286468442743,0.11786661907968898,0.06317710994907,403.1928947368421,0.21639070090561113,0.86,nominal,6294.929166182471,nan,pitch_program,12.355,0.0,0.0
1.3199999999999998,129.09731568783735,-0.03961031058501607,26.583481671143566,110.39821894457691,-0.06666945455384041,3.0724290411583337,110.44098429099526,17.88892926848337,-0.5449696107597336,6.281442001343195,0.03595008116689049,-2.11540262264686,1.138551615677729,0.7008248728391828,4.722231881230624,-0.08674330574734197,7462.490807743799,0.32487715841619186,110.52059144074462,2.116179759034963,1.2218767586714234,101006.05598354651,287.97720736913755,-0.08124286468442743,0.11786661907968898,0.06317710994907,403.158947368421,0.21637248159931274,0.86,nominal,6359.300406112252,nan,pitch_program,12.34,0.0,0.0
1.3499999999999999,132.4265833432086,-0.04153135992531381,26.673815610368077,110.97558851237467,-0.06403497800992441,3.011131307483748,111.01645039316121,17.88243809403539,-0.6172982196896463,6.247856135364772,0.05532026850028928,-2.3404974296212138,1.1129618730701296,0.65313925125676,4.728647015118108,-0.09823179887545991,7540.345791852509,0.3265692069889114,111.09609947092798,2.1157866137152666,1.2218661558485249,101004.97356021582,287.9766201985326,-0.08124286468442743,0.11786661907968898,0.06317710994907,403.125,0.2163542622930144,0.86,nominal,6423.906902804028,nan,pitch_program,12.325,0.0,0.0
1.38,135.77314765140426,-0.043357352014382816,26.762361489229182,111.55214360652269,-0.06086640296896697,2.9515292953701104,111.59120024944036,17.8759474661666,-0.6970840917114834,6.215025863568698,0.07297071655205051,-2.5956672723755334,1.0875622636986448,0.5973857306118713,4.7345546366832,-0.10712244052917193,7618.507415951075,0.3282591409798926,111.67088921858769,2.1154094130044627,1.221855762965084,101003.91257137283,287.97604465032,-0.08124286468442743,0.11786661907968898,0.06317710994907,403.0910526315789,0.21633604298671602,0.86,nominal,6488.747098853699,nan,pitch_program,12.31,0.0,0.0
1.41,139.13698408340716,-0.045072467252384237,26.849170300393777,112.12788106676363,-0.057170507933380646,2.893627038819856,112.16522660089025,17.869457384877,-0.7853698692628601,6.182947940112831,0.08868434236226781,-2.8863002904369806,1.062438617729266,0.5345140024410197,4.73996445456586,-0.11311900411153183,7696.97317136756,0.32994693924940505,112.24495346454891,2.1150478622630042,1.2218455740319059,101002.87240546587,287.9754803930474,-0.08124286468442743,0.11786661907968898,0.06317710994907,403.0571052631579,0.2163178236804177,0.86,nominal,6553.819445140885,nan,pitch_program,12.295,0.0,0.0
1.44,142.51806801799768,-0.046661217284621914,26.934293144305776,112.70279781968442,-0.05295833440792259,2.8374281303999727,112.73852242851612,17.862967850166587,-0.883391428411344,6.151619924159527,0.1022983002639621,-3.2186337213938208,1.037586815741823,0.4663313704148406,4.7448850854759685,-0.11596548142614627,7775.740563453457,0.33163258137843676,112.8182852333015,2.114701717206905,1.2218355830473777,101001.85244968277,287.97492709456196,-0.08124286468442743,0.11786661907968898,0.06317710994907,403.02315789473687,0.21629960437411935,0.86,nominal,6619.122405546122,nan,pitch_program,12.28,0.0,0.0
1.47,145.9163747443767,-0.04810849185210495,27.017781216942097,113.27689087930102,-0.04824248558276785,2.78293575454402,113.31108094988947,17.856478862035363,-0.9926086167980304,6.121039356643745,0.11372183812823909,-3.5998702194588406,1.0130182244076793,0.39523955748930745,4.749323203890764,-0.11545999121297987,7854.807111613404,0.3333160476501408,113.39087778670202,2.1143707033370718,1.221825783998899,101000.85209009683,287.9743844220898,-0.08124286468442743,0.11786661907968898,0.06317710994907,402.9892105263158,0.21628138506782096,0.86,nominal,6684.654457187328,nan,pitch_program,12.265,0.0,0.0
1.5,149.33187946524725,-0.049399535855617085,27.099685795009204,113.85015736235172,-0.04303480011707105,2.730152602236888,113.88289562817486,17.84999042048333,-1.1147394833690083,6.091202780387456,0.12295101790446478,-4.038306702128948,0.9887598472694937,0.32413130003097346,4.753282646780891,-0.1114655133992062,7934.170351111983,0.3349973190693418,113.96272463062762,2.114054459900344,1.221816170864614,100999.8707118432,287.9738520423324,-0.08124286468442743,0.11786661907968898,0.06317710994907,402.9552631578947,0.2162631657615226,0.86,nominal,6750.414092030513,nan,pitch_program,12.25,0.0,0.0
1.53,152.76455730075628,-0.05051985396494275,27.180058215694956,114.42259451696783,-0.037343936977521974,2.6790806895250228,114.45396019319318,17.843502525510484,-1.2517987005535864,6.06210605330761,0.13008204690187192,-4.543479949004972,0.9648037259738409,0.2563438555392987,4.756764963844361,-0.10391887145441493,8013.827836599784,0.33667637741750167,114.53381953370024,2.1137525704061595,1.2218067376157775,100998.90769936048,287.97332962159794,-0.08124286468442743,0.11786661907968898,0.06317710994907,402.9213157894737,0.21624494645522424,0.86,nominal,6816.39981985347,nan,pitch_program,12.235,0.0,0.0
1.56,156.21438329292496,-0.05145503444004478,27.258949851832817,114.99419973895571,-0.031172682503401133,2.6297212045953446,115.02426865211044,17.83701517711683,-1.406140866898631,6.0337447918186315,0.13532374369936476,-5.126333063646159,0.9410921841812907,0.19563010172606138,4.759770260358322,-0.09283834653001652,8093.777144227902,0.33835320527648693,115.1041565354043,2.113464595063196,1.2217974782196646,100997.96243668732,287.97281682596304,-0.08124286468442743,0.11786661907968898,0.06317710994907,402.8873684210526,0.21622672714892588,0.86,nominal,6882.6101700409135,nan,pitch_program,12.220000000000002,0.0,0.0
1.5899999999999999,159.68133241012512,-0.05219048141909692,27.336412083343397,115.56497057333839,-0.02451489930173787,2.58207438368603,115.59381528749599,17.83052837530236,-1.5805094610332762,6.006114143401566,0.13900921275842648,-5.799407216799729,0.9175260309621226,0.14613246894946988,4.762297636840073,-0.07832991348394644,8174.0158719689625,0.34002778601428757,115.67372994126687,2.1131900667672023,1.2217883866429202,100997.03430780426,287.9723133214583,-0.08124286468442743,0.11786661907968898,0.06317710994907,402.8534210526316,0.21620850784262752,0.86,nominal,6949.04369191699,nan,pitch_program,12.205000000000002,0.0,0.0
1.6199999999999999,163.16537955147183,-0.05271104381314817,27.41249626403137,116.13490471155656,-0.017352079801708498,2.536139356265689,116.16259465202813,17.824042120067084,-1.77809235408896,5.979208263239997,0.1416066664566945,-6.577063702711279,0.8939553968660054,0.11235451181986697,4.764345777042482,-0.060591944079053224,8254.541639401039,0.34170010375997617,116.2425343143845,2.11292848751225,1.2217794568554399,100996.1226970297,287.97181877428375,-0.08124286468442743,0.11786661907968898,0.06317710994907,402.8194736842105,0.21619028853632916,0.86,nominal,7015.69895463336,nan,pitch_program,12.19,0.0,0.0
1.65,166.66649955100038,-0.053000528310904294,27.487253682516034,116.70399998428498,-0.009649483258537341,2.4919139494888016,116.73060156007152,17.817556411410994,-2.002584960449354,5.953019813125263,0.14372930068244044,-7.475742184855017,0.8701536425115229,0.0991287710343471,4.765914207092486,-0.03991817543098523,8335.352086969282,0.34337014336854005,116.8105644635144,2.112679350650694,1.2217706828349613,100995.22698948845,287.9713328510636,-0.08124286468442743,0.11786661907968898,0.06317710994907,402.78552631578947,0.21617206923003082,0.86,nominal,7082.574546613732,nan,pitch_program,12.175,0.0,0.0
1.68,170.1846671812235,-0.05304108351315419,27.560735516744035,117.27225434076998,-0.001351840074996535,2.4493944742667324,117.29783106811603,17.81107124933409,-2.258262314553213,5.927539256359928,0.14614413529260237,-8.51426205193308,0.8457906697951556,0.111581292265232,4.7670052549761035,-0.01669873704523064,8416.444873557804,0.34503789035198257,117.37781541970088,2.1124421810882774,1.2217620585723867,100994.34657165481,287.97085521914113,-0.08124286468442743,0.11786661907968898,0.06317710994907,402.75157894736844,0.21615384992373246,0.86,nominal,7149.66907359742,nan,pitch_program,12.16,0.0,0.0
1.71,173.7198571553955,-0.05281244175775325,27.632992781667316,117.83966580573336,0.007621391846697925,2.4085754974426736,117.86427843591721,17.80458663383638,-2.5500616101420874,5.90275367629036,0.14977977218282645,-9.714175050806556,0.8204048967545455,0.15509408644124292,4.767626785363247,0.008580954155760913,8497.817671140496,0.34670333075268034,117.94428239326905,2.112216591597153,1.2217535780779225,100993.48083197918,287.97038554691915,-0.08124286468442743,0.11786661907968898,0.06317710994907,402.71763157894736,0.2161356306174341,0.86,nominal,7216.981154272047,nan,pitch_program,12.145,0.0,0.0
1.74,177.27204412749953,-0.05229100466545259,27.704076269396868,118.4062324034676,0.01738123641002201,2.3694495909851425,118.42993905873455,17.798102564917855,-2.883677033605293,5.878645040909356,0.15573309525925927,-11.100178831359461,0.7933645518141874,0.2352674177048406,4.767796088074435,0.03534359558420135,8579.46815502624,0.3483664509307538,118.50996070157922,2.112002373531434,1.221745235388095,100992.62916160411,287.9699235042489,-0.08124286468442743,0.11786661907968898,0.06317710994907,402.68368421052634,0.21611741131113574,0.86,nominal,7284.509412275071,nan,pitch_program,12.13,0.0,0.0
1.77,180.84120268843392,-0.051448757716667626,27.774036481149732,118.97195203114654,0.02807489829283219,2.332007058428807,118.99480835407026,17.79161904257852,-3.2656690707527636,5.855187812750996,0.1652750238182849,-12.700602762147929,0.7638154791302738,0.3578842936373863,4.767545395633299,0.06292583283758334,8661.393987142752,0.3500272372166166,119.07484565093063,2.1117996439118327,1.2217370245737311,100991.79095517883,287.9694687628725,-0.08124286468442743,0.11786661907968898,0.06317710994907,402.64973684210526,0.21609919200483738,0.86,nominal,7352.252462468821,nan,pitch_program,12.115,0.0,0.0
1.7999999999999998,184.42730735604673,-0.05025199813027157,27.84292355056692,119.53682225376033,0.03989198621320189,2.296235647239509,119.5588815774274,17.785136066818374,-3.7035908749004367,5.832345652150489,0.17985553279679906,-14.547979397700463,0.7306159541324957,0.5288799968248116,4.7669295042132935,0.09058663213885904,8743.592788411683,0.35168567535370965,119.63893234710359,2.1116090687927707,1.2217289397489566,100990.96561177762,287.9690209969213,-0.08124286468442743,0.11786661907968898,0.06317710994907,402.6157894736842,0.216080972698539,0.86,nominal,7420.208888259822,nan,pitch_program,12.1,0.0,0.0
1.8299999999999998,188.03033255554286,-0.048659858802493745,27.91078715817536,120.1008399832044,0.05307131092592755,2.2621202536147287,120.12215353246512,17.77865363763742,-4.206134764538088,5.810066886044012,0.20110827941554818,-16.67971735272318,0.692255213563182,0.7543199584520556,4.766036089115293,0.11751827545020996,8826.062094783852,0.35334174962951603,120.20221539987458,2.111432190059353,1.221720975081223,100990.15253592317,287.9685798834718,-0.08124286468442743,0.11786661907968898,0.06317710994907,402.58184210526315,0.21606275339224065,0.86,nominal,7488.377205523282,nan,pitch_program,12.085,0.0,0.0
1.8599999999999999,191.65025258528792,-0.04662260885864793,27.977676436869004,120.66400099150171,0.06790833146152708,2.229642623121504,120.68461812942628,17.77217175503565,-4.7833024833206,5.7882783715000965,0.23085533081270695,-19.138894133989414,0.6467495495994348,1.0403897295371078,4.764999505340395,0.14286005559045759,8908.79928961547,0.35499544155907975,120.764688475316,2.1112718951867104,1.221713124802398,100989.35113871875,287.96814510316034,-0.08124286468442743,0.11786661907968898,0.06317710994907,402.54789473684207,0.2160445340859423,0.86,nominal,7556.755807152345,nan,pitch_program,12.07,0.0,0.0
1.89,195.28704156102827,-0.04407970816456843,28.043639868360234,121.22629919134559,0.08476335646931679,2.198781049707661,121.24626773043693,17.765690419013072,-5.446603517783805,5.766877274912132,0.2711126731378909,-21.975190783216686,0.5915095603340277,1.3934012573958845,4.764019062687698,0.16571477080660424,8991.801502546736,0.35664672794025576,121.32634363438551,2.111133080964676,1.2217053832209124,100988.56083908779,287.96771634085565,-0.08124286468442743,0.11786661907968898,0.06317710994907,402.51394736842104,0.21602631477964393,0.86,nominal,7625.34288019545,nan,pitch_program,12.055,0.0,0.0
1.92,198.9406733289127,-0.040957588516603326,28.108725170478323,121.78772559614804,0.10407065493217008,2.169510070602931,121.80709220127667,17.759209629569682,-6.209286546365636,5.7457201228399395,0.3240974074664046,-25.245994100726506,0.5231706197582757,1.819820133043697,4.76338299828565,0.18516818821036415,9075.065461876817,0.3582955780439438,121.88717037726792,2.1110235763453797,1.22169774473498,100987.78106512345,287.96729328639185,-0.08124286468442743,0.11786661907968898,0.06317710994907,402.48,0.2160080954733456,0.86,nominal,7694.136284958229,nan,pitch_program,12.040000000000001,0.0,0.0
1.95,202.61112133428492,-0.03716712759495871,28.172979174703727,122.3482668457401,0.12634869738815382,2.141800140846767,122.36707756579418,17.752729386705482,-7.086610008175034,5.7246082849778075,0.3922378177239445,-29.01769688547706,0.4373747810859549,2.3263189444257253,4.763499699218641,0.2003117915974841,9158.587283483448,0.35994194963353354,122.44715428945322,2.1109554117663443,1.2216902038469648,100987.01125555509,287.96687563536443,-0.08124286468442743,0.11786661907968898,0.06317710994907,402.44605263157894,0.2159898761670472,0.86,nominal,7763.133382220152,nan,pitch_program,12.025,0.0,0.0
1.98,206.2983584288017,-0.032600772301077614,28.236447692089254,122.90790315055894,0.15221184312936986,2.115617246184168,122.92620412932597,17.74624969042047,-8.096158856888781,5.703268793464632,0.47818785233815303,-33.367232215765284,0.3284873359822856,2.919862357673475,4.76493817236249,0.21026939387363391,9242.362174286542,0.3615857834199201,123.00627515564437,2.1109465550466218,1.2216827551791078,100986.2508613534,287.9664630900014,-0.08124286468442743,0.11786661907968898,0.06317710994907,402.4121052631579,0.21597165686074887,0.86,nominal,7832.330790581985,nan,pitch_program,12.01,0.0,0.0
2.01,210.00235659271107,-0.027129254638108613,28.299175363187356,123.4666054636463,0.1823839220989667,2.0909223699367296,123.48444389868644,17.739770540714648,-9.25821583496673,5.68132903819464,0.5848480277314194,-38.3838845311527,0.18922462177734783,3.607830070829668,4.768480341432636,0.2142286410432918,9326.384021670781,0.3632269954441146,123.56450436869807,2.1110232819965984,1.2216753934911408,100985.49934752841,287.96605536013925,-0.08124286468442743,0.11786661907968898,0.06317710994907,402.37815789473683,0.2159534375544505,0.86,nominal,7901.72405055932,nan,pitch_program,11.995000000000001,0.0,0.0
2.04,213.72308654167242,-0.020597824181240548,28.361205482822097,124.02433163204466,0.2177143485622689,2.0676706544914225,124.04175707498024,17.733291937588014,-10.596197103941027,5.658283363736757,0.7153953939228053,-44.17142845418609,0.010159487032033473,4.398184362896945,4.775188536629415,0.21147915898181657,9410.644831564558,0.3648654667282074,124.12180140935101,2.1112234240227514,1.221668113700836,100984.75619522716,287.96565216436164,-0.08124286468442743,0.11786661907968898,0.06317710994907,402.3442105263158,0.21593521824815215,0.86,nominal,7971.307164872322,nan,pitch_program,11.98,0.0,0.0
2.07,217.4605171776953,-0.012821894080302737,28.422579781912575,124.5810212007628,0.2591976700312604,2.045809969682601,124.59808732596626,17.72681388104057,-12.13716384457408,5.633448863526392,0.8733260929217735,-50.850656301838804,-0.22094481222198295,5.299689608512842,4.786492620010977,0.20146024143425595,9495.13396607698,0.3665010293305143,124.67810910278416,2.11160085267328,1.2216609109096102,100984.02090434708,287.96525323141753,-0.08124286468442743,0.11786661907968898,0.06317710994907,402.3102631578947,0.2159169989418538,0.86,nominal,8041.07197466285,nan,pitch_program,11.965,0.0,0.0
2.1,221.2146148306911,-0.0035819591368886853,28.48333813339998,125.13658843319291,0.30799783144713505,2.0252783829134504,125.15335544798943,17.720336371072314,-13.912423553892891,5.605906600122967,1.0625153420683933,-58.562367611179056,-0.5200453305496405,6.322191828868813,4.80430267711991,0.18382277146059767,9579.837115229608,0.3681334476556816,125.2333472611307,2.112231749993596,1.2216537804370273,100983.29299705819,287.9648583021329,-0.08124286468442743,0.11786661907968898,0.06317710994907,402.27631578947364,0.2158987796355554,0.86,nominal,8111.0073178512985,nan,pitch_program,11.95,0.0,0.0
2.13,224.98534221936407,0.007382409807369875,28.543518123144803,125.69091295576595,0.3654789648086187,2.005999658160762,125.7074508895801,17.71385940768325,-15.958237286047298,5.574422878513857,1.2873016456045976,-67.47090947111546,-0.9080849827521017,7.47696700571155,4.831155280503386,0.1585128563302508,9664.734914064029,0.36976239346410616,125.78740418281654,2.1132235205010934,1.2216467178711505,100982.57202294274,287.96446713219956,-0.08124286468442743,0.11786661907968898,0.06317710994907,402.2423684210526,0.21588056032925707,0.86,nominal,8181.097896580434,nan,pitch_program,11.935,0.0,0.0
2.16,228.77265703555426,0.020379767449988456,28.603154381813503,126.24382720633982,0.4332452547539527,1.9878752889567175,126.2602204073769,17.70738299087337,-18.31665209934057,5.537342729012054,1.5526051258919495,-77.76837603616752,-1.412782743001032,8.777147196291226,4.870404276625675,0.12588898481236913,9749.801082565391,0.3713874124315878,126.34012527781228,2.1147277045632746,1.221639719146942,100981.85756699849,287.9640794965182,-0.08124286468442743,0.11786661907968898,0.06317710994907,402.2084210526316,0.2158623410229587,0.86,nominal,8251.32275257811,nan,pitch_program,11.92,0.0,0.0
2.19,232.5765100212729,0.03577557090808806,28.662277497365206,126.7950995239543,0.5131934486033202,1.9707705183901494,126.81145282363624,17.700907120642682,-21.036481591469393,5.49244382031715,1.8640948600377485,-89.679600766852,-2.0712162133905436,10.238232677782415,4.926471325107462,0.08689126145576184,9834.999915396314,0.37300787922259676,126.89129778607024,2.1169590867502417,1.2216327806738787,100981.14926266589,287.9636951962671,-0.08124286468442743,0.11786661907968898,0.06317710994907,402.1744736842105,0.21584412171666034,0.86,nominal,8321.653207240197,nan,pitch_program,11.905,0.0,0.0
2.2199999999999998,236.39684235707512,0.0540030591831353,28.720912198020358,127.34441119340697,0.6075829425015745,1.9544900218384165,127.36085839249435,17.694431796991182,-24.17446175791474,5.436732511253617,2.2284284336955786,-103.46810784595338,-2.933629614953282,11.878694581133821,5.005177826006873,0.043291863721343096,9920.282871358668,0.3746229366804529,127.44063009394017,2.120224580240396,1.2216258995491815,100980.44681359471,287.96331407071284,-0.08124286468442743,0.11786661907968898,0.06317710994907,402.1405263157895,0.215825902410362,0.86,nominal,8392.050058843215,nan,pitch_program,11.890000000000002,0.0,0.0
2.25,240.23358210511188,0.07557696273017844,28.77907427603042,127.89132493455851,0.7191301182347718,1.938735933668796,127.90804055517495,17.687957019918873,-27.796614632427783,5.366152510217154,2.6536012246012284,-119.44323309130824,-4.069188400830678,13.720661539037954,5.114189888109,-0.0019273037829664005,10005.583891625165,0.37623141259925014,127.9877234262274,2.1249677883646045,1.221619073918808,100979.75003049501,287.9629360172058,-0.08124286468442743,0.11786661907968898,0.06317710994907,402.1065789473684,0.21580768310406362,0.86,nominal,8462.459728081172,nan,pitch_program,11.875,0.0,0.0
2.28,244.08663933505773,0.10111103225773549,28.836765352447657,128.4352409981946,0.8511356509185684,1.9230358805745684,128.4524566879068,17.68148278942575,-31.944948505790883,5.2753057015292555,3.1495015548824004,-136.80339262678763,-5.574921494259293,15.790656267016143,5.263741229642772,-0.04714873359988189,10090.81288073248,0.37783170408391137,128.5320325156238,2.131850747482317,1.2216123035918078,100979.05889385173,287.9625610252091,-0.08124286468442743,0.11786661907968898,0.06317710994907,402.0726315789474,0.21578946379776529,0.86,nominal,8532.808879522863,nan,pitch_program,11.86,0.0,0.0
2.31,247.95589930624868,0.13133793117906517,28.893965897035173,128.97533237303165,1.007563297377656,1.9066848195838935,128.99336026142367,17.67500910551182,-36.6364648631315,5.15697393162718,3.7285381868553484,-154.713651754822,-7.5766098112447375,18.11765788443783,5.467372692589129,-0.09186074191474379,10175.84611572083,0.3794216073685366,129.0728077208485,2.1418664702200276,1.2216055908594317,100978.3736375405,287.96218922166923,-0.08124286468442743,0.11786661907968898,0.06317710994907,402.03868421052636,0.21577124449146692,0.86,nominal,8602.996506430878,nan,pitch_program,11.845,0.0,0.0
2.34,251.84121290219014,0.16713290465470187,28.95062558177966,129.51045319804874,1.1931657825212236,1.8886561581496126,129.52971919305728,17.668535968177075,-41.878063295639116,5.001400786705609,4.406440523135299,-172.83719027378598,-10.238383206700611,20.73121796811283,5.742929389535444,-0.1347222710802537,10260.512669109872,0.38099807754903153,129.60901330718528,2.1565200500090067,1.2215989416271287,100977.69486438375,287.9618209337184,-0.08124286468442743,0.11786661907968898,0.06317710994907,402.0047368421053,0.21575302518516856,0.86,nominal,8672.882729477693,nan,pitch_program,11.83,0.0,0.0
2.37,255.74238308612163,0.20954427988035243,29.006648542521045,130.03900613104986,1.413712507521685,1.8674320247127822,130.06009765094007,17.66206337742152,-47.672531886287665,4.795262861699015,5.203504557505591,-191.03930829519234,-13.78460825190613,23.66112814803619,6.114063401609329,-0.17204386046147566,10344.574723317348,0.3825568806898967,130.13920912267733,2.178131550381208,1.2215923671440632,100977.0237227022,287.96145678447357,-0.08124286468442743,0.11786661907968898,0.06317710994907,401.9707894736842,0.21573480587887017,0.86,nominal,8742.272550415548,nan,pitch_program,11.815,0.0,0.0
2.4,259.65914536325084,0.2598335321940131,29.06187017800577,130.55874257097398,1.6763084104553558,1.8407211828241714,130.58247786772048,17.655591333245155,-54.02092703389637,4.52002532263016,6.146593112069492,-209.26942932438405,-18.53261866148018,26.93860157536133,6.61245764387167,-0.19615839579525063,10427.697902677684,0.38409206944564367,130.66137225047487,2.2103279720256768,1.2215858867257061,100976.36218424064,287.96109784384294,-0.08124286468442743,0.11786661907968898,0.06317710994907,401.9368421052631,0.2157165865725718,0.86,nominal,8810.891352217996,nan,pitch_program,11.8,0.0,0.0
2.4299999999999997,263.59113894673123,0.31952761344820435,29.116020334263773,131.06645278267894,1.989802708473042,1.80500520860018,131.09398309478559,17.649119835647976,-60.92344152262044,4.149184693610636,7.2724435590143575,-227.51577074531838,-24.94926960399886,30.598761572835368,7.281342228709037,-0.1933101975850857,10509.405188669714,0.38559516798721155,131.17261979339085,2.258817433387034,1.2215795320740694,100975.71348518347,287.96074586782726,-0.08124286468442743,0.11786661907968898,0.06317710994907,401.9028947368421,0.21569836726627348,0.86,nominal,8878.34682263897,nan,pitch_program,11.785,0.0,0.0
2.46,267.537863039815,0.39048567137520834,29.16866514146451,131.55746976945943,2.3652685975668,1.7548269066912192,131.59043189059497,17.64264888462999,-68.37952897438913,3.6436507237908304,8.633930552763081,-245.79057700165586,-33.77626526953065,34.68605200966284,8.18214972199287,-0.14060982741504982,10589.00288184081,0.3870538611377932,131.66876303308402,2.332609718847556,1.2215733541030256,100975.08282289229,287.9604036765805,-0.08124286468442743,0.11786661907968898,0.06317710994907,401.86894736842106,0.21568014795997512,0.86,nominal,8944.0677725862,nan,pitch_program,11.77,0.0,0.0
2.4899999999999998,271.49860794393163,0.47498099009664385,29.21911788307672,132.0248301372199,2.8165106240478495,1.6817580537404346,132.06557770671535,17.636178480191187,-76.38737631728411,2.9432350867805446,10.314357059181146,-264.1297331801836,-46.34837265805352,39.27206376973556,9.409723824400205,-0.0012652886822874243,10665.454570662147,0.38844975852978153,132.1435469772233,2.4474874634649817,1.2215674333975937,100974.47842360298,287.96007573376,-0.08124286468442743,0.11786661907968898,0.06317710994907,401.835,0.21566192865367675,0.86,nominal,9007.200069892308,nan,pitch_program,11.755,0.0,0.0
2.52,275.47233586927405,0.5758213528783201,29.26630394404453,132.4575975114138,3.361345426055875,1.572868698926968,132.50957587100274,17.629708622331577,-84.94066891059643,1.9452269249470233,12.439597386406216,-282.6020737856193,-64.62936967341857,44.43163482970278,11.106537770308393,0.2845236732124834,10737.128108057464,0.38975388581285425,132.58711676368102,2.516411966998794,1.2215618960619379,100973.91316020903,287.9597690243637,-0.08124286468442743,0.11786661907968898,0.06317710994907,401.80105263157895,0.2156437093473784,0.86,nominal,9066.39824832938,nan,pitch_program,11.74,0.0,0.0
2.55,279.45723584774333,0.6954813713021507,29.308443207067977,132.82999928230984,3.9886672807943526,1.4046421007816297,132.8972956664153,17.623239311051154,-94.02263440347745,0.4686347893591173,15.32549533520775,-301.3281184221023,-96.05181587493223,50.24639343080745,13.632626541070248,0.8266719426225462,10799.895502774576,0.39089241976781197,132.97436187153264,2.592457204233672,1.221556950989749,100973.40835688043,287.95949511915404,-0.08124286468442743,0.11786661907968898,0.06317710994907,401.7671052631579,0.21562549004108003,0.86,nominal,9118.263242299894,nan,pitch_program,11.725000000000001,0.0,0.0
2.58,283.4502102284829,0.8365011898503896,29.34320659981408,133.09914602465258,4.700660618274629,1.1587797582035182,133.18716775000516,17.616770546349922,-103.57521102163217,-1.793783950212285,18.877598274318025,-320.5383752453127,-129.0518158749322,56.6144339636719,16.964648944034163,1.7855686616051776,10846.912073676196,0.3917431646332733,133.26371723284984,2.784924400409191,1.2215528714926605,100972.99191363278,287.9592691571012,-0.08124286468442743,0.11786661907968898,0.06317710994907,401.73315789473685,0.2156072707347817,0.86,nominal,9157.169383636074,nan,pitch_program,11.71,0.0,0.0
2.61,287.44684805822874,1.001737354439743,29.36706817327669,133.2212609915289,5.507872152978447,0.7953857820869579,133.3374428822188,17.610302328227878,-113.52336565414075,-5.081729721829335,22.885654765295126,-340.5208460634388,-162.0518158749322,61.717003779511735,20.981059724887007,3.392905602096803,10871.273925210557,0.3921833949380249,133.41343944120018,2.9325224381199964,1.2215500713341578,100972.70606802394,287.95911405687366,-0.08124286468442743,0.11786661907968898,0.06317710994907,401.6992105263158,0.21558905142848334,0.86,nominal,9177.429396285945,nan,pitch_program,11.695,0.0,0.0
2.6399999999999997,291.44272195332917,1.1921260349515772,29.376048603633922,133.19579650334717,6.346289350394476,0.2993476785744958,133.3472354558304,17.603834656685024,-123.8038626812019,-9.58634575778792,27.090387994776695,-361.6717128370205,-195.05181587493217,65.35036266651684,25.535467094604623,5.883426055382255,10872.774640796386,0.3922106722488662,133.42270514783192,2.83140741212714,1.2215490174808528,100972.59848867524,287.95905568407636,-0.08124286468442743,0.11786661907968898,0.06317710994907,401.6652631578947,0.21557083212218495,0.86,nominal,9178.823228895162,nan,pitch_program,11.68,0.0,0.0
2.67,295.4360430141641,1.4057938123579332,29.36748161961614,133.11070202783122,7.1222592468785315,-0.28556613392609315,133.30141454290222,17.597367531721357,-134.4125790687294,-15.453005486316323,31.180291466997595,-384.5186096596153,-228.05181587493217,68.11923131466388,30.446223692773856,9.461926315026593,10865.246059399882,0.39207466124166124,133.37644965354806,2.7821141359717236,1.221550022816224,100972.70111522054,287.95911136947245,-0.08124286468442743,0.11786661907968898,0.06317710994907,401.63131578947366,0.21555261281588659,0.86,nominal,9172.63017319434,nan,pitch_program,11.665,0.0,0.0
2.6999999999999997,299.42453727528135,1.640984399720005,29.339299216225694,132.94980870390876,7.839686245402394,-0.9394134463482189,133.18406365798975,17.59090095333688,-145.48429066686077,-22.7687215066436,34.75685032346096,-409.7407390732532,-261.0518158749321,71.09948701190973,35.0,14.27283387909677,10846.106277940751,0.39172852265245656,133.25874218080682,2.843609725334022,1.2215533300250603,100973.03872152384,287.9592945550945,-0.08124286468442743,0.11786661907968898,0.06317710994907,401.59736842105264,0.21553439350958825,0.86,nominal,9156.717644886534,nan,pitch_program,11.65,0.0,0.0
2.73,303.40529158413426,1.8963852212149965,29.289581387239522,132.6918102950968,8.513360716499717,-1.6572609662057278,132.97496134231173,17.584434921531592,-157.43750604507144,-31.52686152629148,37.2321523121906,-438.1098220940653,-294.0518158749321,75.5385417298816,35.0,20.38593130351078,10812.098267055491,0.3911127538085409,133.049343755179,3.1620217872760246,1.2215591644356942,100973.63431002016,287.9596177209829,-0.08124286468442743,0.11786661907968898,0.06317710994907,401.56342105263155,0.21551617420328986,0.86,nominal,9128.402845305824,nan,pitch_program,11.635,0.0,0.0
2.76,307.37445824321446,2.171029650301481,29.214476736859957,132.3055553026736,9.15481430288282,-2.5034883459855495,132.64553532919072,17.577969436305494,-171.29080979013918,-41.54192561209018,37.54912901831366,-470.44817624812646,-327.0518158749321,82.61850008352985,35.0,27.78484854872358,10758.665888779185,0.3901433973792198,132.71969908045784,3.530956770321633,1.2215679780421953,100974.53402215349,287.9601059012104,-0.08124286468442743,0.11786661907968898,0.06317710994907,401.52947368421053,0.21549795489699153,0.86,nominal,9083.915169675318,nan,pitch_program,11.620000000000001,0.0,0.0
2.79,311.3275436544496,2.462485569199306,29.1098103955989,131.76951370783777,9.71519729659416,-3.4888780420353083,132.17322751338108,17.571504497658584,170.66988440400593,-52.208490133335744,33.426822657286046,-503.4481762481264,-360.0518158749321,93.21488110655262,35.0,29.999999999999996,10682.321060648055,0.38875426626138615,132.24729812242975,3.6920338102942676,1.2215802608240878,100975.78787780498,287.9607862324286,-0.08124286468442743,0.11786661907968898,0.06317710994907,401.49552631578945,0.21547973559069317,0.86,nominal,9020.350757767997,nan,pitch_program,11.605,0.0,0.0
2.82,315.26163381156783,2.7638405797460335,28.971761583837875,131.13633857060756,10.045167018224253,-4.601627058700752,131.60098649218554,17.565040105590864,144.27689200390563,-61.896062261149154,20.513913804450468,-520.0,-391.20342069565584,94.36542522972816,35.0,29.999999999999996,10590.242889176976,0.3870720020319742,131.67522686091792,3.7379928204771864,1.221596461242945,100977.4416597058,287.961683549705,-0.08124286468442743,0.11786661907968898,0.06317710994907,401.4615789473684,0.2154615162843948,0.86,nominal,8943.525748594346,nan,pitch_program,11.59,0.0,0.0
2.85,319.1753969020517,3.066005532256907,28.798913970999607,130.45876968279538,10.072165083695781,-5.761587094608951,130.973795022022,17.55857626010233,104.19143541406277,-66.9305841366336,-6.61990643764353,-520.0,-418.0069951233303,84.15002075928862,35.0,29.999999999999996,10489.84635619772,0.38522894297474164,131.04850556895929,3.732097076551375,1.2216167456313551,100979.51235136043,287.9628070591885,-0.08124286468442743,0.11786661907968898,0.06317710994907,401.4276315789474,0.21544329697809647,0.86,nominal,8859.488360929021,nan,pitch_program,11.575,0.0,0.0
2.88,323.06875204369476,3.359717178780039,28.59280557076588,129.77850472143544,9.790388217437728,-6.870280007790956,130.32848014369398,17.55211296119299,61.10343245860747,-63.22580887795073,-36.89585126594166,-520.0,-438.9901715403139,65.43902684691818,34.21235276471886,29.999999999999996,10387.11476209233,0.38333325837774235,130.403928410171,3.70239052256431,1.221640933648737,100981.98154781533,287.96414676379,-0.08124286468442743,0.11786661907968898,0.06317710994907,401.3936842105263,0.21542507767179808,0.86,nominal,8773.15600503317,nan,pitch_program,11.56,0.0,0.0
2.9099999999999997,326.9429122646244,3.6360175594962376,28.35796636437746,129.13867403098706,9.210012690539946,-7.8279735462806705,129.70311728745267,17.545650208862835,31.87433414601718,-53.569674247491214,-52.9245515609477,-520.0,-428.09906958876644,39.34468082104156,15.11242194681498,29.999999999999996,10288.112814716238,0.38149675203384764,129.77952188765505,3.5833879253093315,1.2216684938395856,100984.79500139979,287.96567321863154,-0.08124286468442743,0.11786661907968898,0.06317710994907,401.3597368421053,0.21540685836549975,0.86,nominal,8689.545967888576,nan,pitch_program,11.545,0.0,0.0
