time_s,x_m,y_m,altitude_m,vx_mps,vy_mps,vz_mps,speed_mps,mass_kg,roll_deg,pitch_deg,yaw_deg,p_dps,q_dps,r_dps,alpha_deg,beta_deg,qbar_pa,mach,airspeed_mps,load_factor_g,density_kgpm3,pressure_pa,temperature_k,wind_x_mps,wind_y_mps,wind_z_mps,thrust_n,mass_flow_kgps,propulsion_throttle_actual,propulsion_health,energy_j_per_kg,target_distance_m,guidance_mode,pitch_command_deg,heading_command_deg,roll_command_deg,elevator_command_deg,aileron_command_deg,rudder_command_deg,elevator_deg,aileron_deg,rudder_deg,throttle,elevator_saturated,aileron_saturated,rudder_saturated,elevator_failed,aileron_failed,rudder_failed,elevator_raw_rad,aileron_raw_rad,rudder_raw_rad,elevator_effective_rad,aileron_effective_rad,rudder_effective_rad,sensor_time_s,imu_valid,imu_ax_mps2,imu_ay_mps2,imu_az_mps2,gyro_p_rps,gyro_q_rps,gyro_r_rps,imu_accel_norm_mps2,imu_gyro_norm_rps,gps_valid,gps_latency_s,gps_x_m,gps_y_m,gps_z_m,gps_vx_mps,gps_vy_mps,gps_vz_mps,baro_valid,baro_alt_m,baro_bias_m,pitot_valid,pitot_airspeed_mps,pitot_qbar_pa,pitot_compressibility_factor,mag_valid,mag_heading_deg,mag_x_ut,mag_y_ut,mag_z_ut,radar_valid,radar_agl_m,optical_flow_valid,optical_flow_x_radps,optical_flow_y_radps,optical_flow_quality,horizon_valid,horizon_roll_deg,horizon_pitch_deg
0.0,0.0,0.0,20.0,85.0,0.0,8.0,85.37564055396598,18.01840612980101,0.0,6.000000000000002,0.0,0.0,0.0,0.0,0.5847293023782836,0.08812639075768053,4448.930224551213,0.2507468518283886,85.30839607150315,1.7448081829354867,1.2226496753673843,101084.96761777384,288.02,0.07244880006198942,-0.1312124234412952,-0.05085528216073648,326.8,0.17539118863220368,0.86,nominal,3840.633,nan,pitch_program,13.0,0.0,0.0,-20.05352282957881,-0.0,0.07490743214402845,-2.6999999999999997,0.0,0.04494445928641707,0.86,0.0,0.0,0.0,0.0,0.0,0.0,-0.047123889803846894,0.0,0.000784428795076519,-0.047123889803846894,0.0,0.000784428795076519,0.0,1.0,17.097838403945094,-0.023909967799985884,0.13075901426363526,-0.0011846461623943778,0.0013181441023463838,0.0014804783948871505,17.098355116612566,0.0023092653988560762,1.0,0.0,1.69062741851169,-1.0004827618806238,20.718048150427723,85.13084268154867,0.27725161253670577,8.076939739570042,1.0,19.911179626100555,0.0,1.0,85.57889544196739,4452.178335021759,1.0,1.0,0.536223259439391,19.56634421878517,0.01051648236020856,-43.84999618812795,1.0,20.107562645592367,1.0,-0.004597107947264304,4.260987275395636,0.95,1.0,0.45149697114415227,6.28521300696935
0.03,2.565300013656036,-1.282331767088813e-05,20.23292297419501,85.51000045520121,-0.0004274439223629377,7.764099139833623,85.86175757276568,18.013144394142046,-0.0008127300552359356,6.268683637193664,0.0011412287322452093,-0.023025932541746057,-8.956137920558614,0.03775972139291923,1.0423932352644822,0.08622009703038165,4499.657191246016,0.2521757988239335,85.79432294827728,1.7729705891204568,1.2226223232650353,101082.17487985633,288.01848600066774,0.07244880006198942,-0.1312124234412952,-0.05085528216073648,332.605,0.1785066900092231,0.86,nominal,3884.537900827082,nan,pitch_program,12.985,0.0,0.0,-0.5076228509861653,0.01959877890648561,0.08877104021164028,-1.384573710591699,0.0,0.071240407841551,0.86,0.0,0.0,0.0,0.0,0.0,0.0,-0.024165369986380233,0.0,0.0012433796772986518,-0.024165369986380233,0.0,0.0012433796772986518,0.03,1.0,17.404309478497062,0.04551571437706177,0.7145072589626615,-0.0007235416777549694,-0.1575869996684574,-0.0019484130398289778,17.419029270503803,0.15760070523458838,1.0,0.0,1.69062741851169,-1.0004827618806238,20.718048150427723,85.13084268154867,0.27725161253670577,8.076939739570042,1.0,19.911179626100555,0.0,1.0,86.22560753058214,4410.101125535955,1.0,1.0,0.536223259439391,19.56634421878517,0.01051648236020856,-43.84999618812795,1.0,20.107562645592367,1.0,-0.004597107947264304,4.260987275395636,0.95,1.0,0.45149697114415227,6.28521300696935
0.06,5.146079262275695,-3.6144571059443485e-05,20.45931342491443,86.02597495398865,-0.0007773751129518452,7.546348357314039,86.356330057029,18.00778919344177,-0.0023932420886602444,6.583401561984885,0.003008102014476121,-0.04571898785400985,-10.490625596294263,0.06154486627150265,1.5323031556998246,0.08367658656170293,4551.566938533568,0.25362963072392714,86.2887198580164,1.8020432009372453,1.2225957387243398,101079.46052652887,288.017014462738,0.07244880006198942,-0.1312124234412952,-0.05085528216073648,338.40999999999997,0.18162219138624247,0.86,nominal,3929.3451964577025,nan,pitch_program,12.97,0.0,0.0,0.21025505872058378,0.03829491024583376,0.0956121776287515,-0.42767644900432944,0.0,0.08586346971387131,0.86,0.0,0.0,0.0,0.0,0.0,0.0,-0.007464362168363173,0.0,0.0014986002536934878,-0.007464362168363173,0.0,0.0014986002536934878,0.06,1.0,17.584107909426987,0.01490857283787094,1.0785374164159802,-0.0012936313554172954,-0.18470069243173018,0.00018647105211892648,17.61715970849234,0.18470531675698343,1.0,0.0,1.69062741851169,-1.0004827618806238,20.718048150427723,85.13084268154867,0.27725161253670577,8.076939739570042,1.0,19.738843306660616,0.0,1.0,86.80977540538328,4552.058407840136,1.0,1.0,-1.0651638147331448,19.022396950053732,0.02656563521478569,-44.000767351300105,1.0,20.4393344468274,1.0,-0.001712281330934378,4.226462894491242,0.9488517164377139,1.0,0.3043853742207659,7.019369694948602
0.09,7.742505764968177,-6.808510258476979e-05,20.679728601386138,86.54755008974942,-0.0010646843841775437,7.347172549056884,86.8588474027652,18.002340527700184,-0.00470018969332159,6.777950021359371,0.0053283294096718075,-0.06790072640163078,-6.4849596201341555,0.07641444369034116,1.8881414309243658,0.08076396450943325,4604.6204138190415,0.2551068480014659,86.79107613854752,1.8317324971625888,1.222569856272043,101076.8178716448,288.01558176409094,0.07244880006198942,-0.1312124234412952,-0.05085528216073648,344.215,0.18473769276326188,0.86,nominal,3975.0285465572097,nan,pitch_program,12.955,0.0,0.0,-1.0780828434389238,0.05591391423575179,0.09803955675383605,-0.8179202856650861,0.0,0.09316912193785015,0.86,0.0,0.0,0.0,0.0,0.0,0.0,-0.01427540200370833,0.0,0.0016261079390075647,-0.01427540200370833,0.0,0.0016261079390075647,0.09,1.0,17.84556248547862,-0.019776785011549766,1.39916714084873,-0.0009608221372418086,-0.11333664679510896,-0.0004744462882565416,17.90033966807273,0.11334171246817801,1.0,0.0,1.69062741851169,-1.0004827618806238,20.718048150427723,85.13084268154867,0.27725161253670577,8.076939739570042,1.0,19.738843306660616,0.0,1.0,86.70400505082237,4682.66562147713,1.0,1.0,-1.0651638147331448,19.022396950053732,0.02656563521478569,-44.000767351300105,1.0,20.4393344468274,1.0,-0.001712281330934378,4.226462894491242,0.9488517164377139,1.0,0.3043853742207659,7.019369694948602
0.12,10.354787239832373,-0.00010700994191867654,20.894478014650048,87.07604916213985,-0.0012974946444635582,7.1583137754636015,87.36978765842848,17.996798396917285,-0.007691960576071799,6.876779172776909,0.007929021163645016,-0.08942017401568178,-3.2943151539816022,0.08571877385464569,2.1400288532161325,0.0776478457277637,4658.882570143974,0.25660883965270714,87.30186408292944,1.861734829523745,1.2225446395303026,101074.24319990467,288.0141858929048,0.07244880006198942,-0.1312124234412952,-0.05085528216073648,350.02,0.1878531941402813,0.86,nominal,4021.6447305618085,nan,pitch_program,12.94,0.0,0.0,-2.134701797398076,0.07233500751595666,0.09774794413964695,-1.60798919270488,0.04340100450957399,0.09591641525892822,0.86,0.0,0.0,0.0,0.0,0.0,0.0,-0.02806470574918574,0.0007574904273649729,0.001674057252978427,-0.02806470574918574,0.0007574904273649729,0.001674057252978427,0.12,1.0,18.20895512431395,0.02948859542228683,1.5429345873117337,0.0020719168344256766,-0.05729531961484353,0.004122426312791231,18.27423222565758,0.05748078711917786,1.0,0.0,1.69062741851169,-1.0004827618806238,20.718048150427723,85.13084268154867,0.27725161253670577,8.076939739570042,1.0,20.914512356136207,0.0,1.0,87.69600793728601,4630.7555725583115,1.0,1.0,-0.8038275749230374,18.89183131593513,-0.001698690261857577,-44.18219389634073,1.0,20.95762696540867,1.0,0.005657251649031082,4.1630645740686125,0.9477638049633749,1.0,-0.23134794974320533,6.686247605319334
0.15,12.983158106729316,-0.00015142077707580977,21.103737718542767,87.61236222989811,-0.0014803611719044411,6.975323463090637,87.88959639860164,17.991162801093076,-0.010530843158465746,6.962382665353468,0.010709555305660274,-0.08346315191001043,-2.8534648796359914,0.09155563633280173,2.3735005930554856,0.07439962451566585,4714.416644718126,0.2581369067202786,87.8215261850499,1.8922707202578346,1.2225200677951458,101071.7343964251,288.0128257048294,0.07244880006198942,-0.1312124234412952,-0.05085528216073648,355.825,0.1909686955173007,0.86,nominal,4069.247547052092,nan,pitch_program,12.925,0.0,0.0,-2.236240263065255,0.06371878629023228,0.095726124410697,-1.9849398349211052,0.055591673577968966,0.09580224074998948,0.86,0.0,0.0,0.0,0.0,0.0,0.0,-0.034643735573366,0.0009702577406294951,0.0016720645318755983,-0.034643735573366,0.0009702577406294951,0.0016720645318755983,0.15,1.0,18.433855818556903,-0.023224973766703492,1.6848692123352382,-0.00010086210758901621,-0.05030975274710806,-0.001100743766681634,18.510709440791995,0.0503218941563191,1.0,0.0,1.69062741851169,-1.0004827618806238,20.718048150427723,85.13084268154867,0.27725161253670577,8.076939739570042,1.0,20.914512356136207,0.0,1.0,88.38717294467168,4749.471702113042,1.0,1.0,-0.8038275749230374,18.89183131593513,-0.001698690261857577,-44.18219389634073,1.0,20.95762696540867,1.0,0.005657251649031082,4.1630645740686125,0.9477638049633749,1.0,-0.23134794974320533,6.686247605319334
0.18,15.627850339801272,-0.00019989969934603867,21.307712894197383,88.15640776906517,-0.0016159640756742964,6.799172521820534,88.41821633768978,17.985433740227556,-0.012953545731903302,7.060825204310671,0.013607408204495307,-0.06896535005915536,-3.2814383522403885,0.09520024490705256,2.6140379418382023,0.0710688454458512,4771.2333366756975,0.2596908828571911,88.35000568087492,1.9232819551852236,1.2224961169445618,101069.2889974043,288.0114998661877,0.07244880006198942,-0.1312124234412952,-0.05085528216073648,361.63,0.19408419689432013,0.86,nominal,4117.847772823137,nan,pitch_program,12.91,0.0,0.0,-2.02643254569403,0.047724446605896996,0.09260457456374452,-2.00983546138486,0.02223666943118759,0.09388364103824251,0.86,0.0,0.0,0.0,0.0,0.0,0.0,-0.03507824622450516,0.0003881030962517981,0.0016385786498777993,-0.03507824622450516,0.0003881030962517981,0.0016385786498777993,0.18,1.0,18.67547473205489,-0.05174696914663809,1.8742208036718484,-0.003103330163306825,-0.0559770867919917,0.0005270151116467212,18.769356351173926,0.056065521033417366,1.0,0.0,1.69062741851169,-1.0004827618806238,20.718048150427723,85.13084268154867,0.27725161253670577,8.076939739570042,1.0,21.702598684108953,0.0,1.0,88.27232383173259,4816.933918002224,1.0,1.0,1.5339154295748152,18.73677872594482,-0.010853503971813139,-44.158590260493234,1.0,21.28072953218347,1.0,0.012765138110056945,4.149036301218108,0.9467307177645066,1.0,-0.12846710594820704,7.613801029816477
0.21,18.289087441200557,-0.0002510674042184596,21.506658605307628,88.70790337997624,-0.0017055901624140311,6.631523703674817,88.9554339633765,17.979611214320727,-0.015555912738810495,7.150499564321294,0.016576670981458878,-0.07450234794823461,-2.989170287085153,0.09747161830731135,2.8390121529677614,0.06771963585678067,4829.326530563896,0.26127014391179787,88.88709000478215,1.9544923857665706,1.222472757001621,101066.90394132168,288.0102067190655,0.07244880006198942,-0.1312124234412952,-0.05085528216073648,367.435,0.19719969827133954,0.86,nominal,4167.44288941806,nan,pitch_program,12.895,0.0,0.0,-2.0735565687532986,0.05000467232583376,0.08885072672104401,-2.0480681258059232,0.008894667772475037,0.0908638924479234,0.86,0.0,0.0,0.0,0.0,0.0,0.0,-0.0357455321004628,0.00015524123850071926,0.0015858740943942736,-0.0357455321004628,0.00015524123850071926,0.0015858740943942736,0.21,1.0,19.058647224291132,0.04564430639127307,2.146497987950692,0.002115253779584713,-0.05274503271623084,0.0005447878961963449,19.17919630836919,0.052790241225440064,1.0,0.0,17.1751797021202,0.7329657720214594,20.306724349322142,88.8195273748163,-0.10901918543427806,6.853770138291007,1.0,21.702598684108953,0.0,1.0,88.3792175033581,4819.361336657934,1.0,1.0,1.5339154295748152,18.73677872594482,-0.010853503971813139,-44.158590260493234,1.0,21.28072953218347,1.0,0.012765138110056945,4.149036301218108,0.9467307177645066,1.0,-0.12846710594820704,7.613801029816477
0.24,20.96709463046112,-0.00030354587397246033,21.700820384217707,89.26690630868544,-0.0017492823251333575,6.472059297002602,89.50121851979183,17.973695223372587,-0.018561810614843813,7.214597994174751,0.01958653348252362,-0.08765238513541623,-2.1366440939499185,0.09890532313396547,3.0319051881350485,0.06438899738617575,4888.709671199079,0.26287459910941585,89.43274806003448,1.9857246113343523,1.2224499591109586,101064.57628124431,288.0089446675026,0.07244880006198942,-0.1312124234412952,-0.05085528216073648,373.24,0.20031519964835895,0.86,nominal,4218.0464084846535,nan,pitch_program,12.88,0.0,0.0,-2.3310460598621137,0.058892335247179003,0.08474960940373406,-2.2178548862396377,0.038893268257297414,0.0871953226214098,0.86,0.0,0.0,0.0,0.0,0.0,0.0,-0.038708870096325954,0.000678815587951237,0.001521845472082294,-0.038708870096325954,0.000678815587951237,0.001521845472082294,0.24,1.0,19.387781795119274,-0.05326024257658247,2.3397189308702253,-0.002611997696978641,-0.03987779250858226,0.001189566111995232,19.52852283876254,0.039980944646936106,1.0,0.0,17.1751797021202,0.7329657720214594,20.306724349322142,88.8195273748163,-0.10901918543427806,6.853770138291007,1.0,22.0922788863546,0.0,1.0,89.35252535390912,4924.668730657309,1.0,1.0,2.0176645560315936,18.559776931807527,0.035073463886196886,-44.21019200090117,1.0,21.543521757097313,1.0,-0.005624457075960326,4.110812410504353,0.9457479490394557,1.0,-0.07698366637599277,7.897924466048319
0.27,23.662105270055388,-0.00035593674886135623,21.890403884637063,89.83368798647564,-0.0017463624962965308,6.319450013978573,90.0556880423464,17.967685767383138,-0.02135952563504276,7.2579812849019465,0.02262146642794462,-0.08051433401978286,-1.4461446354472316,0.09985487524716559,3.198517333890987,0.061059561618909804,4949.412705229398,0.2645045930777232,89.98709691565517,2.017036639827101,1.2224276991017986,101062.3035486024,288.0077123747498,0.07244880006198942,-0.1312124234412952,-0.05085528216073648,379.045,0.20343070102537836,0.86,nominal,4269.6850036454825,nan,pitch_program,12.865,0.0,0.0,-2.5433917335197744,0.04935197538387324,0.0804295531307104,-2.4131769946077197,0.015557307302918969,0.08313586092699016,0.86,0.0,0.0,0.0,0.0,0.0,0.0,-0.042117883989286155,0.00027152623518049483,0.0014509944996560834,-0.042117883989286155,0.00027152623518049483,0.0014509944996560834,0.27,1.0,19.602131007126943,-0.02280151749266586,2.51856748593976,-9.787506628572743e-05,-0.02662612649348085,0.005965894001590024,19.763280145537593,0.02728648168624257,1.0,0.0,17.1751797021202,0.7329657720214594,20.306724349322142,88.8195273748163,-0.10901918543427806,6.853770138291007,1.0,22.0922788863546,0.0,1.0,89.96978965687971,5016.286960843664,1.0,1.0,2.0176645560315936,18.559776931807527,0.035073463886196886,-44.21019200090117,1.0,21.543521757097313,1.0,-0.005624457075960326,4.110812410504353,0.9457479490394557,1.0,-0.07698366637599277,7.897924466048319
0.3,26.374358512306557,-0.00040682411606372847,22.075590432207868,90.40844140837228,-0.001696245573412409,6.17288491902687,90.61893173609961,17.961582846352375,-0.024375649465996064,7.291182434251873,0.02567532349858807,-0.0876476833966617,-1.1067452223876908,0.10053415081781214,3.3499688328176336,0.05776135150323945,5011.463027196986,0.26616038667494013,90.55022516294976,2.048513215446783,1.222405955661701,101060.08356671857,288.00650866219064,0.07244880006198942,-0.1312124234412952,-0.05085528216073648,384.84999999999997,0.20654620240239774,0.86,nominal,4322.382983407952,nan,pitch_program,12.850000000000001,0.0,0.0,-2.638525499873096,0.052721276811203824,0.0760000496408569,-2.548386097766945,0.006222922921167587,0.07885437415531021,0.86,0.0,0.0,0.0,0.0,0.0,0.0,-0.04447772801808331,0.00010861049407219793,0.0013762684586096855,-0.04447772801808331,0.00010861049407219793,0.0013762684586096855,0.3,1.0,19.987334988986404,0.014891487443908578,2.560654101301549,-0.0006857363717677672,-0.019963835407303038,0.0014846421860581667,20.150700512510003,0.020030704454963015,1.0,0.0,17.1751797021202,0.7329657720214594,20.306724349322142,88.8195273748163,-0.10901918543427806,6.853770138291007,1.0,20.47135725499193,0.0,1.0,90.63092142076471,5057.407573992727,1.0,1.0,-0.9060695021062775,18.491174545325197,-0.014473358766310099,-44.31681807723413,1.0,22.15923117741816,1.0,0.003028720270490959,4.082405008184131,0.9448110239194804,1.0,0.017856118813762898,7.917920051729286
0.32999999999999996,29.104095366164863,-0.00045475176200591397,22.25655703358327,90.99122846194355,-0.0015975881980728507,6.032220045846766,91.19096083629896,17.9553864602803,-0.02776738890705096,7.317396903410887,0.028744089157428133,-0.10005266775184608,-0.8738617323880924,0.10106445653301366,3.4896066514934403,0.05450941001529333,5074.879918855834,0.2678420128392221,91.12214385459495,2.0801229266966494,1.2223847079869958,101057.91421091236,288.0053323792817,0.07244880006198942,-0.1312124234412952,-0.05085528216073648,390.655,0.20966170377941715,0.86,nominal,4376.157934157095,nan,pitch_program,12.835,0.0,0.0,-2.7002666429263047,0.06055173952832337,0.071534610801613,-2.639514424862561,0.03882021288546106,0.07446251614309188,0.86,0.0,0.0,0.0,0.0,0.0,0.0,-0.04606821736773616,0.0006775405311764238,0.0012996160760163824,-0.04606821736773616,0.0006775405311764238,0.0012996160760163824,0.32999999999999996,1.0,20.2211996819828,0.03470360211275723,2.78284516719451,0.004238291291537999,-0.013486361744728441,0.0015669868366701661,20.411818834763324,0.014223238517577464,1.0,0.0,17.1751797021202,0.7329657720214594,20.306724349322142,88.8195273748163,-0.10901918543427806,6.853770138291007,1.0,20.47135725499193,0.0,1.0,90.900146983675,5063.537723729638,1.0,1.0,-0.9060695021062775,18.491174545325197,-0.014473358766310099,-44.31681807723413,1.0,22.15923117741816,1.0,0.003028720270490959,4.082405008184131,0.9448110239194804,1.0,0.017856118813762898,7.917920051729286
0.36,31.851558104667838,-0.000498211109388143,22.43347796129729,91.58209128343249,-0.001448644912740968,5.897364257133958,91.77177317196642,17.94909660916692,-0.030849922280015374,7.334778498033149,0.031824205390426054,-0.08965895287612415,-0.5794385067843734,0.1015360014870886,3.6157020035216485,0.05126454789741855,5139.6814764316505,0.26954946520964435,91.7028506741211,2.111787406084145,1.2223639355966063,101055.79338948899,288.00418239325154,0.07244880006198942,-0.1312124234412952,-0.05085528216073648,396.46,0.21277720515643656,0.86,nominal,4431.026442212583,nan,pitch_program,12.82,0.0,0.0,-2.7884736932054337,0.0477372295319427,0.06704995220271041,-2.728889985868285,0.015528085154184423,0.07001497777886301,0.86,0.0,0.0,0.0,0.0,0.0,0.0,-0.0476281151781031,0.0002710162124705695,0.0012219918879518257,-0.0476281151781031,0.0002710162124705695,0.0012219918879518257,0.36,1.0,20.508985911206363,-0.027247855944170184,2.908023978233854,0.0007150543511897881,-0.009111683752216188,-0.0001173037633132618,20.714146108630633,0.009140450957061327,1.0,0.0,17.1751797021202,0.7329657720214594,20.306724349322142,88.8195273748163,-0.10901918543427806,6.853770138291007,1.0,22.919453968759097,0.0,1.0,91.38970310428512,5145.140767180873,1.0,1.0,0.3013537954678583,18.525205492709564,0.04276821115132831,-44.30979311728342,1.0,22.343035189230108,1.0,-0.0085140521507486,4.086125954685948,0.9439163050967567,1.0,0.26316050531242663,7.644170714124245
0.39,34.61699151594105,-0.0005356608901550964,22.606517907356643,92.18111370910714,-0.0012483260255651157,5.7679982019784815,92.36139631614327,17.942713293012226,-0.034066784832562834,7.342783224664064,0.03491384624439013,-0.09407347840155438,-0.26688204403703425,0.10199319892009508,3.727969918435203,0.04805331515750892,5205.889415437069,0.27128282443052315,92.29237291273456,2.143476485549495,1.2223436191357906,101053.71912579676,288.00305763360217,0.07244880006198942,-0.1312124234412952,-0.05085528216073648,402.265,0.21589270653345596,0.86,nominal,4487.007973570021,nan,pitch_program,12.805,0.0,0.0,-2.88826458922674,0.04840952685217035,0.06258729074013487,-2.824514747883358,0.00621123406167377,0.06555836555562612,0.86,0.0,0.0,0.0,0.0,0.0,0.0,-0.049297082121702133,0.00010840648498822782,0.0011442093311717176,-0.049297082121702133,0.00010840648498822782,0.0011442093311717176,0.39,1.0,20.761378954794917,0.016367259421090314,3.036015117596066,0.0005776141311320392,-0.006607065232622752,0.0028062075851100063,20.982195113620836,0.007201510264058832,1.0,0.0,17.1751797021202,0.7329657720214594,20.306724349322142,88.8195273748163,-0.10901918543427806,6.853770138291007,1.0,22.919453968759097,0.0,1.0,92.97626180881909,5183.938595581538,1.0,1.0,0.3013537954678583,18.525205492709564,0.04276821115132831,-44.30979311728342,1.0,22.343035189230108,1.0,-0.0085140521507486,4.086125954685948,0.9439163050967567,1.0,0.26316050531242663,7.644170714124245
0.42,37.40064330076962,-0.0005655119748032909,22.775830220445602,92.78839282761906,-0.0009950361549398176,5.643743769631951,92.95987138685113,17.936236511816222,-0.0375818640924757,7.34324047621513,0.03801348264409795,-0.10396390848308201,-0.015305787415027534,0.10246430301180062,3.828531588616188,0.044886577273360255,5273.527352559495,0.2730422108521403,92.89075137950887,2.1533189304042897,1.2223237405829739,101051.68957933992,288.00195710356707,0.07244880006198942,-0.1312124234412952,-0.05085528216073648,404.1773684210526,0.21691906078826353,0.86,nominal,4544.1234395612855,nan,pitch_program,12.79,0.0,0.0,-2.9709298354000704,0.05380886647481031,0.05816191767429378,-2.9123638003933854,0.002484493624669508,0.06112049682682672,0.86,0.0,0.0,0.0,0.0,0.0,0.0,-0.050830337332759504,4.336259399529113e-05,0.0010667539100828727,-0.050830337332759504,4.336259399529113e-05,0.0010667539100828727,0.42,1.0,20.856493485654468,0.06555241608721983,3.1966527611038686,-0.003183228786421257,-0.00032034459535694394,0.002777680929522994,21.100147073219066,0.0042368711937833415,1.0,0.0,36.45992937942053,-2.179710561422544,23.139835639355912,92.50236892713262,0.007376118294446343,5.6055986833329055,1.0,22.290905309394557,0.0,1.0,92.93737926399092,5290.478372285395,1.0,1.0,-0.12072381433199626,18.51199882824346,0.040719369491989794,-44.22168932562809,1.0,22.57701803637869,1.0,-0.008398245486140312,4.058079145747888,0.943060424448886,1.0,0.05427760913973929,7.542712415472379
0.44999999999999996,40.20256968447785,-0.000586246685675694,22.94153533589123,93.39754612360753,-0.000691157029080102,5.52350384818762,93.5607327736911,17.929728939992575,-0.0414458194116117,7.337988497132795,0.04112455555236361,-0.11554869095589627,0.17499499610711172,0.10297320726234843,3.919714933256941,0.041771085662449026,5341.875720881228,0.2748086183270111,93.49151996819997,2.1522922747392244,1.2223042857820572,101049.70330431472,288.0008800203167,0.07244880006198942,-0.1312124234412952,-0.05085528216073648,404.14342105263154,0.21690084148196515,0.86,nominal,4601.784966076736,nan,pitch_program,12.775,0.0,0.0,-3.035340150885095,0.06040171775457043,0.0537879251762929,-2.986149610688411,0.03723482810261005,0.02444819873073069,0.86,0.0,0.0,0.0,0.0,0.0,0.0,-0.052118142663659627,0.0006498703468046584,0.0004267015640331491,-0.052118142663659627,0.0006498703468046584,0.0004267015640331491,0.44999999999999996,1.0,20.857221170379514,-0.01071337002559534,3.295673365663065,-0.0017300326688057263,0.0033091894874166887,0.002507011423902066,21.11599518515681,0.004497649872804647,1.0,0.0,36.45992937942053,-2.179710561422544,23.139835639355912,92.50236892713262,0.007376118294446343,5.6055986833329055,1.0,22.290905309394557,0.0,1.0,92.8927994059467,5275.297586258397,1.0,1.0,-0.12072381433199626,18.51199882824346,0.040719369491989794,-44.22168932562809,1.0,22.57701803637869,1.0,-0.008398245486140312,4.058079145747888,0.943060424448886,1.0,0.05427760913973929,7.542712415472379
0.48,43.022731651332535,-0.0005991240340460515,23.103735736242047,94.00539889515609,-0.00042924494567858325,5.406680011693912,94.16075196370575,17.923221914748115,-0.04496635735244425,7.327721064414155,0.044821919408968305,-0.10162103176911283,0.34215548313648014,0.12249553961675687,4.0025296511092225,0.03803098938789839,5410.568410978948,0.2765725557745151,94.0914497140462,2.151330757788831,1.222285242685703,101047.75907024676,287.99982571771443,0.07244880006198942,-0.1312124234412952,-0.05085528216073648,404.1094736842105,0.2168826221756668,0.86,nominal,4659.693855243076,nan,pitch_program,12.76,0.0,0.0,-3.094460776241109,0.043445232081013745,0.056671623114822704,-3.0511363100200297,0.014893931241044022,0.009779279492292276,0.86,0.0,0.0,0.0,0.0,0.0,0.0,-0.05325237453699997,0.0002599481387218634,0.00017068062561325964,-0.05325237453699997,0.0002599481387218634,0.00017068062561325964,0.48,1.0,20.838395537682416,-0.017861780223791444,3.3748586803853837,-0.0009625056728431697,0.010615208714384278,0.0007979415875474598,21.109919913175126,0.010688581945110071,1.0,0.0,36.45992937942053,-2.179710561422544,23.139835639355912,92.50236892713262,0.007376118294446343,5.6055986833329055,1.0,24.44906205001357,0.0,1.0,94.42094552968402,5489.568021149921,1.0,1.0,0.8159226351796263,18.51093236130418,0.10864082714705331,-44.33201149439477,1.0,23.284273825447237,1.0,0.002905773026587346,4.066675633088426,0.9422406606593949,1.0,-0.41257448996140234,7.476387088863173
0.51,45.86109175367561,-0.0006032471205763919,23.262528447515848,94.6120034114359,-0.00013743621767801163,5.293090375793321,94.75994932074818,17.916715436082846,-0.04860785167972821,7.312719556507577,0.04928241753158008,-0.10243871702300425,0.4999296763205111,0.14787972118731393,4.0774351742173565,0.0335638348161707,5479.605926318003,0.27833408287164546,94.69056089159251,2.150416497399889,1.2222665998880795,101045.85571218499,287.99879356509115,0.07244880006198942,-0.1312124234412952,-0.05085528216073648,404.0755263157895,0.21686440286936848,0.86,nominal,4717.851472235213,nan,pitch_program,12.745,0.0,0.0,-3.1529490348193057,0.03979537849778856,0.06097319071148198,-3.112223944899595,0.00595757249641761,0.0404956262238061,0.86,0.0,0.0,0.0,0.0,0.0,0.0,-0.05431855489790452,0.00010397925548874537,0.0007067820102623745,-0.05431855489790452,0.00010397925548874537,0.0007067820102623745,0.51,1.0,20.791041260989907,0.05728471302646013,3.539945113338744,-0.0008393059972203492,0.008193430907556884,0.0025903556773842263,21.09032692160039,0.008634042340018674,1.0,0.0,36.45992937942053,-2.179710561422544,23.139835639355912,92.50236892713262,0.007376118294446343,5.6055986833329055,1.0,24.44906205001357,0.0,1.0,95.16717848585152,5503.846275727941,1.0,1.0,0.8159226351796263,18.51093236130418,0.10864082714705331,-44.33201149439477,1.0,23.284273825447237,1.0,0.002905773026587346,4.066675633088426,0.9422406606593949,1.0,-0.41257448996140234,7.476387088863173
0.54,48.71761414196531,-0.0005933370129701045,23.41800470779955,95.21741294299014,0.00033033692020958055,5.182542009456764,95.35834766471581,17.910209503996764,-0.05243687651820601,7.2935530844905685,0.05384133087525764,-0.10831669213321639,0.6387492466151562,0.15129426812385824,4.145180105543948,0.02912501299637145,5548.989131080573,0.2800932667985017,95.28887633123185,2.1495439616123564,1.2222483466637093,101043.99213466576,287.9977829693993,0.07244880006198942,-0.1312124234412952,-0.05085528216073648,404.0415789473684,0.2168461835630701,0.86,nominal,4776.259410540149,nan,pitch_program,12.73,0.0,0.0,-3.2071341185813473,0.041115491971545105,0.05581241668887405,-3.1691700491086467,0.002383028998567044,0.016198250489522437,0.86,0.0,0.0,0.0,0.0,0.0,0.0,-0.05531245191253627,4.159170219549815e-05,0.0002827128041049498,-0.05531245191253627,4.159170219549815e-05,0.0002827128041049498,0.54,1.0,20.700620103939038,-0.012832122765025787,3.610514110822648,0.0010798817323172348,0.011871347778406665,0.006664490459744951,21.013130406853453,0.013656883821710748,1.0,0.0,36.45992937942053,-2.179710561422544,23.139835639355912,92.50236892713262,0.007376118294446343,5.6055986833329055,1.0,22.758381400585044,0.0,1.0,95.40843396728278,5548.73955523974,1.0,1.0,0.4513503747801949,18.543170095536414,-0.02327756651603432,-44.32861919781014,1.0,23.75838548364536,1.0,0.0036742354474730943,4.071375221930507,0.9414549882305011,1.0,0.05469925868999003,7.671796892671017
0.57,51.592264422670596,-0.0005688492117148505,23.570250592933167,95.82167602350945,0.0008162600418418007,5.074862837787214,95.9559681804266,17.903704118489873,-0.05653232140171728,7.270937881121255,0.058834880737414934,-0.11541587587845807,0.753682773553263,0.16582580660386467,4.206643809735041,0.024288298437325308,5618.718720781283,0.2818501687380142,95.88641682587684,2.1487119673846387,1.2222304728939395,101042.1673042039,287.9967933711459,0.07244880006198942,-0.1312124234412952,-0.05085528216073648,404.0076315789474,0.21682796425677175,0.86,nominal,4834.919112698709,nan,pitch_program,12.715,0.0,0.0,-3.2548978503690065,0.04302585669347516,0.05480907299066924,-3.220606729864863,0.0009532115994268175,0.006479300195808976,0.86,0.0,0.0,0.0,0.0,0.0,0.0,-0.056210191348029445,1.663668087819926e-05,0.00011308512164197993,-0.056210191348029445,1.663668087819926e-05,0.00011308512164197993,0.57,1.0,20.760440284338483,-0.032046085173182276,3.6910348497446144,-0.0007683569078431706,0.013801522715039719,0.0024733995333329865,21.08602964081167,0.014042439490454623,1.0,0.0,36.45992937942053,-2.179710561422544,23.139835639355912,92.50236892713262,0.007376118294446343,5.6055986833329055,1.0,22.758381400585044,0.0,1.0,96.0283138142899,5693.773030846564,1.0,1.0,0.4513503747801949,18.543170095536414,-0.02327756651603432,-44.32861919781014,1.0,23.75838548364536,1.0,0.0036742354474730943,4.071375221930507,0.9414549882305011,1.0,0.05469925868999003,7.671796892671017
0.6,54.48500942839999,-0.0005277051838895018,23.719347960538638,96.42483352431313,0.0013714675941782885,4.9699122535156555,96.5528277673941,17.89719927956217,-0.0608866329894879,7.245421062390743,0.06432407339401279,-0.12202679195976411,0.8503742069748442,0.18237836759744083,4.262513111645096,0.019022477737024375,5688.794986139189,0.2836048381920711,96.48319919646926,2.1479163213678993,1.2222129689560604,101040.38023797027,287.9958242382565,0.07244880006198942,-0.1312124234412952,-0.05085528216073648,403.9736842105263,0.21680974495047337,0.86,nominal,4893.831618617251,nan,pitch_program,12.7,0.0,0.0,-3.2979092875727805,0.04417263699021818,0.05399627139041975,-3.2669882644896133,0.00038128463977072703,0.0025917200783235903,0.86,0.0,0.0,0.0,0.0,0.0,0.0,-0.057019701839359095,6.654672351279704e-06,4.523404865679197e-05,-0.057019701839359095,6.654672351279704e-06,4.523404865679197e-05,0.6,1.0,20.700068585468287,0.01702353866852555,3.8541226097434045,-0.005872066868296227,0.011298925681014661,0.007129079048458572,21.05581606907923,0.014593514276212083,1.0,0.0,36.45992937942053,-2.179710561422544,23.139835639355912,92.50236892713262,0.007376118294446343,5.6055986833329055,1.0,23.9201126985513,0.0,1.0,96.79321312281418,5607.42750138105,1.0,1.0,0.17051620912579,18.513846893812744,0.088446812391233,-44.26521478058955,1.0,23.857787914201065,1.0,0.005736626887624963,4.066682692419717,0.9407016300986534,1.0,-0.3223184127916867,7.066143453668722
0.63,57.3958170689443,-0.0004670066482967517,23.8653749962279,97.02692135147689,0.002023284519758336,4.867567856308693,97.14894074499799,17.890694987213656,-0.06545288992387197,7.217382410078181,0.0702493905054265,-0.12734653423398026,0.9344051675705927,0.1969698703308052,4.313292878296414,0.013398760483847142,5759.217961184299,0.28535731701904216,97.07923766514635,2.1471509728272604,1.222195825659126,101038.6299972379,287.9948750625245,0.07244880006198942,-0.1312124234412952,-0.05085528216073648,403.9397368421053,0.21679152564417503,0.86,nominal,4952.997723644324,nan,pitch_program,12.685,0.0,0.0,-3.3379098793317907,0.04395811163086153,0.051763990629099726,-3.3095412333949197,0.0001525138559082908,0.001036688031329436,0.86,0.0,0.0,0.0,0.0,0.0,0.0,-0.05776239125325546,2.6618689405118818e-06,1.8093619462716787e-05,-0.05776239125325546,2.6618689405118818e-06,1.8093619462716787e-05,0.63,1.0,20.745047533218386,0.007168113014987356,3.9067963465621327,-0.0015246703264218116,0.01745280273281775,0.004237569898525633,21.109715920183426,0.018024481725692213,1.0,0.0,57.01193730390901,-1.126259937575027,24.268872922059437,97.15105923721262,0.09065030120701408,4.9148571829530185,1.0,23.9201126985513,0.0,1.0,97.56304415314816,5803.9631819350425,1.0,1.0,0.17051620912579,18.513846893812744,0.088446812391233,-44.26521478058955,1.0,23.857787914201065,1.0,0.005736626887624963,4.066682692419717,0.9407016300986534,1.0,-0.3223184127916867,7.066143453668722
0.6599999999999999,60.32465624445024,-0.0003833722158415565,24.008406473019505,97.6279725168647,0.0027878144151731736,4.767715893053581,97.74432024605048,17.88419124144433,-0.07016495557581735,7.1871774374447215,0.07649560076482637,-0.1309653768799038,1.0065872734957628,0.20775563328915989,4.359455224781266,0.00753544108713847,5829.987581403733,0.2871076435655502,97.6745452607485,2.1464120054716638,1.2221790342134593,101036.9156842673,287.9939453579253,0.07244880006198942,-0.1312124234412952,-0.05085528216073648,403.9057894736842,0.21677330633787664,0.86,nominal,5012.418109519873,nan,pitch_program,12.67,0.0,0.0,-3.3749852374774387,0.04211631730176934,0.04749365371371957,-3.348807635844431,6.1005542363316337e-05,0.00041467521253177444,0.86,0.0,0.0,0.0,0.0,0.0,0.0,-0.0584477192614126,1.0647475762047528e-06,7.237447785086715e-06,-0.0584477192614126,1.0647475762047528e-06,7.237447785086715e-06,0.6599999999999999,1.0,20.682488611736904,-0.032999867361970775,4.027533700349138,-0.0023485956585559704,0.016013843766112493,0.004484122972784339,21.071009749732465,0.016794834103613532,1.0,0.0,57.01193730390901,-1.126259937575027,24.268872922059437,97.15105923721262,0.09065030120701408,4.9148571829530185,1.0,23.781777516225507,0.0,1.0,97.87454430227353,5794.074196517943,1.0,1.0,0.20025738541588736,18.63675853336339,0.010665163306707184,-44.198813725624575,1.0,24.206931817744007,1.0,0.004658586482749078,4.072898016746348,0.9399789838174513,1.0,-0.025315131384072348,6.95522389308816
0.69,63.27149675075495,-0.00027312584995605664,24.14851407359493,98.22801687682376,0.0036748788628499936,4.670253352514206,98.33897792551525,17.877688042254196,-0.07494683264530391,7.155168457564593,0.08292025239470574,-0.13266205681539453,1.066696097352459,0.21383083402662284,4.401469629370628,0.0015732744979308285,5901.103645152605,0.28885585183400503,98.26913353539115,2.1456975514494707,1.2221625861927814,101035.23643843862,287.9930346585216,0.07244880006198942,-0.1312124234412952,-0.05085528216073648,403.8718421052631,0.21675508703157828,0.86,nominal,5072.093315257308,nan,pitch_program,12.655,0.0,0.0,-3.4088544412438355,0.038542825802339586,0.041005876509665744,-3.384835719084074,2.440221694532654e-05,0.0001658700850127098,0.86,0.0,0.0,0.0,0.0,0.0,0.0,-0.05907652793712695,4.258990304819012e-07,2.8949791140346865e-06,-0.05907652793712695,4.258990304819012e-07,2.8949791140346865e-06,0.69,1.0,20.64597670885744,0.005333510500091961,4.072016163458196,-0.002182115797669702,0.015635105633082312,0.00022881599253908981,21.043709234459662,0.015788303083945517,1.0,0.0,57.01193730390901,-1.126259937575027,24.268872922059437,97.15105923721262,0.09065030120701408,4.9148571829530185,1.0,23.781777516225507,0.0,1.0,98.27087324841088,5859.997179552207,1.0,1.0,0.20025738541588736,18.63675853336339,0.010665163306707184,-44.198813725624575,1.0,24.206931817744007,1.0,0.004658586482749078,4.072898016746348,0.9399789838174513,1.0,-0.025315131384072348,6.95522389308816
0.72,66.23630916973094,-0.00013242892604442574,24.28576679233039,98.82708063253324,0.0046898974637210305,4.575090624515225,98.93292345102762,17.871185389643248,-0.07971772512348639,7.121675441776457,0.08936759641121567,-0.13232336714598295,1.116145056939909,0.21475232047533735,4.439752539243068,-0.00433687405520021,5972.565746942499,0.2906019699971937,98.86301205880419,2.145005763015788,1.2221464734869731,101033.59143142785,287.9921425158498,0.07244880006198942,-0.1312124234412952,-0.05085528216073648,403.8378947368421,0.21673686772527995,0.86,nominal,5132.023686197453,nan,pitch_program,12.64,0.0,0.0,-3.439833386678827,0.033226737611847613,0.032336471509450994,-3.4178343196409258,9.760886778130615e-06,6.634803400508393e-05,0.86,0.0,0.0,0.0,0.0,0.0,0.0,-0.05965246216539445,1.7035961219276047e-07,1.1579916456138747e-06,-0.05965246216539445,1.7035961219276047e-07,1.1579916456138747e-06,0.72,1.0,20.56315504304428,0.024407654523572152,4.146180746473049,0.0015872174867429386,0.017336621762822375,0.00798268104811416,20.97700540688066,0.019152047154633624,1.0,0.0,57.01193730390901,-1.126259937575027,24.268872922059437,97.15105923721262,0.09065030120701408,4.9148571829530185,1.0,24.97644301327904,0.0,1.0,98.57239494420237,5937.063446396186,1.0,1.0,0.3735232218277751,18.7157499567397,0.048650696102333975,-44.1876231684133,1.0,24.894259342247526,1.0,-0.01040037982966141,4.0600591523197815,0.939285583019174,1.0,-0.538830021365519,7.7094449314180675
0.75,69.2190647730079,4.260819229224628e-05,24.420231273594048,99.42518677589872,0.005834570611222401,4.482149375455353,99.52616471304647,17.86468328361149,-0.08439542598084826,7.086962097376326,0.0956768250167393,-0.12991329764397427,1.1568114482292127,0.2103499694808228,4.47465502268588,-0.010041523229541638,6044.373295519893,0.2923460210152417,99.45618862795727,2.14433444309769,1.2221306882623313,101031.97986314823,287.9912684967216,0.07244880006198942,-0.1312124234412952,-0.05085528216073648,403.80394736842106,0.21671864841898159,0.86,nominal,5192.2093922634185,nan,pitch_program,12.625,0.0,0.0,-3.46843172651317,0.026223224984353838,0.02164387428666011,-3.4481927637642724,3.9043547112522455e-06,2.653921360203357e-05,0.86,0.0,0.0,0.0,0.0,0.0,0.0,-0.06018231697112957,6.814384487710419e-08,4.631966582455499e-07,-0.06018231697112957,6.814384487710419e-08,4.631966582455499e-07,0.75,1.0,20.574315937199728,-0.011156196610823649,4.272806342556486,-0.0007165846154135928,0.020448827408079098,0.0024975489461145197,21.013316606034007,0.02061324299121058,1.0,0.0,57.01193730390901,-1.126259937575027,24.268872922059437,97.15105923721262,0.09065030120701408,4.9148571829530185,1.0,24.97644301327904,0.0,1.0,99.54225353160311,6059.232476757431,1.0,1.0,0.3735232218277751,18.7157499567397,0.048650696102333975,-44.1876231684133,1.0,24.894259342247526,1.0,-0.01040037982966141,4.0600591523197815,0.939285583019174,1.0,-0.538830021365519,7.7094449314180675
0.78,72.21973544525451,0.0002558220529512706,24.551972063532205,100.02235574155381,0.0071071286886341435,4.39135966460522,100.11870823330244,17.85818172415892,-0.08889905811882894,7.051260289585645,0.1016881262003685,-0.12546141392154989,1.1897582159375977,0.20065301413878134,4.506489152754618,-0.015390148153047649,6116.5255570484,0.2940880238324434,100.04866967403738,2.1436818442925394,1.2221152229319798,101030.40095872841,287.99041218158703,0.07244880006198942,-0.1312124234412952,-0.05085528216073648,403.77,0.21670042911268322,0.86,nominal,5252.650465989409,nan,pitch_program,12.61,0.0,0.0,-3.4948918543944716,0.017641751461027762,0.00916880760552758,-3.4762122181423916,1.5617418845008986e-06,1.061568544081343e-05,0.86,0.0,0.0,0.0,0.0,0.0,0.0,-0.060671348704640096,2.725753795084168e-08,1.8527866329821997e-07,-0.060671348704640096,2.725753795084168e-08,1.8527866329821997e-07,0.78,1.0,20.54280347454383,0.05951571555565216,4.31977314753773,-0.0020328913717357925,0.021287895195123523,0.003223113923439141,20.992159411559264,0.02162627088823471,1.0,0.0,57.01193730390901,-1.126259937575027,24.268872922059437,97.15105923721262,0.09065030120701408,4.9148571829530185,1.0,25.271164479558237,0.0,1.0,99.57246621305708,6099.812219306079,1.0,1.0,0.19020943533432583,18.66769329696435,0.043314961277597125,-44.251462096488396,1.0,24.609860949421147,1.0,0.012307908553580639,4.0573967306666106,0.9386200698411695,1.0,-0.2641333156056677,7.139438033072074
0.8099999999999999,75.23829361464519,0.0005108959140707149,24.681051839044358,100.61860564635592,0.008502462037314808,4.302659183738388,100.71055928034636,17.851680711285542,-0.09315153873725837,7.014783237225299,0.10724782862725175,-0.11905810088652509,1.2156080462920273,0.18586046335300502,4.535541881285629,-0.02023994922836218,6189.021664187206,0.29582799371622553,100.64046037759145,2.143046844914034,1.2221000701289615,101028.85396576447,287.9895731630462,0.07244880006198942,-0.1312124234412952,-0.05085528216073648,403.73605263157896,0.21668220980638486,0.86,nominal,5313.346812297443,nan,pitch_program,12.595,0.0,0.0,-3.51931248822315,0.007639911590543763,-0.004785643742719366,-3.502072380190847,6.246967538003595e-07,4.246274176325372e-06,0.86,0.0,0.0,0.0,0.0,0.0,0.0,-0.06112269367748492,1.0903015180336673e-08,7.4111465319288e-08,-0.06112269367748492,1.0903015180336673e-08,7.4111465319288e-08,0.8099999999999999,1.0,20.567526552198643,0.049847413145173984,4.409157250523335,-0.003518071926817649,0.02279916632801125,0.0021063574031935407,21.03488295426994,0.023164963994027114,1.0,0.0,57.01193730390901,-1.126259937575027,24.268872922059437,97.15105923721262,0.09065030120701408,4.9148571829530185,1.0,25.271164479558237,0.0,1.0,99.91756421486647,6138.083320697823,1.0,1.0,0.19020943533432583,18.66769329696435,0.043314961277597125,-44.251462096488396,1.0,24.609860949421147,1.0,0.012307908553580639,4.0573967306666106,0.9386200698411695,1.0,-0.2641333156056677,7.139438033072074
0.84,78.27471218566846,0.0008112636590847933,24.807531634651685,101.21395236744246,0.010012258167135949,4.215993186910877,101.30172186412383,17.84518024499135,-0.09708187580848787,6.97772071002367,0.11221308354803859,-0.11085156891719092,1.2351431999417313,0.166326839109948,4.562070501436736,-0.024460199315421555,6261.860610761826,0.29756594224172417,101.23156466309878,2.1424285268517482,1.2220852226795849,101027.33815159812,287.98875104437474,0.07244880006198942,-0.1312124234412952,-0.05085528216073648,403.7021052631579,0.2166639905000865,0.86,nominal,5374.298206423109,nan,pitch_program,12.58,0.0,0.0,-3.541861343405773,-0.0035812662173997137,-0.019866670226045654,-3.5259457581198026,2.4987870152014383e-07,1.698509670530149e-06,0.86,0.0,0.0,0.0,0.0,0.0,0.0,-0.06153936272591814,4.36120607213467e-09,2.9644586127715203e-08,-0.06153936272591814,4.36120607213467e-09,2.9644586127715203e-08,0.84,1.0,20.614180083856866,0.05107188519438561,4.540539659004626,-0.0013024248653964983,0.020733043119828272,0.00536659327802709,21.1083758082457,0.02145590154131089,1.0,0.0,76.20972742368527,-0.12662304804318733,26.693020939740162,100.79819331873333,-0.1369212690265082,4.131032988555919,1.0,26.02872221311565,0.0,1.0,101.25257124772823,6250.997412618892,1.0,1.0,-1.5559246050852307,18.77842456338639,0.06815736874612704,-44.212873641541755,1.0,24.471538383646347,1.0,-0.0003519739487912645,4.069449705886253,0.9379811709133707,1.0,0.7411251665139352,7.643484434088086
0.87,81.3289644783168,0.0011600195451840732,24.931471045350165,101.80840975494479,0.01162519620330933,4.131313689949374,101.89219884162226,17.83868032527635,-0.10062730500467279,6.940237084274063,0.11645622048297452,-0.10104454110532082,1.2492101465941206,0.1425514746214265,4.58630137703686,-0.027936249434610254,6335.041260215938,0.29930187760189264,101.82198530430597,2.1418260036086703,1.222070673579584,101025.85280088198,287.9879454382052,0.07244880006198942,-0.1312124234412952,-0.05085528216073648,403.66815789473685,0.21664577119378817,0.86,nominal,5435.504302917227,nan,pitch_program,12.565,0.0,0.0,-3.5627428808068733,-0.01578225021614169,-0.03568246762159859,-3.5480240317320453,9.995148060805754e-08,6.794038682120597e-07,0.86,0.0,0.0,0.0,0.0,0.0,0.0,-0.061924701293607956,1.744482428853868e-09,1.1857834451086082e-08,-0.061924701293607956,1.744482428853868e-09,1.1857834451086082e-08,0.87,1.0,20.38866169786681,-0.024698406400263627,4.631497677977978,-0.0004767319074156155,0.024020699356679283,0.001096955533854238,20.9081062409405,0.024050459087900464,1.0,0.0,76.20972742368527,-0.12662304804318733,26.693020939740162,100.79819331873333,-0.1369212690265082,4.131032988555919,1.0,26.02872221311565,0.0,1.0,101.55991343183028,6296.439638275751,1.0,1.0,-1.5559246050852307,18.77842456338639,0.06815736874612704,-44.212873641541755,1.0,24.471538383646347,1.0,-0.0003519739487912645,4.069449705886253,0.9379811709133707,1.0,0.7411251665139352,7.643484434088086
0.8999999999999999,84.40102417519167,0.0015598360941304927,25.052928398365736,102.4019898958287,0.013327218298213987,4.0485784338524375,102.48199207458454,17.832180952140536,-0.10373523232720941,6.9024767983912465,0.11986875007169477,-0.08988980026201548,1.2584728553779954,0.11516657317864304,4.608436183218111,-0.030573149749672058,6408.562361060504,0.30103580507056066,102.41172408162177,2.1412385521625072,1.2220564159739395,101024.39721351881,287.9871559654106,0.07244880006198942,-0.1312124234412952,-0.05085528216073648,403.6342105263158,0.2166275518874898,0.86,nominal,5496.964650065437,nan,pitch_program,12.55,0.0,0.0,-3.582108926810427,-0.028690777590614717,-0.0518129929390147,-3.5684749687790744,3.9980592243223024e-08,2.7176154728482393e-07,0.86,0.0,0.0,0.0,0.0,0.0,0.0,-0.0622816374801967,6.977929715415474e-10,4.7431337804344334e-09,-0.0622816374801967,6.977929715415474e-10,4.7431337804344334e-09,0.8999999999999999,1.0,20.444710366126284,0.013150146533834282,4.694158618895728,-0.0009935039342905071,0.02635308641641571,0.0026102844984191654,20.976688967053366,0.0265006754423583,1.0,0.0,76.20972742368527,-0.12662304804318733,26.693020939740162,100.79819331873333,-0.1369212690265082,4.131032988555919,1.0,24.772981509541466,0.0,1.0,102.36435964262404,6362.419394564868,1.0,1.0,0.5908877913719114,18.78733573768279,-0.014927897089647198,-44.1259983998124,1.0,24.987723287911038,1.0,0.02386840457771867,4.076307743279943,0.9373676790040857,1.0,0.1603125342280829,6.650452699586091
0.9299999999999999,87.49086527408274,0.0020128925929003925,25.171960905949245,102.99470329636917,0.01510188329233,3.967750252783665,103.07110253239004,17.82568212558391,-0.10636492916237887,6.864568528509814,0.12236490848178991,-0.07768429687759443,1.263455463862579,0.08492217763026257,4.628656612412488,-0.032298796888148296,6482.422556161386,0.30276772730526247,103.00078188501514,2.1406654783412296,1.2220424431389203,101022.97070282759,287.98638225411133,0.07244880006198942,-0.1312124234412952,-0.05085528216073648,403.6002631578947,0.21660933258119142,0.86,nominal,5558.6786990395585,nan,pitch_program,12.535000000000002,0.0,0.0,-3.600071277663961,-0.042008630066154316,-0.06782130564217563,-3.5874327541100066,1.5992236897289213e-08,-0.04069267468068646,0.86,0.0,0.0,0.0,0.0,0.0,0.0,-0.06261251325310775,2.7911718861661896e-10,-0.0007102211546209108,-0.06261251325310775,2.7911718861661896e-10,-0.0007102211546209108,0.9299999999999999,1.0,20.401888537614433,-0.009218986545546332,4.79290384581462,0.0032249485736712082,0.02072556583884368,-0.0005885195080300391,20.95731538547294,0.02098322491549857,1.0,0.0,76.20972742368527,-0.12662304804318733,26.693020939740162,100.79819331873333,-0.1369212690265082,4.131032988555919,1.0,24.772981509541466,0.0,1.0,103.08658106302212,6452.872740356667,1.0,1.0,0.5908877913719114,18.78733573768279,-0.014927897089647198,-44.1259983998124,1.0,24.987723287911038,1.0,0.02386840457771867,4.076307743279943,0.9373676790040857,1.0,0.1603125342280829,6.650452699586091
0.96,90.59846205262933,0.0025165860019071857,25.28862481330385,103.58655928488628,0.016789780300226445,3.8887969118202412,103.65953061730197,17.819183845606474,-0.10859380552967675,6.826624194574877,0.12476455215523755,-0.0647617629849937,1.2646599747523783,0.08179036761399479,4.647125471824634,-0.03401529588381836,6556.620398058467,0.3044976447796167,103.58915886098438,2.1401066351343494,1.2220287484646997,101021.5725937682,287.9856239387135,0.07244880006198942,-0.1312124234412952,-0.05085528216073648,403.56631578947366,0.21659111327489305,0.86,nominal,5620.645836425068,nan,pitch_program,12.520000000000001,0.0,0.0,-3.6167571150190256,-0.0561588147264305,-0.07212854186514826,-3.605027370655418,6.396894758915684e-09,-0.05955419499136354,0.86,0.0,0.0,0.0,0.0,0.0,0.0,-0.06291959724245105,1.1164687544664758e-10,-0.0010394167859740097,-0.06291959724245105,1.1164687544664758e-10,-0.0010394167859740097,0.96,1.0,20.424955438835962,-0.027863606173513265,4.764812633375273,-0.001549964860118478,0.02116323262277073,0.00043368084913808936,20.973388388387708,0.021224346519787565,1.0,0.0,76.20972742368527,-0.12662304804318733,26.693020939740162,100.79819331873333,-0.1369212690265082,4.131032988555919,1.0,25.953472717014417,0.0,1.0,104.09785522938712,6515.464878330963,1.0,1.0,1.9876226691543704,18.941953351088063,0.06191249936588884,-44.125569440071324,1.0,24.929426631782686,1.0,-0.002993020888147396,4.081088234621055,0.9367784379667403,1.0,0.10584014496882914,6.5598808041538375
0.99,93.72378901606629,0.0030704619794490583,25.40297550970239,104.17756544789864,0.01846253258472909,3.8116898799512584,104.24727556755253,17.812686112208226,-0.11044283819858416,6.7887438338494865,0.12742755545203482,-0.05111226233026971,1.2625079528797687,0.09055433336623206,4.663989443261068,-0.03604055830858151,6631.1543307688335,0.3062255554264607,104.17685429106358,2.139561657730655,1.2220153254423016,101020.20222160817,287.9848806591869,0.07244880006198942,-0.1312124234412952,-0.05085528216073648,403.53236842105264,0.21657289396859472,0.86,nominal,5682.865321410842,nan,pitch_program,12.505,0.0,0.0,-3.6322515584578627,-0.07083568755867728,-0.07176096433287527,-3.6213618833368852,-0.04250140997644846,-0.06687825659627057,0.86,0.0,0.0,0.0,0.0,0.0,0.0,-0.06320468827045142,-0.0007417895408289913,-0.0011672457755985376,-0.06320468827045142,-0.0007417895408289913,-0.0011672457755985376,0.99,1.0,20.408888819216482,0.0023177769584898497,4.906176795332466,0.0013319472393660233,0.022818133951961944,0.0027031942503753653,20.99031488459114,0.02301626771771209,1.0,0.0,76.20972742368527,-0.12662304804318733,26.693020939740162,100.79819331873333,-0.1369212690265082,4.131032988555919,1.0,25.953472717014417,0.0,1.0,104.53086127224955,6582.990828020743,1.0,1.0,1.9876226691543704,18.941953351088063,0.06191249936588884,-44.125569440071324,1.0,24.929426631782686,1.0,-0.002993020888147396,4.081088234621055,0.9367784379667403,1.0,0.10584014496882914,6.5598808041538375
1.02,96.86682086278384,0.0036754014783949743,25.515067642922485,104.7677282239181,0.02016464996486387,3.7364044406697916,104.8343359875863,17.80618892538917,-0.11302444728556284,6.751014833686066,0.1304561013039691,-0.07415327305203433,1.2574354982467828,0.10270000487538744,4.6793796452758505,-0.03836163757419928,6706.022712040202,0.307951455221698,104.76386679034826,2.139030273657054,1.2220021676501467,101018.85893054867,287.984152060321,0.07244880006198942,-0.1312124234412952,-0.05085528216073648,403.49842105263156,0.21655467466229633,0.86,nominal,5745.336339079531,nan,pitch_program,12.49,0.0,0.0,-3.646654606169712,-0.05259672381452894,-0.07042391648579324,-3.636537517036581,-0.017000563990579386,-0.06900565252998418,0.86,0.0,0.0,0.0,0.0,0.0,0.0,-0.06346955304458772,-0.0002967158163315965,-0.001204375839135379,-0.06346955304458772,-0.0002967158163315965,-0.001204375839135379,1.02,1.0,20.3611239220504,0.052971208536638136,4.964566834109501,-0.0016248289399487341,0.022779017862961756,0.002192426791017972,20.957697802200673,0.022941893102340075,1.0,0.0,76.20972742368527,-0.12662304804318733,26.693020939740162,100.79819331873333,-0.1369212690265082,4.131032988555919,1.0,26.23824049807293,0.0,1.0,104.68217436742958,6744.047431893749,1.0,1.0,0.6487155795244596,18.954752388706005,0.031336408765905294,-44.10976219336613,1.0,25.355778307445092,1.0,-0.0012824727490891776,4.097997938420841,0.9362123308926937,1.0,-0.30848707784167895,6.62690101195894
1.05,100.0275324534176,0.004333097263722878,25.62495521888879,105.35705302112562,0.02192319284426347,3.6629191988768666,105.42070991498854,17.7996922851493,-0.11562762915485676,6.713513150022163,0.13382926659862263,-0.07359152429352336,1.2498308689437119,0.11415765548012856,4.693411596029168,-0.041000673409722466,6781.22382116218,0.30967533841853684,105.35019438709638,2.138512237998638,1.2219892687423428,101017.54207252873,287.9834377910772,0.07244880006198942,-0.1312124234412952,-0.05085528216073648,403.46447368421053,0.216536455355998,0.86,nominal,5808.058006587396,nan,pitch_program,12.475,0.0,0.0,-3.6600576740384936,-0.05607742510549874,-0.06986896101992913,-3.6506496112377285,-0.006800225596231754,-0.06952363762395114,0.86,0.0,0.0,0.0,0.0,0.0,0.0,-0.06371585555274935,-0.00011868632653263861,-0.0012134163845013547,-0.06371585555274935,-0.00011868632653263861,-0.0012134163845013547,1.05,1.0,20.281628123680147,0.004933429714077032,5.080038725242418,-0.0022055223311181296,0.024115408288705727,0.003541559973693088,20.908162452399896,0.024473657118038217,1.0,0.0,97.98604073003312,-0.8736115943172359,26.483127608925795,105.42763621266708,0.12491958484704434,3.8631241219915573,1.0,26.23824049807293,0.0,1.0,104.82511858683952,6811.428446904459,1.0,1.0,0.6487155795244596,18.954752388706005,0.031336408765905294,-44.10976219336613,1.0,25.355778307445092,1.0,-0.0012824727490891776,4.097997938420841,0.9362123308926937,1.0,-0.30848707784167895,6.62690101195894
1.08,103.20589878381644,0.0050456311300913,25.73269168709003,105.94554434662787,0.023751128878947394,3.5912156067079173,106.00639490404943,17.79319619148862,-0.11793558374262646,6.676305562898157,0.13747921986251108,-0.06274779691667036,1.2400040820998752,0.12336314226617118,4.706189225348392,-0.04390925538517925,6856.7558682214385,0.3113971978064191,105.93583461074142,2.138007379627109,1.2219766224386464,101016.25100619979,287.9827375040339,0.07244880006198942,-0.1312124234412952,-0.05085528216073648,403.43052631578945,0.21651823604969964,0.86,nominal,5871.02938120984,nan,pitch_program,12.46,0.0,0.0,-3.672530656306626,-0.06865751384791849,-0.0706848603999528,-3.663778238279067,-0.04391459854724379,-0.07022037128955214,0.86,0.0,0.0,0.0,0.0,0.0,0.0,-0.06394499332088706,-0.0007664543343409227,-0.0012255766809755812,-0.06394499332088706,-0.0007664543343409227,-0.0012255766809755812,1.08,1.0,20.32657555773092,0.08847821763351095,5.1295546225907795,-0.001484168816960578,0.019252080365019474,0.0010030313814511588,20.964012805884327,0.019335237971397776,1.0,0.0,97.98604073003312,-0.8736115943172359,26.483127608925795,105.42763621266708,0.12491958484704434,3.8631241219915573,1.0,25.244246112528405,0.0,1.0,106.42753005435038,6823.428381445994,1.0,1.0,-0.0220113340080988,19.039746333594433,0.05327300925381134,-44.07863976184731,1.0,25.746651778163013,1.0,0.007929402351342596,4.109164573167125,0.935668270782275,1.0,-0.23399759507750298,6.395821642336611
1.1099999999999999,106.40189496041484,0.005815225124990201,25.83833001716129,106.53320588661346,0.025653133163296708,3.5212776690420204,106.59138807138834,17.786700644407127,-0.12092051438004801,6.639450581142746,0.1413318492685072,-0.08460848679028804,1.2282308887892317,0.13011535634249285,4.717806886758173,-0.046931533157999604,6932.616999189974,0.3131170248670968,106.52078454492174,2.13751558509928,1.2219642225154608,101014.98509600657,287.9820508548884,0.07244880006198942,-0.1312124234412952,-0.05085528216073648,403.3965789473684,0.21650001674340127,0.86,nominal,5934.249464555449,nan,pitch_program,12.445,0.0,0.0,-3.6841370783382086,-0.051806788454396666,-0.07277793985913983,-3.675993542314552,-0.017565839418897517,-0.07175491243130475,0.86,0.0,0.0,0.0,0.0,0.0,0.0,-0.06415819059543842,-0.00030658173373636913,-0.0012523594764064774,-0.06415819059543842,-0.00030658173373636913,-0.0012523594764064774,1.1099999999999999,1.0,20.27745998450748,0.06308514653532632,5.258175512744475,-0.0008120255624519851,0.019915790313348895,0.0014560053358081907,20.948216460640296,0.01998544572575901,1.0,0.0,97.98604073003312,-0.8736115943172359,26.483127608925795,105.42763621266708,0.12491958484704434,3.8631241219915573,1.0,25.244246112528405,0.0,1.0,106.71849138267957,6952.677709860094,1.0,1.0,-0.0220113340080988,19.039746333594433,0.05327300925381134,-44.07863976184731,1.0,25.746651778163013,1.0,0.007929402351342596,4.109164573167125,0.935668270782275,1.0,-0.23399759507750298,6.395821642336611
1.14,109.61549617755007,0.006644179358177183,25.941922767636097,107.12004057117444,0.027631807772899426,3.453091682493603,107.17568613101838,17.780205643904825,-0.12381009824989316,6.602998894614752,0.14532759276003088,-0.08096180424526322,1.2147709313333104,0.13489775009753635,4.728347756541594,-0.050070401063544843,7008.805299904518,0.3148348099005011,107.10504087023936,2.1370367355449353,1.2219520627977503,101013.74371136096,287.98137750201033,0.07244880006198942,-0.1312124234412952,-0.05085528216073648,403.3626315789474,0.21648179743710294,0.86,nominal,5997.717205736522,nan,pitch_program,12.43,0.0,0.0,-3.6949394341498945,-0.05828012171164811,-0.07590543575527656,-3.687361077415757,-0.04199440879454787,-0.07424522642568784,0.86,0.0,0.0,0.0,0.0,0.0,0.0,-0.06435659151079048,-0.0007329407008933233,-0.0012958236550169539,-0.06435659151079048,-0.0007329407008933233,-0.0012958236550169539,1.14,1.0,20.291885425450463,0.011584060093558432,5.2680335687120445,0.0021445472481435713,0.018847593824031242,0.005208422817736136,20.964563577406857,0.019671261883862336,1.0,0.0,97.98604073003312,-0.8736115943172359,26.483127608925795,105.42763621266708,0.12491958484704434,3.8631241219915573,1.0,25.688306110641744,0.0,1.0,106.8527932412053,7013.844698380591,1.0,1.0,0.15922807309404824,19.070850085920938,0.06329923127537258,-44.09774610190732,1.0,25.81659513634474,1.0,0.013739571328027642,4.11358778069492,0.9351451930809098,1.0,0.8209499028584666,7.020829320293531
1.17,112.84667769779773,0.0075347772644883135,26.0435221446488,107.70605067492176,0.029686596877037664,3.3866459004234177,107.75928546412,17.77371118998171,-0.12724505696560592,6.566994457690633,0.1494239503952342,-0.09884001959697843,1.1998478780035347,0.1382734887733325,4.7378876190652495,-0.05323137065095846,7085.318803596938,0.3165505422256063,107.68859993254078,2.1365707494938837,1.2219401371521452,101012.52622593794,287.9807171060598,0.07244880006198942,-0.1312124234412952,-0.05085528216073648,403.3286842105263,0.21646357813080455,0.86,nominal,6061.431508308671,nan,pitch_program,12.415,0.0,0.0,-3.7049913367874145,-0.045493040551457524,-0.07971876551775475,-3.6979392330387517,-0.01679776351781915,-0.077529349880928,0.86,0.0,0.0,0.0,0.0,0.0,0.0,-0.06454121515520009,-0.00029317628035732934,-0.0013531424223528672,-0.06454121515520009,-0.00029317628035732934,-0.0013531424223528672,1.17,1.0,20.333095092782415,0.059015681902639,5.351543837531205,0.0012060123648736107,0.02039518101174771,0.002171127246511899,21.025633411335342,0.020545843079482737,1.0,0.0,97.98604073003312,-0.8736115943172359,26.483127608925795,105.42763621266708,0.12491958484704434,3.8631241219915573,1.0,25.688306110641744,0.0,1.0,108.04973676697433,7142.085803778641,1.0,1.0,0.15922807309404824,19.070850085920938,0.06329923127537258,-44.09774610190732,1.0,25.81659513634474,1.0,0.013739571328027642,4.11358778069492,0.9351451930809098,1.0,0.8209499028584666,7.020829320293531
