time_s,sensor_time_s,imu_valid,imu_ax_mps2,imu_ay_mps2,imu_az_mps2,gyro_p_rps,gyro_q_rps,gyro_r_rps,imu_accel_norm_mps2,imu_gyro_norm_rps,gps_valid,gps_latency_s,gps_x_m,gps_y_m,gps_z_m,gps_vx_mps,gps_vy_mps,gps_vz_mps,baro_valid,baro_alt_m,baro_bias_m,pitot_valid,pitot_airspeed_mps,pitot_qbar_pa,pitot_compressibility_factor,mag_valid,mag_heading_deg,mag_x_ut,mag_y_ut,mag_z_ut,radar_valid,radar_agl_m,optical_flow_valid,optical_flow_x_radps,optical_flow_y_radps,optical_flow_quality,horizon_valid,horizon_roll_deg,horizon_pitch_deg
0.0,0.0,1.0,17.097838403945094,-0.023909967799985884,0.13075901426363526,-0.0011846461623943778,0.0013181441023463838,0.0014804783948871505,17.098355116612566,0.0023092653988560762,1.0,0.0,1.69062741851169,-1.0004827618806238,20.718048150427723,85.13084268154867,0.27725161253670577,8.076939739570042,1.0,19.911179626100555,0.0,1.0,85.57889544196739,4452.178335021759,1.0,1.0,0.536223259439391,19.56634421878517,0.01051648236020856,-43.84999618812795,1.0,20.107562645592367,1.0,-0.004597107947264304,4.260987275395636,0.95,1.0,0.45149697114415227,6.28521300696935
0.03,0.03,1.0,17.404309478497062,0.04551571437706177,0.7145072589626615,-0.0007235416777549694,-0.1575869996684574,-0.0019484130398289778,17.419029270503803,0.15760070523458838,1.0,0.0,1.69062741851169,-1.0004827618806238,20.718048150427723,85.13084268154867,0.27725161253670577,8.076939739570042,1.0,19.911179626100555,0.0,1.0,86.22560753058214,4410.101125535955,1.0,1.0,0.536223259439391,19.56634421878517,0.01051648236020856,-43.84999618812795,1.0,20.107562645592367,1.0,-0.004597107947264304,4.260987275395636,0.95,1.0,0.45149697114415227,6.28521300696935
0.06,0.06,1.0,17.584107909426987,0.01490857283787094,1.0785374164159802,-0.0012936313554172954,-0.18470069243173018,0.00018647105211892648,17.61715970849234,0.18470531675698343,1.0,0.0,1.69062741851169,-1.0004827618806238,20.718048150427723,85.13084268154867,0.27725161253670577,8.076939739570042,1.0,19.738843306660616,0.0,1.0,86.80977540538328,4552.058407840136,1.0,1.0,-1.0651638147331448,19.022396950053732,0.02656563521478569,-44.000767351300105,1.0,20.4393344468274,1.0,-0.001712281330934378,4.226462894491242,0.9488517164377139,1.0,0.3043853742207659,7.019369694948602
0.09,0.09,1.0,17.84556248547862,-0.019776785011549766,1.39916714084873,-0.0009608221372418086,-0.11333664679510896,-0.0004744462882565416,17.90033966807273,0.11334171246817801,1.0,0.0,1.69062741851169,-1.0004827618806238,20.718048150427723,85.13084268154867,0.27725161253670577,8.076939739570042,1.0,19.738843306660616,0.0,1.0,86.70400505082237,4682.66562147713,1.0,1.0,-1.0651638147331448,19.022396950053732,0.02656563521478569,-44.000767351300105,1.0,20.4393344468274,1.0,-0.001712281330934378,4.226462894491242,0.9488517164377139,1.0,0.3043853742207659,7.019369694948602
0.12,0.12,1.0,18.20895512431395,0.02948859542228683,1.5429345873117337,0.0020719168344256766,-0.05729531961484353,0.004122426312791231,18.27423222565758,0.05748078711917786,1.0,0.0,1.69062741851169,-1.0004827618806238,20.718048150427723,85.13084268154867,0.27725161253670577,8.076939739570042,1.0,20.914512356136207,0.0,1.0,87.69600793728601,4630.7555725583115,1.0,1.0,-0.8038275749230374,18.89183131593513,-0.001698690261857577,-44.18219389634073,1.0,20.95762696540867,1.0,0.005657251649031082,4.1630645740686125,0.9477638049633749,1.0,-0.23134794974320533,6.686247605319334
0.15,0.15,1.0,18.433855818556903,-0.023224973766703492,1.6848692123352382,-0.00010086210758901621,-0.05030975274710806,-0.001100743766681634,18.510709440791995,0.0503218941563191,1.0,0.0,1.69062741851169,-1.0004827618806238,20.718048150427723,85.13084268154867,0.27725161253670577,8.076939739570042,1.0,20.914512356136207,0.0,1.0,88.38717294467168,4749.471702113042,1.0,1.0,-0.8038275749230374,18.89183131593513,-0.001698690261857577,-44.18219389634073,1.0,20.95762696540867,1.0,0.005657251649031082,4.1630645740686125,0.9477638049633749,1.0,-0.23134794974320533,6.686247605319334
0.18,0.18,1.0,18.67547473205489,-0.05174696914663809,1.8742208036718484,-0.003103330163306825,-0.0559770867919917,0.0005270151116467212,18.769356351173926,0.056065521033417366,1.0,0.0,1.69062741851169,-1.0004827618806238,20.718048150427723,85.13084268154867,0.27725161253670577,8.076939739570042,1.0,21.702598684108953,0.0,1.0,88.27232383173259,4816.933918002224,1.0,1.0,1.5339154295748152,18.73677872594482,-0.010853503971813139,-44.158590260493234,1.0,21.28072953218347,1.0,0.012765138110056945,4.149036301218108,0.9467307177645066,1.0,-0.12846710594820704,7.613801029816477
0.21,0.21,1.0,19.058647224291132,0.04564430639127307,2.146497987950692,0.002115253779584713,-0.05274503271623084,0.0005447878961963449,19.17919630836919,0.052790241225440064,1.0,0.0,17.1751797021202,0.7329657720214594,20.306724349322142,88.8195273748163,-0.10901918543427806,6.853770138291007,1.0,21.702598684108953,0.0,1.0,88.3792175033581,4819.361336657934,1.0,1.0,1.5339154295748152,18.73677872594482,-0.010853503971813139,-44.158590260493234,1.0,21.28072953218347,1.0,0.012765138110056945,4.149036301218108,0.9467307177645066,1.0,-0.12846710594820704,7.613801029816477
0.24,0.24,1.0,19.387781795119274,-0.05326024257658247,2.3397189308702253,-0.002611997696978641,-0.03987779250858226,0.001189566111995232,19.52852283876254,0.039980944646936106,1.0,0.0,17.1751797021202,0.7329657720214594,20.306724349322142,88.8195273748163,-0.10901918543427806,6.853770138291007,1.0,22.0922788863546,0.0,1.0,89.35252535390912,4924.668730657309,1.0,1.0,2.0176645560315936,18.559776931807527,0.035073463886196886,-44.21019200090117,1.0,21.543521757097313,1.0,-0.005624457075960326,4.110812410504353,0.9457479490394557,1.0,-0.07698366637599277,7.897924466048319
0.27,0.27,1.0,19.602131007126943,-0.02280151749266586,2.51856748593976,-9.787506628572743e-05,-0.02662612649348085,0.005965894001590024,19.763280145537593,0.02728648168624257,1.0,0.0,17.1751797021202,0.7329657720214594,20.306724349322142,88.8195273748163,-0.10901918543427806,6.853770138291007,1.0,22.0922788863546,0.0,1.0,89.96978965687971,5016.286960843664,1.0,1.0,2.0176645560315936,18.559776931807527,0.035073463886196886,-44.21019200090117,1.0,21.543521757097313,1.0,-0.005624457075960326,4.110812410504353,0.9457479490394557,1.0,-0.07698366637599277,7.897924466048319
0.3,0.3,1.0,19.987334988986404,0.014891487443908578,2.560654101301549,-0.0006857363717677672,-0.019963835407303038,0.0014846421860581667,20.150700512510003,0.020030704454963015,1.0,0.0,17.1751797021202,0.7329657720214594,20.306724349322142,88.8195273748163,-0.10901918543427806,6.853770138291007,1.0,20.47135725499193,0.0,1.0,90.63092142076471,5057.407573992727,1.0,1.0,-0.9060695021062775,18.491174545325197,-0.014473358766310099,-44.31681807723413,1.0,22.15923117741816,1.0,0.003028720270490959,4.082405008184131,0.9448110239194804,1.0,0.017856118813762898,7.917920051729286
0.32999999999999996,0.32999999999999996,1.0,20.2211996819828,0.03470360211275723,2.78284516719451,0.004238291291537999,-0.013486361744728441,0.0015669868366701661,20.411818834763324,0.014223238517577464,1.0,0.0,17.1751797021202,0.7329657720214594,20.306724349322142,88.8195273748163,-0.10901918543427806,6.853770138291007,1.0,20.47135725499193,0.0,1.0,90.900146983675,5063.537723729638,1.0,1.0,-0.9060695021062775,18.491174545325197,-0.014473358766310099,-44.31681807723413,1.0,22.15923117741816,1.0,0.003028720270490959,4.082405008184131,0.9448110239194804,1.0,0.017856118813762898,7.917920051729286
0.36,0.36,1.0,20.508985911206363,-0.027247855944170184,2.908023978233854,0.0007150543511897881,-0.009111683752216188,-0.0001173037633132618,20.714146108630633,0.009140450957061327,1.0,0.0,17.1751797021202,0.7329657720214594,20.306724349322142,88.8195273748163,-0.10901918543427806,6.853770138291007,1.0,22.919453968759097,0.0,1.0,91.38970310428512,5145.140767180873,1.0,1.0,0.3013537954678583,18.525205492709564,0.04276821115132831,-44.30979311728342,1.0,22.343035189230108,1.0,-0.0085140521507486,4.086125954685948,0.9439163050967567,1.0,0.26316050531242663,7.644170714124245
0.39,0.39,1.0,20.761378954794917,0.016367259421090314,3.036015117596066,0.0005776141311320392,-0.006607065232622752,0.0028062075851100063,20.982195113620836,0.007201510264058832,1.0,0.0,17.1751797021202,0.7329657720214594,20.306724349322142,88.8195273748163,-0.10901918543427806,6.853770138291007,1.0,22.919453968759097,0.0,1.0,92.97626180881909,5183.938595581538,1.0,1.0,0.3013537954678583,18.525205492709564,0.04276821115132831,-44.30979311728342,1.0,22.343035189230108,1.0,-0.0085140521507486,4.086125954685948,0.9439163050967567,1.0,0.26316050531242663,7.644170714124245
0.42,0.42,1.0,20.856493485654468,0.06555241608721983,3.1966527611038686,-0.003183228786421257,-0.00032034459535694394,0.002777680929522994,21.100147073219066,0.0042368711937833415,1.0,0.0,36.45992937942053,-2.179710561422544,23.139835639355912,92.50236892713262,0.007376118294446343,5.6055986833329055,1.0,22.290905309394557,0.0,1.0,92.93737926399092,5290.478372285395,1.0,1.0,-0.12072381433199626,18.51199882824346,0.040719369491989794,-44.22168932562809,1.0,22.57701803637869,1.0,-0.008398245486140312,4.058079145747888,0.943060424448886,1.0,0.05427760913973929,7.542712415472379
0.44999999999999996,0.44999999999999996,1.0,20.857221170379514,-0.01071337002559534,3.295673365663065,-0.0017300326688057263,0.0033091894874166887,0.002507011423902066,21.11599518515681,0.004497649872804647,1.0,0.0,36.45992937942053,-2.179710561422544,23.139835639355912,92.50236892713262,0.007376118294446343,5.6055986833329055,1.0,22.290905309394557,0.0,1.0,92.8927994059467,5275.297586258397,1.0,1.0,-0.12072381433199626,18.51199882824346,0.040719369491989794,-44.22168932562809,1.0,22.57701803637869,1.0,-0.008398245486140312,4.058079145747888,0.943060424448886,1.0,0.05427760913973929,7.542712415472379
0.48,0.48,1.0,20.838395537682416,-0.017861780223791444,3.3748586803853837,-0.0009625056728431697,0.010615208714384278,0.0007979415875474598,21.109919913175126,0.010688581945110071,1.0,0.0,36.45992937942053,-2.179710561422544,23.139835639355912,92.50236892713262,0.007376118294446343,5.6055986833329055,1.0,24.44906205001357,0.0,1.0,94.42094552968402,5489.568021149921,1.0,1.0,0.8159226351796263,18.51093236130418,0.10864082714705331,-44.33201149439477,1.0,23.284273825447237,1.0,0.002905773026587346,4.066675633088426,0.9422406606593949,1.0,-0.41257448996140234,7.476387088863173
0.51,0.51,1.0,20.791041260989907,0.05728471302646013,3.539945113338744,-0.0008393059972203492,0.008193430907556884,0.0025903556773842263,21.09032692160039,0.008634042340018674,1.0,0.0,36.45992937942053,-2.179710561422544,23.139835639355912,92.50236892713262,0.007376118294446343,5.6055986833329055,1.0,24.44906205001357,0.0,1.0,95.16717848585152,5503.846275727941,1.0,1.0,0.8159226351796263,18.51093236130418,0.10864082714705331,-44.33201149439477,1.0,23.284273825447237,1.0,0.002905773026587346,4.066675633088426,0.9422406606593949,1.0,-0.41257448996140234,7.476387088863173
0.54,0.54,1.0,20.700620103939038,-0.012832122765025787,3.610514110822648,0.0010798817323172348,0.011871347778406665,0.006664490459744951,21.013130406853453,0.013656883821710748,1.0,0.0,36.45992937942053,-2.179710561422544,23.139835639355912,92.50236892713262,0.007376118294446343,5.6055986833329055,1.0,22.758381400585044,0.0,1.0,95.40843396728278,5548.73955523974,1.0,1.0,0.4513503747801949,18.543170095536414,-0.02327756651603432,-44.32861919781014,1.0,23.75838548364536,1.0,0.0036742354474730943,4.071375221930507,0.9414549882305011,1.0,0.05469925868999003,7.671796892671017
0.57,0.57,1.0,20.760440284338483,-0.032046085173182276,3.6910348497446144,-0.0007683569078431706,0.013801522715039719,0.0024733995333329865,21.08602964081167,0.014042439490454623,1.0,0.0,36.45992937942053,-2.179710561422544,23.139835639355912,92.50236892713262,0.007376118294446343,5.6055986833329055,1.0,22.758381400585044,0.0,1.0,96.0283138142899,5693.773030846564,1.0,1.0,0.4513503747801949,18.543170095536414,-0.02327756651603432,-44.32861919781014,1.0,23.75838548364536,1.0,0.0036742354474730943,4.071375221930507,0.9414549882305011,1.0,0.05469925868999003,7.671796892671017
0.6,0.6,1.0,20.700068585468287,0.01702353866852555,3.8541226097434045,-0.005872066868296227,0.011298925681014661,0.007129079048458572,21.05581606907923,0.014593514276212083,1.0,0.0,36.45992937942053,-2.179710561422544,23.139835639355912,92.50236892713262,0.007376118294446343,5.6055986833329055,1.0,23.9201126985513,0.0,1.0,96.79321312281418,5607.42750138105,1.0,1.0,0.17051620912579,18.513846893812744,0.088446812391233,-44.26521478058955,1.0,23.857787914201065,1.0,0.005736626887624963,4.066682692419717,0.9407016300986534,1.0,-0.3223184127916867,7.066143453668722
0.63,0.63,1.0,20.745047533218386,0.007168113014987356,3.9067963465621327,-0.0015246703264218116,0.01745280273281775,0.004237569898525633,21.109715920183426,0.018024481725692213,1.0,0.0,57.01193730390901,-1.126259937575027,24.268872922059437,97.15105923721262,0.09065030120701408,4.9148571829530185,1.0,23.9201126985513,0.0,1.0,97.56304415314816,5803.9631819350425,1.0,1.0,0.17051620912579,18.513846893812744,0.088446812391233,-44.26521478058955,1.0,23.857787914201065,1.0,0.005736626887624963,4.066682692419717,0.9407016300986534,1.0,-0.3223184127916867,7.066143453668722
0.6599999999999999,0.6599999999999999,1.0,20.682488611736904,-0.032999867361970775,4.027533700349138,-0.0023485956585559704,0.016013843766112493,0.004484122972784339,21.071009749732465,0.016794834103613532,1.0,0.0,57.01193730390901,-1.126259937575027,24.268872922059437,97.15105923721262,0.09065030120701408,4.9148571829530185,1.0,23.781777516225507,0.0,1.0,97.87454430227353,5794.074196517943,1.0,1.0,0.20025738541588736,18.63675853336339,0.010665163306707184,-44.198813725624575,1.0,24.206931817744007,1.0,0.004658586482749078,4.072898016746348,0.9399789838174513,1.0,-0.025315131384072348,6.95522389308816
0.69,0.69,1.0,20.64597670885744,0.005333510500091961,4.072016163458196,-0.002182115797669702,0.015635105633082312,0.00022881599253908981,21.043709234459662,0.015788303083945517,1.0,0.0,57.01193730390901,-1.126259937575027,24.268872922059437,97.15105923721262,0.09065030120701408,4.9148571829530185,1.0,23.781777516225507,0.0,1.0,98.27087324841088,5859.997179552207,1.0,1.0,0.20025738541588736,18.63675853336339,0.010665163306707184,-44.198813725624575,1.0,24.206931817744007,1.0,0.004658586482749078,4.072898016746348,0.9399789838174513,1.0,-0.025315131384072348,6.95522389308816
0.72,0.72,1.0,20.56315504304428,0.024407654523572152,4.146180746473049,0.0015872174867429386,0.017336621762822375,0.00798268104811416,20.97700540688066,0.019152047154633624,1.0,0.0,57.01193730390901,-1.126259937575027,24.268872922059437,97.15105923721262,0.09065030120701408,4.9148571829530185,1.0,24.97644301327904,0.0,1.0,98.57239494420237,5937.063446396186,1.0,1.0,0.3735232218277751,18.7157499567397,0.048650696102333975,-44.1876231684133,1.0,24.894259342247526,1.0,-0.01040037982966141,4.0600591523197815,0.939285583019174,1.0,-0.538830021365519,7.7094449314180675
0.75,0.75,1.0,20.574315937199728,-0.011156196610823649,4.272806342556486,-0.0007165846154135928,0.020448827408079098,0.0024975489461145197,21.013316606034007,0.02061324299121058,1.0,0.0,57.01193730390901,-1.126259937575027,24.268872922059437,97.15105923721262,0.09065030120701408,4.9148571829530185,1.0,24.97644301327904,0.0,1.0,99.54225353160311,6059.232476757431,1.0,1.0,0.3735232218277751,18.7157499567397,0.048650696102333975,-44.1876231684133,1.0,24.894259342247526,1.0,-0.01040037982966141,4.0600591523197815,0.939285583019174,1.0,-0.538830021365519,7.7094449314180675
0.78,0.78,1.0,20.54280347454383,0.05951571555565216,4.31977314753773,-0.0020328913717357925,0.021287895195123523,0.003223113923439141,20.992159411559264,0.02162627088823471,1.0,0.0,57.01193730390901,-1.126259937575027,24.268872922059437,97.15105923721262,0.09065030120701408,4.9148571829530185,1.0,25.271164479558237,0.0,1.0,99.57246621305708,6099.812219306079,1.0,1.0,0.19020943533432583,18.66769329696435,0.043314961277597125,-44.251462096488396,1.0,24.609860949421147,1.0,0.012307908553580639,4.0573967306666106,0.9386200698411695,1.0,-0.2641333156056677,7.139438033072074
0.8099999999999999,0.8099999999999999,1.0,20.567526552198643,0.049847413145173984,4.409157250523335,-0.003518071926817649,0.02279916632801125,0.0021063574031935407,21.03488295426994,0.023164963994027114,1.0,0.0,57.01193730390901,-1.126259937575027,24.268872922059437,97.15105923721262,0.09065030120701408,4.9148571829530185,1.0,25.271164479558237,0.0,1.0,99.91756421486647,6138.083320697823,1.0,1.0,0.19020943533432583,18.66769329696435,0.043314961277597125,-44.251462096488396,1.0,24.609860949421147,1.0,0.012307908553580639,4.0573967306666106,0.9386200698411695,1.0,-0.2641333156056677,7.139438033072074
0.84,0.84,1.0,20.614180083856866,0.05107188519438561,4.540539659004626,-0.0013024248653964983,0.020733043119828272,0.00536659327802709,21.1083758082457,0.02145590154131089,1.0,0.0,76.20972742368527,-0.12662304804318733,26.693020939740162,100.79819331873333,-0.1369212690265082,4.131032988555919,1.0,26.02872221311565,0.0,1.0,101.25257124772823,6250.997412618892,1.0,1.0,-1.5559246050852307,18.77842456338639,0.06815736874612704,-44.212873641541755,1.0,24.471538383646347,1.0,-0.0003519739487912645,4.069449705886253,0.9379811709133707,1.0,0.7411251665139352,7.643484434088086
0.87,0.87,1.0,20.38866169786681,-0.024698406400263627,4.631497677977978,-0.0004767319074156155,0.024020699356679283,0.001096955533854238,20.9081062409405,0.024050459087900464,1.0,0.0,76.20972742368527,-0.12662304804318733,26.693020939740162,100.79819331873333,-0.1369212690265082,4.131032988555919,1.0,26.02872221311565,0.0,1.0,101.55991343183028,6296.439638275751,1.0,1.0,-1.5559246050852307,18.77842456338639,0.06815736874612704,-44.212873641541755,1.0,24.471538383646347,1.0,-0.0003519739487912645,4.069449705886253,0.9379811709133707,1.0,0.7411251665139352,7.643484434088086
0.8999999999999999,0.8999999999999999,1.0,20.444710366126284,0.013150146533834282,4.694158618895728,-0.0009935039342905071,0.02635308641641571,0.0026102844984191654,20.976688967053366,0.0265006754423583,1.0,0.0,76.20972742368527,-0.12662304804318733,26.693020939740162,100.79819331873333,-0.1369212690265082,4.131032988555919,1.0,24.772981509541466,0.0,1.0,102.36435964262404,6362.419394564868,1.0,1.0,0.5908877913719114,18.78733573768279,-0.014927897089647198,-44.1259983998124,1.0,24.987723287911038,1.0,0.02386840457771867,4.076307743279943,0.9373676790040857,1.0,0.1603125342280829,6.650452699586091
0.9299999999999999,0.9299999999999999,1.0,20.401888537614433,-0.009218986545546332,4.79290384581462,0.0032249485736712082,0.02072556583884368,-0.0005885195080300391,20.95731538547294,0.02098322491549857,1.0,0.0,76.20972742368527,-0.12662304804318733,26.693020939740162,100.79819331873333,-0.1369212690265082,4.131032988555919,1.0,24.772981509541466,0.0,1.0,103.08658106302212,6452.872740356667,1.0,1.0,0.5908877913719114,18.78733573768279,-0.014927897089647198,-44.1259983998124,1.0,24.987723287911038,1.0,0.02386840457771867,4.076307743279943,0.9373676790040857,1.0,0.1603125342280829,6.650452699586091
0.96,0.96,1.0,20.424955438835962,-0.027863606173513265,4.764812633375273,-0.001549964860118478,0.02116323262277073,0.00043368084913808936,20.973388388387708,0.021224346519787565,1.0,0.0,76.20972742368527,-0.12662304804318733,26.693020939740162,100.79819331873333,-0.1369212690265082,4.131032988555919,1.0,25.953472717014417,0.0,1.0,104.09785522938712,6515.464878330963,1.0,1.0,1.9876226691543704,18.941953351088063,0.06191249936588884,-44.125569440071324,1.0,24.929426631782686,1.0,-0.002993020888147396,4.081088234621055,0.9367784379667403,1.0,0.10584014496882914,6.5598808041538375
0.99,0.99,1.0,20.408888819216482,0.0023177769584898497,4.906176795332466,0.0013319472393660233,0.022818133951961944,0.0027031942503753653,20.99031488459114,0.02301626771771209,1.0,0.0,76.20972742368527,-0.12662304804318733,26.693020939740162,100.79819331873333,-0.1369212690265082,4.131032988555919,1.0,25.953472717014417,0.0,1.0,104.53086127224955,6582.990828020743,1.0,1.0,1.9876226691543704,18.941953351088063,0.06191249936588884,-44.125569440071324,1.0,24.929426631782686,1.0,-0.002993020888147396,4.081088234621055,0.9367784379667403,1.0,0.10584014496882914,6.5598808041538375
1.02,1.02,1.0,20.3611239220504,0.052971208536638136,4.964566834109501,-0.0016248289399487341,0.022779017862961756,0.002192426791017972,20.957697802200673,0.022941893102340075,1.0,0.0,76.20972742368527,-0.12662304804318733,26.693020939740162,100.79819331873333,-0.1369212690265082,4.131032988555919,1.0,26.23824049807293,0.0,1.0,104.68217436742958,6744.047431893749,1.0,1.0,0.6487155795244596,18.954752388706005,0.031336408765905294,-44.10976219336613,1.0,25.355778307445092,1.0,-0.0012824727490891776,4.097997938420841,0.9362123308926937,1.0,-0.30848707784167895,6.62690101195894
1.05,1.05,1.0,20.281628123680147,0.004933429714077032,5.080038725242418,-0.0022055223311181296,0.024115408288705727,0.003541559973693088,20.908162452399896,0.024473657118038217,1.0,0.0,97.98604073003312,-0.8736115943172359,26.483127608925795,105.42763621266708,0.12491958484704434,3.8631241219915573,1.0,26.23824049807293,0.0,1.0,104.82511858683952,6811.428446904459,1.0,1.0,0.6487155795244596,18.954752388706005,0.031336408765905294,-44.10976219336613,1.0,25.355778307445092,1.0,-0.0012824727490891776,4.097997938420841,0.9362123308926937,1.0,-0.30848707784167895,6.62690101195894
1.08,1.08,1.0,20.32657555773092,0.08847821763351095,5.1295546225907795,-0.001484168816960578,0.019252080365019474,0.0010030313814511588,20.964012805884327,0.019335237971397776,1.0,0.0,97.98604073003312,-0.8736115943172359,26.483127608925795,105.42763621266708,0.12491958484704434,3.8631241219915573,1.0,25.244246112528405,0.0,1.0,106.42753005435038,6823.428381445994,1.0,1.0,-0.0220113340080988,19.039746333594433,0.05327300925381134,-44.07863976184731,1.0,25.746651778163013,1.0,0.007929402351342596,4.109164573167125,0.935668270782275,1.0,-0.23399759507750298,6.395821642336611
1.1099999999999999,1.1099999999999999,1.0,20.27745998450748,0.06308514653532632,5.258175512744475,-0.0008120255624519851,0.019915790313348895,0.0014560053358081907,20.948216460640296,0.01998544572575901,1.0,0.0,97.98604073003312,-0.8736115943172359,26.483127608925795,105.42763621266708,0.12491958484704434,3.8631241219915573,1.0,25.244246112528405,0.0,1.0,106.71849138267957,6952.677709860094,1.0,1.0,-0.0220113340080988,19.039746333594433,0.05327300925381134,-44.07863976184731,1.0,25.746651778163013,1.0,0.007929402351342596,4.109164573167125,0.935668270782275,1.0,-0.23399759507750298,6.395821642336611
1.14,1.14,1.0,20.291885425450463,0.011584060093558432,5.2680335687120445,0.0021445472481435713,0.018847593824031242,0.005208422817736136,20.964563577406857,0.019671261883862336,1.0,0.0,97.98604073003312,-0.8736115943172359,26.483127608925795,105.42763621266708,0.12491958484704434,3.8631241219915573,1.0,25.688306110641744,0.0,1.0,106.8527932412053,7013.844698380591,1.0,1.0,0.15922807309404824,19.070850085920938,0.06329923127537258,-44.09774610190732,1.0,25.81659513634474,1.0,0.013739571328027642,4.11358778069492,0.9351451930809098,1.0,0.8209499028584666,7.020829320293531
1.17,1.17,1.0,20.333095092782415,0.059015681902639,5.351543837531205,0.0012060123648736107,0.02039518101174771,0.002171127246511899,21.025633411335342,0.020545843079482737,1.0,0.0,97.98604073003312,-0.8736115943172359,26.483127608925795,105.42763621266708,0.12491958484704434,3.8631241219915573,1.0,25.688306110641744,0.0,1.0,108.04973676697433,7142.085803778641,1.0,1.0,0.15922807309404824,19.070850085920938,0.06329923127537258,-44.09774610190732,1.0,25.81659513634474,1.0,0.013739571328027642,4.11358778069492,0.9351451930809098,1.0,0.8209499028584666,7.020829320293531
1.2,1.2,1.0,20.23152144661636,-0.0013585179050347104,5.4903279410264645,0.0007972729866208728,0.019717673717359056,0.004954508818012611,20.963257447030614,0.020346239423224926,1.0,0.0,97.98604073003312,-0.8736115943172359,26.483127608925795,105.42763621266708,0.12491958484704434,3.8631241219915573,1.0,26.551196673110844,0.0,1.0,108.3999540234893,7276.490362413269,1.0,1.0,0.5957361161428629,19.048638679859543,0.046058292328850906,-43.96237097000096,1.0,26.053012555916446,1.0,-0.007573591704730487,4.139040208011069,0.9346420498641312,1.0,-0.3637427269701747,6.449870834138785
1.23,1.23,1.0,20.18090926987885,0.024754644155058625,5.538168855847711,-0.0016102522471958883,0.02133244119203783,0.002237854277274262,20.927040546321184,0.02150985707246021,1.0,0.0,97.98604073003312,-0.8736115943172359,26.483127608925795,105.42763621266708,0.12491958484704434,3.8631241219915573,1.0,26.551196673110844,0.0,1.0,108.82784250103822,7224.428517030946,1.0,1.0,0.5957361161428629,19.048638679859543,0.046058292328850906,-43.96237097000096,1.0,26.053012555916446,1.0,-0.007573591704730487,4.139040208011069,0.9346420498641312,1.0,-0.3637427269701747,6.449870834138785
1.26,1.26,1.0,20.202329214259272,0.012477812571993555,5.593739296169243,-0.003878105922624412,0.019781736932269308,0.0008101036939042853,20.962446915630537,0.02017456541290244,1.0,0.0,121.65427051882469,1.5247667804677436,25.025538950143964,109.50204199172691,-0.03362904782098718,2.8981222196140894,1.0,26.153082962178345,0.0,1.0,110.07436241851065,7403.747458572501,1.0,1.0,-1.3086744486454744,19.25807732428082,-0.02638372581511493,-43.988681355322804,1.0,26.42525687189384,1.0,0.013707674394724114,4.142045640794918,0.9341578053471729,1.0,0.18895628450835347,6.143096168455633
1.29,1.29,1.0,20.17939267007304,0.06103601694317062,5.639522558373637,-0.006842278061444688,0.021111437005571335,0.0015500828435381247,20.952704565634647,0.02224662442556545,1.0,0.0,121.65427051882469,1.5247667804677436,25.025538950143964,109.50204199172691,-0.03362904782098718,2.8981222196140894,1.0,26.153082962178345,0.0,1.0,110.63411566609763,7399.469686374642,1.0,1.0,-1.3086744486454744,19.25807732428082,-0.02638372581511493,-43.988681355322804,1.0,26.42525687189384,1.0,0.013707674394724114,4.142045640794918,0.9341578053471729,1.0,0.18895628450835347,6.143096168455633
1.3199999999999998,1.3199999999999998,1.0,20.13186625841898,0.020546074690393004,5.71467764878932,-0.00021615093024475863,0.019245337067203973,0.00041108955314157324,20.9272549995843,0.01925094061794496,1.0,0.0,121.65427051882469,1.5247667804677436,25.025538950143964,109.50204199172691,-0.03362904782098718,2.8981222196140894,1.0,26.929312898089744,0.0,1.0,110.81181020375718,7516.5490371678425,1.0,1.0,-0.07675713870088162,19.24173896505243,0.023680434038618928,-43.94648108678008,1.0,26.34940414643533,1.0,0.026740714751830097,4.157693438734832,0.9336914324501163,1.0,-0.7035066384662974,6.323765960240646
1.3499999999999999,1.3499999999999999,1.0,20.15470907015269,0.048345001455062715,5.843898924650079,-0.0025428532845821012,0.019404317323557383,0.0049517809113057,20.98489431908551,0.020186970248499168,1.0,0.0,121.65427051882469,1.5247667804677436,25.025538950143964,109.50204199172691,-0.03362904782098718,2.8981222196140894,1.0,26.929312898089744,0.0,1.0,111.08248394409073,7478.202707369564,1.0,1.0,-0.07675713870088162,19.24173896505243,0.023680434038618928,-43.94648108678008,1.0,26.34940414643533,1.0,0.026740714751830097,4.157693438734832,0.9336914324501163,1.0,-0.7035066384662974,6.323765960240646
1.38,1.38,1.0,20.0983279970523,0.030138312955692192,5.9076446127617315,-0.002169743004914554,0.02038733894563848,0.0033557748408460705,20.94860285235502,0.020775288175478544,1.0,0.0,121.65427051882469,1.5247667804677436,25.025538950143964,109.50204199172691,-0.03362904782098718,2.8981222196140894,1.0,27.165411708190735,0.0,1.0,111.85784987445214,7653.7142730528285,1.0,1.0,0.7858036583017647,19.240490150897195,-0.0016810081416883324,-43.99308078354958,1.0,26.97104619830672,1.0,0.004926509009035085,4.169120881691665,0.9332419102049626,1.0,-0.7000611201530382,6.4228131349965345
1.41,1.41,1.0,20.029611307348116,0.025788673654049996,5.856538923018245,-0.005556798490595498,0.016928778360725007,0.004621563097007313,20.868278374987334,0.018407074501703292,1.0,0.0,121.65427051882469,1.5247667804677436,25.025538950143964,109.50204199172691,-0.03362904782098718,2.8981222196140894,1.0,27.165411708190735,0.0,1.0,112.18540785780242,7779.439651565471,1.0,1.0,0.7858036583017647,19.240490150897195,-0.0016810081416883324,-43.99308078354958,1.0,26.97104619830672,1.0,0.004926509009035085,4.169120881691665,0.9332419102049626,1.0,-0.7000611201530382,6.4228131349965345
1.44,1.44,1.0,20.044976424685522,0.07857952365560582,5.977010751318526,-0.001531276593375618,0.016797840366682942,-0.00015623533226747244,20.917263495235545,0.016868214442229256,1.0,0.0,121.65427051882469,1.5247667804677436,25.025538950143964,109.50204199172691,-0.03362904782098718,2.8981222196140894,1.0,28.198161247414372,0.0,1.0,112.78305997033634,7808.921610239223,1.0,1.0,0.48904792667505637,19.28424588525153,0.021157163810542664,-44.0062430370688,1.0,26.98206274204579,1.0,0.008630586562249569,4.172776767516444,0.9328082218610048,1.0,-0.48801318710605046,6.371359980946929
1.47,1.47,1.0,19.969364666158153,0.04841182880405767,6.0339922939935295,0.0023410568312910475,0.016556335018423404,0.003840672070197143,20.86113448207329,0.017156443054444588,1.0,0.0,144.9916476450806,-1.2031797037892757,29.381994494520907,113.6554535046453,0.22108377574811677,2.8202523761647598,1.0,28.198161247414372,0.0,1.0,113.25169884057314,7907.727911900343,1.0,1.0,0.48904792667505637,19.28424588525153,0.021157163810542664,-44.0062430370688,1.0,26.98206274204579,1.0,0.008630586562249569,4.172776767516444,0.9328082218610048,1.0,-0.48801318710605046,6.371359980946929
1.5,1.5,1.0,19.97742586496101,-0.05060348838356094,6.107887659905876,-0.0018612910170292573,0.020060593733112815,0.004090219798076113,20.890342184106995,0.020557765519911272,1.0,0.0,144.9916476450806,-1.2031797037892757,29.381994494520907,113.6554535046453,0.22108377574811677,2.8202523761647598,1.0,26.730349773770577,0.0,1.0,113.6962054945755,7947.448780052642,1.0,1.0,1.874422136872209,19.35815956454035,0.05635524422782055,-43.95914831146022,1.0,27.258265755651884,1.0,0.023561457551921308,4.197827263982808,0.9323893535200852,1.0,0.30443052463309284,7.033718159198436
1.53,1.53,1.0,20.00017913870428,0.028476674471054692,6.192126912895831,-0.0016426819552545074,0.015878094918175663,0.0004243419837566308,20.93681953417614,0.01596848046483738,1.0,0.0,144.9916476450806,-1.2031797037892757,29.381994494520907,113.6554535046453,0.22108377574811677,2.8202523761647598,1.0,26.730349773770577,0.0,1.0,113.90704244804152,8073.407008037619,1.0,1.0,1.874422136872209,19.35815956454035,0.05635524422782055,-43.95914831146022,1.0,27.258265755651884,1.0,0.023561457551921308,4.197827263982808,0.9323893535200852,1.0,0.30443052463309284,7.033718159198436
1.56,1.56,1.0,19.89549860293688,0.0366939542734089,6.322340403429871,-0.00405507676665072,0.012684017807304169,0.0023482106894519112,20.875923914466284,0.01352190995242521,1.0,0.0,144.9916476450806,-1.2031797037892757,29.381994494520907,113.6554535046453,0.22108377574811677,2.8202523761647598,1.0,27.89048808088907,0.0,1.0,114.67659730570227,8120.799422477314,1.0,1.0,0.9537437469414946,19.457726050670672,0.12851545953806992,-43.92711491014957,1.0,26.964302833374507,1.0,0.01482738090569561,4.225059863191195,0.9319842932273592,1.0,0.7546352917597293,5.909387759219069
1.5899999999999999,1.5899999999999999,1.0,19.95358325620973,0.03265582275855549,6.342156678159326,-0.0039386595434308105,0.01458932277593224,0.0036530298618938444,20.93727543152581,0.015546896964709131,1.0,0.0,144.9916476450806,-1.2031797037892757,29.381994494520907,113.6554535046453,0.22108377574811677,2.8202523761647598,1.0,27.89048808088907,0.0,1.0,115.68322911069964,8204.738859047391,1.0,1.0,0.9537437469414946,19.457726050670672,0.12851545953806992,-43.92711491014957,1.0,26.964302833374507,1.0,0.01482738090569561,4.225059863191195,0.9319842932273592,1.0,0.7546352917597293,5.909387759219069
1.6199999999999999,1.6199999999999999,1.0,19.79548709085958,-0.0929816183647918,6.334588852019901,-0.0012552668199356722,0.016019888189570203,0.003593845752760989,20.78453681634202,0.01646597217567795,1.0,0.0,144.9916476450806,-1.2031797037892757,29.381994494520907,113.6554535046453,0.22108377574811677,2.8202523761647598,1.0,27.727071842126122,0.0,1.0,116.10509035322944,8157.2847355661415,1.0,1.0,-1.8732767080821182,19.480363169866372,0.02760928499132249,-43.91141484256765,1.0,27.738031537691807,1.0,0.015047766744339735,4.2318326106548705,0.931592030419915,1.0,-0.6909317425882415,6.280544229136687
1.65,1.65,1.0,19.85464733637913,0.0016938210314914673,6.539011608018808,0.001980850863796481,0.017693682554748166,0.005632050097055615,20.90372446553057,0.018673782712362995,1.0,0.0,144.9916476450806,-1.2031797037892757,29.381994494520907,113.6554535046453,0.22108377574811677,2.8202523761647598,1.0,27.727071842126122,0.0,1.0,117.60167129757029,8389.141102766149,1.0,1.0,-1.8732767080821182,19.480363169866372,0.02760928499132249,-43.91141484256765,1.0,27.738031537691807,1.0,0.015047766744339735,4.2318326106548705,0.931592030419915,1.0,-0.6909317425882415,6.280544229136687
1.68,1.68,1.0,19.8324759571548,0.0020820949583613135,6.5799681615214975,-0.0027535434253327024,0.016090805087778916,0.0051013964900738975,20.895527940994434,0.017103223553383822,1.0,0.0,171.27054260344977,-0.621820905755638,28.300879901330504,117.58878596633525,0.17270541291077185,2.793012154246228,1.0,27.786842908816002,0.0,1.0,117.93024006488865,8497.665199850093,1.0,1.0,1.6750925692542062,19.486146763399887,0.0739663312970506,-43.85771281763756,1.0,27.491052812464048,1.0,0.007226540209355437,4.2601845804532426,0.9312115556455323,1.0,-0.6648098352966585,5.865437807347343
1.71,1.71,1.0,19.810038055899593,0.016673673470962973,6.633360832212895,-0.006294668150003931,0.011485180149157984,0.006043681882525985,20.891131173728084,0.014424226179398996,1.0,0.0,171.27054260344977,-0.621820905755638,28.300879901330504,117.58878596633525,0.17270541291077185,2.793012154246228,1.0,27.786842908816002,0.0,1.0,117.2932223209932,8342.933727129068,1.0,1.0,1.6750925692542062,19.486146763399887,0.0739663312970506,-43.85771281763756,1.0,27.491052812464048,1.0,0.007226540209355437,4.2601845804532426,0.9312115556455323,1.0,-0.6648098352966585,5.865437807347343
1.74,1.74,1.0,19.810199080892588,-0.016214868628967715,6.6959788994216645,-0.0007557114090685911,0.01725493688695576,0.0020522854783692037,20.91125017707125,0.01739298198674822,1.0,0.0,171.27054260344977,-0.621820905755638,28.300879901330504,117.58878596633525,0.17270541291077185,2.793012154246228,1.0,26.922033496145332,0.0,1.0,118.65665125768075,8662.605350570859,1.0,1.0,0.21310132246751767,19.48304894207275,0.05549570307441194,-43.80223772971066,1.0,27.644026529275024,1.0,0.01766322025923483,4.272572936578133,0.9308418604983355,1.0,0.28333946910768093,6.431150786282668
1.77,1.77,1.0,19.797260389402513,0.025567201396854443,6.758815013460326,-0.004801357149374948,0.012792598383264893,0.0018053233246674788,20.919219703272148,0.013782699161555906,1.0,0.0,171.27054260344977,-0.621820905755638,28.300879901330504,117.58878596633525,0.17270541291077185,2.793012154246228,1.0,26.922033496145332,0.0,1.0,118.84414557639518,8649.470700772123,1.0,1.0,0.21310132246751767,19.48304894207275,0.05549570307441194,-43.80223772971066,1.0,27.644026529275024,1.0,0.01766322025923483,4.272572936578133,0.9308418604983355,1.0,0.28333946910768093,6.431150786282668
1.7999999999999998,1.7999999999999998,1.0,19.781388648104034,0.05113537332756511,6.8161238521298495,-0.005727437786946753,0.011836363633696955,0.004883106931405937,20.922846270078026,0.014026681039219292,1.0,0.0,171.27054260344977,-0.621820905755638,28.300879901330504,117.58878596633525,0.17270541291077185,2.793012154246228,1.0,28.10114970263032,0.0,1.0,118.652286127331,8793.743531740689,1.0,1.0,1.0904546690437196,19.66501495840957,0.06156489411819649,-43.837356441218574,1.0,27.78239021726225,1.0,0.018422681761616856,4.296324215488267,0.9304819377581592,1.0,-0.3526866747328615,5.824582798980345
1.8299999999999998,1.8299999999999998,1.0,19.670983208331418,0.06201483136061926,6.884687487276964,-0.003945828756051386,0.01052531432721264,0.005441124561846632,20.841073581253756,0.012488300234869451,1.0,0.0,171.27054260344977,-0.621820905755638,28.300879901330504,117.58878596633525,0.17270541291077185,2.793012154246228,1.0,28.10114970263032,0.0,1.0,120.24435411400466,8954.341735521279,1.0,1.0,1.0904546690437196,19.66501495840957,0.06156489411819649,-43.837356441218574,1.0,27.78239021726225,1.0,0.018422681761616856,4.296324215488267,0.9304819377581592,1.0,-0.3526866747328615,5.824582798980345
1.8599999999999999,1.8599999999999999,1.0,19.674916355780535,-0.008828797815103644,6.932392676108963,-0.0015398514292907024,0.009513606429840669,0.0031865406229938343,20.86050046787949,0.010150561111001908,1.0,0.0,171.27054260344977,-0.621820905755638,28.300879901330504,117.58878596633525,0.17270541291077185,2.793012154246228,1.0,26.892487419068928,0.0,1.0,121.04101365108401,8932.696990842795,1.0,1.0,2.846327505326407,19.685100059432703,0.04608832114047032,-43.81729402933072,1.0,27.791731908633054,1.0,0.020489817770571617,4.327796783139695,0.9301307816373612,1.0,0.0242196911755311,6.1814811464296895
1.89,1.89,1.0,19.687049102140552,0.023411209855148846,7.0172223060324,0.001031013492853563,0.012554261737294573,0.00542867804507979,20.900283714034092,0.013716523681606647,1.0,0.0,195.62920409023673,0.46268304725252496,28.90474082685127,121.30094476123307,-0.06472055266626799,2.3546029484127304,1.0,26.892487419068928,0.0,1.0,121.426792024659,9071.675506497015,1.0,1.0,2.846327505326407,19.685100059432703,0.04608832114047032,-43.81729402933072,1.0,27.791731908633054,1.0,0.020489817770571617,4.327796783139695,0.9301307816373612,1.0,0.0242196911755311,6.1814811464296895
1.92,1.92,1.0,19.672187140933314,0.052172102933037916,7.107525691536798,-0.003476232165983287,0.01236608825138198,0.0033066724526789955,20.916849435134395,0.013264177751451103,1.0,0.0,195.62920409023673,0.46268304725252496,28.90474082685127,121.30094476123307,-0.06472055266626799,2.3546029484127304,1.0,28.851218542807455,0.0,1.0,122.01722414465598,9126.213845785021,1.0,1.0,-0.24007180410232448,19.553591696566343,0.06625697187360818,-43.77613529160921,1.0,27.752184210831594,1.0,0.028315240213222445,4.3336883856071164,0.9297873881401151,1.0,-0.3528697162483612,5.629840892727411
1.95,1.95,1.0,19.735181952201465,-0.04072019059901591,7.174981085813971,-0.00582369150713693,0.011613019935091328,0.0038840433614331722,20.999033749251634,0.013559624169445866,1.0,0.0,195.62920409023673,0.46268304725252496,28.90474082685127,121.30094476123307,-0.06472055266626799,2.3546029484127304,1.0,28.851218542807455,0.0,1.0,122.68992660377099,9125.968688946667,1.0,1.0,-0.24007180410232448,19.553591696566343,0.06625697187360818,-43.77613529160921,1.0,27.752184210831594,1.0,0.028315240213222445,4.3336883856071164,0.9297873881401151,1.0,-0.3528697162483612,5.629840892727411
1.98,1.98,1.0,19.60090998565286,0.017523428477473187,7.232934202774328,-0.007046478249901348,0.00913185509690728,0.00452042067408965,20.892853240232036,0.012388617207258498,1.0,0.0,195.62920409023673,0.46268304725252496,28.90474082685127,121.30094476123307,-0.06472055266626799,2.3546029484127304,1.0,27.937396292860967,0.0,1.0,123.2674082115994,9442.055339659095,1.0,1.0,0.2681134714214613,19.722592152740294,0.13999166365943205,-43.887100790576255,1.0,28.02291349963655,1.0,0.023004879303350545,4.3502021474066375,0.9294507555301833,1.0,-0.3820094137747978,6.213074141098795
2.01,2.01,1.0,19.62598995780868,0.011456234986642607,7.204480918024918,-0.002631843013238693,0.011644127747364551,0.0049622320427068975,20.906557783803446,0.012928111056490249,1.0,0.0,195.62920409023673,0.46268304725252496,28.90474082685127,121.30094476123307,-0.06472055266626799,2.3546029484127304,1.0,27.937396292860967,0.0,1.0,123.71501873682821,9253.984708717784,1.0,1.0,0.2681134714214613,19.722592152740294,0.13999166365943205,-43.887100790576255,1.0,28.02291349963655,1.0,0.023004879303350545,4.3502021474066375,0.9294507555301833,1.0,-0.3820094137747978,6.213074141098795
2.04,2.04,1.0,19.598489382615277,0.05814698289779431,7.33025114611151,-0.005757970388636293,0.00998884699934547,0.002639038516470945,20.92454895612264,0.011827755985991702,1.0,0.0,195.62920409023673,0.46268304725252496,28.90474082685127,121.30094476123307,-0.06472055266626799,2.3546029484127304,1.0,28.378740871529455,0.0,1.0,123.87501002147413,9383.856631250555,1.0,1.0,1.525445473052407,19.61895867235086,0.06471942230782866,-43.78209031417763,1.0,28.278523632198244,1.0,0.014582626431194538,4.379398445819543,0.929119884840513,1.0,-0.3814499275365175,5.268955588859627
2.07,2.07,1.0,19.443574074063303,0.07186027853559337,7.346638631331601,-0.0006573950692401118,0.010929192401219354,0.003683084376240482,20.785351472914567,0.011551819135635686,1.0,0.0,195.62920409023673,0.46268304725252496,28.90474082685127,121.30094476123307,-0.06472055266626799,2.3546029484127304,1.0,28.378740871529455,0.0,1.0,124.68151740185932,9381.364172699909,1.0,1.0,1.525445473052407,19.61895867235086,0.06471942230782866,-43.78209031417763,1.0,28.278523632198244,1.0,0.014582626431194538,4.379398445819543,0.929119884840513,1.0,-0.3814499275365175,5.268955588859627
2.1,2.1,1.0,19.582518006969956,0.06108216403712495,7.3901971971635465,-0.005759626608708272,0.01003152360962939,0.005280337281737692,20.93068936124728,0.012715609557201777,1.0,0.0,223.16781992694595,-0.6034042803961394,27.317972623667515,125.34645186346334,0.3149988095787055,2.3680037232477895,1.0,28.248016950454712,0.0,1.0,125.55311870536767,9929.436496846089,1.0,1.0,0.8427255158015295,19.740142310740826,-0.008542742366689185,-43.80635242024625,1.0,28.84073065433095,1.0,0.03350118895045981,4.406286897015924,0.9287937804251203,1.0,-0.01620657958704199,5.811581693132793
2.13,2.13,1.0,19.440187625678103,0.0387288751801696,7.536015334708694,-0.004138981026340391,0.007064661741725981,0.004260827277451357,20.84979429088703,0.009230127764537502,1.0,0.0,223.16781992694595,-0.6034042803961394,27.317972623667515,125.34645186346334,0.3149988095787055,2.3680037232477895,1.0,28.248016950454712,0.0,1.0,126.05496276253398,9765.29563761306,1.0,1.0,0.8427255158015295,19.740142310740826,-0.008542742366689185,-43.80635242024625,1.0,28.84073065433095,1.0,0.03350118895045981,4.406286897015924,0.9287937804251203,1.0,-0.01620657958704199,5.811581693132793
2.16,2.16,1.0,19.30724275626569,-0.028980067049713072,7.5491169626783465,-0.0019603985325757894,0.007837633506141712,0.004425796709539176,20.730644698365225,0.009211912825102522,1.0,0.0,223.16781992694595,-0.6034042803961394,27.317972623667515,125.34645186346334,0.3149988095787055,2.3680037232477895,1.0,28.065029559352553,0.0,1.0,125.63970986872373,9591.573138015132,1.0,1.0,0.6666104841095708,19.7443275334973,0.08765556586070768,-43.67940905343267,1.0,28.241672302162822,1.0,0.014730771307909039,4.428026012874341,0.9284714505467907,1.0,0.2596241449218997,5.603554064180138
2.19,2.19,1.0,19.457760008782778,0.023010848125106172,7.65963373345741,-0.002023506384005974,0.009300317376908382,0.0025468689525370335,20.911120079738353,0.009852767269084052,1.0,0.0,223.16781992694595,-0.6034042803961394,27.317972623667515,125.34645186346334,0.3149988095787055,2.3680037232477895,1.0,28.065029559352553,0.0,1.0,126.6374442855363,10003.614762258405,1.0,1.0,0.6666104841095708,19.7443275334973,0.08765556586070768,-43.67940905343267,1.0,28.241672302162822,1.0,0.014730771307909039,4.428026012874341,0.9284714505467907,1.0,0.2596241449218997,5.603554064180138
2.2199999999999998,2.2199999999999998,1.0,19.361332805412136,0.004153213695586022,7.778643427836828,-0.0033796451983877157,0.00878047088755122,0.0070884306027717975,20.865486307022447,0.01177983527407881,1.0,0.0,223.16781992694595,-0.6034042803961394,27.317972623667515,125.34645186346334,0.3149988095787055,2.3680037232477895,1.0,27.41344819344012,0.0,1.0,126.7324199154742,9898.855248507802,1.0,1.0,0.07891847442137474,19.779492998518542,0.05243842616341596,-43.78877403279946,1.0,28.885118023318118,1.0,0.0056715916930960095,4.435003602043387,0.928151907984379,1.0,-0.1562275626702727,5.3742588778020455
2.25,2.25,1.0,19.399625328787813,0.10327500315449555,7.807546839127301,-0.004773610121822826,0.005903534674715225,0.004502632363384443,20.912051938267297,0.00882682125402635,1.0,0.0,223.16781992694595,-0.6034042803961394,27.317972623667515,125.34645186346334,0.3149988095787055,2.3680037232477895,1.0,27.41344819344012,0.0,1.0,128.41332921708755,9906.891657373879,1.0,1.0,0.07891847442137474,19.779492998518542,0.05243842616341596,-43.78877403279946,1.0,28.885118023318118,1.0,0.0056715916930960095,4.435003602043387,0.928151907984379,1.0,-0.1562275626702727,5.3742588778020455
2.28,2.28,1.0,19.320306720592473,0.025609609043268422,7.852808451647315,-0.007980789014442623,0.006992199689637678,0.005063374183888489,20.855251334091122,0.01175676860021008,1.0,0.0,223.16781992694595,-0.6034042803961394,27.317972623667515,125.34645186346334,0.3149988095787055,2.3680037232477895,1.0,28.36363144447838,0.0,1.0,128.56443103862705,10272.360378508602,1.0,1.0,-1.0361284234096564,19.7828806964182,0.13551528933250184,-43.75638166085196,1.0,29.034197982912097,1.0,0.0075256915110230565,4.448090575446565,0.927834170651242,1.0,-0.5919636181930966,5.808787134016261
2.31,2.31,1.0,19.28352213746168,0.03742148281661854,7.9119063821330595,-0.004136444026686461,0.010034385726686471,0.0036665188711107423,20.843557493695474,0.01145610870802344,1.0,0.0,248.8440007494576,0.8490275305970192,27.455036313041635,129.2230431576234,0.25711325058946777,2.3194041797768405,1.0,28.36363144447838,0.0,1.0,129.24560726803026,10228.339398121943,1.0,1.0,-1.0361284234096564,19.7828806964182,0.13551528933250184,-43.75638166085196,1.0,29.034197982912097,1.0,0.0075256915110230565,4.448090575446565,0.927834170651242,1.0,-0.5919636181930966,5.808787134016261
2.34,2.34,1.0,19.33328358155436,0.003633863080069577,7.991154919559198,-0.0005101484467240399,0.005581129122849392,0.00632759423555291,20.91971376950831,0.008452674282936437,1.0,0.0,248.8440007494576,0.8490275305970192,27.455036313041635,129.2230431576234,0.25711325058946777,2.3194041797768405,1.0,29.65512278456958,0.0,1.0,129.99194033953833,10243.990569487882,1.0,1.0,0.5968205783393504,19.782526928182172,0.07692387718004293,-43.646952255863795,1.0,29.07380761056811,1.0,0.033740686864982224,4.460837488612166,0.9275172622184866,1.0,-0.4040478827524926,5.888216097751895
2.37,2.37,1.0,19.234845449770273,0.03427443616713073,8.016136685793406,-0.0052479727220583585,0.00649513303453169,0.002551196710602442,20.838399688528042,0.008731355878895453,1.0,0.0,248.8440007494576,0.8490275305970192,27.455036313041635,129.2230431576234,0.25711325058946777,2.3194041797768405,1.0,29.65512278456958,0.0,1.0,130.05387519854972,10389.038743312234,1.0,1.0,0.5968205783393504,19.782526928182172,0.07692387718004293,-43.646952255863795,1.0,29.07380761056811,1.0,0.033740686864982224,4.460837488612166,0.9275172622184866,1.0,-0.4040478827524926,5.888216097751895
2.4,2.4,1.0,19.173333356399414,0.09515573232992139,8.106602513835446,-0.002209412126768866,0.005104917559533482,0.004650299174395424,20.816886677078706,0.0072503081070344425,1.0,0.0,248.8440007494576,0.8490275305970192,27.455036313041635,129.2230431576234,0.25711325058946777,2.3194041797768405,1.0,28.845645864713074,0.0,1.0,131.16595961426293,10537.76238100756,1.0,1.0,-0.8379953360864238,19.861496893495946,0.17971749668057588,-43.70597904630074,1.0,28.964525738859567,1.0,0.006940203847334233,4.489015292397816,0.9272002127368946,1.0,-0.9214212566780298,5.548451875886722
2.4299999999999997,2.4299999999999997,1.0,19.164137071561516,0.0791619016210066,8.082892446538011,-0.005895232365601849,0.010644667106324543,0.00659688595814527,20.79912417883426,0.013841300762344612,1.0,0.0,248.8440007494576,0.8490275305970192,27.455036313041635,129.2230431576234,0.25711325058946777,2.3194041797768405,1.0,28.845645864713074,0.0,1.0,131.02652733604927,10604.972587741659,1.0,1.0,-0.8379953360864238,19.861496893495946,0.17971749668057588,-43.70597904630074,1.0,28.964525738859567,1.0,0.006940203847334233,4.489015292397816,0.9272002127368946,1.0,-0.9214212566780298,5.548451875886722
2.46,2.46,1.0,19.114071548407544,0.007560070537436903,8.208504800107576,-0.0045782616405518825,0.0076631006947547155,0.003114856727968014,20.802099398034287,0.0094544129560257,1.0,0.0,248.8440007494576,0.8490275305970192,27.455036313041635,129.2230431576234,0.25711325058946777,2.3194041797768405,1.0,29.809100066847286,0.0,1.0,131.7308105558783,10672.736364096292,1.0,1.0,0.8767478092250249,19.903792389948467,0.13602917627973415,-43.6396923523882,1.0,29.166687405039447,1.0,0.0072750428604083615,4.5016324461354245,0.9268820665911154,1.0,-0.5128466911360265,5.833908159417136
2.4899999999999998,2.4899999999999998,1.0,19.08635677900127,0.02088195733239675,8.24128645306135,-0.006210722417011398,0.003299773306612005,0.007463694820898529,20.789618889072553,0.010255160515355405,1.0,0.0,248.8440007494576,0.8490275305970192,27.455036313041635,129.2230431576234,0.25711325058946777,2.3194041797768405,1.0,29.809100066847286,0.0,1.0,132.9044854027188,10594.17754537419,1.0,1.0,0.8767478092250249,19.903792389948467,0.13602917627973415,-43.6396923523882,1.0,29.166687405039447,1.0,0.0072750428604083615,4.5016324461354245,0.9268820665911154,1.0,-0.5128466911360265,5.833908159417136
2.52,2.52,1.0,19.174168583852637,0.004804925566213689,8.362580903208567,-0.009247607456104695,0.00022368949644091182,0.0027425919057801926,20.91844935295204,0.009648320631833924,1.0,0.0,274.25951815324527,0.43619379963277416,32.02681581964425,133.0010266953698,0.5573425605042166,1.9293053614816589,1.0,29.99028362816319,0.0,1.0,132.8628564995574,10821.45426513671,1.0,1.0,-0.3149082152756129,19.80235704158662,0.11466138186708694,-43.70030009845162,1.0,29.28746446901292,1.0,0.015079865681549143,4.510609356565436,0.926561807505686,1.0,-0.853029275762723,5.657365582916973
2.55,2.55,1.0,19.07849020277799,0.08725736713324435,8.363335856991261,-0.009466539924096271,-0.0021109378283648934,0.005826030125521447,20.831269498579545,0.011314330014332,1.0,0.0,274.25951815324527,0.43619379963277416,32.02681581964425,133.0010266953698,0.5573425605042166,1.9293053614816589,1.0,29.99028362816319,0.0,1.0,133.77921329003323,10903.002074393522,1.0,1.0,-0.3149082152756129,19.80235704158662,0.11466138186708694,-43.70030009845162,1.0,29.28746446901292,1.0,0.015079865681549143,4.510609356565436,0.926561807505686,1.0,-0.853029275762723,5.657365582916973
2.58,2.58,1.0,18.98205084106097,0.06295557981826798,8.512727241440507,-0.0042770745854124785,-0.00451926963212391,0.007174461642610096,20.803575236598565,0.00949684499601327,1.0,0.0,274.25951815324527,0.43619379963277416,32.02681581964425,133.0010266953698,0.5573425605042166,1.9293053614816589,1.0,29.304243554565783,0.0,1.0,134.4158418014499,11002.448680763753,1.0,1.0,1.2475507416893272,19.913323188307157,0.21464948692002872,-43.67258686688164,1.0,29.573954203330665,1.0,0.022492617308160923,4.527353428525368,0.9262382798413733,1.0,-0.3950287363414065,5.914801330725462
2.61,2.61,1.0,19.057252171202816,-0.005153322447447775,8.5685532722313,-0.009867231110941132,-0.002665859131382805,0.008526214786236719,20.89495135320043,0.013310349104593137,1.0,0.0,274.25951815324527,0.43619379963277416,32.02681581964425,133.0010266953698,0.5573425605042166,1.9293053614816589,1.0,29.304243554565783,0.0,1.0,135.02526064182481,11162.302386977255,1.0,1.0,1.2475507416893272,19.913323188307157,0.21464948692002872,-43.67258686688164,1.0,29.573954203330665,1.0,0.022492617308160923,4.527353428525368,0.9262382798413733,1.0,-0.3950287363414065,5.914801330725462
2.6399999999999997,2.6399999999999997,1.0,19.010891298655352,0.06807489187124084,8.672983354799802,-0.006371066741993992,-0.0029088418953899797,0.007646240676041283,20.895914969984624,0.0103690331795817,1.0,0.0,274.25951815324527,0.43619379963277416,32.02681581964425,133.0010266953698,0.5573425605042166,1.9293053614816589,1.0,29.535500576114394,0.0,1.0,135.2790946862617,11240.290591220988,1.0,1.0,0.1255259112393301,19.81469418237596,0.1710665336664194,-43.682827402763785,1.0,29.21631612307292,1.0,-0.0013412688670640938,4.548977743777814,0.9259102271341753,1.0,-0.9812960490951224,5.598277221624791
2.67,2.67,1.0,18.913788401123416,-0.017886329060592523,8.719900829287205,-0.008152101688579423,-0.0010315348543032048,0.008306182106359824,20.827106906045344,0.011683898633615148,1.0,0.0,274.25951815324527,0.43619379963277416,32.02681581964425,133.0010266953698,0.5573425605042166,1.9293053614816589,1.0,29.535500576114394,0.0,1.0,135.87720957290864,11250.67228907536,1.0,1.0,0.1255259112393301,19.81469418237596,0.1710665336664194,-43.682827402763785,1.0,29.21631612307292,1.0,-0.0013412688670640938,4.548977743777814,0.9259102271341753,1.0,-0.9812960490951224,5.598277221624791
2.6999999999999997,2.6999999999999997,1.0,18.8717493378658,0.1960733510690998,8.74770531262918,-0.00439991146687257,-0.005991825894319527,0.009266000334698059,20.801531579834176,0.011879392268410843,1.0,0.0,274.25951815324527,0.43619379963277416,32.02681581964425,133.0010266953698,0.5573425605042166,1.9293053614816589,1.0,30.68254475326368,0.0,1.0,136.43440418236392,11338.714073445572,1.0,1.0,0.4209574485193706,19.853578017903626,0.11981738361661863,-43.690223232870686,1.0,29.744814894207344,1.0,0.0449991132413924,4.569076419427654,0.9255763151178019,1.0,-0.9514240634418606,5.6186740987324875
2.73,2.73,1.0,18.97575657333315,0.03731239444256688,8.93598435207589,-0.010723846273906443,-0.007633435314718931,0.006370087720734891,20.974569032180863,0.014623550566816277,1.0,0.0,307.07686074362596,-0.9741526888740378,30.381781193696646,137.27514207861753,0.30349827771603044,2.323145521121457,1.0,30.68254475326368,0.0,1.0,137.503490664435,11422.617791900364,1.0,1.0,0.4209574485193706,19.853578017903626,0.11981738361661863,-43.690223232870686,1.0,29.744814894207344,1.0,0.0449991132413924,4.569076419427654,0.9255763151178019,1.0,-0.9514240634418606,5.6186740987324875
2.76,2.76,1.0,18.886397977196555,0.027790413289378806,8.980857129549582,-0.007033365594618132,-0.0030843981741491278,0.001651710270381291,20.912976728373856,0.007855564301915908,1.0,0.0,307.07686074362596,-0.9741526888740378,30.381781193696646,137.27514207861753,0.30349827771603044,2.323145521121457,1.0,29.022241264618017,0.0,1.0,137.5139265189891,11698.773640124446,1.0,1.0,-1.38409684007897,19.838981373734963,0.14407761842973493,-43.803591913629354,1.0,29.800799477951127,1.0,0.03993684334606323,4.570338133035476,0.9252351500510174,1.0,-0.9376997974772385,6.396757863887886
2.79,2.79,1.0,18.821309920281838,0.11586351367062797,9.018655796981554,-0.009048777036753209,-0.005579795215943488,0.007479023820552979,20.870823746405616,0.012998087467821447,1.0,0.0,307.07686074362596,-0.9741526888740378,30.381781193696646,137.27514207861753,0.30349827771603044,2.323145521121457,1.0,29.022241264618017,0.0,1.0,138.17873540817217,11486.164089360163,1.0,1.0,-1.38409684007897,19.838981373734963,0.14407761842973493,-43.803591913629354,1.0,29.800799477951127,1.0,0.03993684334606323,4.570338133035476,0.9252351500510174,1.0,-0.9376997974772385,6.396757863887886
2.82,2.82,1.0,18.814405811374055,0.11507985529213645,9.083483578797177,-0.009202909949695278,-0.005404531545440722,0.007152845886492858,20.892696889928736,0.012847790356469163,1.0,0.0,307.07686074362596,-0.9741526888740378,30.381781193696646,137.27514207861753,0.30349827771603044,2.323145521121457,1.0,30.154514341457446,0.0,1.0,138.92917097730776,11954.983647091274,1.0,1.0,2.301459672360484,19.745453183637707,0.174952098322538,-43.72802110069003,1.0,30.259595848500897,1.0,0.024711734346365036,4.607961438330747,0.9248852941259639,1.0,-0.5925390024822554,5.784090233055998
2.85,2.85,1.0,18.829748213811676,0.07990560535640595,9.207403393491303,-0.01142729786230022,-0.0071427106914962535,0.00810265843596838,20.96048854277463,0.015724329117202923,1.0,0.0,307.07686074362596,-0.9741526888740378,30.381781193696646,137.27514207861753,0.30349827771603044,2.323145521121457,1.0,30.154514341457446,0.0,1.0,139.01343734838147,11863.53472379175,1.0,1.0,2.301459672360484,19.745453183637707,0.174952098322538,-43.72802110069003,1.0,30.259595848500897,1.0,0.024711734346365036,4.607961438330747,0.9248852941259639,1.0,-0.5925390024822554,5.784090233055998
2.88,2.88,1.0,18.696491834863156,0.08459273792878273,9.265854753540605,-0.008485990238318693,-0.006910028923093354,0.010332705459894039,20.866768489062366,0.015050758524531277,1.0,0.0,307.07686074362596,-0.9741526888740378,30.381781193696646,137.27514207861753,0.30349827771603044,2.323145521121457,1.0,29.9068419704395,0.0,1.0,139.05938067044121,11775.71637050431,1.0,1.0,-0.6045521753301608,19.685976228275923,0.24841598677475882,-43.72308742534631,1.0,30.076272054006647,1.0,0.029893563631819598,4.60396269372776,0.9245252784617431,1.0,0.07647220688998706,5.676900580939025
2.9099999999999997,2.9099999999999997,1.0,18.686304758159267,0.10943929808408898,9.402724373637097,-0.009687745370057513,-0.007805733255208972,0.008630147471022904,20.918919382256817,0.015141377988087778,1.0,0.0,307.07686074362596,-0.9741526888740378,30.381781193696646,137.27514207861753,0.30349827771603044,2.323145521121457,1.0,29.9068419704395,0.0,1.0,139.64445679671698,12185.929999171323,1.0,1.0,-0.6045521753301608,19.685976228275923,0.24841598677475882,-43.72308742534631,1.0,30.076272054006647,1.0,0.029893563631819598,4.60396269372776,0.9245252784617431,1.0,0.07647220688998706,5.676900580939025
2.94,2.94,1.0,18.739451892590747,0.12199725667826092,9.475987576290482,-0.012418043802504204,-0.0023902551771869483,0.013010097325995536,20.99943525696278,0.018143422062137513,1.0,0.0,333.65769712836703,2.205946378510238,29.974925741559897,140.71398198168546,0.4095336484036308,2.7482969671213167,1.0,30.27680967965584,0.0,1.0,140.8979272288989,12175.554831789792,1.0,1.0,0.4528893734484625,19.714876401942274,0.2767130600243546,-43.76393546753504,1.0,30.077680195635686,1.0,0.038363659425654895,4.634686985905227,0.9241536140296532,1.0,-0.07405609779139832,5.55322465334724
2.9699999999999998,2.9699999999999998,1.0,18.768792483122613,0.06787823338484247,9.588130185058633,-0.013001067033041687,-0.010128633300922538,0.007250012236420439,21.07615759987384,0.01800498914108105,1.0,0.0,333.65769712836703,2.205946378510238,29.974925741559897,140.71398198168546,0.4095336484036308,2.7482969671213167,1.0,30.27680967965584,0.0,1.0,141.49404152594485,12132.865156963986,1.0,1.0,0.4528893734484625,19.714876401942274,0.2767130600243546,-43.76393546753504,1.0,30.077680195635686,1.0,0.038363659425654895,4.634686985905227,0.9241536140296532,1.0,-0.07405609779139832,5.55322465334724
3.0,3.0,1.0,18.637681578271685,0.15607058837405563,9.590078948170975,-0.01238648674984319,-0.008240734810148233,0.013486150698208414,20.960847952164418,0.020080115160775774,1.0,0.0,333.65769712836703,2.205946378510238,29.974925741559897,140.71398198168546,0.4095336484036308,2.7482969671213167,1.0,29.824185023721082,0.0,1.0,142.0266076288166,12189.334195089688,1.0,1.0,0.7887841577210886,19.73533649167428,0.358348850790991,-43.77424533972097,1.0,30.30400868320683,1.0,0.03262011658770871,4.625277337976342,0.9237688008534249,1.0,-1.8193325313236421,5.4764589152477665
