time_s,x_m,y_m,altitude_m,vx_mps,vy_mps,vz_mps,speed_mps,mass_kg,roll_deg,pitch_deg,yaw_deg,p_dps,q_dps,r_dps,alpha_deg,beta_deg,qbar_pa,mach,airspeed_mps,load_factor_g,density_kgpm3,pressure_pa,temperature_k,wind_x_mps,wind_y_mps,wind_z_mps,thrust_n,mass_flow_kgps,propulsion_throttle_actual,propulsion_health,energy_j_per_kg,target_distance_m,guidance_mode,pitch_command_deg,heading_command_deg,roll_command_deg
0.0,0.0,0.0,20.0,85.0,0.0,8.0,85.37564055396598,18.01840612980101,0.0,6.000000000000002,0.0,0.0,0.0,0.0,0.5847293023782836,0.08812639075768053,4448.930224551213,0.2507468518283886,85.30839607150315,1.7448081829354867,1.2226496753673843,101084.96761777384,288.02,0.07244880006198942,-0.1312124234412952,-0.05085528216073648,326.8,0.17539118863220368,0.86,nominal,3840.633,nan,pitch_program,13.0,0.0,0.0
0.03,2.565300013656036,-1.282331767088813e-05,20.23292297419501,85.51000045520121,-0.0004274439223629377,7.764099139833623,85.86175757276568,18.013144394142046,-0.0008127300552359356,6.268683637193664,0.0011412287322452093,-0.023025932541746057,-8.956137920558614,0.03775972139291923,1.0423932352644822,0.08622009703038165,4499.657191246016,0.2521757988239335,85.79432294827728,1.7729705891204568,1.2226223232650353,101082.17487985633,288.01848600066774,0.07244880006198942,-0.1312124234412952,-0.05085528216073648,332.605,0.1785066900092231,0.86,nominal,3884.537900827082,nan,pitch_program,12.985,0.0,0.0
0.06,5.146079262275695,-3.6144571059443485e-05,20.45931342491443,86.02597495398865,-0.0007773751129518452,7.546348357314039,86.356330057029,18.00778919344177,-0.0023932420886602444,6.583401561984885,0.003008102014476121,-0.04571898785400985,-10.490625596294263,0.06154486627150265,1.5323031556998246,0.08367658656170293,4551.566938533568,0.25362963072392714,86.2887198580164,1.8020432009372453,1.2225957387243398,101079.46052652887,288.017014462738,0.07244880006198942,-0.1312124234412952,-0.05085528216073648,338.40999999999997,0.18162219138624247,0.86,nominal,3929.3451964577025,nan,pitch_program,12.97,0.0,0.0
0.09,7.742505764968177,-6.808510258476979e-05,20.679728601386138,86.54755008974942,-0.0010646843841775437,7.347172549056884,86.8588474027652,18.002340527700184,-0.00470018969332159,6.777950021359371,0.0053283294096718075,-0.06790072640163078,-6.4849596201341555,0.07641444369034116,1.8881414309243658,0.08076396450943325,4604.6204138190415,0.2551068480014659,86.79107613854752,1.8317324971625888,1.222569856272043,101076.8178716448,288.01558176409094,0.07244880006198942,-0.1312124234412952,-0.05085528216073648,344.215,0.18473769276326188,0.86,nominal,3975.0285465572097,nan,pitch_program,12.955,0.0,0.0
0.12,10.354787239832373,-0.00010700994191867654,20.894478014650048,87.07604916213985,-0.0012974946444635582,7.1583137754636015,87.36978765842848,17.996798396917285,-0.007691960576071799,6.876779172776909,0.007929021163645016,-0.08942017401568178,-3.2943151539816022,0.08571877385464569,2.1400288532161325,0.0776478457277637,4658.882570143974,0.25660883965270714,87.30186408292944,1.861734829523745,1.2225446395303026,101074.24319990467,288.0141858929048,0.07244880006198942,-0.1312124234412952,-0.05085528216073648,350.02,0.1878531941402813,0.86,nominal,4021.6447305618085,nan,pitch_program,12.94,0.0,0.0
0.15,12.983158106729316,-0.00015142077707580977,21.103737718542767,87.61236222989811,-0.0014803611719044411,6.975323463090637,87.88959639860164,17.991162801093076,-0.010530843158465746,6.962382665353468,0.010709555305660274,-0.08346315191001043,-2.8534648796359914,0.09155563633280173,2.3735005930554856,0.07439962451566585,4714.416644718126,0.2581369067202786,87.8215261850499,1.8922707202578346,1.2225200677951458,101071.7343964251,288.0128257048294,0.07244880006198942,-0.1312124234412952,-0.05085528216073648,355.825,0.1909686955173007,0.86,nominal,4069.247547052092,nan,pitch_program,12.925,0.0,0.0
0.18,15.627850339801272,-0.00019989969934603867,21.307712894197383,88.15640776906517,-0.0016159640756742964,6.799172521820534,88.41821633768978,17.985433740227556,-0.012953545731903302,7.060825204310671,0.013607408204495307,-0.06896535005915536,-3.2814383522403885,0.09520024490705256,2.6140379418382023,0.0710688454458512,4771.2333366756975,0.2596908828571911,88.35000568087492,1.9232819551852236,1.2224961169445618,101069.2889974043,288.0114998661877,0.07244880006198942,-0.1312124234412952,-0.05085528216073648,361.63,0.19408419689432013,0.86,nominal,4117.847772823137,nan,pitch_program,12.91,0.0,0.0
0.21,18.289087441200557,-0.0002510674042184596,21.506658605307628,88.70790337997624,-0.0017055901624140311,6.631523703674817,88.9554339633765,17.979611214320727,-0.015555912738810495,7.150499564321294,0.016576670981458878,-0.07450234794823461,-2.989170287085153,0.09747161830731135,2.8390121529677614,0.06771963585678067,4829.326530563896,0.26127014391179787,88.88709000478215,1.9544923857665706,1.222472757001621,101066.90394132168,288.0102067190655,0.07244880006198942,-0.1312124234412952,-0.05085528216073648,367.435,0.19719969827133954,0.86,nominal,4167.44288941806,nan,pitch_program,12.895,0.0,0.0
0.24,20.96709463046112,-0.00030354587397246033,21.700820384217707,89.26690630868544,-0.0017492823251333575,6.472059297002602,89.50121851979183,17.973695223372587,-0.018561810614843813,7.214597994174751,0.01958653348252362,-0.08765238513541623,-2.1366440939499185,0.09890532313396547,3.0319051881350485,0.06438899738617575,4888.709671199079,0.26287459910941585,89.43274806003448,1.9857246113343523,1.2224499591109586,101064.57628124431,288.0089446675026,0.07244880006198942,-0.1312124234412952,-0.05085528216073648,373.24,0.20031519964835895,0.86,nominal,4218.0464084846535,nan,pitch_program,12.88,0.0,0.0
0.27,23.662105270055388,-0.00035593674886135623,21.890403884637063,89.83368798647564,-0.0017463624962965308,6.319450013978573,90.0556880423464,17.967685767383138,-0.02135952563504276,7.2579812849019465,0.02262146642794462,-0.08051433401978286,-1.4461446354472316,0.09985487524716559,3.198517333890987,0.061059561618909804,4949.412705229398,0.2645045930777232,89.98709691565517,2.017036639827101,1.2224276991017986,101062.3035486024,288.0077123747498,0.07244880006198942,-0.1312124234412952,-0.05085528216073648,379.045,0.20343070102537836,0.86,nominal,4269.6850036454825,nan,pitch_program,12.865,0.0,0.0
0.3,26.374358512306557,-0.00040682411606372847,22.075590432207868,90.40844140837228,-0.001696245573412409,6.17288491902687,90.61893173609961,17.961582846352375,-0.024375649465996064,7.291182434251873,0.02567532349858807,-0.0876476833966617,-1.1067452223876908,0.10053415081781214,3.3499688328176336,0.05776135150323945,5011.463027196986,0.26616038667494013,90.55022516294976,2.048513215446783,1.222405955661701,101060.08356671857,288.00650866219064,0.07244880006198942,-0.1312124234412952,-0.05085528216073648,384.84999999999997,0.20654620240239774,0.86,nominal,4322.382983407952,nan,pitch_program,12.850000000000001,0.0,0.0
0.32999999999999996,29.104095366164863,-0.00045475176200591397,22.25655703358327,90.99122846194355,-0.0015975881980728507,6.032220045846766,91.19096083629896,17.9553864602803,-0.02776738890705096,7.317396903410887,0.028744089157428133,-0.10005266775184608,-0.8738617323880924,0.10106445653301366,3.4896066514934403,0.05450941001529333,5074.879918855834,0.2678420128392221,91.12214385459495,2.0801229266966494,1.2223847079869958,101057.91421091236,288.0053323792817,0.07244880006198942,-0.1312124234412952,-0.05085528216073648,390.655,0.20966170377941715,0.86,nominal,4376.157934157095,nan,pitch_program,12.835,0.0,0.0
0.36,31.851558104667838,-0.000498211109388143,22.43347796129729,91.58209128343249,-0.001448644912740968,5.897364257133958,91.77177317196642,17.94909660916692,-0.030849922280015374,7.334778498033149,0.031824205390426054,-0.08965895287612415,-0.5794385067843734,0.1015360014870886,3.6157020035216485,0.05126454789741855,5139.6814764316505,0.26954946520964435,91.7028506741211,2.111787406084145,1.2223639355966063,101055.79338948899,288.00418239325154,0.07244880006198942,-0.1312124234412952,-0.05085528216073648,396.46,0.21277720515643656,0.86,nominal,4431.026442212583,nan,pitch_program,12.82,0.0,0.0
0.39,34.61699151594105,-0.0005356608901550964,22.606517907356643,92.18111370910714,-0.0012483260255651157,5.7679982019784815,92.36139631614327,17.942713293012226,-0.034066784832562834,7.342783224664064,0.03491384624439013,-0.09407347840155438,-0.26688204403703425,0.10199319892009508,3.727969918435203,0.04805331515750892,5205.889415437069,0.27128282443052315,92.29237291273456,2.143476485549495,1.2223436191357906,101053.71912579676,288.00305763360217,0.07244880006198942,-0.1312124234412952,-0.05085528216073648,402.265,0.21589270653345596,0.86,nominal,4487.007973570021,nan,pitch_program,12.805,0.0,0.0
0.42,37.40064330076962,-0.0005655119748032909,22.775830220445602,92.78839282761906,-0.0009950361549398176,5.643743769631951,92.95987138685113,17.936236511816222,-0.0375818640924757,7.34324047621513,0.03801348264409795,-0.10396390848308201,-0.015305787415027534,0.10246430301180062,3.828531588616188,0.044886577273360255,5273.527352559495,0.2730422108521403,92.89075137950887,2.1533189304042897,1.2223237405829739,101051.68957933992,288.00195710356707,0.07244880006198942,-0.1312124234412952,-0.05085528216073648,404.1773684210526,0.21691906078826353,0.86,nominal,4544.1234395612855,nan,pitch_program,12.79,0.0,0.0
0.44999999999999996,40.20256968447785,-0.000586246685675694,22.94153533589123,93.39754612360753,-0.000691157029080102,5.52350384818762,93.5607327736911,17.929728939992575,-0.0414458194116117,7.337988497132795,0.04112455555236361,-0.11554869095589627,0.17499499610711172,0.10297320726234843,3.919714933256941,0.041771085662449026,5341.875720881228,0.2748086183270111,93.49151996819997,2.1522922747392244,1.2223042857820572,101049.70330431472,288.0008800203167,0.07244880006198942,-0.1312124234412952,-0.05085528216073648,404.14342105263154,0.21690084148196515,0.86,nominal,4601.784966076736,nan,pitch_program,12.775,0.0,0.0
0.48,43.022731651332535,-0.0005991240340460515,23.103735736242047,94.00539889515609,-0.00042924494567858325,5.406680011693912,94.16075196370575,17.923221914748115,-0.04496635735244425,7.327721064414155,0.044821919408968305,-0.10162103176911283,0.34215548313648014,0.12249553961675687,4.0025296511092225,0.03803098938789839,5410.568410978948,0.2765725557745151,94.0914497140462,2.151330757788831,1.222285242685703,101047.75907024676,287.99982571771443,0.07244880006198942,-0.1312124234412952,-0.05085528216073648,404.1094736842105,0.2168826221756668,0.86,nominal,4659.693855243076,nan,pitch_program,12.76,0.0,0.0
0.51,45.86109175367561,-0.0006032471205763919,23.262528447515848,94.6120034114359,-0.00013743621767801163,5.293090375793321,94.75994932074818,17.916715436082846,-0.04860785167972821,7.312719556507577,0.04928241753158008,-0.10243871702300425,0.4999296763205111,0.14787972118731393,4.0774351742173565,0.0335638348161707,5479.605926318003,0.27833408287164546,94.69056089159251,2.150416497399889,1.2222665998880795,101045.85571218499,287.99879356509115,0.07244880006198942,-0.1312124234412952,-0.05085528216073648,404.0755263157895,0.21686440286936848,0.86,nominal,4717.851472235213,nan,pitch_program,12.745,0.0,0.0
0.54,48.71761414196531,-0.0005933370129701045,23.41800470779955,95.21741294299014,0.00033033692020958055,5.182542009456764,95.35834766471581,17.910209503996764,-0.05243687651820601,7.2935530844905685,0.05384133087525764,-0.10831669213321639,0.6387492466151562,0.15129426812385824,4.145180105543948,0.02912501299637145,5548.989131080573,0.2800932667985017,95.28887633123185,2.1495439616123564,1.2222483466637093,101043.99213466576,287.9977829693993,0.07244880006198942,-0.1312124234412952,-0.05085528216073648,404.0415789473684,0.2168461835630701,0.86,nominal,4776.259410540149,nan,pitch_program,12.73,0.0,0.0
0.57,51.592264422670596,-0.0005688492117148505,23.570250592933167,95.82167602350945,0.0008162600418418007,5.074862837787214,95.9559681804266,17.903704118489873,-0.05653232140171728,7.270937881121255,0.058834880737414934,-0.11541587587845807,0.753682773553263,0.16582580660386467,4.206643809735041,0.024288298437325308,5618.718720781283,0.2818501687380142,95.88641682587684,2.1487119673846387,1.2222304728939395,101042.1673042039,287.9967933711459,0.07244880006198942,-0.1312124234412952,-0.05085528216073648,404.0076315789474,0.21682796425677175,0.86,nominal,4834.919112698709,nan,pitch_program,12.715,0.0,0.0
0.6,54.48500942839999,-0.0005277051838895018,23.719347960538638,96.42483352431313,0.0013714675941782885,4.9699122535156555,96.5528277673941,17.89719927956217,-0.0608866329894879,7.245421062390743,0.06432407339401279,-0.12202679195976411,0.8503742069748442,0.18237836759744083,4.262513111645096,0.019022477737024375,5688.794986139189,0.2836048381920711,96.48319919646926,2.1479163213678993,1.2222129689560604,101040.38023797027,287.9958242382565,0.07244880006198942,-0.1312124234412952,-0.05085528216073648,403.9736842105263,0.21680974495047337,0.86,nominal,4893.831618617251,nan,pitch_program,12.7,0.0,0.0
0.63,57.3958170689443,-0.0004670066482967517,23.8653749962279,97.02692135147689,0.002023284519758336,4.867567856308693,97.14894074499799,17.890694987213656,-0.06545288992387197,7.217382410078181,0.0702493905054265,-0.12734653423398026,0.9344051675705927,0.1969698703308052,4.313292878296414,0.013398760483847142,5759.217961184299,0.28535731701904216,97.07923766514635,2.1471509728272604,1.222195825659126,101038.6299972379,287.9948750625245,0.07244880006198942,-0.1312124234412952,-0.05085528216073648,403.9397368421053,0.21679152564417503,0.86,nominal,4952.997723644324,nan,pitch_program,12.685,0.0,0.0
0.6599999999999999,60.32465624445024,-0.0003833722158415565,24.008406473019505,97.6279725168647,0.0027878144151731736,4.767715893053581,97.74432024605048,17.88419124144433,-0.07016495557581735,7.1871774374447215,0.07649560076482637,-0.1309653768799038,1.0065872734957628,0.20775563328915989,4.359455224781266,0.00753544108713847,5829.987581403733,0.2871076435655502,97.6745452607485,2.1464120054716638,1.2221790342134593,101036.9156842673,287.9939453579253,0.07244880006198942,-0.1312124234412952,-0.05085528216073648,403.9057894736842,0.21677330633787664,0.86,nominal,5012.418109519873,nan,pitch_program,12.67,0.0,0.0
0.69,63.27149675075495,-0.00027312584995605664,24.14851407359493,98.22801687682376,0.0036748788628499936,4.670253352514206,98.33897792551525,17.877688042254196,-0.07494683264530391,7.155168457564593,0.08292025239470574,-0.13266205681539453,1.066696097352459,0.21383083402662284,4.401469629370628,0.0015732744979308285,5901.103645152605,0.28885585183400503,98.26913353539115,2.1456975514494707,1.2221625861927814,101035.23643843862,287.9930346585216,0.07244880006198942,-0.1312124234412952,-0.05085528216073648,403.8718421052631,0.21675508703157828,0.86,nominal,5072.093315257308,nan,pitch_program,12.655,0.0,0.0
0.72,66.23630916973094,-0.00013242892604442574,24.28576679233039,98.82708063253324,0.0046898974637210305,4.575090624515225,98.93292345102762,17.871185389643248,-0.07971772512348639,7.121675441776457,0.08936759641121567,-0.13232336714598295,1.116145056939909,0.21475232047533735,4.439752539243068,-0.00433687405520021,5972.565746942499,0.2906019699971937,98.86301205880419,2.145005763015788,1.2221464734869731,101033.59143142785,287.9921425158498,0.07244880006198942,-0.1312124234412952,-0.05085528216073648,403.8378947368421,0.21673686772527995,0.86,nominal,5132.023686197453,nan,pitch_program,12.64,0.0,0.0
0.75,69.2190647730079,4.260819229224628e-05,24.420231273594048,99.42518677589872,0.005834570611222401,4.482149375455353,99.52616471304647,17.86468328361149,-0.08439542598084826,7.086962097376326,0.0956768250167393,-0.12991329764397427,1.1568114482292127,0.2103499694808228,4.47465502268588,-0.010041523229541638,6044.373295519893,0.2923460210152417,99.45618862795727,2.14433444309769,1.2221306882623313,101031.97986314823,287.9912684967216,0.07244880006198942,-0.1312124234412952,-0.05085528216073648,403.80394736842106,0.21671864841898159,0.86,nominal,5192.2093922634185,nan,pitch_program,12.625,0.0,0.0
0.78,72.21973544525451,0.0002558220529512706,24.551972063532205,100.02235574155381,0.0071071286886341435,4.39135966460522,100.11870823330244,17.85818172415892,-0.08889905811882894,7.051260289585645,0.1016881262003685,-0.12546141392154989,1.1897582159375977,0.20065301413878134,4.506489152754618,-0.015390148153047649,6116.5255570484,0.2940880238324434,100.04866967403738,2.1436818442925394,1.2221152229319798,101030.40095872841,287.99041218158703,0.07244880006198942,-0.1312124234412952,-0.05085528216073648,403.77,0.21670042911268322,0.86,nominal,5252.650465989409,nan,pitch_program,12.61,0.0,0.0
0.8099999999999999,75.23829361464519,0.0005108959140707149,24.681051839044358,100.61860564635592,0.008502462037314808,4.302659183738388,100.71055928034636,17.851680711285542,-0.09315153873725837,7.014783237225299,0.10724782862725175,-0.11905810088652509,1.2156080462920273,0.18586046335300502,4.535541881285629,-0.02023994922836218,6189.021664187206,0.29582799371622553,100.64046037759145,2.143046844914034,1.2221000701289615,101028.85396576447,287.9895731630462,0.07244880006198942,-0.1312124234412952,-0.05085528216073648,403.73605263157896,0.21668220980638486,0.86,nominal,5313.346812297443,nan,pitch_program,12.595,0.0,0.0
0.84,78.27471218566846,0.0008112636590847933,24.807531634651685,101.21395236744246,0.010012258167135949,4.215993186910877,101.30172186412383,17.84518024499135,-0.09708187580848787,6.97772071002367,0.11221308354803859,-0.11085156891719092,1.2351431999417313,0.166326839109948,4.562070501436736,-0.024460199315421555,6261.860610761826,0.29756594224172417,101.23156466309878,2.1424285268517482,1.2220852226795849,101027.33815159812,287.98875104437474,0.07244880006198942,-0.1312124234412952,-0.05085528216073648,403.7021052631579,0.2166639905000865,0.86,nominal,5374.298206423109,nan,pitch_program,12.58,0.0,0.0
0.87,81.3289644783168,0.0011600195451840732,24.931471045350165,101.80840975494479,0.01162519620330933,4.131313689949374,101.89219884162226,17.83868032527635,-0.10062730500467279,6.940237084274063,0.11645622048297452,-0.10104454110532082,1.2492101465941206,0.1425514746214265,4.58630137703686,-0.027936249434610254,6335.041260215938,0.29930187760189264,101.82198530430597,2.1418260036086703,1.222070673579584,101025.85280088198,287.9879454382052,0.07244880006198942,-0.1312124234412952,-0.05085528216073648,403.66815789473685,0.21664577119378817,0.86,nominal,5435.504302917227,nan,pitch_program,12.565,0.0,0.0
0.8999999999999999,84.40102417519167,0.0015598360941304927,25.052928398365736,102.4019898958287,0.013327218298213987,4.0485784338524375,102.48199207458454,17.832180952140536,-0.10373523232720941,6.9024767983912465,0.11986875007169477,-0.08988980026201548,1.2584728553779954,0.11516657317864304,4.608436183218111,-0.030573149749672058,6408.562361060504,0.30103580507056066,102.41172408162177,2.1412385521625072,1.2220564159739395,101024.39721351881,287.9871559654106,0.07244880006198942,-0.1312124234412952,-0.05085528216073648,403.6342105263158,0.2166275518874898,0.86,nominal,5496.964650065437,nan,pitch_program,12.55,0.0,0.0
0.9299999999999999,87.49086527408274,0.0020128925929003925,25.171960905949245,102.99470329636917,0.01510188329233,3.967750252783665,103.07110253239004,17.82568212558391,-0.10636492916237887,6.864568528509814,0.12236490848178991,-0.07768429687759443,1.263455463862579,0.08492217763026257,4.628656612412488,-0.032298796888148296,6482.422556161386,0.30276772730526247,103.00078188501514,2.1406654783412296,1.2220424431389203,101022.97070282759,287.98638225411133,0.07244880006198942,-0.1312124234412952,-0.05085528216073648,403.6002631578947,0.21660933258119142,0.86,nominal,5558.6786990395585,nan,pitch_program,12.535000000000002,0.0,0.0
0.96,90.59846205262933,0.0025165860019071857,25.28862481330385,103.58655928488628,0.016789780300226445,3.8887969118202412,103.65953061730197,17.819183845606474,-0.10859380552967675,6.826624194574877,0.12476455215523755,-0.0647617629849937,1.2646599747523783,0.08179036761399479,4.647125471824634,-0.03401529588381836,6556.620398058467,0.3044976447796167,103.58915886098438,2.1401066351343494,1.2220287484646997,101021.5725937682,287.9856239387135,0.07244880006198942,-0.1312124234412952,-0.05085528216073648,403.56631578947366,0.21659111327489305,0.86,nominal,5620.645836425068,nan,pitch_program,12.520000000000001,0.0,0.0
0.99,93.72378901606629,0.0030704619794490583,25.40297550970239,104.17756544789864,0.01846253258472909,3.8116898799512584,104.24727556755253,17.812686112208226,-0.11044283819858416,6.7887438338494865,0.12742755545203482,-0.05111226233026971,1.2625079528797687,0.09055433336623206,4.663989443261068,-0.03604055830858151,6631.1543307688335,0.3062255554264607,104.17685429106358,2.139561657730655,1.2220153254423016,101020.20222160817,287.9848806591869,0.07244880006198942,-0.1312124234412952,-0.05085528216073648,403.53236842105264,0.21657289396859472,0.86,nominal,5682.865321410842,nan,pitch_program,12.505,0.0,0.0
1.02,96.86682086278384,0.0036754014783949743,25.515067642922485,104.7677282239181,0.02016464996486387,3.7364044406697916,104.8343359875863,17.80618892538917,-0.11302444728556284,6.751014833686066,0.1304561013039691,-0.07415327305203433,1.2574354982467828,0.10270000487538744,4.6793796452758505,-0.03836163757419928,6706.022712040202,0.307951455221698,104.76386679034826,2.139030273657054,1.2220021676501467,101018.85893054867,287.984152060321,0.07244880006198942,-0.1312124234412952,-0.05085528216073648,403.49842105263156,0.21655467466229633,0.86,nominal,5745.336339079531,nan,pitch_program,12.49,0.0,0.0
1.05,100.0275324534176,0.004333097263722878,25.62495521888879,105.35705302112562,0.02192319284426347,3.6629191988768666,105.42070991498854,17.7996922851493,-0.11562762915485676,6.713513150022163,0.13382926659862263,-0.07359152429352336,1.2498308689437119,0.11415765548012856,4.693411596029168,-0.041000673409722466,6781.22382116218,0.30967533841853684,105.35019438709638,2.138512237998638,1.2219892687423428,101017.54207252873,287.9834377910772,0.07244880006198942,-0.1312124234412952,-0.05085528216073648,403.46447368421053,0.216536455355998,0.86,nominal,5808.058006587396,nan,pitch_program,12.475,0.0,0.0
1.08,103.20589878381644,0.0050456311300913,25.73269168709003,105.94554434662787,0.023751128878947394,3.5912156067079173,106.00639490404943,17.79319619148862,-0.11793558374262646,6.676305562898157,0.13747921986251108,-0.06274779691667036,1.2400040820998752,0.12336314226617118,4.706189225348392,-0.04390925538517925,6856.7558682214385,0.3113971978064191,105.93583461074142,2.138007379627109,1.2219766224386464,101016.25100619979,287.9827375040339,0.07244880006198942,-0.1312124234412952,-0.05085528216073648,403.43052631578945,0.21651823604969964,0.86,nominal,5871.02938120984,nan,pitch_program,12.46,0.0,0.0
1.1099999999999999,106.40189496041484,0.005815225124990201,25.83833001716129,106.53320588661346,0.025653133163296708,3.5212776690420204,106.59138807138834,17.786700644407127,-0.12092051438004801,6.639450581142746,0.1413318492685072,-0.08460848679028804,1.2282308887892317,0.13011535634249285,4.717806886758173,-0.046931533157999604,6932.616999189974,0.3131170248670968,106.52078454492174,2.13751558509928,1.2219642225154608,101014.98509600657,287.9820508548884,0.07244880006198942,-0.1312124234412952,-0.05085528216073648,403.3965789473684,0.21650001674340127,0.86,nominal,5934.249464555449,nan,pitch_program,12.445,0.0,0.0
1.14,109.61549617755007,0.006644179358177183,25.941922767636097,107.12004057117444,0.027631807772899426,3.453091682493603,107.17568613101838,17.780205643904825,-0.12381009824989316,6.602998894614752,0.14532759276003088,-0.08096180424526322,1.2147709313333104,0.13489775009753635,4.728347756541594,-0.050070401063544843,7008.805299904518,0.3148348099005011,107.10504087023936,2.1370367355449353,1.2219520627977503,101013.74371136096,287.98137750201033,0.07244880006198942,-0.1312124234412952,-0.05085528216073648,403.3626315789474,0.21648179743710294,0.86,nominal,5997.717205736522,nan,pitch_program,12.43,0.0,0.0
1.17,112.84667769779773,0.0075347772644883135,26.0435221446488,107.70605067492176,0.029686596877037664,3.3866459004234177,107.75928546412,17.77371118998171,-0.12724505696560592,6.566994457690633,0.1494239503952342,-0.09884001959697843,1.1998478780035347,0.1382734887733325,4.7378876190652495,-0.05323137065095846,7085.318803596938,0.3165505422256063,107.68859993254078,2.1365707494938837,1.2219401371521452,101012.52622593794,287.9807171060598,0.07244880006198942,-0.1312124234412952,-0.05085528216073648,403.3286842105263,0.21646357813080455,0.86,nominal,6061.431508308671,nan,pitch_program,12.415,0.0,0.0
1.2,116.09541483390095,0.008489313344178823,26.143180054347507,108.29123787010741,0.03181786932301697,3.32193032329018,108.34218214938163,17.767217282637787,-0.1304702142993059,6.531475295990215,0.15359592075794715,-0.09164383531263284,1.1836583846032445,0.14082056214066313,4.746493466785341,-0.05645204447031949,7162.15549434965,0.318264210284109,108.27145777814057,2.1361175451630245,1.2219284394807715,101011.33201704512,287.9800693296467,0.07244880006198942,-0.1312124234412952,-0.05085528216073648,403.2947368421053,0.21644535882450622,0.86,nominal,6125.39123312486,nan,pitch_program,12.4,0.0,0.0
1.23,119.36168293312116,0.009510055071188652,26.240948147907027,108.87560330734028,0.03402472423366096,3.2589364519839297,108.92437202030248,17.76072392187305,-0.1331531290256358,6.496474221728661,0.15783013927992212,-0.07341871543365099,1.1663768202259157,0.1429131318670627,4.754225885028735,-0.059747734035292197,7239.313313265306,0.3199758018005857,108.85361020826574,2.135677056079832,1.221916963715965,101010.16046508304,287.9794338370386,0.07244880006198942,-0.1312124234412952,-0.05085528216073648,403.26078947368416,0.2164271395182078,0.86,nominal,6189.595204163301,nan,pitch_program,12.385,0.0,0.0
1.26,122.64545736317521,0.01059923270143816,26.336877861130855,109.45914766846847,0.036305921008316915,3.1976571074609077,109.50585069942329,17.754231107687506,-0.13643904150263275,6.46201927786514,0.16212010399757443,-0.09339395282566909,1.148160710313798,0.14478706937639482,4.761140896924609,-0.06301825568024379,7316.790162306792,0.3216853038862013,109.43505281430029,2.1352492403639936,1.221905703815606,101009.01095306844,287.97881029390265,0.07244880006198942,-0.1312124234412952,-0.05085528216073648,403.22684210526313,0.21640892021190947,0.86,nominal,6254.042211979051,nan,pitch_program,12.37,0.0,0.0
1.29,125.94671349912376,0.01175912517381147,26.43102044994922,110.04187119828484,0.03866308241244366,3.138086293945432,110.08661361510808,17.747738840081148,-0.1405069679533897,6.4281341204717855,0.16646574810650083,-0.11933749001899267,1.1291541075885212,0.14666869184187234,4.767288056198619,-0.06624811040519102,7394.583906309465,0.32339270309905593,110.01578099828254,2.134834033895988,1.221894653758948,101007.88286620812,287.9781983670753,0.07244880006198942,-0.1312124234412952,-0.05085528216073648,403.1928947368421,0.21639070090561113,0.86,nominal,6318.7310153165445,nan,pitch_program,12.355,0.0,0.0
1.3199999999999998,129.2654267121698,0.012992088681953527,26.523427019953456,110.62377376820152,0.04109878360473529,3.080219000141154,110.6666560483196,17.74124711905398,-0.14433529522398753,6.394838796391386,0.17087094120561755,-0.11121358184989476,1.1094780199932903,0.14867968020870245,4.772710802933458,-0.06952512333481924,7472.692378299703,0.3250979855744165,110.59579001718176,2.134431353396005,1.2218838075431426,101006.77559154398,287.9775977243703,0.07244880006198942,-0.1312124234412952,-0.05085528216073648,403.158947368421,0.21637248159931274,0.86,nominal,6383.660346043764,nan,pitch_program,12.34,0.0,0.0
1.3499999999999999,132.6015723603038,0.014300501012025959,26.614148550822865,111.20485493779952,0.04361374433574769,3.02405102898033,111.24597317890482,17.734755944606,-0.14748277936455428,6.3621502991815,0.17533922423192944,-0.0883692031827247,1.089236122076147,0.15079509864794471,4.777449045691134,-0.07288982004928744,7551.1133848087375,0.32680113715065295,111.17507502571914,2.1340411294877617,1.221873159180359,101005.68851765865,287.9770080344196,0.07244880006198942,-0.1312124234412952,-0.05085528216073648,403.125,0.2163542622930144,0.86,nominal,6448.828914146731,nan,pitch_program,12.325,0.0,0.0
1.38,135.95512577977902,0.015686733509275904,26.70323591801496,111.78511398250724,0.04620774990833149,2.96957890640324,111.82456010250898,17.72826531673721,-0.15113181519386848,6.330082588424673,0.17987229556656417,-0.10493253167130835,1.0685287457786206,0.152961474797579,4.781540796172028,-0.0762461265886285,7629.844707978605,0.32850214342213385,111.75363109434284,2.1336633131595937,1.22186270269524,101004.62103441544,287.97642896653286,0.07244880006198942,-0.1312124234412952,-0.05085528216073648,403.0910526315789,0.21633604298671602,0.86,nominal,6514.235409575223,nan,pitch_program,12.31,0.0,0.0
1.41,139.32606227681686,0.017153230924683845,26.790739912488576,112.36454990126144,0.04888324718026472,2.9167998157871504,112.40241183021965,17.72177523544761,-0.15552708673390897,6.2986467223978115,0.18447304733493844,-0.12964215737169127,1.0474505628745654,0.15523167499487656,4.785019292334986,-0.07957568301610127,7708.884105802126,0.3302009897504788,112.33145321303803,2.1332978114163788,1.2218524321225674,101003.57253271998,287.9758601905688,0.07244880006198942,-0.1312124234412952,-0.05085528216073648,403.0571052631579,0.2163178236804177,0.86,nominal,6579.878502187958,nan,pitch_program,12.295,0.0,0.0
1.44,142.71435712086702,0.01870253469467946,26.876711255598103,112.94316146833864,0.05164345899985381,2.8657114369842915,112.97952332856664,17.715285700737198,-0.1595333123359139,6.267851649484087,0.1891456510300968,-0.11649461589119547,1.0260729169521905,0.15763954872903385,4.7879129872506025,-0.08297619337945979,7788.229317048075,0.3318976613751866,112.90853632894918,2.132944498326002,1.2218423415055142,101002.5424043413,287.9753013768386,0.07244880006198942,-0.1312124234412952,-0.05085528216073648,403.02315789473687,0.21629960437411935,0.86,nominal,6645.756846209779,nan,pitch_program,12.28,0.0,0.0
1.47,146.11998553944773,0.02033720840634345,26.96120061011668,113.52094728602376,0.0544891237221331,2.81631181728596,113.55588956118909,17.708796712605974,-0.16384965828312983,6.237704572932868,0.19389217675338966,-0.12664592437862837,1.004454733123003,0.16011155698050317,4.790250416997656,-0.08639157301909538,7867.878066371765,0.3335921435247376,113.48487538416754,2.132603303557094,1.221832424894342,101001.53004177882,287.9747521960342,0.07244880006198942,-0.1312124234412952,-0.05085528216073648,402.9892105263158,0.21628138506782096,0.86,nominal,6711.869084979688,nan,pitch_program,12.265,0.0,0.0
1.5,149.5429227124864,0.022059884949844805,27.04425859196592,114.09790576795507,0.05742255145004517,2.768599394974726,114.13150546887753,17.70230827105394,-0.16864109839202138,6.208210507533124,0.19871499078919191,-0.14228860672541882,0.9826676952155778,0.16266512981838546,4.792056606649643,-0.08980975658254882,7947.828062196404,0.3352844213718553,114.06046530050193,2.132274101117351,1.2218226763450166,101000.5348381208,287.9742123191522,0.07244880006198942,-0.1312124234412952,-0.05085528216073648,402.9552631578947,0.2162631657615226,0.86,nominal,6778.213848817115,nan,pitch_program,12.25,0.0,0.0
1.53,152.9831437678811,0.023873281123212853,27.125935777807243,114.67403517982379,0.06044653911226822,2.7225728613774165,114.70636600116431,17.695820376081095,-0.17282401758192117,6.179372940644851,0.2036172423112466,-0.12180024157119446,0.9607638940585672,0.16531817664417262,4.793352504169955,-0.0933235658347953,8028.077000898812,0.3369744801223412,114.63530100969466,2.1319567162902584,1.221813089918315,100999.55618695276,287.97368141744425,0.07244880006198942,-0.1312124234412952,-0.05085528216073648,402.9213157894737,0.21624494645522424,0.86,nominal,6844.789758691965,nan,pitch_program,12.235,0.0,0.0
1.56,156.44062377851733,0.02578012116709993,27.206282709056328,115.24933368787464,0.06356133479623595,2.678231041636144,115.28046615560999,17.68933302768744,-0.17733151686614015,6.151194322498659,0.2085998804377585,-0.13241263522678748,0.9387783298128172,0.16799671591948712,4.794160659185554,-0.09685644057772945,8108.622571902831,0.3386623051201351,115.20937748916134,2.13165105821696,1.2218036596793354,100998.59348230755,287.9731591623911,0.07244880006198942,-0.1312124234412952,-0.05085528216073648,402.8873684210526,0.21622672714892588,0.86,nominal,6911.595430856138,nan,pitch_program,12.220000000000002,0.0,0.0
1.5899999999999999,159.9153377582013,0.027783201369966235,27.28534989838633,115.82379932279882,0.06676934009554353,2.6355729776666377,115.85380094167543,17.68284622587297,-0.18241410799135283,6.123675365973791,0.21366475478793734,-0.15136955338307212,0.9167670700068565,0.1707403828601595,4.794500400815683,-0.10038864660384665,8189.46245352177,0.34034788175706987,115.78268973128661,2.131356961213989,1.2217943796967463,100997.64611858834,287.9726452256605,0.07244880006198942,-0.1312124234412952,-0.05085528216073648,402.8534210526316,0.21620850784262752,0.86,nominal,6978.629472897687,nan,pitch_program,12.205000000000002,0.0,0.0
1.6199999999999999,163.407260658827,0.029885412369022056,27.363187832033994,116.39743002085606,0.07007369996852732,2.594597788255443,116.42636541379419,17.676359970637694,-0.1868090852979074,6.0968157923799735,0.21881510813372954,-0.12822546730447384,0.8947644709468217,0.1735870308097246,4.794386959902782,-0.10402797992284481,8270.594317495064,0.3420311955649903,116.35523277476325,2.1310741939909605,1.2217852440424943,100996.71349053858,287.9721392790918,0.07244880006198942,-0.1312124234412952,-0.05085528216073648,402.8194736842105,0.21619028853632916,0.86,nominal,7045.8904876861825,nan,pitch_program,12.19,0.0,0.0
1.65,166.91636736912602,0.032089647896493774,27.43984696851036,116.97022367663408,0.07347451758239057,2.5553045492121957,116.99815471538756,17.669874261981604,-0.19159590951117791,6.070614844991355,0.2240518342813819,-0.14106094478814724,0.8727869892768296,0.17645753331680947,4.793838788392954,-0.10768563646055769,8352.015834850341,0.3437122323323661,116.92700174426868,2.1308026498290698,1.2217762467919562,100995.79499325748,287.97164099470467,0.07244880006198942,-0.1312124234412952,-0.05085528216073648,402.78552631578947,0.21617206923003082,0.86,nominal,7113.3770786766245,nan,pitch_program,12.175,0.0,0.0
1.68,170.44263271165173,0.03439888263661533,27.51537774178707,117.54217808419058,0.07697449133738514,2.517692442557056,117.56916402306855,17.663389099904702,-0.19704396198752155,6.045070211520203,0.22937700597737062,-0.1628691399403218,0.8508842483350985,0.17940133100244524,4.792871058300521,-0.11134044331367114,8433.724669145733,0.3453909779591905,117.49799180110314,2.1305421153469277,1.2217673820235628,100994.89002216131,287.9711500446784,0.07244880006198942,-0.1312124234412952,-0.05085528216073648,402.75157894736844,0.21615384992373246,0.86,nominal,7181.0878436730945,nan,pitch_program,12.16,0.0,0.0
1.71,173.98603144116035,0.03681619758104509,27.589830559600824,118.1132909836211,0.08057716481432528,2.4817605937917464,118.1393885852891,17.65690448440699,-0.20293955515026796,6.020178979420599,0.23479402233118876,-0.17754310873178575,0.8290759152117811,0.18246228124388947,4.791497109632172,-0.11501254945807418,8515.71848190107,0.3470674185643818,118.0681981797331,2.1302923640662925,1.2217586438189845,100993.99797300229,287.97066610136255,0.07244880006198942,-0.1312124234412952,-0.05085528216073648,402.71763157894736,0.2161356306174341,0.86,nominal,7249.021379510277,nan,pitch_program,12.145,0.0,0.0
1.74,177.54653824358854,0.039344769491682675,27.66325580066581,118.68356008093967,0.08428573035458625,2.4475080354995455,118.70882373755623,17.650420415488465,-0.2079215479998517,5.995937955075316,0.24030674470105534,-0.14683284490357504,0.8073737329465921,0.18564404776518229,4.789727268548742,-0.1188185671139288,8597.994934892067,0.3487415405264488,118.6376162016334,2.1300531162617067,1.2217500262634646,100993.11824190238,287.97018883729567,0.07244880006198942,-0.1312124234412952,-0.05085528216073648,402.68368421052634,0.21611741131113574,0.86,nominal,7317.176284074696,nan,pitch_program,12.13,0.0,0.0
1.77,181.12412773623907,0.04198776605845158,27.735703809581665,119.25298308835092,0.08809988555896359,2.4149336305285365,119.27746493575474,17.64393689314913,-0.21320117302525401,5.972343509757238,0.24591581558730136,-0.15649538477334923,0.7857928480361572,0.1888392491242494,4.787576280763605,-0.12265870478459284,8680.551694831274,0.3504133305711326,119.20624130511302,2.1298242259207996,1.2217415234463995,100992.25022541246,287.9697179252377,0.07244880006198942,-0.1312124234412952,-0.05085528216073648,402.64973684210526,0.21609919200483738,0.86,nominal,7385.551160514335,nan,pitch_program,12.115,0.0,0.0
1.7999999999999998,184.71877446575672,0.04474843512038627,27.80722489673629,119.82155765058792,0.0920223020644898,2.3840362384875116,119.84530768746711,17.637453917388985,-0.2191641912599074,5.949390675405347,0.2516229803069652,-0.17901112787609705,0.7643751361148495,0.19209564153534214,4.785055717126059,-0.12650187373244046,8763.386424813989,0.35208277559079865,119.7740689838794,2.12960542067726,1.2217331294613563,100991.39332051383,287.9692530381712,0.07244880006198942,-0.1312124234412952,-0.05085528216073648,402.6157894736842,0.216080972698539,0.86,nominal,7454.144609385411,nan,pitch_program,12.1,0.0,0.0
1.8299999999999998,188.33045290755462,0.047630139511438074,27.877869333123357,120.38928139326354,0.09605681303506015,2.354814546235535,120.41234759294781,17.63097148820803,-0.22562679490753956,5.927074435539251,0.25743161672123516,-0.19538879412336096,0.7431215562712656,0.1954681637212824,4.782175667916903,-0.13036564657976407,8846.496790254167,0.35374986275855597,120.34109482587232,2.129396433838783,1.2217248384066735,100990.54692467958,287.9687938493347,0.07244880006198942,-0.1312124234412952,-0.05085528216073648,402.58184210526315,0.21606275339224065,0.86,nominal,7522.955233718118,nan,pitch_program,12.085,0.0,0.0
1.8599999999999999,191.95913746568974,0.05063634890036551,27.947687345055545,120.95615193783757,0.10020697963091442,2.3272670644063154,120.97858035634691,17.62448960560626,-0.23230273007747948,5.90538964137272,0.26334557247401624,-0.20221193702876109,0.7220371321350453,0.19896884812068658,4.778945565633743,-0.13427673336347262,8929.880460666964,0.35541457955652045,120.9073145228907,2.129196995539425,1.2217166443860719,100989.71043593674,287.9683400322571,0.07244880006198942,-0.1312124234412952,-0.05085528216073648,402.54789473684207,0.2160445340859423,0.86,nominal,7591.981640620932,nan,pitch_program,12.07,0.0,0.0
1.89,195.6048024729154,0.053770620590038266,28.01672910875673,121.52216690752186,0.10447572298909193,2.301392123372867,121.54400178857786,17.618008269583683,-0.2390558061224478,5.884330610901406,0.2693682033705883,-0.20448439829578063,0.701140342843399,0.2025785466666437,4.775374360456469,-0.13824912675247022,9013.53511042817,0.35707691378303036,121.47272387305998,2.129006805745109,1.221708541509295,100988.8832529315,287.96789126079307,0.07244880006198942,-0.1312124234412952,-0.05085528216073648,402.51394736842104,0.21602631477964393,0.86,nominal,7661.222441905299,nan,pitch_program,12.055,0.0,0.0
1.92,199.26742219092543,0.05703658944657614,28.08504474395399,122.08732393366793,0.10886562855126251,2.277187839908665,122.10860781070134,17.611527480140293,-0.24590251329172758,5.8638914115830465,0.2755022349029932,-0.20729771785486883,0.6804397775767248,0.2062755950458126,4.7714708798878185,-0.1422836281849868,9097.458419728307,0.3587368535634958,122.03731878453702,2.128825569870235,1.2217005238928513,100988.06477500488,287.9674472091643,0.07244880006198942,-0.1312124234412952,-0.05085528216073648,402.48,0.2160080954733456,0.86,nominal,7730.676254772133,nan,pitch_program,12.040000000000001,0.0,0.0
1.95,202.94697081054872,0.06043796932911056,28.152684307670654,122.65162065411013,0.11337932941781383,2.2546521238888357,122.67239445022597,17.605047237276093,-0.2529124411781323,5.844065883199256,0.2817501231714932,-0.21242278919035987,0.6599428584353152,0.21005156766546815,4.767243653976737,-0.14637634987519368,9181.648074494058,0.36039438734069973,122.60109527222497,2.128652989955957,1.2216925856607388,100987.25440226673,287.9670075520001,0.07244880006198942,-0.1312124234412952,-0.05085528216073648,402.44605263157894,0.2159898761670472,0.86,nominal,7800.341701641733,nan,pitch_program,12.025,0.0,0.0
1.98,206.64342245198694,0.06397855956657865,28.219697787926663,123.21505471460712,0.11801967458226986,2.23378267520031,123.23535784022067,17.59856754099108,-0.26013338745796477,5.824847586510365,0.28811442134105053,-0.219132873213088,0.6396585981271563,0.21391031608524264,4.762700695326535,-0.150525243538739,9266.101766681602,0.36204950387264345,123.1640494570549,2.128488750519245,1.2216847209451862,100986.45153567108,287.96657196437843,0.07244880006198942,-0.1312124234412952,-0.05085528216073648,402.4121052631579,0.21597165686074887,0.86,nominal,7870.21741031559,nan,pitch_program,12.01,0.0,0.0
2.01,210.35675116522526,0.06766225066596498,28.28613509688786,123.77762377461089,0.12278970331287765,2.214576965373237,123.79749422236267,17.59208839128526,-0.267576335698307,5.806229919241931,0.2945979218970392,-0.22620001215358593,0.6195922140064178,0.2178599999277301,4.757849581984816,-0.1547314965887468,9350.817195128659,0.3637021922413204,123.72617756898626,2.1283325274605165,1.2216769238874479,100985.65557709732,287.9661401218702,0.07244880006198942,-0.1312124234412952,-0.05085528216073648,402.37815789473683,0.2159534375544505,0.86,nominal,7940.302014615855,nan,pitch_program,11.995000000000001,0.0,0.0
2.04,214.08693093056579,0.07149302754727913,28.35204606379479,124.33932551135082,0.12769256271047158,2.197032230230984,124.3587999484914,17.585609788158624,-0.27523460453586773,5.788206137569083,0.30120361513163885,-0.23303470113440955,0.5997483052259388,0.2219070806014043,4.752697527226514,-0.15899792955995087,9435.79206618323,0.36535244185693844,124.28747594845942,2.1281839874293333,1.221669188638635,100984.86592943502,287.9657117005853,0.07244880006198942,-0.1312124234412952,-0.05085528216073648,402.3442105263158,0.21593521824815215,0.86,nominal,8010.594154845964,nan,pitch_program,11.98,0.0,0.0
2.07,217.83393565926332,0.07547497139232749,28.417480427692123,124.90015762325092,0.1327314615016122,2.181145463244393,124.91927148156776,17.57913173161118,-0.2831037106353671,5.770769354212534,0.3079345980171402,-0.23970984452245697,0.5801315733981486,0.22605492445637038,4.7472514351871204,-0.1633272752009131,9521.02409425312,0.3670002424605117,124.84794104729451,2.1280427868423892,1.2216615093605643,100984.08199667027,287.96528637721997,0.07244880006198942,-0.1312124234412952,-0.05085528216073648,402.3102631578947,0.2159169989418538,0.86,nominal,8081.092478179042,nan,pitch_program,11.965,0.0,0.0
2.1,221.59773919424882,0.07961226156602129,28.48248782995188,125.46011783284992,0.1379096724564601,2.1669134086584982,125.4789053962098,17.572654221642924,-0.29118789454325106,5.753912576843828,0.3147940203737968,-0.2465160558549278,0.5607454244219929,0.23030517491279548,4.741517966629125,-0.16772158484305938,9606.511002301564,0.36864558412536147,125.40756942921925,2.1279085755015577,1.221653880226635,100983.30318397537,287.9648638291053,0.07244880006198942,-0.1312124234412952,-0.05085528216073648,402.27631578947364,0.2158987796355554,0.86,nominal,8151.795638993081,nan,pitch_program,11.95,0.0,0.0
2.13,225.37831531090794,0.08390917820138512,28.54711780672095,126.0192038886369,0.14323055451212766,2.1543325589690814,126.0376983782718,17.56617725825386,-0.29949677811162595,5.737628720632582,0.3217850788951977,-0.2536325475953904,0.5415928148737116,0.23465934878585756,4.7355035503330525,-0.17218249277042952,9692.250522200404,0.3702884572558691,125.96635776946273,2.1277809959368903,1.2216462954227096,100982.52889779856,287.9644437342563,0.07244880006198942,-0.1312124234412952,-0.05085528216073648,402.2423684210526,0.21588056032925707,0.86,nominal,8222.702299085387,nan,pitch_program,11.935,0.0,0.0
2.16,229.17563771791453,0.08837010526864901,28.611419781283733,126.57741356688591,0.1486975689087962,2.1433991520926443,126.59564722443922,17.55970084144398,-0.30804040339230826,5.721910622191225,0.3289110323812997,-0.26107310921776117,0.5226762163616956,0.23911948968370778,4.7292143895923004,-0.17671163663750972,9778.240395082164,0.3719288525862553,126.52430285435844,2.1276596831666774,1.2216387491480132,100981.75854595567,287.96402577142163,0.07244880006198942,-0.1312124234412952,-0.05085528216073648,402.2084210526316,0.2158623410229587,0.86,nominal,8293.811127885458,nan,pitch_program,11.92,0.0,0.0
2.19,232.98968005812006,0.09299953376148123,28.675443056341457,127.1347446735177,0.15431428309440762,2.1341091685908635,127.1527488418633,17.553224971213293,-0.3168271275824002,5.7067510607191245,0.33617521446456367,-0.26878131786115156,0.5039973893067761,0.24368804785614515,4.722656482490305,-0.1813108428566701,9864.478371693744,0.3735667611794361,127.08140158097406,2.127544265705922,1.2216312356160308,100980.99153772194,287.96360962013375,0.07244880006198942,-0.1312124234412952,-0.05085528216073648,402.1744736842105,0.21584412171666034,0.86,nominal,8365.120802669455,nan,pitch_program,11.905,0.0,0.0
2.2199999999999998,236.82041590949083,0.09780206482097521,28.739236806248435,127.69119504569251,0.1600843686497992,2.126458330232555,127.70900024756435,17.546749647561793,-0.3258641676962618,5.6921427689965265,0.34358103727765327,-0.27671889296934227,0.48555772600869496,0.24836757605208132,4.715835638822172,-0.18598208635524377,9950.962212710814,0.3752021744251828,127.63765095650434,2.127434365650994,1.2216237490554258,100980.2272839254,287.9631949607594,0.07244880006198942,-0.1312124234412952,-0.05085528216073648,402.1405263157895,0.215825902410362,0.86,nominal,8436.630008742191,nan,pitch_program,11.890000000000002,0.0,0.0
2.25,240.66781878608842,0.10278241282730219,28.802850069215324,128.24676255325244,0.16601160021089897,2.1204420988963353,128.26439856771046,17.540274870489483,-0.3351588220119835,5.678078445098993,0.35113199064982237,-0.2848882702281512,0.4673582237967368,0.2531605906878901,4.708757499932463,-0.19072739007867978,10037.689689029452,0.37683508403791804,128.19304809754126,2.127329599295407,1.221616283710943,100979.46519703924,287.96278147455007,0.07244880006198942,-0.1312124234412952,-0.05085528216073648,402.1065789473684,0.21580768310406362,0.86,nominal,8508.337439599514,nan,pitch_program,11.875,0.0,0.0
2.28,244.53186213908603,0.10794540855699651,28.86633173950321,128.80144509991996,0.17209985765647745,2.1160556762628766,128.8189410366882,17.53380063999636,-0.344719083263762,5.664550763438652,0.3588316421391781,-0.29331232350419406,0.4493995031569884,0.2580696077813043,4.701427555943843,-0.19554877454505284,10124.658582021822,0.3784654820539117,128.74759022913963,2.127229577771109,1.2216088338443323,100978.70469127604,287.9623688436932,0.07244880006198942,-0.1312124234412952,-0.05085528216073648,402.0726315789474,0.21578946379776529,0.86,nominal,8580.241797060073,nan,pitch_program,11.86,0.0,0.0
2.31,248.41251935781435,0.11329600246371316,28.929730559630723,129.35524062427697,0.17835313022388843,2.113294004250444,129.37262499598614,17.52732695608243,-0.35455356594461,5.651552382899141,0.36668363942746457,-0.3020114939664111,0.4316819024572888,0.2630972233721985,4.693851157590858,-0.20044826553455208,10211.866683757888,0.3800933608279318,129.3012746836983,2.127133907373533,1.2216013937352599,100977.94518268055,287.9619567513624,0.07244880006198942,-0.1312124234412952,-0.05085528216073648,402.03868421052636,0.21577124449146692,0.86,nominal,8652.341791368632,nan,pitch_program,11.845,0.0,0.0
2.34,252.30976377083292,0.1188392680842139,28.993095112605335,129.9081471006187,0.18477552068335792,2.112151765820439,129.9254478929778,17.520853818747685,-0.3646712192873981,5.639075955283547,0.37469171388142264,-0.31099664217515255,0.41420546747421777,0.2682461499627529,4.6860335273434295,-0.20542792042597677,10299.311797205572,0.381718713029601,129.85409889974068,2.1270421900583623,1.2215939576822143,100977.18608922245,287.961544881768,0.07244880006198942,-0.1312124234412952,-0.05085528216073648,402.0047368421053,0.21575302518516856,0.86,nominal,8724.636141281475,nan,pitch_program,11.83,0.0,0.0
2.37,256.2235686470231,0.12458040554955371,29.056473814193623,130.46016253967264,0.1913712488446603,2.112623386276311,130.47740727959354,17.514381227992132,-0.3750811752116695,5.627114132415631,0.38285968383086605,-0.32027354787355095,0.39696999676594696,0.2735192052857242,4.6779797692536595,-0.21048984335496848,10386.991736407415,0.38334153163942325,130.40606042058423,2.126954023868886,1.22158652000342,100976.42683088935,287.9611329202077,0.07244880006198942,-0.1312124234412952,-0.05085528216073648,401.9707894736842,0.21573480587887017,0.86,nominal,8797.123574132427,nan,pitch_program,11.815,0.0,0.0
2.4,260.15390719669915,0.13052474518967566,29.11991490524219,131.0112849892019,0.19814465467073175,2.114703034952207,131.02850081090023,17.507909183815766,-0.3857927718326309,5.615659572210331,0.39119145714249615,-0.3298487643482165,0.37997507595204205,0.2789192885152032,4.669694878121982,-0.21563618544739283,10474.904326635924,0.3849618099445399,130.95715689291725,2.126869003363624,1.2215790750377318,100975.66682977827,287.9607205531159,0.07244880006198942,-0.1312124234412952,-0.05085528216073648,401.9368421052631,0.2157165865725718,0.86,nominal,8869.802825881536,nan,pitch_program,11.8,0.0,0.0
2.4299999999999997,264.10075257273405,0.13667775123401038,29.183466444059842,131.5615125344976,0.20510020147782373,2.1183846272550824,131.57872624359308,17.501437686218587,-0.39681563697228184,5.604704944221536,0.399691033446858,-0.3397316195894194,0.36322009443105224,0.28444936911014823,4.661183748178064,-0.2208691398272609,10563.047404528188,0.38657954153422625,131.5073860652882,2.126656113010591,1.221571617145534,100974.90551018724,287.96030746811357,0.07244880006198942,-0.1312124234412952,-0.05085528216073648,401.9028947368421,0.21569836726627348,0.86,nominal,8942.672641146844,nan,pitch_program,11.785,0.0,0.0
2.46,268.0640781609781,0.14304485066837097,29.247173363553838,132.11085294146818,0.21223664781201962,2.1235639831332143,132.12808949389745,17.4949667352006,-0.4082298334644745,5.597849628956147,0.4084202862186333,-0.35207256832422335,0.2264704472961415,0.29118396003739855,4.656100989180231,-0.2262196540352317,10651.420114162991,0.38819474384346586,132.05675380159525,2.126815695464933,1.221564141054083,100974.14233386877,287.9598933731369,0.07244880006198942,-0.1312124234412952,-0.05085528216073648,401.86894736842106,0.21568014795997512,0.86,nominal,9015.732809319381,nan,pitch_program,11.77,0.0,0.0
2.4899999999999998,272.0438548020976,0.1496316039565517,29.311091756716277,132.65922137064874,0.2195584429393578,2.130613105414672,132.67651160918277,17.488496330761798,-0.42012201407770305,5.5925356088426055,0.41741868954371536,-0.367161392072954,0.1749714905297329,0.29979035256797054,4.651736596651167,-0.2317366914418049,10740.007889027796,0.38980718544906706,132.60518129097065,2.1269212957799994,1.221556640181095,100973.37662889792,287.95947790358133,0.07244880006198942,-0.1312124234412952,-0.05085528216073648,401.835,0.21566192865367675,0.86,nominal,9088.971984366808,nan,pitch_program,11.755,0.0,0.0
2.52,276.0400529417308,0.15644380964687674,29.375276997725607,133.20660465443993,0.22707352301083444,2.139508033644355,133.22397899993504,17.482026472902188,-0.4325354206362297,5.5895305055395195,0.42674222463750955,-0.38350137365921344,0.0978658624803396,0.31004277822368564,4.648879477798181,-0.23746371516800718,10828.80656006738,0.39141682661719046,133.15265493159515,2.127153530432619,1.2215491080287615,100972.60773197703,287.95906069951474,0.07244880006198942,-0.1312124234412952,-0.05085528216073648,401.80105263157895,0.2156437093473784,0.86,nominal,9162.387350457313,nan,pitch_program,11.74,0.0,0.0
2.55,280.0526418648468,0.16348759960746442,29.439788390573128,133.75296410386818,0.23479299868625633,2.1503797615840123,133.77045513655813,17.475557161621765,-0.44548166975307063,5.588571653592976,0.43642542883775687,-0.4001058536250875,0.02949943779196269,0.3214744835964849,4.647221101977869,-0.2434317197799411,10917.808183084704,0.39302356038816844,133.69913824545768,2.1274762176932973,1.2215415376382392,100971.83493274916,287.95864137546124,0.07244880006198942,-0.1312124234412952,-0.05085528216073648,401.7671052631579,0.21562549004108003,0.86,nominal,9235.973034541368,nan,pitch_program,11.725000000000001,0.0,0.0
2.58,284.0815899025943,0.17076944914758338,29.50468806345067,134.2982679249164,0.24272831800396505,2.1633224292513624,134.31590988636412,17.469088396920533,-0.4589715321334106,5.5892430922621195,0.4464888190969115,-0.41699288819145836,-0.02501560390444767,0.3336646756089404,4.6463160754001676,-0.24965897547369584,11007.005761705259,0.3946272985799341,134.24460113670852,2.12784363209483,1.2215339217194032,100971.05748704374,287.9582195275876,0.07244880006198942,-0.1312124234412952,-0.05085528216073648,401.73315789473685,0.2156072707347817,0.86,nominal,9309.723973498383,nan,pitch_program,11.71,0.0,0.0
2.61,288.1268647271562,0.17829616117342992,29.570039566977503,134.84249415206332,0.2508904008615515,2.1783834508944717,134.86032229533492,17.46262017879849,-0.4730283244226169,5.591735756660821,0.45694970389442635,-0.4345905669306944,-0.08590857243253876,0.34635036789726314,4.646346320448164,-0.25615503378949045,11096.393727674524,0.39622797994651576,134.7890226690504,2.12830913367749,1.2215262528153463,100970.27463366941,287.9577947428146,0.07244880006198942,-0.1312124234412952,-0.05085528216073648,401.6992105263158,0.21558905142848334,0.86,nominal,9383.636293320304,nan,pitch_program,11.695,0.0,0.0
2.6399999999999997,292.1884331445162,0.18607486311709845,29.635909146329872,135.38561391199963,0.2592900647889513,2.1956526450790093,135.40366529826497,17.456152507255634,-0.48768306704538134,5.59565973397982,0.4678179543525464,-0.45317923476661565,-0.1338173869392569,0.3594406602583324,4.646895059819933,-0.2629263260130664,11185.965448389725,0.3978255253410746,135.33237581107844,2.128818612206582,1.2215185231531178,100969.48557917721,287.9573665905488,0.07244880006198942,-0.1312124234412952,-0.05085528216073648,401.6652631578947,0.21557083212218495,0.86,nominal,9457.70527653214,nan,pitch_program,11.68,0.0,0.0
2.67,296.2662613966611,0.1941129955419682,29.70236420046187,135.92760840482984,0.2679377474956588,2.21516847106648,135.94592119165807,17.449685382291968,-0.5029679953403207,5.601079807504568,0.4791073718278303,-0.47278646508320443,-0.18390006685251187,0.3729430979017185,4.648022395802127,-0.2699795545637174,11275.715770555478,0.3994198830859177,135.87464287256137,2.1294025454932894,1.2215107248245243,100968.68951631749,287.95693463269697,0.07244880006198942,-0.1312124234412952,-0.05085528216073648,401.63131578947366,0.21555261281588659,0.86,nominal,9531.927434210713,nan,pitch_program,11.665,0.0,0.0
2.6999999999999997,300.36031506306455,0.20241832227499418,29.769473952879224,136.46845554678245,0.276844224434199,2.2369917472451233,136.487069475925,17.44321880390749,-0.5189138041973955,5.607788691039819,0.49083131775970695,-0.4933616428023233,-0.22708883914739383,0.38692045069455155,4.649507032709072,-0.27732344828708283,11365.639029580228,0.40101099332255946,136.4158033759625,2.130035861177478,1.2215028497074347,100967.8856160066,287.9564984193063,0.07244880006198942,-0.1312124234412952,-0.05085528216073648,401.59736842105264,0.21553439350958825,0.86,nominal,9606.298878802994,nan,pitch_program,11.65,0.0,0.0
2.73,304.4705592125583,0.21099893893944324,29.83730871183692,137.00813831645937,0.2860205554816351,2.261158631923146,137.02709444142403,17.436752772102203,-0.5355516389718986,5.615749261139749,0.5030066631087551,-0.514908013703968,-0.26905771691796815,0.40144094878526326,4.651308448125005,-0.28496867742405557,11455.73030740184,0.40259881025522704,136.95584162433093,2.1307264973831717,1.2214948895525932,100967.07303618934,287.956057493373,0.07244880006198942,-0.1312124234412952,-0.05085528216073648,401.56342105263155,0.21551617420328986,0.86,nominal,9680.816349008404,nan,pitch_program,11.635,0.0,0.0
2.76,308.596958401983,0.21986329064826104,29.905939979593054,137.54663964748855,0.295478390293927,2.2877089252045493,137.56598052542518,17.430287286876105,-0.5529148761154286,5.624848648696663,0.5156513964579416,-0.5374956376827802,-0.30728353475756254,0.4165649656212591,4.6533089520647595,-0.2929274167908501,11545.984670398015,0.4041832885356967,137.4947420694957,2.131464901130201,1.221486835970817,100966.25092053218,287.9556113901326,0.07244880006198942,-0.1312124234412952,-0.05085528216073648,401.52947368421053,0.21549795489699153,0.86,nominal,9755.476585261706,nan,pitch_program,11.620000000000001,0.0,0.0
2.79,312.739476748891,0.2290201888918904,29.975440135422936,138.08394489693396,0.30522994145431254,2.3166718609960446,138.1037145486253,17.423822348229194,-0.5710396884439097,5.635021823765725,0.528785304831108,-0.5612112815753876,-0.3433628142236897,0.43233817038482153,4.655443224463781,-0.3012128368221709,11636.397546554983,0.405764389820467,138.0324915431449,2.1322504226814036,1.2214786804701883,100965.41840222018,287.95515963911976,0.07244880006198942,-0.1312124234412952,-0.05085528216073648,401.49552631578945,0.21547973559069317,0.86,nominal,9830.276636068138,nan,pitch_program,11.605,0.0,0.0
2.82,316.89807796184493,0.23847883053422628,30.04588234961445,138.62004043179763,0.31528805474452876,2.3480738063837507,138.64028442870023,17.417357956161474,-0.5899645580696726,5.646192438125201,0.5424291454690056,-0.5861280309749917,-0.37692014818341935,0.4487968452118057,4.657635877637412,-0.30983885557532337,11726.9645162962,0.4073420789976897,138.56907797341754,2.1330785428636254,1.2214704144661623,100964.57460498897,287.9547017647275,0.07244880006198942,-0.1312124234412952,-0.05085528216073648,401.4615789473684,0.2154615162843948,0.86,nominal,9905.213685379296,nan,pitch_program,11.59,0.0,0.0
2.85,321.0727253843746,0.24824881640611346,30.117340412544863,139.1549140843236,0.3256661957295732,2.3819354310138254,139.17567958764937,17.410894110672942,-0.6097299455916211,5.658297179062686,0.5566047495069317,-0.6123075815110199,-0.4083920764696018,0.4659727871211051,4.659826961485053,-0.3188200337997361,11817.681385432594,0.4089163253807496,139.10449079118405,2.133946510825669,1.2214620293016347,100963.71864517359,287.95423728731845,0.07244880006198942,-0.1312124234412952,-0.05085528216073648,401.4276315789474,0.21544329697809647,0.86,nominal,9980.285110698702,nan,pitch_program,11.575,0.0,0.0
2.88,325.2633820286782,0.2583401704885011,30.189888615302742,139.68855481012028,0.3363784694129218,2.418273425262597,139.70989063689797,17.4044308117636,-0.6303783730439347,5.671275779270319,0.5713349359233076,-0.6398145917509765,-0.4378822917431089,0.4838980318074064,4.66196122942029,-0.3281715773747469,11908.54413674096,0.41048710178410075,139.63872061584044,2.1348511321536567,1.2214535162609461,100962.84963313828,287.9537657240005,0.07244880006198942,-0.1312124234412952,-0.05085528216073648,401.3936842105263,0.21542507767179808,0.86,nominal,10055.488442076254,nan,pitch_program,11.56,0.0,0.0
