time_s,x_m,y_m,altitude_m,vx_mps,vy_mps,vz_mps,speed_mps,mass_kg,roll_deg,pitch_deg,yaw_deg,p_dps,q_dps,r_dps,alpha_deg,beta_deg,qbar_pa,mach,airspeed_mps,load_factor_g,density_kgpm3,pressure_pa,temperature_k,wind_x_mps,wind_y_mps,wind_z_mps,thrust_n,mass_flow_kgps,propulsion_throttle_actual,propulsion_health,energy_j_per_kg,target_distance_m,guidance_mode,pitch_command_deg,heading_command_deg,roll_command_deg,elevator_command_deg,aileron_command_deg,rudder_command_deg,elevator_deg,aileron_deg,rudder_deg,throttle,elevator_saturated,aileron_saturated,rudder_saturated,elevator_failed,aileron_failed,rudder_failed,elevator_raw_rad,aileron_raw_rad,rudder_raw_rad,elevator_effective_rad,aileron_effective_rad,rudder_effective_rad,sensor_time_s,imu_valid,imu_ax_mps2,imu_ay_mps2,imu_az_mps2,gyro_p_rps,gyro_q_rps,gyro_r_rps,imu_accel_norm_mps2,imu_gyro_norm_rps,gps_valid,gps_latency_s,gps_x_m,gps_y_m,gps_z_m,gps_vx_mps,gps_vy_mps,gps_vz_mps,baro_valid,baro_alt_m,baro_bias_m,pitot_valid,pitot_airspeed_mps,pitot_qbar_pa,pitot_compressibility_factor,mag_valid,mag_heading_deg,mag_x_ut,mag_y_ut,mag_z_ut,radar_valid,radar_agl_m,optical_flow_valid,horizon_valid,horizon_roll_deg,horizon_pitch_deg
0.0,0.0,0.0,1000.0,92.0,0.0,14.0,93.05912099305473,18.0,0.0,8.000000000000004,0.0,0.0,0.0,0.0,-0.6525417911147219,0.0,4813.4120263251225,0.2766044123965224,93.05912099305475,1.8255010316395077,1.1116425003060326,89874.56291621955,281.65,0.0,0.0,0.0,342.0,0.1835489183360271,0.9,nominal,14136.65,nan,fixed_pitch,26.0,12.000000000000002,0.0,-20.05352282957881,-0.0,17.188733853924695,-0.875,0.0,0.875,0.9,1.0,0.0,1.0,0.0,0.0,0.0,-0.015271630954950384,0.0,0.015271630954950384,-0.015271630954950384,0.0,0.015271630954950384,0.0,1.0,17.96056864228607,0.11675732850390258,-0.5622234893076903,0.00137549877701089,-0.0017271349075047198,0.0019280334633471235,17.969745504039793,0.0029312633641599135,1.0,0.0,-0.49813771915299343,-0.6559407614011687,997.407221941231,91.98344916694978,0.24651826149516026,13.948980899356233,1.0,999.1546776618185,0.0,1.0,93.02269950565217,4854.514922071296,1.0,1.0,0.19321811565037783,17.981004822693684,-0.05902936392384759,-44.48383852086139,1.0,1000.3353165514293,0.0,1.0,0.5211686457673336,8.24100404303537
0.025,2.3111251333924625,4.645338431329378e-05,1000.3450635993931,92.4450053356985,0.001858135372531751,13.80254397572591,93.46972362841264,17.9954112770416,0.0013615355553477592,8.117163664792285,-0.00971237832743065,0.0,-4.6865527945085415,-0.3846033604636813,-0.3746792923985618,0.01075381796489586,4855.817375890151,0.2778259739640994,93.46972362841265,1.8557093828085274,1.1116048254487132,89870.80127295671,281.6477570866039,0.0,0.0,0.0,347.0625,0.1862659253508696,0.9,nominal,14178.328535532908,nan,fixed_pitch,26.0,12.000000000000002,0.0,-8.38753783851023,0.011232668331607203,7.410347111333146,-1.75,0.0,1.75,0.9,0.0,0.0,0.0,0.0,0.0,0.0,-0.030543261909900768,0.0,0.030543261909900768,-0.030543261909900768,0.0,0.030543261909900768,0.025,1.0,18.200882916422067,0.16222429899037355,-0.45874105494330675,0.0006804958028558103,-0.08461691084975384,-0.001808736594498342,18.207385836961276,0.08463897568119058,1.0,0.0,-0.49813771915299343,-0.6559407614011687,997.407221941231,91.98344916694978,0.24651826149516026,13.948980899356233,1.0,999.1546776618185,0.0,1.0,94.05491919067737,4929.777722569309,1.0,1.0,0.19321811565037783,17.981004822693684,-0.05902936392384759,-44.48383852086139,1.0,1000.3353165514293,0.0,1.0,0.5211686457673336,8.24100404303537
0.05,4.633548963941853,0.0001832697551670443,1000.6853028999727,92.89695322197561,0.00547265483415002,13.609572023184688,93.88857437691834,17.99075462890783,0.005490918700875247,8.405993189200307,-0.03887047713628621,-0.0024173422768333603,-11.553274435113364,-1.1535330921674785,0.07135015425342368,0.041792805690641435,4899.270333664466,0.27907204621460624,93.88857437691833,1.8857664409916801,1.1115676782761563,89867.09234566866,281.64554553115016,0.0,0.0,0.0,352.125,0.18898293236571212,0.9,nominal,14220.90272494908,nan,fixed_pitch,26.0,12.000000000000002,0.0,-5.831259548029168,0.0381560997883015,7.125527959023239,-2.625,0.0,2.625,0.9,0.0,0.0,0.0,0.0,0.0,0.0,-0.04581489286485115,0.0,0.04581489286485115,-0.04581489286485115,0.0,0.04581489286485115,0.05,1.0,18.548401466829567,0.30350868146669496,-0.23012121434382632,0.0006669330678437417,-0.20236868294369875,-0.020805875878683173,18.55231172300913,0.20343650878631253,1.0,0.0,-0.49813771915299343,-0.6559407614011687,997.407221941231,91.98344916694978,0.24651826149516026,13.948980899356233,1.0,999.8748543039079,0.0,1.0,94.09289442763058,4914.8583930352415,1.0,1.0,-0.4440687621877697,17.631350980506454,0.031145556888057507,-44.57640761704615,1.0,1000.7562451609707,0.0,1.0,-0.18636733488041632,8.31900914172472
0.07500000000000001,6.967427953842465,0.00044846147996601527,1001.0209491968529,93.35515959602452,0.010607668991958839,13.425851875206508,94.31563727344918,17.986030055598686,0.013975307367063799,8.90693664014,-0.09713536035939543,-0.01140501229840838,-20.038256737944007,-2.30066467629043,0.7230820759472484,0.10241385397746837,4943.778493903454,0.2803425230745056,94.3156372734492,1.9059314757600394,1.1115310334962099,89863.43360787148,281.64336383022044,0.0,0.0,0.0,357.1875,0.19169993938055463,0.9,nominal,14264.381808589736,nan,fixed_pitch,26.0,12.000000000000002,0.0,-2.58964025158326,0.0883071846601923,6.72255292041849,-2.60732012579163,0.04415359233009615,3.5,0.9,0.0,0.0,0.0,0.0,0.0,0.0,-0.04550632084857667,0.0007706255627434928,0.061086523819801536,-0.04550632084857667,0.0007706255627434928,0.061086523819801536,0.07500000000000001,1.0,18.742106993458304,0.26642429174193705,0.29272749404636356,-0.004511986797901262,-0.3545765078426909,-0.03868316750180713,18.746286188022403,0.3567089084768632,1.0,0.0,-0.49813771915299343,-0.6559407614011687,997.407221941231,91.98344916694978,0.24651826149516026,13.948980899356233,1.0,999.8748543039079,0.0,1.0,93.87920390897473,4983.591153405319,1.0,1.0,-0.4440687621877697,17.631350980506454,0.031145556888057507,-44.57640761704615,1.0,1000.7562451609707,0.0,1.0,-0.18636733488041632,8.31900914172472
0.1,9.312815475162333,0.0008706860340982741,1001.3524663591664,93.81550085279473,0.01688898216529035,13.260686492538955,94.74805692863497,17.981237557114174,0.029299900983278858,9.557522344797713,-0.1939837894011273,-0.008547092387466938,-26.025149756128517,-3.813989297060596,1.5121970867266383,0.2015143693100552,4989.052568405793,0.2816289187796305,94.74805692863497,1.9271716262920124,1.1114948404290814,89859.81999841798,281.6412089686654,0.0,0.0,0.0,362.25,0.19441694639539714,0.9,nominal,14308.510310097045,nan,fixed_pitch,26.0,12.000000000000002,0.0,-0.13842165680397858,0.15050377169540421,6.220675347253267,-1.73232012579163,0.09732868201275019,4.375,0.9,0.0,0.0,0.0,0.0,0.0,0.0,-0.030234689893626286,0.0016987059577490723,0.07635815477475191,-0.030234689893626286,0.0016987059577490723,0.07635815477475191,0.1,1.0,18.90280906813189,0.4193358480535163,1.0978815973344815,-0.0015535728959483826,-0.4570089821377899,-0.06547456302396545,18.939307728147764,0.46167796324553007,1.0,0.0,-0.49813771915299343,-0.6559407614011687,997.407221941231,91.98344916694978,0.24651826149516026,13.948980899356233,1.0,1000.0939454654439,0.0,1.0,94.24973248981541,4995.834338937414,1.0,1.0,-0.09204943112696534,16.75383095397839,0.10279825788947544,-45.02921555341316,1.0,1001.2478767941079,0.0,1.0,0.05209935787760368,9.43930425203524
0.125,11.669715588737397,0.001465749725536518,1001.6804929942158,94.27600454300256,0.023802547657529753,13.12106540197537,95.18470442479942,17.97637713345429,0.05418842156516129,10.209499575873581,-0.33848556227137483,0.003400569279657289,-26.083511891733213,-5.675380336915572,2.286315229350275,0.347420300134666,5034.980512007454,0.28292787980853906,95.18470442479942,1.951748376036763,1.1114590293243132,89856.24455228678,281.63907679553756,0.0,0.0,0.0,367.3125,0.19713395341023965,0.9,nominal,14353.193984839942,nan,fixed_pitch,26.0,12.000000000000002,0.0,0.2385418201285517,0.23235456462534068,5.640702483818994,-0.8573201257916301,0.16484162331904542,5.0078512419094965,0.9,0.0,0.0,0.0,0.0,0.0,0.0,-0.014963058938675902,0.0028770290712496057,0.08740349262140776,-0.014963058938675902,0.0028770290712496057,0.08740349262140776,0.125,1.0,19.02625359667988,0.42963606704301593,1.8876070943977892,0.0034936263355736193,-0.4567222181657141,-0.09999166484423487,19.124486231480812,0.46755290933701243,1.0,0.0,-0.49813771915299343,-0.6559407614011687,997.407221941231,91.98344916694978,0.24651826149516026,13.948980899356233,1.0,1000.0939454654439,0.0,1.0,95.6284819425869,4910.129976781944,1.0,1.0,-0.09204943112696534,16.75383095397839,0.10279825788947544,-45.02921555341316,1.0,1001.2478767941079,0.0,1.0,0.05209935787760368,9.43930425203524
0.15000000000000002,14.038118993724543,0.002219665916166051,1002.0056714515642,94.73613619948586,0.030156647625181315,13.0071382939359,95.62490291774682,17.97144878461903,0.09061401485635508,10.724547736001869,-0.5361582229905427,0.020563417958935452,-20.611873002714283,-7.74937866046879,2.9072999740265972,0.5446486205959935,5081.496208380212,0.28423739638842793,95.62490291774681,1.9776995557882884,1.111423530030131,89852.70026461016,281.6369631355648,0.0,0.0,0.0,372.375,0.19985096042508213,0.9,nominal,14398.379946954734,nan,fixed_pitch,26.0,12.000000000000002,0.0,-1.3971235347092548,0.33478922754089663,5.047401516184904,-1.1272218302504424,0.24981542542997104,5.0276263790472004,0.9,0.0,0.0,0.0,0.0,0.0,0.0,-0.019673732338226838,0.004360101696023366,0.0877486338744941,-0.019673732338226838,0.004360101696023366,0.0877486338744941,0.15000000000000002,1.0,19.271071139002856,0.340696785367881,2.395188787909267,0.0005312188888672018,-0.3561025539129642,-0.13500448638132828,19.422337307177916,0.3808352956855886,1.0,0.0,-0.49813771915299343,-0.6559407614011687,997.407221941231,91.98344916694978,0.24651826149516026,13.948980899356233,1.0,1001.1635323667283,0.0,1.0,95.45168511169084,5062.471813364286,1.0,1.0,-0.19238343845439485,15.882520792599147,0.11312397273268038,-45.337118230171086,1.0,1002.192526010545,0.0,1.0,0.5711088800643729,10.20443112159852
0.17500000000000002,16.418053363718293,0.0030650480852671053,1002.3284593118155,95.19737479974995,0.03381528676404218,12.911514410051081,96.06897790961786,17.966452510608406,0.13852252593080483,11.092199972916038,-0.7844201455144529,0.03709485916766525,-14.725607541036192,-9.721682615412687,3.3695299796787306,0.7893310264552607,5128.6393752930235,0.2855584375495589,96.06897790961784,2.003794390082281,1.1113882925720888,89849.18214524134,281.6348650144732,0.0,0.0,0.0,377.4375,0.20256796743992464,0.9,nominal,14444.108643809537,nan,fixed_pitch,26.0,12.000000000000002,0.0,-3.261277960359734,0.44958558687891736,4.56984785379887,-2.002221830250442,0.3497005061544442,4.798737116423035,0.9,0.0,0.0,0.0,0.0,0.0,0.0,-0.03494536329317722,0.006103425228285745,0.08375376261924042,-0.03494536329317722,0.006103425228285745,0.08375376261924042,0.17500000000000002,1.0,19.511641378324743,0.2452321984005769,2.7532774737341423,0.0003153038050325421,-0.2565129688206842,-0.17288736458264245,19.706466577112664,0.30933645666494325,1.0,0.0,-0.49813771915299343,-0.6559407614011687,997.407221941231,91.98344916694978,0.24651826149516026,13.948980899356233,1.0,1001.1635323667283,0.0,1.0,95.71600098256039,5061.637724707654,1.0,1.0,-0.19238343845439485,15.882520792599147,0.11312397273268038,-45.337118230171086,1.0,1002.192526010545,0.0,1.0,0.5711088800643729,10.20443112159852
0.2,18.809585548608535,0.003901191535021752,1002.6491606832153,95.66128739560963,0.033445737990185874,12.828054855992187,96.5175736132605,17.961388311422407,0.19667899589721677,11.372075520850526,-1.0769159774046646,0.047300507135733,-11.22856366913424,-11.442996400192053,3.7366694880856506,1.0744036492402733,5176.4846723927285,0.2868929192036811,96.5175736132605,2.0302460961046767,1.1113532837341065,89845.68687732922,281.6327804555591,0.0,0.0,0.0,382.5,0.20528497445476715,0.9,nominal,14490.450399709633,nan,fixed_pitch,26.0,12.000000000000002,0.0,-4.339332892743179,0.5732089716010458,4.262032140586548,-2.877221830250442,0.4614547388777451,4.530384628504792,0.9,0.0,0.0,0.0,0.0,0.0,0.0,-0.0502169942481276,0.008053904542347334,0.07907012814914877,-0.0502169942481276,0.008053904542347334,0.07907012814914877,0.2,1.0,19.705234615239256,0.1305337956897497,3.0608990573622386,-0.0014534890950891664,-0.1981695818874062,-0.2014216942395891,19.94197616468342,0.28256679692831116,1.0,0.0,17.26491393490654,1.4623876863007492,1001.0101301942694,95.58970671097374,-0.06439607064937891,13.162484964286037,1.0,1002.007225733514,0.0,1.0,96.70719474945781,5271.7390758883585,1.0,1.0,-2.2828749343802004,15.292533239017594,0.2807063477277307,-45.542290722740056,1.0,1002.5277684431115,0.0,1.0,0.5677971431522911,11.559110413121639
0.225,21.21280128514728,0.004607412258243858,1002.9680154037819,96.12862946154972,0.028248828928884223,12.754188822663224,96.97104481584391,17.956256187061037,0.2635090604167142,11.627162536693664,-1.406142181805606,0.04778901208187875,-10.255237595697658,-12.863678312965357,4.073519504517933,1.3919110869991567,5225.076934590824,0.28824189678964335,96.97104481584391,2.057005367668813,1.1113184773191216,89842.21184489265,281.6307078998754,0.0,0.0,0.0,387.5625,0.20800198146960966,0.9,nominal,14537.448054597702,nan,fixed_pitch,26.0,12.000000000000002,0.0,-4.548888510859601,0.7052930646878184,4.134256707480383,-3.713055170555021,0.5833739017827817,4.332320667992588,0.9,0.0,0.0,0.0,0.0,0.0,0.0,-0.06480503803438473,0.010181795356315559,0.07561325990867077,-0.06480503803438473,0.010181795356315559,0.07561325990867077,0.225,1.0,19.954954135380593,-0.026465184335245834,3.283244353487329,6.724929285145849e-07,-0.18009249222087081,-0.225923526398355,20.22326849042536,0.288919963891464,1.0,0.0,17.26491393490654,1.4623876863007492,1001.0101301942694,95.58970671097374,-0.06439607064937891,13.162484964286037,1.0,1002.007225733514,0.0,1.0,97.48734918681824,5144.720425917886,1.0,1.0,-2.2828749343802004,15.292533239017594,0.2807063477277307,-45.542290722740056,1.0,1002.5277684431115,0.0,1.0,0.5677971431522911,11.559110413121639
0.25,23.62778913402107,0.005051642185993004,1003.2852487885127,96.59951395495175,0.01776919710996585,12.689335389233426,97.42938799303697,17.951056137524297,0.3376441654901022,11.915004834219074,-1.7649623653525808,0.037384301286539044,-11.587267590772695,-13.99046732881649,4.438180980974279,1.7342758470546984,5274.422990569847,0.28960536065827436,97.42938799303697,2.0857805622890866,1.1112838487179608,89838.75459056156,281.62864588287465,0.0,0.0,0.0,392.625,0.21071898848445217,0.9,nominal,14585.110107380735,nan,fixed_pitch,26.0,12.000000000000002,0.0,-3.9339835054983787,0.8471763988779047,4.1736406103450605,-3.8235193380267,0.7152751503303433,4.252980639168824,0.9,0.0,0.0,0.0,0.0,0.0,0.0,-0.06673300146223994,0.012483906430961896,0.07422851517706888,-0.06673300146223994,0.012483906430961896,0.07422851517706888,0.25,1.0,20.069889576293196,-0.023882113832285338,3.590888117178339,-0.0001736803377709765,-0.20213096893124702,-0.24270520354337458,20.38861239589531,0.315852457000061,1.0,0.0,17.26491393490654,1.4623876863007492,1001.0101301942694,95.58970671097374,-0.06439607064937891,13.162484964286037,1.0,1004.5569151748774,0.0,1.0,97.56640993075733,5280.4951625948315,1.0,1.0,-0.9454558297856076,14.9013489624304,0.3994612899404942,-45.655123593523165,1.0,1003.4594023888479,0.0,1.0,0.7833259389080833,12.03967783281672
0.275,26.054613228986963,0.005095804714943239,1003.601169076034,97.07296379863563,0.0017665011580094044,12.636811500852263,97.89202883115571,17.945788162812185,0.4179067513939443,12.216107634604075,-2.146858514118152,0.017359973276087935,-12.142370133198472,-14.858755360200087,4.8093432407920265,2.0949395272419307,5324.46760109435,0.29098160479414686,97.8920288311557,2.1157918638669124,1.1112493642724046,89835.31175361006,281.6265924010058,0.0,0.0,0.0,397.6875,0.21343599549929468,0.9,nominal,14633.390059059398,nan,fixed_pitch,26.0,12.000000000000002,0.0,-3.5841426006266097,0.9975967368675435,4.354005528014674,-3.7038309693266553,0.8564359435989433,4.303493083591749,0.9,0.0,0.0,0.0,0.0,0.0,0.0,-0.06464404535208323,0.014947627048226015,0.07511012364547957,-0.06464404535208323,0.014947627048226015,0.07511012364547957,0.275,1.0,20.297340777541905,-0.12262707178905972,4.002550080993611,0.0011758462468022231,-0.21452301931229373,-0.2583536934216395,20.68858349885905,0.3358096772486781,1.0,0.0,17.26491393490654,1.4623876863007492,1001.0101301942694,95.58970671097374,-0.06439607064937891,13.162484964286037,1.0,1004.5569151748774,0.0,1.0,97.6443364211131,5391.161113328498,1.0,1.0,-0.9454558297856076,14.9013489624304,0.3994612899404942,-45.655123593523165,1.0,1003.4594023888479,0.0,1.0,0.7833259389080833,12.03967783281672
0.30000000000000004,28.493325593216106,0.004598802480044485,1003.9161143950356,97.5484945691658,-0.019880089395950165,12.597812760064137,98.35859939154359,17.940452262924705,0.5030130353831804,12.488815826403902,-2.5461749666344016,-0.01272094543632676,-11.033385742174278,-15.514827506942302,5.144803184964379,2.4685983704893144,5375.176955198193,0.29236953672291577,98.35859939154358,2.1457775547128404,1.1112149870649242,89831.87964801463,281.62454525643227,0.0,0.0,0.0,402.75,0.2161530025141372,0.9,nominal,14682.261000365155,nan,fixed_pitch,26.0,12.000000000000002,0.0,-3.8330261302599675,1.1549219718548387,4.645962687155374,-3.768428549793311,1.005678957726891,4.474727885373561,0.9,0.0,0.0,0.0,0.0,0.0,0.0,-0.06577148582004835,0.017552409030359116,0.07809873473057205,-0.06577148582004835,0.017552409030359116,0.07809873473057205,0.30000000000000004,1.0,20.624026703607402,-0.2258079501863936,4.306636272662571,0.00027069802858380914,-0.19278569210984467,-0.2691199848755013,21.070087391524783,0.3310467680239222,1.0,0.0,17.26491393490654,1.4623876863007492,1001.0101301942694,95.58970671097374,-0.06439607064937891,13.162484964286037,1.0,1004.3333119007355,0.0,1.0,98.41039374815506,5380.9437886773285,1.0,1.0,-2.419458783327359,14.392065068330647,0.6133265866452621,-45.81245439057728,1.0,1003.349773770226,0.0,1.0,0.350510639359901,12.145135476770177
0.325,30.943985436431095,0.0034178975339094653,1004.230387767934,98.02639372859961,-0.047236197845400785,12.570934915934801,98.82916828221053,17.93504843786185,0.5916121668472033,12.715306703659444,-2.9584207842772736,-0.053781053995577255,-9.2129521617733,-16.005396319279402,5.427718430402709,2.8511759958753933,5426.564490467229,0.29376936148956306,98.82916828221052,2.1751848437701384,1.1111806840133356,89828.45497076349,281.6225024795084,0.0,0.0,0.0,407.8125,0.2188700095289797,0.9,nominal,14731.738183881153,nan,fixed_pitch,26.0,12.000000000000002,0.0,-4.357050089128027,1.3182656811255284,5.023116639670885,-4.062739319460669,1.1619723194262097,4.748922262522223,0.9,0.0,0.0,0.0,0.0,0.0,0.0,-0.0709081777748224,0.020280242791022626,0.0828843294022713,-0.0709081777748224,0.020280242791022626,0.0828843294022713,0.325,1.0,20.803381892397688,-0.2808697402264627,4.591809633955333,-0.0030830174188623003,-0.15792387253889517,-0.2783138705442857,21.305968686882085,0.32001260139473825,1.0,0.0,17.26491393490654,1.4623876863007492,1001.0101301942694,95.58970671097374,-0.06439607064937891,13.162484964286037,1.0,1004.3333119007355,0.0,1.0,98.86288018075177,5485.254911674736,1.0,1.0,-2.419458783327359,14.392065068330647,0.6133265866452621,-45.81245439057728,1.0,1003.349773770226,0.0,1.0,0.350510639359901,12.145135476770177
0.35000000000000003,33.40666651335335,0.0014091787386408686,1004.544239020353,98.50724307689018,-0.08034875181074386,12.55405009675908,99.30401587228675,17.929576687623626,0.6825440823934319,12.906230002227318,-3.3803816945526752,-0.10523017600284286,-7.8194632127105175,-16.372453438227637,5.670110102425502,3.2396647905741633,5478.667227768848,0.29518191344127315,99.30401587228675,2.2043815471806627,1.1111464278448397,89825.0349989203,281.6204624463677,0.0,0.0,0.0,412.875,0.2215870165438222,0.9,nominal,14781.857545770636,nan,fixed_pitch,26.0,12.000000000000002,0.0,-4.751704608711686,1.4871342720491445,5.463918517852945,-4.407221964086178,1.324553295737677,5.106420390187584,0.9,0.0,0.0,0.0,0.0,0.0,0.0,-0.07692053413951508,0.023117816128764637,0.08912384879974689,-0.07692053413951508,0.023117816128764637,0.08912384879974689,0.35000000000000003,1.0,21.04707290576199,-0.3668804233452458,4.879480328785493,-0.006354816344480091,-0.13617310968907761,-0.28139118550104975,21.60840594362525,0.31267315006385155,1.0,0.0,17.26491393490654,1.4623876863007492,1001.0101301942694,95.58970671097374,-0.06439607064937891,13.162484964286037,1.0,1005.2359543737992,0.0,1.0,99.18874852076429,5428.006352866057,1.0,1.0,-3.35469482682293,14.083780006645988,0.863586020036763,-45.84893847967336,1.0,1004.8111581541623,0.0,1.0,0.7368384803694702,12.714017530181986
0.375,35.8814516066711,-0.001572387710649921,1004.8578870254307,98.99140373270997,-0.11926265797163157,12.545920203109468,99.7833270155729,17.924037012210032,0.7749993642832934,13.079871921010444,-3.8099040473939203,-0.16464019845713992,-7.158049989332772,-16.651412055809146,5.89107496756238,3.63193468900621,5531.512255605557,0.29660774292619585,99.7833270155729,2.233905426506321,1.1111121946674878,89821.61734715206,281.61842373433467,0.0,0.0,0.0,417.9375,0.2243040235586647,0.9,nominal,14832.645772946318,nan,fixed_pitch,26.0,12.000000000000002,0.0,-4.8998803184179325,1.6605315804073957,5.950814698456351,-4.653551141252055,1.4925424380725363,5.528617544321968,0.9,0.0,0.0,0.0,0.0,0.0,0.0,-0.08121978932478807,0.026049779770109326,0.09649257923194186,-0.08121978932478807,0.026049779770109326,0.09649257923194186,0.375,1.0,21.225348679325375,-0.5016873073645565,5.145730127374896,-0.0048090285918387,-0.12470548774094622,-0.29384279715405337,21.845952834726248,0.31924626053882377,1.0,0.0,17.26491393490654,1.4623876863007492,1001.0101301942694,95.58970671097374,-0.06439607064937891,13.162484964286037,1.0,1005.2359543737992,0.0,1.0,99.83649485565594,5604.023074095197,1.0,1.0,-3.35469482682293,14.083780006645988,0.863586020036763,-45.84893847967336,1.0,1004.8111581541623,0.0,1.0,0.7368384803694702,12.714017530181986
0.4,38.36842439367267,-0.005673122480634488,1005.1715459894444,99.4789114800627,-0.16402939079938267,12.546358560549663,100.26710252136078,17.918429411621066,0.8684710223285134,13.244906582208404,-4.2455261982925805,-0.2290069163706156,-6.844044649750601,-16.870783950148102,6.099460061979682,4.026552581267275,5585.106612226514,0.29804685322095686,100.2671025213608,2.263874323134497,1.111077961100936,89818.19968127021,281.6163849510686,0.0,0.0,0.0,423.0,0.2270210305735072,0.9,nominal,14884.111465491922,nan,fixed_pitch,26.0,12.000000000000002,0.0,-4.931311564665648,1.8367981193781768,6.469306350733608,-4.792431352958851,1.6646702787253564,5.998961947527787,0.9,0.0,0.0,0.0,0.0,0.0,0.0,-0.08364370628493845,0.029053977323849185,0.1047016376862112,-0.08364370628493845,0.029053977323849185,0.1047016376862112,0.4,1.0,21.498035585075094,-0.4422432635743354,5.3719814463477364,-0.006050381998131859,-0.11734877611614926,-0.29781080642309354,22.163467638915087,0.320154054793399,1.0,0.0,39.81793062987214,-0.9481648403557198,1006.3171488863183,99.29491223299071,-0.04772459676631842,12.617174119568544,1.0,1006.3060156563341,0.0,1.0,100.16874987784865,5565.410829105479,1.0,1.0,-4.341351840391865,13.817282157536908,1.0489968549770667,-45.97471216036627,1.0,1005.366614636402,0.0,1.0,1.1219699935744376,13.062524401422626
0.42500000000000004,40.86766652915554,-0.011040975719871208,1005.4854331162126,99.96968541931503,-0.21471412956946875,12.555485070725089,100.75526939250098,17.912753885856727,0.9626148536871811,13.399239288157224,-4.686214608725006,-0.2960879970096749,-6.446606068286327,-17.0524454503518,6.293158017460469,4.422617854798023,5639.449134853895,0.2994990282342071,100.75526939250098,2.2659824739432675,1.1110437034398957,89814.77963471359,281.6143446847446,0.0,0.0,0.0,422.97039473684214,0.22700514164359586,0.9,nominal,14936.255877846828,nan,fixed_pitch,26.0,12.000000000000002,0.0,-4.997949040328309,2.014277978864565,7.007999752457275,-4.89519019664358,1.8394741287949607,6.503480849992532,0.9,0.0,0.0,0.0,0.0,0.0,0.0,-0.08543718644277914,0.0321048800527263,0.11350715367276912,-0.08543718644277914,0.0321048800527263,0.11350715367276912,0.42500000000000004,1.0,21.453409367897002,-0.5652752683695045,5.643597106571474,-0.0028046046525965966,-0.11578137548189678,-0.2949473570468212,22.190504679635,0.31687085089140393,1.0,0.0,39.81793062987214,-0.9481648403557198,1006.3171488863183,99.29491223299071,-0.04772459676631842,12.617174119568544,1.0,1006.3060156563341,0.0,1.0,101.12781399056338,5600.107515917461,1.0,1.0,-4.341351840391865,13.817282157536908,1.0489968549770667,-45.97471216036627,1.0,1005.366614636402,0.0,1.0,1.1219699935744376,13.062524401422626
0.45,43.379087537259835,-0.017811879837625624,1005.7997197875757,100.4568403241718,-0.2708361647101766,12.571466854523804,101.24076204285828,17.907078757315638,1.0571577527148008,13.538280997995257,-5.131278220678415,-0.3647892314215252,-5.865945613665483,-17.21230165583371,6.468187864243441,4.819920663647785,5693.752038739875,0.3009432659039626,101.24076204285828,2.2681166960455648,1.1110094029821556,89811.35534045672,281.61230182138075,0.0,0.0,0.0,422.9407894736842,0.2269892527136845,0.9,nominal,14988.371771564154,nan,fixed_pitch,26.0,12.000000000000002,0.0,-5.137292548889808,2.1919926679130115,7.559177269795765,-5.016241372766694,2.0157333983539862,7.031329059894149,0.9,0.0,0.0,0.0,0.0,0.0,0.0,-0.08754992802953902,0.03518118464369151,0.12271984288631047,-0.08754992802953902,0.03518118464369151,0.12271984288631047,0.45,1.0,21.54869896554423,-0.6074479558079614,5.856040969199594,-0.005349168253817019,-0.09970910645151132,-0.2985534760863301,22.338501202175724,0.3148089858844524,1.0,0.0,39.81793062987214,-0.9481648403557198,1006.3171488863183,99.29491223299071,-0.04772459676631842,12.617174119568544,1.0,1005.0798345855329,0.0,1.0,101.19555733277566,5697.693282027005,1.0,1.0,-4.369500344911146,13.483324883306711,1.3132458699525134,-46.03227000946127,1.0,1005.1474890174477,0.0,1.0,1.085013273128523,13.65699735243253
0.47500000000000003,45.90260037258405,-0.026121698999766303,1006.1145631848581,100.94051341296849,-0.3323927664856271,12.593735891296067,101.72364482618877,17.901404025997795,1.1518811048823236,13.661208004622942,-5.580346701726066,-0.4348073786591867,-5.252715224363207,-17.361165776183594,6.624108130071417,5.218251001427301,5748.018177778683,0.3023797580078974,101.72364482618877,2.2701997717256117,1.1109750425770224,89807.92508641836,281.6102553392984,0.0,0.0,0.0,422.91118421052636,0.22697336378377314,0.9,nominal,15040.46333941909,nan,fixed_pitch,26.0,12.000000000000002,0.0,-5.2970928922098475,2.3697714122576845,8.118019305428366,-5.156667132488271,2.192752405305835,7.574674182661258,0.9,0.0,0.0,0.0,0.0,0.0,0.0,-0.09000081989129498,0.038270749153612005,0.13220300425324932,-0.09000081989129498,0.038270749153612005,0.13220300425324932,0.47500000000000003,1.0,21.360216638958494,-0.655236948730818,6.014833699629785,-0.006289067965261728,-0.08864553148293199,-0.3025973497584882,22.20059491897511,0.31537713726366406,1.0,0.0,39.81793062987214,-0.9481648403557198,1006.3171488863183,99.29491223299071,-0.04772459676631842,12.617174119568544,1.0,1005.0798345855329,0.0,1.0,101.81514774748317,5755.224411890084,1.0,1.0,-4.369500344911146,13.483324883306711,1.3132458699525134,-46.03227000946127,1.0,1005.1474890174477,0.0,1.0,1.085013273128523,13.65699735243253
0.5,48.438121952166156,-0.036106594894812334,1006.4301054157437,101.4208631832845,-0.3993958358018413,12.621689235423188,102.20400209889907,17.895729691903203,1.2466336098575794,13.770907068667308,-6.0333089332479695,-0.5060054891468021,-4.755398935947532,-17.506197809970537,6.764201429735773,5.617565485244216,5802.252843070917,0.3038087557430991,102.20400209889908,2.2723252897926645,1.1109406067204397,89804.48732495171,281.60820431479766,0.0,0.0,0.0,422.88157894736844,0.22695747485386178,0.9,nominal,15092.536815791183,nan,fixed_pitch,26.0,12.000000000000002,0.0,-5.42378701748543,2.5477893642339158,8.681725206225218,-5.290227074986851,2.3702708847698757,8.128199694443238,0.9,0.0,0.0,0.0,0.0,0.0,0.0,-0.0923318806366695,0.04136903110339345,0.14186384692763154,-0.0923318806366695,0.04136903110339345,0.14186384692763154,0.5,1.0,21.41045128217302,-0.744815290735667,6.205397611057751,-0.011827514024987563,-0.08101314902060337,-0.3074685781573788,22.304016083094528,0.31818225430775665,1.0,0.0,39.81793062987214,-0.9481648403557198,1006.3171488863183,99.29491223299071,-0.04772459676631842,12.617174119568544,1.0,1005.6527155618983,0.0,1.0,102.09857272632941,5845.1576420932115,1.0,1.0,-7.760657840288683,13.312533558575062,1.536373235654205,-46.15055826240782,1.0,1006.3864906655514,0.0,1.0,1.923494556327672,13.683135505725316
0.525,50.98557175416155,-0.04790328304626833,1006.7464780462002,101.89799207981568,-0.4718675260582398,12.654905218258193,102.68188776480216,17.890055755031856,1.3413239742352954,13.87064614237715,-6.49019971308207,-0.5781939235339759,-4.389303379135939,-17.651983868620583,6.892021372510358,6.0179252396134135,5856.458056169661,0.30523041975936205,102.68188776480216,2.274584358472715,1.1109060810602305,89801.04062344736,281.60614789269965,0.0,0.0,0.0,422.8519736842105,0.22694158592395042,0.9,nominal,15144.595386403482,nan,fixed_pitch,26.0,12.000000000000002,0.0,-5.51020727216306,2.7261741123540117,9.248546888375385,-5.400217173574956,2.5482224985619437,8.68837329140931,0.9,0.0,0.0,0.0,0.0,0.0,0.0,-0.0942515700016251,0.044474872673302385,0.15164072057742922,-0.0942515700016251,0.044474872673302385,0.15164072057742922,0.525,1.0,21.395179121553614,-0.8488927015704466,6.363554618023176,-0.010967907304391985,-0.07529022196864651,-0.30885211817913977,22.3376170581982,0.31808574853090654,1.0,0.0,39.81793062987214,-0.9481648403557198,1006.3171488863183,99.29491223299071,-0.04772459676631842,12.617174119568544,1.0,1005.6527155618983,0.0,1.0,103.05182372313084,5766.202325237753,1.0,1.0,-7.760657840288683,13.312533558575062,1.536373235654205,-46.15055826240782,1.0,1006.3864906655514,0.0,1.0,1.923494556327672,13.683135505725316
0.55,53.544870378626555,-0.06164921813382101,1007.0638062018013,102.37194497860044,-0.5498374035021073,12.693126224044954,103.15732108392223,17.884382215383756,1.4358928758067826,13.961924126333566,-6.9511016273816155,-0.6512169060945472,-4.083704132108947,-17.8013034809188,7.009253801804066,6.419453354825107,5910.632004446692,0.3066448077123639,103.15732108392223,2.2769713433688383,1.1108714519484135,89797.58361963743,281.60408525968825,0.0,0.0,0.0,422.8223684210526,0.22692569699403903,0.9,nominal,15196.638721694606,nan,fixed_pitch,26.0,12.000000000000002,0.0,-5.580281461321159,2.904922207615706,9.817341650984241,-5.4902493174480576,2.726572353088825,9.252857471196776,0.9,0.0,0.0,0.0,0.0,0.0,0.0,-0.09582292734483996,0.04758766485524937,0.16149282809014012,-0.09582292734483996,0.04758766485524937,0.16149282809014012,0.55,1.0,21.30129741029174,-0.9300020611033167,6.636564582831165,-0.010190263357198647,-0.0688247310996625,-0.3103535782501735,22.330565703928034,0.318056643714475,1.0,0.0,39.81793062987214,-0.9481648403557198,1006.3171488863183,99.29491223299071,-0.04772459676631842,12.617174119568544,1.0,1006.405857276399,0.0,1.0,103.41856233918134,5831.75674640284,1.0,1.0,-7.863619966743798,13.178221158021348,1.7940184764499583,-46.12869593409214,1.0,1006.9929451826644,0.0,1.0,1.6441124933306555,13.679820212221347
0.5750000000000001,56.11593912795223,-0.07748275205694669,1007.3822094758955,102.84274997302704,-0.633341356925027,12.736130963768755,103.63031108326953,17.878709072958905,1.530288205630975,14.044830203683503,-7.416106555274727,-0.7250699652745795,-3.782235759412834,-17.95564530210311,7.116149885300921,6.822304527882292,5964.771758928031,0.3080519468279682,103.63031108326952,2.279510053325604,1.1108367063420246,89794.11501169231,281.60201563840667,0.0,0.0,0.0,422.79276315789474,0.2269098080641277,0.9,nominal,15248.665432164398,nan,fixed_pitch,26.0,12.000000000000002,0.0,-5.65369754623794,3.0840259524488114,10.387524716253324,-5.571973431842999,2.905299152768818,9.626428735598388,0.9,0.0,0.0,1.0,0.0,0.0,0.0,-0.09724928221930819,0.050707035971217604,0.16801287664478654,-0.09724928221930819,0.050707035971217604,0.16801287664478654,0.5750000000000001,1.0,21.21336141136499,-1.0357235427876326,6.741053659798956,-0.010481903117861843,-0.06547326284052014,-0.30971673066533045,22.28275633916421,0.31673501810500354,1.0,0.0,39.81793062987214,-0.9481648403557198,1006.3171488863183,99.29491223299071,-0.04772459676631842,12.617174119568544,1.0,1006.405857276399,0.0,1.0,103.7075959044382,6050.255829259981,1.0,1.0,-7.863619966743798,13.178221158021348,1.7940184764499583,-46.12869593409214,1.0,1006.9929451826644,0.0,1.0,1.6441124933306555,13.679820212221347
0.6000000000000001,58.69869869884647,-0.09555600505552006,1007.7018006172697,103.31038283576956,-0.7229301199429351,12.783645654967653,104.10081376177308,17.8730363277573,1.623792691042298,14.119482048689774,-7.882588147087023,-0.7998856103736263,-3.4830348515413845,-18.009572422302405,7.212889900384612,7.223733295777561,6018.86829950645,0.3094517066831457,104.1008137617731,2.2821745855687827,1.1108018319462547,89790.63357250807,281.5999382959877,0.0,0.0,0.0,422.7631578947369,0.22689391913421636,0.9,nominal,15300.668575955031,nan,fixed_pitch,26.0,12.000000000000002,0.0,-5.7302951862338105,3.2580887919669603,11.000050642508462,-5.6511343090384045,3.081693972367889,9.813214367799192,0.9,0.0,0.0,1.0,0.0,0.0,0.0,-0.09863090016513491,0.05378570635668282,0.17127290092210973,-0.09863090016513491,0.05378570635668282,0.17127290092210973,0.6000000000000001,1.0,21.238867765338796,-1.056715307681992,6.963937040052997,-0.012710983003029712,-0.05656546736621701,-0.3182293462481378,22.376384209537942,0.3234673677525742,1.0,0.0,62.61657784120447,-0.5416800401565623,1005.8319235420421,103.19929580162463,-0.8663695628478454,12.712080836669024,1.0,1008.9312034967413,0.0,1.0,103.54724538690071,5978.030937467267,1.0,1.0,-6.438324506560909,12.927781156557224,1.998192277903008,-46.20244059042815,1.0,1007.4516975770073,0.0,1.0,1.9680793878592093,14.170560269963438
0.625,61.2930692195198,-0.11603382837813979,1008.0226849605921,103.77482082693321,-0.8191129329047893,12.83537373289434,104.56878694200299,17.867363979778947,1.715002139365557,14.186683040103922,-8.345259620682574,-0.8768220851528262,-3.209683579047632,-17.85926653081522,7.300194036279873,7.61845074914853,6072.912749458987,0.3108439622540557,104.56878694200299,2.2849314531979514,1.1107668172765262,89787.13815590084,281.59785254775613,0.0,0.0,0.0,422.73355263157896,0.22687803020430497,0.9,nominal,15352.641264729798,nan,fixed_pitch,26.0,12.000000000000002,0.0,-5.80041295269239,3.4219645679292907,11.691423179116443,-5.7257736308653975,3.2518292701485896,9.906607183899595,0.9,0.0,0.0,1.0,0.0,0.0,0.0,-0.09993360208247161,0.05675512747681705,0.17290291306077132,-0.09993360208247161,0.05675512747681705,0.17290291306077132,0.625,1.0,21.184678429319835,-1.1332661493593865,7.138589934019776,-0.012970620870415303,-0.05538073963388722,-0.31061760642257197,22.383796786181325,0.3157824579482658,1.0,0.0,62.61657784120447,-0.5416800401565623,1005.8319235420421,103.19929580162463,-0.8663695628478454,12.712080836669024,1.0,1008.9312034967413,0.0,1.0,104.03514428904566,6052.422447982295,1.0,1.0,-6.438324506560909,12.927781156557224,1.998192277903008,-46.20244059042815,1.0,1007.4516975770073,0.0,1.0,1.9680793878592093,14.170560269963438
0.65,63.89897093672137,-0.13908570720692823,1008.3449612279869,104.23606868806274,-0.9220751531515379,12.891050695793282,105.03422026259874,17.86169202902384,1.8021303100390833,14.2475816333102,-8.797546191235178,-0.9581090904488136,-2.9729837605599405,-17.454428398103488,7.378984862740602,8.000110241793543,6126.899880156136,0.31222868307495055,105.03422026259874,2.287767333322172,1.1107316515709371,89783.62768786374,281.5957577520181,0.0,0.0,0.0,422.7039473684211,0.22686214127439364,0.9,nominal,15404.579827112491,nan,fixed_pitch,26.0,12.000000000000002,0.0,-5.85887991360797,3.573479653884209,12.47358772569827,-5.792326772236684,3.412654462016399,9.953303591949798,0.9,0.0,0.0,1.0,0.0,0.0,0.0,-0.1010951735269458,0.05956205659506193,0.17371791913010215,-0.1010951735269458,0.05956205659506193,0.17371791913010215,0.65,1.0,21.187594808367503,-1.3317822748145913,7.148582467596326,-0.01939780733372605,-0.05229189218366322,-0.3040358079650424,22.400670728509393,0.30910918692665923,1.0,0.0,62.61657784120447,-0.5416800401565623,1005.8319235420421,103.19929580162463,-0.8663695628478454,12.712080836669024,1.0,1007.1135070771927,0.0,1.0,105.03750272471953,6148.534046664723,1.0,1.0,-9.280058603365099,12.760704659789427,2.278221847867072,-46.25096711873031,1.0,1008.2549273770355,0.0,1.0,1.499327977327689,14.236681267543153
0.675,66.51632468294325,-0.16488009111010052,1008.6687226757763,104.69414984887536,-1.0317753561268916,12.950457911575864,105.49712760584421,17.85602047549198,1.8831903125071952,14.303148753337199,-9.232344749676766,-1.0461658243168892,-2.7635058985270606,-16.7748010437322,7.449882128167381,8.361996698555355,6180.827305653479,0.31360591073329513,105.49712760584421,2.290651796507667,1.110696324665062,89780.10115406662,281.59365330260744,0.0,0.0,0.0,422.6743421052631,0.22684625234448222,0.9,nominal,15456.48309577029,nan,fixed_pitch,26.0,12.000000000000002,0.0,-5.90787327001194,3.7117642526514296,13.344966892535396,-5.850100021124312,3.5622093573339146,9.9766517959749,0.9,0.0,0.0,1.0,0.0,0.0,0.0,-0.10210350693960907,0.06217228193082802,0.17412542216476756,-0.10210350693960907,0.06217228193082802,0.17412542216476756,0.675,1.0,21.18743420166368,-1.415855021807812,7.3486583073092,-0.01822370673345603,-0.04935260747889332,-0.29333982256335955,22.470309130276576,0.298020192023252,1.0,0.0,62.61657784120447,-0.5416800401565623,1005.8319235420421,103.19929580162463,-0.8663695628478454,12.712080836669024,1.0,1007.1135070771927,0.0,1.0,105.53197486020036,6253.101324957899,1.0,1.0,-9.280058603365099,12.760704659789427,2.278221847867072,-46.25096711873031,1.0,1008.2549273770355,0.0,1.0,1.499327977327689,14.236681267543153
0.7000000000000001,69.14505250626102,-0.19358000321276997,1008.994057770019,105.14911293271115,-1.1479964841067773,13.01340376970862,105.95755057633707,17.85034931918337,1.9561245072890734,14.35404125137749,-9.642486610728207,-1.142767797649767,-2.567022005396233,-15.818283198900739,7.513105205339977,8.697444161125219,6234.69595363529,0.3149757692139536,105.95755057633708,2.2935320979470646,1.1106608269181844,89776.55759249025,281.59153862449483,0.0,0.0,0.0,422.64473684210526,0.22683036341457088,0.9,nominal,15508.352838698873,nan,fixed_pitch,26.0,12.000000000000002,0.0,-5.951591059663887,3.836101512497924,14.296219275366717,-5.9008455403941,3.699155434915919,9.988325897987451,0.9,0.0,0.0,1.0,0.0,0.0,0.0,-0.10298918333150109,0.0645624418823256,0.17432917368210027,-0.10298918333150109,0.0645624418823256,0.17432917368210027,0.7000000000000001,1.0,21.075450337279612,-1.543595091687326,7.492831092829186,-0.022294164267968365,-0.048296373686315855,-0.2779614430445193,22.42096809934594,0.2830055357957631,1.0,0.0,62.61657784120447,-0.5416800401565623,1005.8319235420421,103.19929580162463,-0.8663695628478454,12.712080836669024,1.0,1008.2542149539465,0.0,1.0,106.24806595671197,6271.500808145281,1.0,1.0,-8.989728992255856,12.662545118967216,2.3519983393001747,-46.25872845290027,1.0,1008.8297515709859,0.0,1.0,1.7407310731797314,14.078640527661475
0.7250000000000001,71.78507853710443,-0.22533938028197906,1009.3210503268184,105.60104123373584,-1.2703750827683633,13.079702271976524,106.41556452899005,17.844678560098004,2.0189109986128044,14.400792172448295,-10.02105457992002,-1.2486132246785764,-2.3776415088595013,-14.594835121122559,7.56870858339185,9.000112862088818,6288.510847479033,0.3163384828200721,106.41556452899006,2.2963492695986973,1.1106251491979349,89772.9960918913,281.58941317287565,0.0,0.0,0.0,422.6151315789474,0.22681447448465955,0.9,nominal,15560.194465199314,nan,fixed_pitch,26.0,12.000000000000002,0.0,-5.991563967126708,3.9453938332207903,15.313327253628403,-5.946204753760403,3.822274634068355,9.994162948993724,0.9,0.0,0.0,1.0,0.0,0.0,0.0,-0.1037808509508577,0.06671127727995421,0.1744310494407666,-0.1037808509508577,0.06671127727995421,0.1744310494407666,0.7250000000000001,1.0,21.092444455540146,-1.645135203614176,7.662837450739596,-0.020822926208053438,-0.04359936927457796,-0.25772020294628667,22.501483523196292,0.2622102253225115,1.0,0.0,62.61657784120447,-0.5416800401565623,1005.8319235420421,103.19929580162463,-0.8663695628478454,12.712080836669024,1.0,1008.2542149539465,0.0,1.0,106.70103908604621,6301.442196223441,1.0,1.0,-8.989728992255856,12.662545118967216,2.3519983393001747,-46.25872845290027,1.0,1008.8297515709859,0.0,1.0,1.7407310731797314,14.078640527661475
0.75,74.43632994829505,-0.26029989246987406,1009.6497795326896,106.05005644762515,-1.3984204875157993,13.149168234848117,106.87128088346618,17.839008198235888,2.06965258892254,14.443990140069264,-10.361618295347478,-1.3632922889638117,-2.1974478545320744,-13.123248118213985,7.616800930533368,9.26419163916175,6342.2814646644165,0.31769438305472275,106.8712808834662,2.299051049927017,1.1105892828780153,89769.41579157354,281.5872764330375,0.0,0.0,0.0,422.5855263157895,0.2267985855547482,0.9,nominal,15612.01734929061,nan,fixed_pitch,26.0,12.000000000000002,0.0,-6.026700010119785,4.038096186458907,16.379301788390453,-5.9864523819400945,3.9301854102636304,9.997081474496863,0.9,0.0,0.0,1.0,0.0,0.0,0.0,-0.10448330457871177,0.0685946756229445,0.17448198732009979,-0.10448330457871177,0.0685946756229445,0.17448198732009979,0.75,1.0,21.06418903831312,-1.750742728340002,7.6705254114222186,-0.024319526409291498,-0.03338833789002565,-0.22758186927763396,22.485598058088204,0.2313000814866541,1.0,0.0,62.61657784120447,-0.5416800401565623,1005.8319235420421,103.19929580162463,-0.8663695628478454,12.712080836669024,1.0,1010.874306232488,0.0,1.0,107.11653567164619,6359.913180260346,1.0,1.0,-10.098132610295341,12.47878891340819,2.6799160051654436,-46.298485862307686,1.0,1010.4797760382505,0.0,1.0,2.2651546720843285,14.297864105238446
0.775,77.09873787119831,-0.29858814118870985,1009.9803201400838,106.49631691613011,-1.5315299487534308,13.221624295767853,107.32484544458094,17.83333823359702,2.1066470316578596,14.484279339729,-10.658416207669147,-1.4855239426919584,-2.0293649283530413,-11.42929657808387,7.65757950993556,9.484557732020447,6396.02162468608,0.31904390363035334,107.32484544458094,2.3015920252697764,1.1105532198168182,89765.81587925201,281.5851279190894,0.0,0.0,0.0,422.5559210526316,0.22678269662483683,0.9,nominal,15663.834731353345,nan,fixed_pitch,26.0,12.000000000000002,0.0,-6.055791890870984,4.112415707896197,17.47519314424681,-6.02112213640554,4.021300559079914,9.998540737248431,0.9,0.0,0.0,1.0,0.0,0.0,0.0,-0.1050884059449918,0.07018493496823325,0.17450745625976638,-0.1050884059449918,0.07018493496823325,0.17450745625976638,0.775,1.0,21.08160098722812,-1.816024674749373,7.8773304435148335,-0.027689833673447323,-0.03426413530505863,-0.19854978930922176,22.57840075648233,0.20337840763415102,1.0,0.0,62.61657784120447,-0.5416800401565623,1005.8319235420421,103.19929580162463,-0.8663695628478454,12.712080836669024,1.0,1010.874306232488,0.0,1.0,106.75823223514809,6420.317291641842,1.0,1.0,-10.098132610295341,12.47878891340819,2.6799160051654436,-46.298485862307686,1.0,1010.4797760382505,0.0,1.0,2.2651546720843285,14.297864105238446
0.8,79.77223823425098,-0.3403132106879128,1010.3127428033121,106.9400145221067,-1.6690027799681177,13.296906529133004,107.77643527001824,17.8276686661814,2.128439196937144,14.522261228039214,-10.906502076735322,-1.613495224084089,-1.8732218585484162,-9.544525575981279,7.691265691193305,9.656908487030217,6449.749196773801,0.32038757116029665,107.77643527001824,2.303928682120124,1.110516952320731,89762.19558738857,281.5829671717785,0.0,0.0,0.0,422.5263157894737,0.22676680769492547,0.9,nominal,15715.663458968316,nan,fixed_pitch,26.0,12.000000000000002,0.0,-6.078948323278678,4.1666094932874,18.5807916270469,-6.050035229842109,4.093955026183656,9.999270368624217,0.9,0.0,0.0,1.0,0.0,0.0,0.0,-0.10559303462239669,0.07145299463547547,0.17452019072959968,-0.10559303462239669,0.07145299463547547,0.17452019072959968,0.8,1.0,21.07690208246493,-1.9160498908178225,7.987189170450608,-0.030121159625890435,-0.0354512344614211,-0.16885986387099897,22.620836399710797,0.17515058637806305,1.0,0.0,78.63992876028591,0.2877859066943142,1012.5407362838623,107.1217194385043,-1.4649196904653783,13.500264943105018,1.0,1011.860498089158,0.0,1.0,107.87473566004807,6514.747006077628,1.0,1.0,-10.194125089542592,12.282677518094664,2.8329504395319325,-46.28244833829672,1.0,1010.1963821747644,0.0,1.0,1.8855352464601307,14.358795811252026
0.8250000000000001,82.45677253668934,-0.3855645854000306,1010.6471143906218,107.38137209753476,-1.8100549884847095,13.374863492389432,108.22625534522854,17.821999495989026,2.1338588568082235,14.558434326499702,-11.10186775857496,-1.745169278036466,-1.7272182313813162,-7.505301964607919,7.718078270959254,9.77787066025018,6503.485774171703,0.3217259952768593,108.22625534522855,2.306018985079299,1.1104804731100368,89758.55418978665,281.58079375646093,0.0,0.0,0.0,422.4967105263158,0.22675091876501408,0.9,nominal,15767.523697364097,nan,fixed_pitch,26.0,12.000000000000002,0.0,-6.097100432191643,4.199259556560547,19.675205941410766,-6.0735678310168755,4.146607291372102,9.999635184312108,0.9,0.0,0.0,1.0,0.0,0.0,0.0,-0.10600375599445505,0.07237195002164704,0.17452655796451633,-0.10600375599445505,0.07237195002164704,0.17452655796451633,0.8250000000000001,1.0,20.998538811834386,-1.9560996337003134,8.007732181450082,-0.036084406823390175,-0.03288994988022159,-0.13089224625031193,22.558562292373797,0.13970187309900936,1.0,0.0,78.63992876028591,0.2877859066943142,1012.5407362838623,107.1217194385043,-1.4649196904653783,13.500264943105018,1.0,1011.860498089158,0.0,1.0,108.3168891658853,6477.682582425757,1.0,1.0,-10.194125089542592,12.282677518094664,2.8329504395319325,-46.28244833829672,1.0,1010.1963821747644,0.0,1.0,1.8855352464601307,14.358795811252026
0.8500000000000001,85.1522885375643,-0.4344104576479672,1010.9834982079919,107.82064003499866,-1.9538348899174645,13.455352694803208,108.67453429610529,17.8163307230199,2.1220481851889867,14.593206836834913,-11.241546235580028,-1.8784924291410772,-1.5907220309842405,-5.351947916206509,7.738274950491744,9.84508883331978,6557.256221858121,0.323059855888499,108.67453429610529,2.3078273930811273,1.1104437752944702,89754.89099914985,281.578607261648,0.0,0.0,0.0,422.46710526315786,0.2267350298351027,0.9,nominal,15819.438524939085,nan,fixed_pitch,26.0,12.000000000000002,0.0,-6.110986724278078,4.209455430845098,20.73738497244803,-6.092277277647477,4.178031361108601,9.999817592156056,0.9,0.0,0.0,1.0,0.0,0.0,0.0,-0.10633029743938521,0.07292040350292524,0.17452974158197465,-0.10633029743938521,0.07292040350292524,0.17452974158197465,0.8500000000000001,1.0,20.98574304766754,-2.0202591488933708,8.263045814591647,-0.033548222666046096,-0.026433392657471275,-0.09636494652178806,22.644221877235136,0.10540593156735412,1.0,0.0,78.63992876028591,0.2877859066943142,1012.5407362838623,107.1217194385043,-1.4649196904653783,13.500264943105018,1.0,1010.4701976890615,0.0,1.0,109.02379742850525,6624.335354374963,1.0,1.0,-12.918213940269357,12.397436083522514,2.984561644948815,-46.33416993131757,1.0,1010.8166404512549,0.0,1.0,1.592172811716475,14.661230132707125
0.875,87.858740798089,-0.48689645110742485,1011.3219541931203,108.25809042098767,-2.099439738378306,13.538239405134858,109.12151811171147,17.81066234727402,2.0924814620363406,14.626929984067674,-11.323693016801894,-2.0114954390161772,-1.4649298815020797,-3.1278722509715964,7.752205328532982,9.85729261045748,6611.08797018087,0.324389884521051,109.12151811171144,2.3093301946073534,1.1104068523520056,89751.20536496372,281.5764072977447,0.0,0.0,0.0,422.4375,0.22671914090519138,0.9,nominal,15871.433299590248,nan,fixed_pitch,26.0,12.000000000000002,0.0,-6.1208611428081845,4.196870111356842,21.746600131304646,-6.106569210227831,4.18745073623272,9.999908796078028,0.9,0.0,0.0,1.0,0.0,0.0,0.0,-0.10657973871938543,0.07308480261232159,0.1745313333907038,-0.10657973871938543,0.07308480261232159,0.1745313333907038,0.875,1.0,21.04677745481705,-2.0388674495287264,8.202203048798001,-0.03392993931890386,-0.026577007559165984,-0.05370672524826828,22.680387046147477,0.06886211186042322,1.0,0.0,78.63992876028591,0.2877859066943142,1012.5407362838623,107.1217194385043,-1.4649196904653783,13.500264943105018,1.0,1010.4701976890615,0.0,1.0,109.56170848802155,6653.483799794069,1.0,1.0,-12.918213940269357,12.397436083522514,2.984561644948815,-46.33416993131757,1.0,1010.8166404512549,0.0,1.0,1.592172811716475,14.661230132707125
0.9,90.57609101516853,-0.5430447826758846,1011.6625391507065,108.69400868318084,-2.245933262738389,13.623398303448756,109.56746196373483,17.80499436875139,2.0449780258447454,14.659905897618076,-11.347643030772728,-2.1423226512471527,-1.3516359253975725,-0.8786637337166067,7.760327535576038,9.814341512826534,6665.010058425128,0.32571684000077233,109.56746196373483,2.310517585570958,1.1103696981031588,89747.49667092916,281.5741934955204,0.0,0.0,0.0,422.40789473684214,0.22670325197528002,0.9,nominal,15923.534800149515,nan,fixed_pitch,26.0,12.000000000000002,0.0,-6.126866410705376,4.16175710292936,22.682900408805185,-6.116717810466603,4.17460391958104,9.999954398039014,0.9,0.0,0.0,1.0,0.0,0.0,0.0,-0.10675686520802069,0.07286058336334973,0.1745321292950684,-0.10675686520802069,0.07286058336334973,0.1745321292950684,0.9,1.0,20.949255132793667,-2.0656199340871524,8.328213099400001,-0.03922929760664124,-0.025437834535088587,-0.012758693791058663,22.63840121916735,0.04846447651423641,1.0,0.0,78.63992876028591,0.2877859066943142,1012.5407362838623,107.1217194385043,-1.4649196904653783,13.500264943105018,1.0,1012.3165651572882,0.0,1.0,109.5667573430664,6742.293343098237,1.0,1.0,-12.013038722121067,12.263165705004134,3.0285905809231095,-46.34518169091612,1.0,1011.3332205819381,0.0,1.0,1.8718162783548433,14.208057672253428
0.925,93.30430811520908,-0.6028538819721087,1012.00530703943,109.12868400162186,-2.392363971848959,13.7107155489418,110.01262108578103,17.79932678745201,1.979708926283998,14.692373174339544,-11.313941875749151,-2.269229751276988,-1.252098384635849,1.3488632553323034,7.763192140290164,9.717246325807007,6719.052039766995,0.32704148134217537,110.01262108578103,2.311393191103854,1.110332306679651,89743.76433183365,281.5719655042437,0.0,0.0,0.0,422.3782894736842,0.22668736304536866,0.9,nominal,15975.770243360044,nan,fixed_pitch,26.0,12.000000000000002,0.0,-6.129378671519615,4.104909582165551,23.527552004977554,-6.123048240993109,4.139756750873294,9.999977199019506,0.9,0.0,0.0,1.0,0.0,0.0,0.0,-0.10686735206377698,0.07225238553440164,0.17453252724725066,-0.10686735206377698,0.07225238553440164,0.17453252724725066,0.925,1.0,20.91013608629406,-1.997849765765049,8.413651031270872,-0.04115460783811573,-0.024786627206006082,0.023339136104740234,22.62774223182485,0.05341155220244219,1.0,0.0,78.63992876028591,0.2877859066943142,1012.5407362838623,107.1217194385043,-1.4649196904653783,13.500264943105018,1.0,1012.3165651572882,0.0,1.0,109.89098126572325,6795.6666162774745,1.0,1.0,-12.013038722121067,12.263165705004134,3.0285905809231095,-46.34518169091612,1.0,1011.3332205819381,0.0,1.0,1.8718162783548433,14.208057672253428
0.9500000000000001,96.04336810560505,-0.666298483020999,1012.3503092795712,109.5623996158386,-2.5377840419556144,13.80008960564927,110.45724163923461,17.793659603375875,1.897197407094698,14.724496434737935,-11.224351446495623,-2.390579163428021,-1.166948342289706,3.507665080958323,7.761420360359146,9.56816588394138,6773.242858345907,0.3283645405954113,110.45724163923461,2.3119732434286098,1.110294672490817,89740.00779019725,281.56972298968276,0.0,0.0,0.0,422.34868421052636,0.22667147411545732,0.9,nominal,16028.16627577064,nan,fixed_pitch,26.0,12.000000000000002,0.0,-6.128982564944522,4.027611419057354,24.000000000000004,-6.126015402968815,4.083684084965324,9.999988599509754,0.9,0.0,0.0,1.0,0.0,0.0,0.0,-0.10691913880969303,0.07127373289393678,0.17453272622334182,-0.10691913880969303,0.07127373289393678,0.17453272622334182,0.9500000000000001,1.0,20.938920812058026,-1.9280147808221524,8.418297024608528,-0.038965529240667755,-0.02172214947126755,0.06090933074574712,22.650019217723372,0.07549907826293138,1.0,0.0,78.63992876028591,0.2877859066943142,1012.5407362838623,107.1217194385043,-1.4649196904653783,13.500264943105018,1.0,1011.8929064526051,0.0,1.0,110.57377084597883,6802.404695000542,1.0,1.0,-10.759501424554056,12.321066028111188,3.027722826764826,-46.34249005353477,1.0,1012.2746758623649,0.0,1.0,1.610719718986324,14.602075883668336
0.9750000000000001,98.79325369282479,-0.7333301960737909,1012.6975950583069,109.99542348878965,-2.681268522111676,13.891431149425241,110.90155205742194,17.78799281652299,1.798312926396166,14.756372004505677,-11.081829721832271,-2.504846811212654,-1.0965917928117115,5.551492958902743,7.7556890684530835,9.370378720516992,6827.609759133417,0.32968669711491894,110.90155205742192,2.3122861150345337,1.1102567901902796,89736.22651294543,281.56746563212096,0.0,0.0,0.0,422.31907894736844,0.22665558518554593,0.9,nominal,16080.747994951078,nan,fixed_pitch,26.0,12.000000000000002,0.0,-6.1262666211268,3.931591804020455,24.000000000000004,-6.126141012047808,4.00763794449289,9.999994299754878,0.9,0.0,0.0,1.0,0.0,0.0,0.0,-0.10692133110169184,0.06994647735925869,0.1745328257113874,-0.10692133110169184,0.06994647735925869,0.1745328257113874,0.9750000000000001,1.0,20.967608096631025,-1.986871585240581,8.496729033667492,-0.04273906793298361,-0.019085675193600573,0.09380013904709616,22.710848778980314,0.10483013407713634,1.0,0.0,78.63992876028591,0.2877859066943142,1012.5407362838623,107.1217194385043,-1.4649196904653783,13.500264943105018,1.0,1011.8929064526051,0.0,1.0,111.36106593756085,6842.484817525816,1.0,1.0,-10.759501424554056,12.321066028111188,3.027722826764826,-46.34249005353477,1.0,1012.2746758623649,0.0,1.0,1.610719718986324,14.602075883668336
1.0,101.55395368105864,-0.8038785595057646,1013.0472116336025,110.42799952935395,-2.821934537278948,13.984663011826287,111.34575516894223,17.782326426893352,1.6842581542053972,14.78804202148615,-10.89048415482495,-2.610642628256013,-1.0413299860296596,7.435926088191895,7.74671566438027,9.128229505125086,6882.177269453388,0.3310085541437815,111.34575516894222,2.3123713489681927,1.1102186546427812,89732.41998809756,281.56519312438155,0.0,0.0,0.0,422.2894736842105,0.22663969625563457,0.9,nominal,16133.538035037682,nan,fixed_pitch,26.0,12.000000000000002,0.0,-6.121719099157636,3.818983593223639,24.000000000000004,-6.123930055602721,3.9133107688582647,9.999997149877439,0.9,0.0,0.0,1.0,0.0,0.0,0.0,-0.1068827426321069,0.0683001575703275,0.17453287545541019,-0.1068827426321069,0.0683001575703275,0.17453287545541019,1.0,1.0,20.84667416422249,-1.9288506428514391,8.678980697475234,-0.046744940203161806,-0.014687833356512303,0.1300187405685184,22.663384444050664,0.13894493435289226,1.0,0.0,101.9292246851661,-2.200625907797849,1009.5247481940211,110.42058475320736,-3.000519731361786,13.945260570407106,1.0,1013.8391741554444,0.0,1.0,111.6488905265643,6882.587966845348,1.0,1.0,-10.856758747882514,12.178298669176815,3.143276793898576,-46.36720411841567,1.0,1013.0649694268614,0.0,1.0,1.3687299605544794,14.670463608869497
1.0250000000000001,104.32546217573224,-0.8778525632078992,1013.3992046434907,110.86033978694358,-2.9589601480853847,14.079720395531261,111.79002151019957,17.77666043448696,1.556548525202946,14.81950650615201,-10.655498577386059,-2.706740856168765,-1.00110521983804,9.119392946456266,7.735234234886621,8.847050686730023,6936.966305611079,0.33233061893281896,111.79002151019957,2.3122774383763645,1.110180260890429,89728.58772139715,281.56290516981727,0.0,0.0,0.0,422.2598684210526,0.2266238073257232,0.9,nominal,16186.55576484253,nan,fixed_pitch,26.0,12.000000000000002,0.0,-6.115767034257089,3.6922815644311813,24.000000000000004,-6.119848544929905,3.8027961666447223,9.99999857493872,0.9,0.0,0.0,1.0,0.0,0.0,0.0,-0.10681150683241097,0.06637131389016937,0.17453290032742158,-0.10681150683241097,0.06637131389016937,0.17453290032742158,1.0250000000000001,1.0,20.790546818693002,-1.8889873734377174,8.719974750221951,-0.04701941422814432,-0.018891114177029794,0.15590443435452553,22.624170039181134,0.16393258419427165,1.0,0.0,101.9292246851661,-2.200625907797849,1009.5247481940211,110.42058475320736,-3.000519731361786,13.945260570407106,1.0,1013.8391741554444,0.0,1.0,111.67696551731622,6996.14566313515,1.0,1.0,-10.856758747882514,12.178298669176815,3.143276793898576,-46.36720411841567,1.0,1013.0649694268614,0.0,1.0,1.3687299605544794,14.670463608869497
1.05,107.10777763120262,-0.9551426260280362,1013.7536184163116,111.29261821881542,-3.091602512805481,14.176550912834074,112.23448432580945,17.770994839303818,1.4169843119535832,14.850731874393952,-10.383034479263022,-2.792113860580503,-0.9752448198515342,10.564158578386385,7.721964306639742,8.53306028288238,6991.99347066188,0.3336532878769511,112.23448432580946,2.3120585902547823,1.1101416041188428,89724.72923293256,281.56060148029394,0.0,0.0,0.0,422.23026315789474,0.22660791839581185,0.9,nominal,16239.816657982505,nan,fixed_pitch,26.0,12.000000000000002,0.0,-6.108832666342339,3.5542964387943523,24.000000000000004,-6.114340605636122,3.6785463027195378,9.99999928746936,0.9,0.0,0.0,1.0,0.0,0.0,0.0,-0.10671537515673449,0.06420274466951997,0.17453291276342725,-0.10671537515673449,0.06420274466951997,0.17453291276342725,1.05,1.0,20.867562116333175,-1.662426566404671,8.746917126959783,-0.051457453214360134,-0.01641371051227665,0.18254787612365733,22.687603883918943,0.19037070799192565,1.0,0.0,101.9292246851661,-2.200625907797849,1009.5247481940211,110.42058475320736,-3.000519731361786,13.945260570407106,1.0,1013.7891837238309,0.0,1.0,112.18125014774003,7034.40835810734,1.0,1.0,-10.226179424792676,12.14690547607155,3.2914032449060593,-46.34140900526748,1.0,1013.8536657895236,0.0,1.0,1.5684621428968153,15.181168426316814
1.075,109.90090179398133,-1.0356230002280666,1014.1104962680128,111.72496651114818,-3.2192149680012134,14.275114068047683,112.6792366347197,17.76532964134392,1.267615523484809,14.881660050402532,-10.080108290851006,-2.865963880197905,-0.9624411256727946,11.737254816247518,7.707579478751144,8.193237334278873,7047.270596157575,0.33497683779216747,112.6792366347197,2.3117711927619085,1.1101026796247186,89720.84405389905,281.5582817742579,0.0,0.0,0.0,422.2006578947369,0.2265920294659005,0.9,nominal,16293.331882518285,nan,fixed_pitch,26.0,12.000000000000002,0.0,-6.101324349503594,3.4081012909015387,24.000000000000004,-6.1078324775698585,3.543323796810538,9.999999643734679,0.9,0.0,0.0,1.0,0.0,0.0,0.0,-0.10660178689383673,0.06184266671861044,0.17453291898143009,-0.10660178689383673,0.06184266671861044,0.17453291898143009,1.075,1.0,20.773820082637137,-1.6212908793883933,8.80031027536519,-0.04856780585956432,-0.015113160455943023,0.20082535365442067,22.61914334991633,0.20716674939623525,1.0,0.0,101.9292246851661,-2.200625907797849,1009.5247481940211,110.42058475320736,-3.000519731361786,13.945260570407106,1.0,1013.7891837238309,0.0,1.0,112.6199424905265,7047.144567046707,1.0,1.0,-10.226179424792676,12.14690547607155,3.2914032449060593,-46.34140900526748,1.0,1013.8536657895236,0.0,1.0,1.5684621428968153,15.181168426316814
