time_s,sensor_time_s,imu_valid,imu_ax_mps2,imu_ay_mps2,imu_az_mps2,gyro_p_rps,gyro_q_rps,gyro_r_rps,imu_accel_norm_mps2,imu_gyro_norm_rps,gps_valid,gps_latency_s,gps_x_m,gps_y_m,gps_z_m,gps_vx_mps,gps_vy_mps,gps_vz_mps,baro_valid,baro_alt_m,baro_bias_m,pitot_valid,pitot_airspeed_mps,pitot_qbar_pa,pitot_compressibility_factor,mag_valid,mag_heading_deg,mag_x_ut,mag_y_ut,mag_z_ut,radar_valid,radar_agl_m,optical_flow_valid,horizon_valid,horizon_roll_deg,horizon_pitch_deg
0.0,0.0,1.0,17.96056864228607,0.11675732850390258,-0.5622234893076903,0.00137549877701089,-0.0017271349075047198,0.0019280334633471235,17.969745504039793,0.0029312633641599135,1.0,0.0,-0.49813771915299343,-0.6559407614011687,997.407221941231,91.98344916694978,0.24651826149516026,13.948980899356233,1.0,999.1546776618185,0.0,1.0,93.02269950565217,4854.514922071296,1.0,1.0,0.19321811565037783,17.981004822693684,-0.05902936392384759,-44.48383852086139,1.0,1000.3353165514293,0.0,1.0,0.5211686457673336,8.24100404303537
0.025,0.025,1.0,18.200882916422067,0.16222429899037355,-0.45874105494330675,0.0006804958028558103,-0.08461691084975384,-0.001808736594498342,18.207385836961276,0.08463897568119058,1.0,0.0,-0.49813771915299343,-0.6559407614011687,997.407221941231,91.98344916694978,0.24651826149516026,13.948980899356233,1.0,999.1546776618185,0.0,1.0,94.05491919067737,4929.777722569309,1.0,1.0,0.19321811565037783,17.981004822693684,-0.05902936392384759,-44.48383852086139,1.0,1000.3353165514293,0.0,1.0,0.5211686457673336,8.24100404303537
0.05,0.05,1.0,18.548401466829567,0.30350868146669496,-0.23012121434382632,0.0006669330678437417,-0.20236868294369875,-0.020805875878683173,18.55231172300913,0.20343650878631253,1.0,0.0,-0.49813771915299343,-0.6559407614011687,997.407221941231,91.98344916694978,0.24651826149516026,13.948980899356233,1.0,999.8748543039079,0.0,1.0,94.09289442763058,4914.8583930352415,1.0,1.0,-0.4440687621877697,17.631350980506454,0.031145556888057507,-44.57640761704615,1.0,1000.7562451609707,0.0,1.0,-0.18636733488041632,8.31900914172472
0.07500000000000001,0.07500000000000001,1.0,18.742106993458304,0.26642429174193705,0.29272749404636356,-0.004511986797901262,-0.3545765078426909,-0.03868316750180713,18.746286188022403,0.3567089084768632,1.0,0.0,-0.49813771915299343,-0.6559407614011687,997.407221941231,91.98344916694978,0.24651826149516026,13.948980899356233,1.0,999.8748543039079,0.0,1.0,93.87920390897473,4983.591153405319,1.0,1.0,-0.4440687621877697,17.631350980506454,0.031145556888057507,-44.57640761704615,1.0,1000.7562451609707,0.0,1.0,-0.18636733488041632,8.31900914172472
0.1,0.1,1.0,18.90280906813189,0.4193358480535163,1.0978815973344815,-0.0015535728959483826,-0.4570089821377899,-0.06547456302396545,18.939307728147764,0.46167796324553007,1.0,0.0,-0.49813771915299343,-0.6559407614011687,997.407221941231,91.98344916694978,0.24651826149516026,13.948980899356233,1.0,1000.0939454654439,0.0,1.0,94.24973248981541,4995.834338937414,1.0,1.0,-0.09204943112696534,16.75383095397839,0.10279825788947544,-45.02921555341316,1.0,1001.2478767941079,0.0,1.0,0.05209935787760368,9.43930425203524
0.125,0.125,1.0,19.02625359667988,0.42963606704301593,1.8876070943977892,0.0034936263355736193,-0.4567222181657141,-0.09999166484423487,19.124486231480812,0.46755290933701243,1.0,0.0,-0.49813771915299343,-0.6559407614011687,997.407221941231,91.98344916694978,0.24651826149516026,13.948980899356233,1.0,1000.0939454654439,0.0,1.0,95.6284819425869,4910.129976781944,1.0,1.0,-0.09204943112696534,16.75383095397839,0.10279825788947544,-45.02921555341316,1.0,1001.2478767941079,0.0,1.0,0.05209935787760368,9.43930425203524
0.15000000000000002,0.15000000000000002,1.0,19.271071139002856,0.340696785367881,2.395188787909267,0.0005312188888672018,-0.3561025539129642,-0.13500448638132828,19.422337307177916,0.3808352956855886,1.0,0.0,-0.49813771915299343,-0.6559407614011687,997.407221941231,91.98344916694978,0.24651826149516026,13.948980899356233,1.0,1001.1635323667283,0.0,1.0,95.45168511169084,5062.471813364286,1.0,1.0,-0.19238343845439485,15.882520792599147,0.11312397273268038,-45.337118230171086,1.0,1002.192526010545,0.0,1.0,0.5711088800643729,10.20443112159852
0.17500000000000002,0.17500000000000002,1.0,19.511641378324743,0.2452321984005769,2.7532774737341423,0.0003153038050325421,-0.2565129688206842,-0.17288736458264245,19.706466577112664,0.30933645666494325,1.0,0.0,-0.49813771915299343,-0.6559407614011687,997.407221941231,91.98344916694978,0.24651826149516026,13.948980899356233,1.0,1001.1635323667283,0.0,1.0,95.71600098256039,5061.637724707654,1.0,1.0,-0.19238343845439485,15.882520792599147,0.11312397273268038,-45.337118230171086,1.0,1002.192526010545,0.0,1.0,0.5711088800643729,10.20443112159852
0.2,0.2,1.0,19.705234615239256,0.1305337956897497,3.0608990573622386,-0.0014534890950891664,-0.1981695818874062,-0.2014216942395891,19.94197616468342,0.28256679692831116,1.0,0.0,17.26491393490654,1.4623876863007492,1001.0101301942694,95.58970671097374,-0.06439607064937891,13.162484964286037,1.0,1002.007225733514,0.0,1.0,96.70719474945781,5271.7390758883585,1.0,1.0,-2.2828749343802004,15.292533239017594,0.2807063477277307,-45.542290722740056,1.0,1002.5277684431115,0.0,1.0,0.5677971431522911,11.559110413121639
0.225,0.225,1.0,19.954954135380593,-0.026465184335245834,3.283244353487329,6.724929285145849e-07,-0.18009249222087081,-0.225923526398355,20.22326849042536,0.288919963891464,1.0,0.0,17.26491393490654,1.4623876863007492,1001.0101301942694,95.58970671097374,-0.06439607064937891,13.162484964286037,1.0,1002.007225733514,0.0,1.0,97.48734918681824,5144.720425917886,1.0,1.0,-2.2828749343802004,15.292533239017594,0.2807063477277307,-45.542290722740056,1.0,1002.5277684431115,0.0,1.0,0.5677971431522911,11.559110413121639
0.25,0.25,1.0,20.069889576293196,-0.023882113832285338,3.590888117178339,-0.0001736803377709765,-0.20213096893124702,-0.24270520354337458,20.38861239589531,0.315852457000061,1.0,0.0,17.26491393490654,1.4623876863007492,1001.0101301942694,95.58970671097374,-0.06439607064937891,13.162484964286037,1.0,1004.5569151748774,0.0,1.0,97.56640993075733,5280.4951625948315,1.0,1.0,-0.9454558297856076,14.9013489624304,0.3994612899404942,-45.655123593523165,1.0,1003.4594023888479,0.0,1.0,0.7833259389080833,12.03967783281672
0.275,0.275,1.0,20.297340777541905,-0.12262707178905972,4.002550080993611,0.0011758462468022231,-0.21452301931229373,-0.2583536934216395,20.68858349885905,0.3358096772486781,1.0,0.0,17.26491393490654,1.4623876863007492,1001.0101301942694,95.58970671097374,-0.06439607064937891,13.162484964286037,1.0,1004.5569151748774,0.0,1.0,97.6443364211131,5391.161113328498,1.0,1.0,-0.9454558297856076,14.9013489624304,0.3994612899404942,-45.655123593523165,1.0,1003.4594023888479,0.0,1.0,0.7833259389080833,12.03967783281672
0.30000000000000004,0.30000000000000004,1.0,20.624026703607402,-0.2258079501863936,4.306636272662571,0.00027069802858380914,-0.19278569210984467,-0.2691199848755013,21.070087391524783,0.3310467680239222,1.0,0.0,17.26491393490654,1.4623876863007492,1001.0101301942694,95.58970671097374,-0.06439607064937891,13.162484964286037,1.0,1004.3333119007355,0.0,1.0,98.41039374815506,5380.9437886773285,1.0,1.0,-2.419458783327359,14.392065068330647,0.6133265866452621,-45.81245439057728,1.0,1003.349773770226,0.0,1.0,0.350510639359901,12.145135476770177
0.325,0.325,1.0,20.803381892397688,-0.2808697402264627,4.591809633955333,-0.0030830174188623003,-0.15792387253889517,-0.2783138705442857,21.305968686882085,0.32001260139473825,1.0,0.0,17.26491393490654,1.4623876863007492,1001.0101301942694,95.58970671097374,-0.06439607064937891,13.162484964286037,1.0,1004.3333119007355,0.0,1.0,98.86288018075177,5485.254911674736,1.0,1.0,-2.419458783327359,14.392065068330647,0.6133265866452621,-45.81245439057728,1.0,1003.349773770226,0.0,1.0,0.350510639359901,12.145135476770177
0.35000000000000003,0.35000000000000003,1.0,21.04707290576199,-0.3668804233452458,4.879480328785493,-0.006354816344480091,-0.13617310968907761,-0.28139118550104975,21.60840594362525,0.31267315006385155,1.0,0.0,17.26491393490654,1.4623876863007492,1001.0101301942694,95.58970671097374,-0.06439607064937891,13.162484964286037,1.0,1005.2359543737992,0.0,1.0,99.18874852076429,5428.006352866057,1.0,1.0,-3.35469482682293,14.083780006645988,0.863586020036763,-45.84893847967336,1.0,1004.8111581541623,0.0,1.0,0.7368384803694702,12.714017530181986
0.375,0.375,1.0,21.225348679325375,-0.5016873073645565,5.145730127374896,-0.0048090285918387,-0.12470548774094622,-0.29384279715405337,21.845952834726248,0.31924626053882377,1.0,0.0,17.26491393490654,1.4623876863007492,1001.0101301942694,95.58970671097374,-0.06439607064937891,13.162484964286037,1.0,1005.2359543737992,0.0,1.0,99.83649485565594,5604.023074095197,1.0,1.0,-3.35469482682293,14.083780006645988,0.863586020036763,-45.84893847967336,1.0,1004.8111581541623,0.0,1.0,0.7368384803694702,12.714017530181986
0.4,0.4,1.0,21.498035585075094,-0.4422432635743354,5.3719814463477364,-0.006050381998131859,-0.11734877611614926,-0.29781080642309354,22.163467638915087,0.320154054793399,1.0,0.0,39.81793062987214,-0.9481648403557198,1006.3171488863183,99.29491223299071,-0.04772459676631842,12.617174119568544,1.0,1006.3060156563341,0.0,1.0,100.16874987784865,5565.410829105479,1.0,1.0,-4.341351840391865,13.817282157536908,1.0489968549770667,-45.97471216036627,1.0,1005.366614636402,0.0,1.0,1.1219699935744376,13.062524401422626
0.42500000000000004,0.42500000000000004,1.0,21.453409367897002,-0.5652752683695045,5.643597106571474,-0.0028046046525965966,-0.11578137548189678,-0.2949473570468212,22.190504679635,0.31687085089140393,1.0,0.0,39.81793062987214,-0.9481648403557198,1006.3171488863183,99.29491223299071,-0.04772459676631842,12.617174119568544,1.0,1006.3060156563341,0.0,1.0,101.12781399056338,5600.107515917461,1.0,1.0,-4.341351840391865,13.817282157536908,1.0489968549770667,-45.97471216036627,1.0,1005.366614636402,0.0,1.0,1.1219699935744376,13.062524401422626
0.45,0.45,1.0,21.54869896554423,-0.6074479558079614,5.856040969199594,-0.005349168253817019,-0.09970910645151132,-0.2985534760863301,22.338501202175724,0.3148089858844524,1.0,0.0,39.81793062987214,-0.9481648403557198,1006.3171488863183,99.29491223299071,-0.04772459676631842,12.617174119568544,1.0,1005.0798345855329,0.0,1.0,101.19555733277566,5697.693282027005,1.0,1.0,-4.369500344911146,13.483324883306711,1.3132458699525134,-46.03227000946127,1.0,1005.1474890174477,0.0,1.0,1.085013273128523,13.65699735243253
0.47500000000000003,0.47500000000000003,1.0,21.360216638958494,-0.655236948730818,6.014833699629785,-0.006289067965261728,-0.08864553148293199,-0.3025973497584882,22.20059491897511,0.31537713726366406,1.0,0.0,39.81793062987214,-0.9481648403557198,1006.3171488863183,99.29491223299071,-0.04772459676631842,12.617174119568544,1.0,1005.0798345855329,0.0,1.0,101.81514774748317,5755.224411890084,1.0,1.0,-4.369500344911146,13.483324883306711,1.3132458699525134,-46.03227000946127,1.0,1005.1474890174477,0.0,1.0,1.085013273128523,13.65699735243253
0.5,0.5,1.0,21.41045128217302,-0.744815290735667,6.205397611057751,-0.011827514024987563,-0.08101314902060337,-0.3074685781573788,22.304016083094528,0.31818225430775665,1.0,0.0,39.81793062987214,-0.9481648403557198,1006.3171488863183,99.29491223299071,-0.04772459676631842,12.617174119568544,1.0,1005.6527155618983,0.0,1.0,102.09857272632941,5845.1576420932115,1.0,1.0,-7.760657840288683,13.312533558575062,1.536373235654205,-46.15055826240782,1.0,1006.3864906655514,0.0,1.0,1.923494556327672,13.683135505725316
0.525,0.525,1.0,21.395179121553614,-0.8488927015704466,6.363554618023176,-0.010967907304391985,-0.07529022196864651,-0.30885211817913977,22.3376170581982,0.31808574853090654,1.0,0.0,39.81793062987214,-0.9481648403557198,1006.3171488863183,99.29491223299071,-0.04772459676631842,12.617174119568544,1.0,1005.6527155618983,0.0,1.0,103.05182372313084,5766.202325237753,1.0,1.0,-7.760657840288683,13.312533558575062,1.536373235654205,-46.15055826240782,1.0,1006.3864906655514,0.0,1.0,1.923494556327672,13.683135505725316
0.55,0.55,1.0,21.30129741029174,-0.9300020611033167,6.636564582831165,-0.010190263357198647,-0.0688247310996625,-0.3103535782501735,22.330565703928034,0.318056643714475,1.0,0.0,39.81793062987214,-0.9481648403557198,1006.3171488863183,99.29491223299071,-0.04772459676631842,12.617174119568544,1.0,1006.405857276399,0.0,1.0,103.41856233918134,5831.75674640284,1.0,1.0,-7.863619966743798,13.178221158021348,1.7940184764499583,-46.12869593409214,1.0,1006.9929451826644,0.0,1.0,1.6441124933306555,13.679820212221347
0.5750000000000001,0.5750000000000001,1.0,21.21336141136499,-1.0357235427876326,6.741053659798956,-0.010481903117861843,-0.06547326284052014,-0.30971673066533045,22.28275633916421,0.31673501810500354,1.0,0.0,39.81793062987214,-0.9481648403557198,1006.3171488863183,99.29491223299071,-0.04772459676631842,12.617174119568544,1.0,1006.405857276399,0.0,1.0,103.7075959044382,6050.255829259981,1.0,1.0,-7.863619966743798,13.178221158021348,1.7940184764499583,-46.12869593409214,1.0,1006.9929451826644,0.0,1.0,1.6441124933306555,13.679820212221347
0.6000000000000001,0.6000000000000001,1.0,21.238867765338796,-1.056715307681992,6.963937040052997,-0.012710983003029712,-0.05656546736621701,-0.3182293462481378,22.376384209537942,0.3234673677525742,1.0,0.0,62.61657784120447,-0.5416800401565623,1005.8319235420421,103.19929580162463,-0.8663695628478454,12.712080836669024,1.0,1008.9312034967413,0.0,1.0,103.54724538690071,5978.030937467267,1.0,1.0,-6.438324506560909,12.927781156557224,1.998192277903008,-46.20244059042815,1.0,1007.4516975770073,0.0,1.0,1.9680793878592093,14.170560269963438
0.625,0.625,1.0,21.184678429319835,-1.1332661493593865,7.138589934019776,-0.012970620870415303,-0.05538073963388722,-0.31061760642257197,22.383796786181325,0.3157824579482658,1.0,0.0,62.61657784120447,-0.5416800401565623,1005.8319235420421,103.19929580162463,-0.8663695628478454,12.712080836669024,1.0,1008.9312034967413,0.0,1.0,104.03514428904566,6052.422447982295,1.0,1.0,-6.438324506560909,12.927781156557224,1.998192277903008,-46.20244059042815,1.0,1007.4516975770073,0.0,1.0,1.9680793878592093,14.170560269963438
0.65,0.65,1.0,21.187594808367503,-1.3317822748145913,7.148582467596326,-0.01939780733372605,-0.05229189218366322,-0.3040358079650424,22.400670728509393,0.30910918692665923,1.0,0.0,62.61657784120447,-0.5416800401565623,1005.8319235420421,103.19929580162463,-0.8663695628478454,12.712080836669024,1.0,1007.1135070771927,0.0,1.0,105.03750272471953,6148.534046664723,1.0,1.0,-9.280058603365099,12.760704659789427,2.278221847867072,-46.25096711873031,1.0,1008.2549273770355,0.0,1.0,1.499327977327689,14.236681267543153
0.675,0.675,1.0,21.18743420166368,-1.415855021807812,7.3486583073092,-0.01822370673345603,-0.04935260747889332,-0.29333982256335955,22.470309130276576,0.298020192023252,1.0,0.0,62.61657784120447,-0.5416800401565623,1005.8319235420421,103.19929580162463,-0.8663695628478454,12.712080836669024,1.0,1007.1135070771927,0.0,1.0,105.53197486020036,6253.101324957899,1.0,1.0,-9.280058603365099,12.760704659789427,2.278221847867072,-46.25096711873031,1.0,1008.2549273770355,0.0,1.0,1.499327977327689,14.236681267543153
0.7000000000000001,0.7000000000000001,1.0,21.075450337279612,-1.543595091687326,7.492831092829186,-0.022294164267968365,-0.048296373686315855,-0.2779614430445193,22.42096809934594,0.2830055357957631,1.0,0.0,62.61657784120447,-0.5416800401565623,1005.8319235420421,103.19929580162463,-0.8663695628478454,12.712080836669024,1.0,1008.2542149539465,0.0,1.0,106.24806595671197,6271.500808145281,1.0,1.0,-8.989728992255856,12.662545118967216,2.3519983393001747,-46.25872845290027,1.0,1008.8297515709859,0.0,1.0,1.7407310731797314,14.078640527661475
0.7250000000000001,0.7250000000000001,1.0,21.092444455540146,-1.645135203614176,7.662837450739596,-0.020822926208053438,-0.04359936927457796,-0.25772020294628667,22.501483523196292,0.2622102253225115,1.0,0.0,62.61657784120447,-0.5416800401565623,1005.8319235420421,103.19929580162463,-0.8663695628478454,12.712080836669024,1.0,1008.2542149539465,0.0,1.0,106.70103908604621,6301.442196223441,1.0,1.0,-8.989728992255856,12.662545118967216,2.3519983393001747,-46.25872845290027,1.0,1008.8297515709859,0.0,1.0,1.7407310731797314,14.078640527661475
0.75,0.75,1.0,21.06418903831312,-1.750742728340002,7.6705254114222186,-0.024319526409291498,-0.03338833789002565,-0.22758186927763396,22.485598058088204,0.2313000814866541,1.0,0.0,62.61657784120447,-0.5416800401565623,1005.8319235420421,103.19929580162463,-0.8663695628478454,12.712080836669024,1.0,1010.874306232488,0.0,1.0,107.11653567164619,6359.913180260346,1.0,1.0,-10.098132610295341,12.47878891340819,2.6799160051654436,-46.298485862307686,1.0,1010.4797760382505,0.0,1.0,2.2651546720843285,14.297864105238446
0.775,0.775,1.0,21.08160098722812,-1.816024674749373,7.8773304435148335,-0.027689833673447323,-0.03426413530505863,-0.19854978930922176,22.57840075648233,0.20337840763415102,1.0,0.0,62.61657784120447,-0.5416800401565623,1005.8319235420421,103.19929580162463,-0.8663695628478454,12.712080836669024,1.0,1010.874306232488,0.0,1.0,106.75823223514809,6420.317291641842,1.0,1.0,-10.098132610295341,12.47878891340819,2.6799160051654436,-46.298485862307686,1.0,1010.4797760382505,0.0,1.0,2.2651546720843285,14.297864105238446
0.8,0.8,1.0,21.07690208246493,-1.9160498908178225,7.987189170450608,-0.030121159625890435,-0.0354512344614211,-0.16885986387099897,22.620836399710797,0.17515058637806305,1.0,0.0,78.63992876028591,0.2877859066943142,1012.5407362838623,107.1217194385043,-1.4649196904653783,13.500264943105018,1.0,1011.860498089158,0.0,1.0,107.87473566004807,6514.747006077628,1.0,1.0,-10.194125089542592,12.282677518094664,2.8329504395319325,-46.28244833829672,1.0,1010.1963821747644,0.0,1.0,1.8855352464601307,14.358795811252026
0.8250000000000001,0.8250000000000001,1.0,20.998538811834386,-1.9560996337003134,8.007732181450082,-0.036084406823390175,-0.03288994988022159,-0.13089224625031193,22.558562292373797,0.13970187309900936,1.0,0.0,78.63992876028591,0.2877859066943142,1012.5407362838623,107.1217194385043,-1.4649196904653783,13.500264943105018,1.0,1011.860498089158,0.0,1.0,108.3168891658853,6477.682582425757,1.0,1.0,-10.194125089542592,12.282677518094664,2.8329504395319325,-46.28244833829672,1.0,1010.1963821747644,0.0,1.0,1.8855352464601307,14.358795811252026
0.8500000000000001,0.8500000000000001,1.0,20.98574304766754,-2.0202591488933708,8.263045814591647,-0.033548222666046096,-0.026433392657471275,-0.09636494652178806,22.644221877235136,0.10540593156735412,1.0,0.0,78.63992876028591,0.2877859066943142,1012.5407362838623,107.1217194385043,-1.4649196904653783,13.500264943105018,1.0,1010.4701976890615,0.0,1.0,109.02379742850525,6624.335354374963,1.0,1.0,-12.918213940269357,12.397436083522514,2.984561644948815,-46.33416993131757,1.0,1010.8166404512549,0.0,1.0,1.592172811716475,14.661230132707125
0.875,0.875,1.0,21.04677745481705,-2.0388674495287264,8.202203048798001,-0.03392993931890386,-0.026577007559165984,-0.05370672524826828,22.680387046147477,0.06886211186042322,1.0,0.0,78.63992876028591,0.2877859066943142,1012.5407362838623,107.1217194385043,-1.4649196904653783,13.500264943105018,1.0,1010.4701976890615,0.0,1.0,109.56170848802155,6653.483799794069,1.0,1.0,-12.918213940269357,12.397436083522514,2.984561644948815,-46.33416993131757,1.0,1010.8166404512549,0.0,1.0,1.592172811716475,14.661230132707125
0.9,0.9,1.0,20.949255132793667,-2.0656199340871524,8.328213099400001,-0.03922929760664124,-0.025437834535088587,-0.012758693791058663,22.63840121916735,0.04846447651423641,1.0,0.0,78.63992876028591,0.2877859066943142,1012.5407362838623,107.1217194385043,-1.4649196904653783,13.500264943105018,1.0,1012.3165651572882,0.0,1.0,109.5667573430664,6742.293343098237,1.0,1.0,-12.013038722121067,12.263165705004134,3.0285905809231095,-46.34518169091612,1.0,1011.3332205819381,0.0,1.0,1.8718162783548433,14.208057672253428
0.925,0.925,1.0,20.91013608629406,-1.997849765765049,8.413651031270872,-0.04115460783811573,-0.024786627206006082,0.023339136104740234,22.62774223182485,0.05341155220244219,1.0,0.0,78.63992876028591,0.2877859066943142,1012.5407362838623,107.1217194385043,-1.4649196904653783,13.500264943105018,1.0,1012.3165651572882,0.0,1.0,109.89098126572325,6795.6666162774745,1.0,1.0,-12.013038722121067,12.263165705004134,3.0285905809231095,-46.34518169091612,1.0,1011.3332205819381,0.0,1.0,1.8718162783548433,14.208057672253428
0.9500000000000001,0.9500000000000001,1.0,20.938920812058026,-1.9280147808221524,8.418297024608528,-0.038965529240667755,-0.02172214947126755,0.06090933074574712,22.650019217723372,0.07549907826293138,1.0,0.0,78.63992876028591,0.2877859066943142,1012.5407362838623,107.1217194385043,-1.4649196904653783,13.500264943105018,1.0,1011.8929064526051,0.0,1.0,110.57377084597883,6802.404695000542,1.0,1.0,-10.759501424554056,12.321066028111188,3.027722826764826,-46.34249005353477,1.0,1012.2746758623649,0.0,1.0,1.610719718986324,14.602075883668336
0.9750000000000001,0.9750000000000001,1.0,20.967608096631025,-1.986871585240581,8.496729033667492,-0.04273906793298361,-0.019085675193600573,0.09380013904709616,22.710848778980314,0.10483013407713634,1.0,0.0,78.63992876028591,0.2877859066943142,1012.5407362838623,107.1217194385043,-1.4649196904653783,13.500264943105018,1.0,1011.8929064526051,0.0,1.0,111.36106593756085,6842.484817525816,1.0,1.0,-10.759501424554056,12.321066028111188,3.027722826764826,-46.34249005353477,1.0,1012.2746758623649,0.0,1.0,1.610719718986324,14.602075883668336
1.0,1.0,1.0,20.84667416422249,-1.9288506428514391,8.678980697475234,-0.046744940203161806,-0.014687833356512303,0.1300187405685184,22.663384444050664,0.13894493435289226,1.0,0.0,101.9292246851661,-2.200625907797849,1009.5247481940211,110.42058475320736,-3.000519731361786,13.945260570407106,1.0,1013.8391741554444,0.0,1.0,111.6488905265643,6882.587966845348,1.0,1.0,-10.856758747882514,12.178298669176815,3.143276793898576,-46.36720411841567,1.0,1013.0649694268614,0.0,1.0,1.3687299605544794,14.670463608869497
1.0250000000000001,1.0250000000000001,1.0,20.790546818693002,-1.8889873734377174,8.719974750221951,-0.04701941422814432,-0.018891114177029794,0.15590443435452553,22.624170039181134,0.16393258419427165,1.0,0.0,101.9292246851661,-2.200625907797849,1009.5247481940211,110.42058475320736,-3.000519731361786,13.945260570407106,1.0,1013.8391741554444,0.0,1.0,111.67696551731622,6996.14566313515,1.0,1.0,-10.856758747882514,12.178298669176815,3.143276793898576,-46.36720411841567,1.0,1013.0649694268614,0.0,1.0,1.3687299605544794,14.670463608869497
1.05,1.05,1.0,20.867562116333175,-1.662426566404671,8.746917126959783,-0.051457453214360134,-0.01641371051227665,0.18254787612365733,22.687603883918943,0.19037070799192565,1.0,0.0,101.9292246851661,-2.200625907797849,1009.5247481940211,110.42058475320736,-3.000519731361786,13.945260570407106,1.0,1013.7891837238309,0.0,1.0,112.18125014774003,7034.40835810734,1.0,1.0,-10.226179424792676,12.14690547607155,3.2914032449060593,-46.34140900526748,1.0,1013.8536657895236,0.0,1.0,1.5684621428968153,15.181168426316814
1.075,1.075,1.0,20.773820082637137,-1.6212908793883933,8.80031027536519,-0.04856780585956432,-0.015113160455943023,0.20082535365442067,22.61914334991633,0.20716674939623525,1.0,0.0,101.9292246851661,-2.200625907797849,1009.5247481940211,110.42058475320736,-3.000519731361786,13.945260570407106,1.0,1013.7891837238309,0.0,1.0,112.6199424905265,7047.144567046707,1.0,1.0,-10.226179424792676,12.14690547607155,3.2914032449060593,-46.34140900526748,1.0,1013.8536657895236,0.0,1.0,1.5684621428968153,15.181168426316814
1.1,1.1,1.0,20.820521080323946,-1.4152390017410479,8.814923567893825,-0.05481887691064217,-0.013270047707241106,0.21547330448335655,22.65391526858156,0.22273290815879426,1.0,0.0,101.9292246851661,-2.200625907797849,1009.5247481940211,110.42058475320736,-3.000519731361786,13.945260570407106,1.0,1013.5221344318896,0.0,1.0,113.399473138699,7199.2587745620085,1.0,1.0,-10.552511102014547,12.146124399067853,3.1537300995865762,-46.306995931688455,1.0,1014.6026780079121,0.0,1.0,1.4008721333867602,14.846621612110251
1.125,1.125,1.0,20.764844127691436,-1.3965309137459698,8.966958753484088,-0.04959227149594532,-0.014326494527139955,0.23304625146599436,22.66131945688632,0.2386947782418275,1.0,0.0,101.9292246851661,-2.200625907797849,1009.5247481940211,110.42058475320736,-3.000519731361786,13.945260570407106,1.0,1013.5221344318896,0.0,1.0,113.08104770749537,7035.8297423438535,1.0,1.0,-10.552511102014547,12.146124399067853,3.1537300995865762,-46.306995931688455,1.0,1014.6026780079121,0.0,1.0,1.4008721333867602,14.846621612110251
1.1500000000000001,1.1500000000000001,1.0,20.770563111269997,-1.2178564141589283,8.99242561545646,-0.05291918927098795,-0.016007663696574036,0.23600243640184507,22.666344757244726,0.24239190555323456,1.0,0.0,101.9292246851661,-2.200625907797849,1009.5247481940211,110.42058475320736,-3.000519731361786,13.945260570407106,1.0,1015.5098545892881,0.0,1.0,113.80118054902131,7335.404779494442,1.0,1.0,-10.29153337153207,12.163155947627892,3.228275020883472,-46.22568663414869,1.0,1015.0788091693919,0.0,1.0,0.14588459103540255,14.79165589963926
1.175,1.175,1.0,20.80851991616284,-1.0901637272121925,9.052399135521682,-0.05414586456005633,-0.017319890703355434,0.22758642483763214,22.718470198547006,0.23457905710720922,1.0,0.0,101.9292246851661,-2.200625907797849,1009.5247481940211,110.42058475320736,-3.000519731361786,13.945260570407106,1.0,1015.5098545892881,0.0,1.0,114.29430861133241,7153.970944247877,1.0,1.0,-10.29153337153207,12.163155947627892,3.228275020883472,-46.22568663414869,1.0,1015.0788091693919,0.0,1.0,0.14588459103540255,14.79165589963926
1.2000000000000002,1.2000000000000002,1.0,20.71440358561098,-1.0090543741849738,9.14266315687654,-0.056079572621730446,-0.014490851161009328,0.22621973153344227,22.664796408477677,0.23351717317548437,1.0,0.0,123.49706670612754,-1.1210688241805342,1015.3271892837345,114.11077493791102,-3.938127421698278,14.645565700668765,1.0,1015.958453353669,0.0,1.0,113.90064620779918,7435.477904606287,1.0,1.0,-8.720136739587861,12.182923953513406,3.14135893445215,-46.405009000437715,1.0,1016.0386411351969,0.0,1.0,0.03775713579153595,14.67248786772512
1.225,1.225,1.0,20.692439590188236,-0.8225959388410238,9.216303768267077,-0.05591400864337621,-0.014529239983306672,0.21062064005662118,22.667023964807584,0.21839992947554915,1.0,0.0,123.49706670612754,-1.1210688241805342,1015.3271892837345,114.11077493791102,-3.938127421698278,14.645565700668765,1.0,1015.958453353669,0.0,1.0,115.61708901816577,7441.506191465386,1.0,1.0,-8.720136739587861,12.182923953513406,3.14135893445215,-46.405009000437715,1.0,1016.0386411351969,0.0,1.0,0.03775713579153595,14.67248786772512
1.25,1.25,1.0,20.73454481393491,-0.8234075038632237,9.301617194222764,-0.04948805394618831,-0.021419955355399933,0.19115482927564767,22.740260134535706,0.19861533356266878,1.0,0.0,123.49706670612754,-1.1210688241805342,1015.3271892837345,114.11077493791102,-3.938127421698278,14.645565700668765,1.0,1016.7405882214342,0.0,1.0,116.42185208064855,7259.932365504086,1.0,1.0,-8.142290755914873,12.176517416146556,3.1194981171659246,-46.36292443610133,1.0,1016.7533393314867,0.0,1.0,0.046663763712239535,14.537183632369134
1.2750000000000001,1.2750000000000001,1.0,20.63247640066067,-0.706877684037294,9.260651295200777,-0.051126351046255146,-0.02017875228168791,0.16907048899047714,22.626498202225488,0.17778052779320264,1.0,0.0,123.49706670612754,-1.1210688241805342,1015.3271892837345,114.11077493791102,-3.938127421698278,14.645565700668765,1.0,1016.7405882214342,0.0,1.0,116.19731782067765,7542.229681701533,1.0,1.0,-8.142290755914873,12.176517416146556,3.1194981171659246,-46.36292443610133,1.0,1016.7533393314867,0.0,1.0,0.046663763712239535,14.537183632369134
1.3,1.3,1.0,20.677401711649566,-0.6556269549177731,9.39818927086242,-0.05594885338921803,-0.01858379937736952,0.1388460965434992,22.72247235271498,0.1508438607309997,1.0,0.0,123.49706670612754,-1.1210688241805342,1015.3271892837345,114.11077493791102,-3.938127421698278,14.645565700668765,1.0,1018.1156529053424,0.0,1.0,116.40362580449566,7512.214503206901,1.0,1.0,-7.6635502212460995,12.074263176040233,3.1521338023869103,-46.37823741586522,1.0,1017.3658406891024,0.0,1.0,-0.4415950722771065,14.839017014555658
1.3250000000000002,1.3250000000000002,1.0,20.636962177085184,-0.5331519857031187,9.38014707094699,-0.053108447134623885,-0.021826989928947983,0.10260152284903144,22.674999845885313,0.11757549547992498,1.0,0.0,123.49706670612754,-1.1210688241805342,1015.3271892837345,114.11077493791102,-3.938127421698278,14.645565700668765,1.0,1018.1156529053424,0.0,1.0,116.85551791858327,7629.247839597909,1.0,1.0,-7.6635502212460995,12.074263176040233,3.1521338023869103,-46.37823741586522,1.0,1017.3658406891024,0.0,1.0,-0.4415950722771065,14.839017014555658
1.35,1.35,1.0,20.675015974300035,-0.5924313304316633,9.431177380849466,-0.049150106339147,-0.019224087729550046,0.0733305194473986,22.732231901154915,0.09034746031078128,1.0,0.0,123.49706670612754,-1.1210688241805342,1015.3271892837345,114.11077493791102,-3.938127421698278,14.645565700668765,1.0,1018.7106607737963,0.0,1.0,118.10262838809665,7542.240676665955,1.0,1.0,-7.002919028915555,12.073115566643109,3.297957785251925,-46.362399515839805,1.0,1017.9798263075066,0.0,1.0,-0.9595350861239106,15.361235671739111
1.375,1.375,1.0,20.599589766539626,-0.5324864022476262,9.556809608297355,-0.054022157996047496,-0.0193207534936471,0.03379191916702849,22.714736410699274,0.06658512499878019,1.0,0.0,123.49706670612754,-1.1210688241805342,1015.3271892837345,114.11077493791102,-3.938127421698278,14.645565700668765,1.0,1018.7106607737963,0.0,1.0,117.66691969656272,7576.7370434695,1.0,1.0,-7.002919028915555,12.073115566643109,3.297957785251925,-46.362399515839805,1.0,1017.9798263075066,0.0,1.0,-0.9595350861239106,15.361235671739111
1.4000000000000001,1.4000000000000001,1.0,20.504318149604888,-0.4886706804661831,9.607617431021481,-0.05011488282912356,-0.019278732771924968,-0.007117449567853996,22.648889034895983,0.05416483274800193,1.0,0.0,146.37992667972676,-2.2889536415203353,1019.1231447763085,117.49016516893394,-4.266178740451938,15.5533809745537,1.0,1018.5262409591501,0.0,1.0,118.72918446134138,7882.642394701807,1.0,1.0,-6.590241211888231,12.034163849875059,3.3550266024417454,-46.293030961072965,1.0,1018.8518789404893,0.0,1.0,-0.829639561196195,15.263613363012642
1.425,1.425,1.0,20.61297492775656,-0.5215757378653726,9.634523917711027,-0.0489174385301517,-0.018693048351534926,-0.049716847334266547,22.759411849685314,0.07220879972609127,1.0,0.0,146.37992667972676,-2.2889536415203353,1019.1231447763085,117.49016516893394,-4.266178740451938,15.5533809745537,1.0,1018.5262409591501,0.0,1.0,118.79485253436242,7738.401546936008,1.0,1.0,-6.590241211888231,12.034163849875059,3.3550266024417454,-46.293030961072965,1.0,1018.8518789404893,0.0,1.0,-0.829639561196195,15.263613363012642
1.4500000000000002,1.4500000000000002,1.0,20.523204693131802,-0.579831698831077,9.74558525562885,-0.052091857897552635,-0.01730292378130164,-0.08317129453028363,22.726956849738748,0.09965147798424034,1.0,0.0,146.37992667972676,-2.2889536415203353,1019.1231447763085,117.49016516893394,-4.266178740451938,15.5533809745537,1.0,1019.8303757117021,0.0,1.0,118.6130947068083,7822.29043278794,1.0,1.0,-8.039077267226233,11.97796411025343,3.506736659956086,-46.38460251311385,1.0,1019.7130256004405,0.0,1.0,-0.44172521799344105,14.957860030237613
1.475,1.475,1.0,20.48957341413352,-0.7105195332192296,9.794789411881618,-0.04959147707751417,-0.015781695642075672,-0.12087863186115558,22.721473462858025,0.13160554759087287,1.0,0.0,146.37992667972676,-2.2889536415203353,1019.1231447763085,117.49016516893394,-4.266178740451938,15.5533809745537,1.0,1019.8303757117021,0.0,1.0,120.16221296556178,8019.454154065272,1.0,1.0,-8.039077267226233,11.97796411025343,3.506736659956086,-46.38460251311385,1.0,1019.7130256004405,0.0,1.0,-0.44172521799344105,14.957860030237613
1.5,1.5,1.0,20.52608470149423,-0.6537077470938618,9.883451246838378,-0.05459506740053617,-0.013939482842109252,-0.1584189523235779,22.791009094380993,0.1681412948138398,1.0,0.0,146.37992667972676,-2.2889536415203353,1019.1231447763085,117.49016516893394,-4.266178740451938,15.5533809745537,1.0,1020.6032807589191,0.0,1.0,120.12131256010434,8026.070614962391,1.0,1.0,-5.905254652330138,11.993996172249767,3.6524182775163654,-46.31928445344092,1.0,1020.9591680059984,0.0,1.0,0.00490299405201428,15.286773591700397
1.5250000000000001,1.5250000000000001,1.0,20.50409778353298,-0.8176303151246032,9.929648536318123,-0.054544087514757505,-0.015541915962842542,-0.18478444222147702,22.796588896229572,0.19329226244657588,1.0,0.0,146.37992667972676,-2.2889536415203353,1019.1231447763085,117.49016516893394,-4.266178740451938,15.5533809745537,1.0,1020.6032807589191,0.0,1.0,120.28724791328325,8061.804725465141,1.0,1.0,-5.905254652330138,11.993996172249767,3.6524182775163654,-46.31928445344092,1.0,1020.9591680059984,0.0,1.0,0.00490299405201428,15.286773591700397
1.55,1.55,1.0,20.45420828768968,-0.927564528387193,9.961473433431763,-0.05013279769366,-0.018650019830481538,-0.21433405766354036,22.76984772886025,0.2209076932086989,1.0,0.0,146.37992667972676,-2.2889536415203353,1019.1231447763085,117.49016516893394,-4.266178740451938,15.5533809745537,1.0,1020.7506563011748,0.0,1.0,120.547047090935,8155.655451513662,1.0,1.0,-9.27742582177302,11.84132835565654,3.9229737726875213,-46.46112207480587,1.0,1021.4972931785917,0.0,1.0,-0.5396894420476763,15.27997506860347
1.5750000000000002,1.5750000000000002,1.0,20.456981813155814,-1.070856420406284,10.06302202774148,-0.05176056438873157,-0.016112345208230495,-0.23414034571474882,22.82321736100595,0.2403340699638137,1.0,0.0,146.37992667972676,-2.2889536415203353,1019.1231447763085,117.49016516893394,-4.266178740451938,15.5533809745537,1.0,1020.7506563011748,0.0,1.0,121.4758659299724,8174.45282222768,1.0,1.0,-9.27742582177302,11.84132835565654,3.9229737726875213,-46.46112207480587,1.0,1021.4972931785917,0.0,1.0,-0.5396894420476763,15.27997506860347
1.6,1.6,1.0,20.447432029227997,-1.1923396142041023,10.089246269636444,-0.05599037406613533,-0.021055509563594334,-0.25314971711393636,22.832258772072297,0.2601211943420112,1.0,0.0,170.31331254802737,-1.9372078942970306,1023.8579907015785,120.48259195825987,-5.016561077467815,16.705631473696076,1.0,1023.2453733243386,0.0,1.0,122.61203003888801,8191.288558377067,1.0,1.0,-8.344157684838628,11.790847090912624,4.16198620876528,-46.29660935810063,1.0,1021.9799195177006,0.0,1.0,-0.34751168167012253,15.196495273088107
1.625,1.625,1.0,20.469599350280323,-1.455362570195645,10.08300939079493,-0.053518487493603925,-0.015038980122962202,-0.2617566086165632,22.864593942306996,0.26759469647432577,1.0,0.0,170.31331254802737,-1.9372078942970306,1023.8579907015785,120.48259195825987,-5.016561077467815,16.705631473696076,1.0,1023.2453733243386,0.0,1.0,121.9560781720305,8324.056849689265,1.0,1.0,-8.344157684838628,11.790847090912624,4.16198620876528,-46.29660935810063,1.0,1021.9799195177006,0.0,1.0,-0.34751168167012253,15.196495273088107
1.6500000000000001,1.6500000000000001,1.0,20.390129487637022,-1.632479005615287,10.224229615303027,-0.05916968214136845,-0.01707631269503966,-0.2654178568665053,22.86825833885954,0.2724688798442458,1.0,0.0,170.31331254802737,-1.9372078942970306,1023.8579907015785,120.48259195825987,-5.016561077467815,16.705631473696076,1.0,1022.4591962717254,0.0,1.0,123.33517269954399,8303.13518109399,1.0,1.0,-11.12037237558546,11.723690274733539,4.459029663486184,-46.28143093808197,1.0,1022.9550731283001,0.0,1.0,-0.5302771367617701,15.097235990965173
1.675,1.675,1.0,20.383013459711552,-1.69148581861589,10.248818446976147,-0.057201975466096365,-0.01683019718979102,-0.26161933022198025,22.87720790508404,0.2683281488783253,1.0,0.0,170.31331254802737,-1.9372078942970306,1023.8579907015785,120.48259195825987,-5.016561077467815,16.705631473696076,1.0,1022.4591962717254,0.0,1.0,123.31739682409267,8346.447478636253,1.0,1.0,-11.12037237558546,11.723690274733539,4.459029663486184,-46.28143093808197,1.0,1022.9550731283001,0.0,1.0,-0.5302771367617701,15.097235990965173
1.7000000000000002,1.7000000000000002,1.0,20.399294726018546,-1.8110802313246508,10.286431712865742,-0.05967576496362324,-0.015827599050485912,-0.2496239507204176,22.917720530338812,0.25714553581379945,1.0,0.0,170.31331254802737,-1.9372078942970306,1023.8579907015785,120.48259195825987,-5.016561077467815,16.705631473696076,1.0,1023.7219905446376,0.0,1.0,124.1557348048988,8491.756284372581,1.0,1.0,-11.246922524272053,11.571367279983939,4.794532547379883,-46.402014375797926,1.0,1023.4660997352232,0.0,1.0,-0.42773145051604167,15.263136081936477
1.725,1.725,1.0,20.382616201774983,-1.9085666864474888,10.35332880457188,-0.06364630558017319,-0.018296537255218456,-0.23345029175298326,22.94090424026601,0.24266160431574127,1.0,0.0,170.31331254802737,-1.9372078942970306,1023.8579907015785,120.48259195825987,-5.016561077467815,16.705631473696076,1.0,1023.7219905446376,0.0,1.0,124.50029002192736,8649.734179160481,1.0,1.0,-11.246922524272053,11.571367279983939,4.794532547379883,-46.402014375797926,1.0,1023.4660997352232,0.0,1.0,-0.42773145051604167,15.263136081936477
1.75,1.75,1.0,20.391582106081383,-2.0786370862565158,10.414290357702653,-0.0677269701188159,-0.012430535279950356,-0.21245805484184938,22.991189542517322,0.22333805263770737,1.0,0.0,170.31331254802737,-1.9372078942970306,1023.8579907015785,120.48259195825987,-5.016561077467815,16.705631473696076,1.0,1024.5406824152335,0.0,1.0,125.30444779312847,8761.824177325281,1.0,1.0,-10.202249829991661,11.405753540015672,5.035998461792812,-46.30228863534049,1.0,1024.452703626359,0.0,1.0,-0.41826247393803256,15.38673351140465
1.7750000000000001,1.7750000000000001,1.0,20.38952912744907,-2.1915980814294436,10.460500709036175,-0.0711100531238786,-0.018249602158111004,-0.18653715244348465,23.020818301558386,0.20046395405641884,1.0,0.0,170.31331254802737,-1.9372078942970306,1023.8579907015785,120.48259195825987,-5.016561077467815,16.705631473696076,1.0,1024.5406824152335,0.0,1.0,125.25525410733518,8777.414802949825,1.0,1.0,-10.202249829991661,11.405753540015672,5.035998461792812,-46.30228863534049,1.0,1024.452703626359,0.0,1.0,-0.41826247393803256,15.38673351140465
1.8,1.8,1.0,20.324988578310744,-2.3450517198699488,10.375137179473054,-0.07399726458246791,-0.019540288423218623,-0.15740945739676607,22.940093717555104,0.17502901278158042,1.0,0.0,196.57523944450418,-1.441796725453949,1027.6237748993804,124.10704409765583,-5.880159940585557,17.663369609242725,1.0,1025.5421459952936,0.0,1.0,125.80293965653796,8522.909970320701,1.0,1.0,-11.785200512927984,11.474600006817424,5.376785384457785,-46.32904713689626,1.0,1025.8786280935635,0.0,1.0,-0.6620025477819146,15.854053634605597
1.8250000000000002,1.8250000000000002,1.0,20.234101966266117,-2.3110501405848094,10.594992025557453,-0.07924189737551977,-0.017072615994564635,-0.12055028545976547,22.95677876260468,0.14526914276955452,1.0,0.0,196.57523944450418,-1.441796725453949,1027.6237748993804,124.10704409765583,-5.880159940585557,17.663369609242725,1.0,1025.5421459952936,0.0,1.0,126.04389069275776,8933.549152587531,1.0,1.0,-11.785200512927984,11.474600006817424,5.376785384457785,-46.32904713689626,1.0,1025.8786280935635,0.0,1.0,-0.6620025477819146,15.854053634605597
1.85,1.85,1.0,20.278482519996818,-2.351674932791767,10.587743240782215,-0.08097731792175004,-0.014118717137541696,-0.08296086205754329,22.9966853097586,0.11678685210562369,1.0,0.0,196.57523944450418,-1.441796725453949,1027.6237748993804,124.10704409765583,-5.880159940585557,17.663369609242725,1.0,1026.5596142059949,0.0,1.0,126.45105445169675,8756.834773550616,1.0,1.0,-12.855293173284256,11.299131425090014,5.6133429727419655,-46.36903294048883,1.0,1026.6080327771097,0.0,1.0,-0.1698613338893071,15.607205538459565
1.875,1.875,1.0,20.275226675430133,-2.4680786186710693,10.643440432607953,-0.08790074350086662,-0.020715954324824395,-0.04104499979093284,23.031696703684005,0.09919870704515775,1.0,0.0,196.57523944450418,-1.441796725453949,1027.6237748993804,124.10704409765583,-5.880159940585557,17.663369609242725,1.0,1026.5596142059949,0.0,1.0,125.90978626784931,9023.731406366654,1.0,1.0,-12.855293173284256,11.299131425090014,5.6133429727419655,-46.36903294048883,1.0,1026.6080327771097,0.0,1.0,-0.1698613338893071,15.607205538459565
1.9000000000000001,1.9000000000000001,1.0,20.297506062921347,-2.4531298524254517,10.667717279559081,-0.0894722973223528,-0.023734681660038413,-0.008751559519887734,23.06093645981865,0.0929796585048203,1.0,0.0,196.57523944450418,-1.441796725453949,1027.6237748993804,124.10704409765583,-5.880159940585557,17.663369609242725,1.0,1029.2463436645132,0.0,1.0,126.20023078887652,8968.657770417352,1.0,1.0,-12.607895131492834,11.262347273676362,5.767807176300287,-46.198816317637075,1.0,1027.2785847955984,0.0,1.0,-0.691545589711616,15.870335883503184
1.925,1.925,1.0,20.290770742784062,-2.5086834229007335,10.60440109536616,-0.09570238093072043,-0.021055540366011812,0.03511516754164854,23.031764857343468,0.10409301843731655,1.0,0.0,196.57523944450418,-1.441796725453949,1027.6237748993804,124.10704409765583,-5.880159940585557,17.663369609242725,1.0,1029.2463436645132,0.0,1.0,127.72322611742595,8901.322271306735,1.0,1.0,-12.607895131492834,11.262347273676362,5.767807176300287,-46.198816317637075,1.0,1027.2785847955984,0.0,1.0,-0.691545589711616,15.870335883503184
1.9500000000000002,1.9500000000000002,1.0,20.20809497396652,-2.370468406826273,10.63904829251511,-0.09735459677840899,-0.020782800233424548,0.07588898925056427,22.96030425571667,0.12517580033257744,1.0,0.0,196.57523944450418,-1.441796725453949,1027.6237748993804,124.10704409765583,-5.880159940585557,17.663369609242725,1.0,1027.8338327224283,0.0,1.0,127.5263455294829,9023.583597326113,1.0,1.0,-12.559900105147605,11.245291650541665,6.00155119201069,-46.28287888952266,1.0,1028.738210901067,0.0,1.0,-0.8779057426111045,16.103113361708076
1.975,1.975,1.0,20.220285393193134,-2.329052402636659,10.693625373843245,-0.10366521798440034,-0.023154920968776107,0.1076475093384886,22.992130177791516,0.15123033442931844,1.0,0.0,196.57523944450418,-1.441796725453949,1027.6237748993804,124.10704409765583,-5.880159940585557,17.663369609242725,1.0,1027.8338327224283,0.0,1.0,127.90398812275853,9116.716210120414,1.0,1.0,-12.559900105147605,11.245291650541665,6.00155119201069,-46.28287888952266,1.0,1028.738210901067,0.0,1.0,-0.8779057426111045,16.103113361708076
2.0,2.0,1.0,20.18766832474976,-2.223968499003563,10.775533243722828,-0.10660648435585872,-0.025113288146572897,0.14011525529823213,22.991304986042895,0.17784235860879014,1.0,0.0,221.58069363152092,-7.7690099883095165,1028.4417019124446,127.00513230479878,-6.926277526240858,19.38146113729448,1.0,1028.5273985970214,0.0,1.0,129.05221691229312,9186.607880160187,1.0,1.0,-9.426615447469413,11.127941812359422,6.132067014946233,-46.23064381371359,1.0,1029.5451687536167,0.0,1.0,-2.315341838225814,15.805770845203858
2.025,2.025,1.0,20.199325958567194,-2.0938468319162125,10.73442356346254,-0.10838011820202126,-0.02420586379177799,0.1653174601155573,22.970085175632065,0.19915329894945022,1.0,0.0,221.58069363152092,-7.7690099883095165,1028.4417019124446,127.00513230479878,-6.926277526240858,19.38146113729448,1.0,1028.5273985970214,0.0,1.0,128.87689120474505,9288.04700539766,1.0,1.0,-9.426615447469413,11.127941812359422,6.132067014946233,-46.23064381371359,1.0,1029.5451687536167,0.0,1.0,-2.315341838225814,15.805770845203858
2.0500000000000003,2.0500000000000003,1.0,20.18989902079138,-1.9977911874628709,10.793300244467929,-0.11315842547352357,-0.024692660175973383,0.19153409405057575,22.980829451211907,0.22382999331186135,1.0,0.0,221.58069363152092,-7.7690099883095165,1028.4417019124446,127.00513230479878,-6.926277526240858,19.38146113729448,1.0,1030.5662851869317,0.0,1.0,129.50959244569918,9317.85122945068,1.0,1.0,-10.654812127064476,11.258784354472366,6.322773506852316,-46.23631632539689,1.0,1030.1407480655766,0.0,1.0,-2.150877400157806,16.070888442178813
2.075,2.075,1.0,20.106715068800323,-1.8892906162265335,10.817532421512032,-0.11640907464018639,-0.02952862778827032,0.2034210336571817,22.910006931054117,0.2362268601404145,1.0,0.0,221.58069363152092,-7.7690099883095165,1028.4417019124446,127.00513230479878,-6.926277526240858,19.38146113729448,1.0,1030.5662851869317,0.0,1.0,130.0619928958216,9284.771497703909,1.0,1.0,-10.654812127064476,11.258784354472366,6.322773506852316,-46.23631632539689,1.0,1030.1407480655766,0.0,1.0,-2.150877400157806,16.070888442178813
2.1,2.1,1.0,20.14879007440864,-1.6582210940666604,10.94067923618166,-0.11840822717950678,-0.028518166881611032,0.2149422430646658,22.98742919093852,0.24705052511531114,1.0,0.0,221.58069363152092,-7.7690099883095165,1028.4417019124446,127.00513230479878,-6.926277526240858,19.38146113729448,1.0,1030.592603495305,0.0,1.0,129.6107947403946,9350.34038730641,1.0,1.0,-9.929009727316084,11.186177375157603,6.467543320187794,-46.21666677565847,1.0,1031.0819081576424,0.0,1.0,-2.7529737924548154,16.3273793024591
2.125,2.125,1.0,20.090335973254284,-1.5986610254066593,10.949264563893928,-0.12351944263245375,-0.031713533527558894,0.2176411019365513,22.936078807907265,0.25225076842141025,1.0,0.0,221.58069363152092,-7.7690099883095165,1028.4417019124446,127.00513230479878,-6.926277526240858,19.38146113729448,1.0,1030.592603495305,0.0,1.0,131.04673994607592,9407.533333924068,1.0,1.0,-9.929009727316084,11.186177375157603,6.467543320187794,-46.21666677565847,1.0,1031.0819081576424,0.0,1.0,-2.7529737924548154,16.3273793024591
2.15,2.15,1.0,20.144822040600044,-1.4408133470150517,11.001729125398919,-0.12461136727685347,-0.035204372983977716,0.20812627783771567,22.998431292091055,0.24512015065755796,1.0,0.0,221.58069363152092,-7.7690099883095165,1028.4417019124446,127.00513230479878,-6.926277526240858,19.38146113729448,1.0,1031.8846017908916,0.0,1.0,131.30517635781743,9419.915737801954,1.0,1.0,-9.411669259762373,11.206156131563034,6.6625139752854,-46.29098632338351,1.0,1032.4054971567377,0.0,1.0,-3.7304557018845492,15.954151030875051
2.1750000000000003,2.1750000000000003,1.0,20.015810846747527,-1.3411271646022282,11.018313312815803,-0.12899388384031585,-0.033112913827793564,0.19651583010153711,22.88743179528415,0.23739072983347934,1.0,0.0,221.58069363152092,-7.7690099883095165,1028.4417019124446,127.00513230479878,-6.926277526240858,19.38146113729448,1.0,1031.8846017908916,0.0,1.0,131.37570855255098,9683.843574085293,1.0,1.0,-9.411669259762373,11.206156131563034,6.6625139752854,-46.29098632338351,1.0,1032.4054971567377,0.0,1.0,-3.7304557018845492,15.954151030875051
2.2,2.2,1.0,20.053988430453668,-1.1409618795946028,11.076974264704473,-0.1299855500032881,-0.0330855315867232,0.17935716767782472,22.938256360071986,0.22396403552232377,1.0,0.0,243.39624647856604,-7.659838677270429,1030.980461317572,130.36102343789426,-8.226768241664084,20.296700119438178,1.0,1032.1173803378679,0.0,1.0,131.74270368173902,9639.760736059387,1.0,1.0,-8.874317839209255,11.165785269818288,6.842952705133358,-46.127057618735726,1.0,1033.4779148171408,0.0,1.0,-3.7732018903863955,16.516896760797348
2.225,2.225,1.0,19.991861018237696,-1.0591462831378022,11.0954625353125,-0.13560194710528906,-0.032371867135173635,0.153965196907616,22.888983959410254,0.20770437573475412,1.0,0.0,243.39624647856604,-7.659838677270429,1030.980461317572,130.36102343789426,-8.226768241664084,20.296700119438178,1.0,1032.1173803378679,0.0,1.0,132.06493187811623,9601.132748247537,1.0,1.0,-8.874317839209255,11.165785269818288,6.842952705133358,-46.127057618735726,1.0,1033.4779148171408,0.0,1.0,-3.7732018903863955,16.516896760797348
2.25,2.25,1.0,20.02740594571778,-1.0669825418094296,11.080154555679405,-0.13730143869152225,-0.028882172685123764,0.12621928156935014,22.912993380107306,0.18872512287890567,1.0,0.0,243.39624647856604,-7.659838677270429,1030.980461317572,130.36102343789426,-8.226768241664084,20.296700119438178,1.0,1033.409542367725,0.0,1.0,133.09258077924392,9903.029238768515,1.0,1.0,-9.785905616898114,11.210301285751317,7.168881722015483,-46.155942008005475,1.0,1034.1895095501368,0.0,1.0,-4.770875719219927,15.68249236118882
2.275,2.275,1.0,20.030073390434048,-0.9809553623883348,11.16843807438079,-0.138727745634827,-0.03193218367304558,0.0938469233559709,22.954305096657816,0.1705060022006025,1.0,0.0,243.39624647856604,-7.659838677270429,1030.980461317572,130.36102343789426,-8.226768241664084,20.296700119438178,1.0,1033.409542367725,0.0,1.0,133.46627300490468,9792.659317541695,1.0,1.0,-9.785905616898114,11.210301285751317,7.168881722015483,-46.155942008005475,1.0,1034.1895095501368,0.0,1.0,-4.770875719219927,15.68249236118882
2.3000000000000003,2.3000000000000003,1.0,20.03485223740885,-0.9770164464364229,11.256503645165406,-0.1409685018749383,-0.027813565953926485,0.06104672523848668,23.001276912924546,0.15611667314634012,1.0,0.0,243.39624647856604,-7.659838677270429,1030.980461317572,130.36102343789426,-8.226768241664084,20.296700119438178,1.0,1035.8944142324788,0.0,1.0,133.97476458789535,9873.201732302176,1.0,1.0,-9.209598947275033,11.137472179652852,7.385318807413447,-46.036441776061906,1.0,1035.3980008609667,0.0,1.0,-4.709688451087419,16.533954200060155
2.325,2.325,1.0,20.010917728312613,-0.8443294120873661,11.284620478153993,-0.1401371449707156,-0.028372593927487755,0.0221711950593283,22.988962130148117,0.14468927181058125,1.0,0.0,243.39624647856604,-7.659838677270429,1030.980461317572,130.36102343789426,-8.226768241664084,20.296700119438178,1.0,1035.8944142324788,0.0,1.0,134.1990030787009,9968.088877422872,1.0,1.0,-9.209598947275033,11.137472179652852,7.385318807413447,-46.036441776061906,1.0,1035.3980008609667,0.0,1.0,-4.709688451087419,16.533954200060155
2.35,2.35,1.0,19.99469685646329,-0.9426289812911849,11.33062269565691,-0.14349781624514257,-0.025140030719802007,-0.0169378746446102,23.001292625623638,0.1466647060788444,1.0,0.0,243.39624647856604,-7.659838677270429,1030.980461317572,130.36102343789426,-8.226768241664084,20.296700119438178,1.0,1035.0721800448307,0.0,1.0,135.30918632741339,10200.478874174409,1.0,1.0,-8.052676181076615,11.123757244962269,7.6832465736652535,-45.985928296403095,1.0,1036.2503071419665,0.0,1.0,-4.960937127931361,16.143026135250885
2.375,2.375,1.0,19.955418787071196,-0.9746161964926899,11.286037519859098,-0.14658089214685766,-0.020992698440635726,-0.05330854035427809,22.946530426134736,0.15737995998567253,1.0,0.0,243.39624647856604,-7.659838677270429,1030.980461317572,130.36102343789426,-8.226768241664084,20.296700119438178,1.0,1035.0721800448307,0.0,1.0,135.19462750290546,9978.394858564729,1.0,1.0,-8.052676181076615,11.123757244962269,7.6832465736652535,-45.985928296403095,1.0,1036.2503071419665,0.0,1.0,-4.960937127931361,16.143026135250885
2.4000000000000004,2.4000000000000004,1.0,19.977627893887068,-1.0994432983332656,11.390827528971935,-0.15004515126617515,-0.01957944933324321,-0.09447087781865046,23.023147995607584,0.178386235484997,1.0,0.0,271.4186849804991,-8.12611954308274,1039.688121181477,133.46324962917132,-8.294447758784937,21.68230809944476,1.0,1036.782924584484,0.0,1.0,135.07926084263244,10231.288650298879,1.0,1.0,-8.288250823945864,10.978477162172734,7.99137800749698,-46.04600520671142,1.0,1037.6673483965649,0.0,1.0,-5.634490266626532,16.350571531336513
2.4250000000000003,2.4250000000000003,1.0,19.884562980821183,-1.1589658427267038,11.364626401955052,-0.1547141968061365,-0.020121414634397643,-0.12640042445264463,22.932374059806047,0.2007944753275498,1.0,0.0,271.4186849804991,-8.12611954308274,1039.688121181477,133.46324962917132,-8.294447758784937,21.68230809944476,1.0,1036.782924584484,0.0,1.0,136.14124728440953,10177.631167229209,1.0,1.0,-8.288250823945864,10.978477162172734,7.99137800749698,-46.04600520671142,1.0,1037.6673483965649,0.0,1.0,-5.634490266626532,16.350571531336513
2.45,2.45,1.0,19.92408406242164,-1.3050356344789593,11.390310040128835,-0.1562256962816276,-0.017270823759603874,-0.1554637260022327,22.987200928863952,0.2210740139286206,1.0,0.0,271.4186849804991,-8.12611954308274,1039.688121181477,133.46324962917132,-8.294447758784937,21.68230809944476,1.0,1039.9146152502233,0.0,1.0,136.59678670351207,10286.747213868108,1.0,1.0,-7.856531418066655,10.837901159241259,8.5081191981843,-45.994397519473104,1.0,1038.5209916859503,0.0,1.0,-5.855968482621825,16.116489140917615
2.475,2.475,1.0,19.87687170815255,-1.4497228536835323,11.405835322069713,-0.158503599401788,-0.017452210661946136,-0.18303273855512878,22.962682871324525,0.2427528662308677,1.0,0.0,271.4186849804991,-8.12611954308274,1039.688121181477,133.46324962917132,-8.294447758784937,21.68230809944476,1.0,1039.9146152502233,0.0,1.0,137.02745844735023,10391.939062686875,1.0,1.0,-7.856531418066655,10.837901159241259,8.5081191981843,-45.994397519473104,1.0,1038.5209916859503,0.0,1.0,-5.855968482621825,16.116489140917615
2.5,2.5,1.0,19.87821721558317,-1.590588430559177,11.417460830132617,-0.16548429928438907,-0.012965453962846072,-0.19693125373182588,22.978944776315302,0.2575559647969674,1.0,0.0,271.4186849804991,-8.12611954308274,1039.688121181477,133.46324962917132,-8.294447758784937,21.68230809944476,1.0,1040.5814827512086,0.0,1.0,137.3129327723765,10505.336321450897,1.0,1.0,-8.725836417257366,10.85237549298292,8.945591400081074,-45.908232406578094,1.0,1040.2717752849815,0.0,1.0,-5.6912951975186274,16.79043980995172
2.5250000000000004,2.5250000000000004,1.0,19.84678468244868,-1.6952155662538757,11.400688296266555,-0.16767138376693008,-0.014479817128840706,-0.2071288961614621,22.950910911686666,0.2668815049108266,1.0,0.0,271.4186849804991,-8.12611954308274,1039.688121181477,133.46324962917132,-8.294447758784937,21.68230809944476,1.0,1040.5814827512086,0.0,1.0,137.3540554020111,10362.642948077546,1.0,1.0,-8.725836417257366,10.85237549298292,8.945591400081074,-45.908232406578094,1.0,1040.2717752849815,0.0,1.0,-5.6912951975186274,16.79043980995172
2.5500000000000003,2.5500000000000003,1.0,19.806640147106965,-1.86835571275527,11.341862694510777,-0.17240484516220292,-0.010857113078914182,-0.20992190922390688,22.900471531553883,0.2718612063388627,1.0,0.0,271.4186849804991,-8.12611954308274,1039.688121181477,133.46324962917132,-8.294447758784937,21.68230809944476,1.0,1040.4223971969357,0.0,1.0,137.80703488923723,10328.533640068155,1.0,1.0,-9.986352953807527,10.675495169503066,9.483505667999827,-45.7513904754498,1.0,1040.508849126041,0.0,1.0,-6.751988436540789,16.931085387770754
2.575,2.575,1.0,19.88770076510559,-2.112589596868321,11.365329829931946,-0.18002415246539055,-0.013951881000394411,-0.21191807478700367,23.003356247954745,0.2784108849807446,1.0,0.0,271.4186849804991,-8.12611954308274,1039.688121181477,133.46324962917132,-8.294447758784937,21.68230809944476,1.0,1040.4223971969357,0.0,1.0,138.68271572605138,10329.00272643043,1.0,1.0,-9.986352953807527,10.675495169503066,9.483505667999827,-45.7513904754498,1.0,1040.508849126041,0.0,1.0,-6.751988436540789,16.931085387770754
2.6,2.6,1.0,19.82895686922142,-2.1948556980769385,11.317470215303114,-0.18687434725277938,-0.017066809154261647,-0.19820759463194687,22.936653071690674,0.2729460536546417,1.0,0.0,298.3577168778628,-11.766536329512805,1043.7580063914427,136.65317521595995,-8.937757372017593,23.273920366411367,1.0,1043.2017960401772,0.0,1.0,138.31877102324984,10512.903602815353,1.0,1.0,-10.471192986979185,10.579534379709322,9.995641407779992,-45.72716523823384,1.0,1042.2545529765691,0.0,1.0,-7.185156133346865,16.905884150203338
2.625,2.625,1.0,19.902918133418336,-2.453054342962807,11.36325748446929,-0.19200487757223494,-0.017652271734770932,-0.1807377596934747,23.049235269167358,0.2642794231262497,1.0,0.0,298.3577168778628,-11.766536329512805,1043.7580063914427,136.65317521595995,-8.937757372017593,23.273920366411367,1.0,1043.2017960401772,0.0,1.0,139.40841654368955,10875.245906774242,1.0,1.0,-10.471192986979185,10.579534379709322,9.995641407779992,-45.72716523823384,1.0,1042.2545529765691,0.0,1.0,-7.185156133346865,16.905884150203338
2.6500000000000004,2.6500000000000004,1.0,19.76359498656508,-2.5170878829989056,11.30111106365074,-0.20076903355883155,-0.019663403976096238,-0.15768158831951629,22.905251133237755,0.25604362438272077,1.0,0.0,298.3577168778628,-11.766536329512805,1043.7580063914427,136.65317521595995,-8.937757372017593,23.273920366411367,1.0,1043.8371045878425,0.0,1.0,138.55313468371662,10954.749148215893,1.0,1.0,-12.009106424366367,10.289709944534318,10.55396821663191,-45.66409303240403,1.0,1043.5930401309179,0.0,1.0,-7.251473614073329,16.618188557469537
2.6750000000000003,2.6750000000000003,1.0,19.880384105541868,-2.659488552270144,11.223799633183793,-0.20998829519258533,-0.02886212399160767,-0.12844198963186398,22.98426047862742,0.24784158452484753,1.0,0.0,298.3577168778628,-11.766536329512805,1043.7580063914427,136.65317521595995,-8.937757372017593,23.273920366411367,1.0,1043.8371045878425,0.0,1.0,140.47002303507475,10615.347815170982,1.0,1.0,-12.009106424366367,10.289709944534318,10.55396821663191,-45.66409303240403,1.0,1043.5930401309179,0.0,1.0,-7.251473614073329,16.618188557469537
2.7,2.7,1.0,19.817050847514178,-2.686689422480845,11.202424066433077,-0.217926016918257,-0.028022029394711243,-0.10156862007653471,22.922218682100386,0.24206025606345613,1.0,0.0,298.3577168778628,-11.766536329512805,1043.7580063914427,136.65317521595995,-8.937757372017593,23.273920366411367,1.0,1043.817987206089,0.0,1.0,141.0773022829757,10920.964371942107,1.0,1.0,-10.761922242027701,10.306409216212439,11.150235656918543,-45.51231164642699,1.0,1044.233672062856,0.0,1.0,-7.411766061675836,16.730813498275623
2.725,2.725,1.0,19.753332300498528,-2.863819540310313,11.256281085480012,-0.2270843412995514,-0.03309983822494922,-0.061028378553258274,22.915048837144482,0.23746022897068206,1.0,0.0,298.3577168778628,-11.766536329512805,1043.7580063914427,136.65317521595995,-8.937757372017593,23.273920366411367,1.0,1043.817987206089,0.0,1.0,140.8191655271417,11205.152003447858,1.0,1.0,-10.761922242027701,10.306409216212439,11.150235656918543,-45.51231164642699,1.0,1044.233672062856,0.0,1.0,-7.411766061675836,16.730813498275623
2.75,2.75,1.0,19.794067110523905,-2.8269107206908743,11.337974364863685,-0.24029173555070563,-0.03968794506970717,-0.024229513369521383,22.98578212062812,0.24474950556834665,1.0,0.0,298.3577168778628,-11.766536329512805,1043.7580063914427,136.65317521595995,-8.937757372017593,23.273920366411367,1.0,1046.037080540005,0.0,1.0,140.82019331003264,11068.022546356937,1.0,1.0,-11.505742733797302,10.200570386809899,11.678478056815777,-45.43863406722296,1.0,1045.5904110819968,0.0,1.0,-8.863506749323497,17.54694550693251
2.7750000000000004,2.7750000000000004,1.0,19.847870156218523,-2.7970128058921127,11.270464475910249,-0.24506879210458368,-0.044020228078941924,0.018240868676091728,22.995316911866844,0.24965821162897917,1.0,0.0,298.3577168778628,-11.766536329512805,1043.7580063914427,136.65317521595995,-8.937757372017593,23.273920366411367,1.0,1046.037080540005,0.0,1.0,142.18106284923928,11027.10026698571,1.0,1.0,-11.505742733797302,10.200570386809899,11.678478056815777,-45.43863406722296,1.0,1045.5904110819968,0.0,1.0,-8.863506749323497,17.54694550693251
2.8000000000000003,2.8000000000000003,1.0,19.7645675800066,-2.780771741249399,11.32877117577175,-0.26107645676366964,-0.049392682271325185,0.05479101223143717,22.950204344505867,0.2712980065528935,1.0,0.0,329.2306183003518,-12.044029924170822,1048.1698903954534,139.70285206642248,-9.698189108982675,24.333557026567107,1.0,1046.7378040086596,0.0,1.0,142.11182511797725,11132.493646201001,1.0,1.0,-11.348501961247853,10.056145440194191,12.232733543141883,-45.3136895798888,1.0,1047.1007238970967,0.0,1.0,-8.586038151973934,17.71327670204578
