time_s,x_m,y_m,altitude_m,vx_mps,vy_mps,vz_mps,speed_mps,mass_kg,roll_deg,pitch_deg,yaw_deg,p_dps,q_dps,r_dps,alpha_deg,beta_deg,qbar_pa,mach,airspeed_mps,load_factor_g,density_kgpm3,pressure_pa,temperature_k,wind_x_mps,wind_y_mps,wind_z_mps,thrust_n,mass_flow_kgps,propulsion_throttle_actual,propulsion_health,energy_j_per_kg,target_distance_m,guidance_mode,pitch_command_deg,heading_command_deg,roll_command_deg
0.0,0.0,0.0,1000.0,92.0,0.0,14.0,93.05912099305473,18.0,0.0,8.000000000000004,0.0,0.0,0.0,0.0,-0.6525417911147219,0.0,4813.4120263251225,0.2766044123965224,93.05912099305475,1.8255010316395077,1.1116425003060326,89874.56291621955,281.65,0.0,0.0,0.0,342.0,0.1835489183360271,0.9,nominal,14136.65,nan,fixed_pitch,26.0,12.000000000000002,0.0
0.025,2.3111251333924625,4.645338431329378e-05,1000.3450635993931,92.4450053356985,0.001858135372531751,13.80254397572591,93.46972362841264,17.9954112770416,0.0013615355553477592,8.117163664792285,-0.00971237832743065,0.0,-4.6865527945085415,-0.3846033604636813,-0.3746792923985618,0.01075381796489586,4855.817375890151,0.2778259739640994,93.46972362841265,1.8557093828085274,1.1116048254487132,89870.80127295671,281.6477570866039,0.0,0.0,0.0,347.0625,0.1862659253508696,0.9,nominal,14178.328535532908,nan,fixed_pitch,26.0,12.000000000000002,0.0
0.05,4.633548963941853,0.0001832697551670443,1000.6853028999727,92.89695322197561,0.00547265483415002,13.609572023184688,93.88857437691834,17.99075462890783,0.005490918700875247,8.405993189200307,-0.03887047713628621,-0.0024173422768333603,-11.553274435113364,-1.1535330921674785,0.07135015425342368,0.041792805690641435,4899.270333664466,0.27907204621460624,93.88857437691833,1.8857664409916801,1.1115676782761563,89867.09234566866,281.64554553115016,0.0,0.0,0.0,352.125,0.18898293236571212,0.9,nominal,14220.90272494908,nan,fixed_pitch,26.0,12.000000000000002,0.0
0.07500000000000001,6.967427953842465,0.00044846147996601527,1001.0209491968529,93.35515959602452,0.010607668991958839,13.425851875206508,94.31563727344918,17.986030055598686,0.013975307367063799,8.90693664014,-0.09713536035939543,-0.01140501229840838,-20.038256737944007,-2.30066467629043,0.7230820759472484,0.10241385397746837,4943.778493903454,0.2803425230745056,94.3156372734492,1.9059314757600394,1.1115310334962099,89863.43360787148,281.64336383022044,0.0,0.0,0.0,357.1875,0.19169993938055463,0.9,nominal,14264.381808589736,nan,fixed_pitch,26.0,12.000000000000002,0.0
0.1,9.312815475162333,0.0008706860340982741,1001.3524663591664,93.81550085279473,0.01688898216529035,13.260686492538955,94.74805692863497,17.981237557114174,0.029299900983278858,9.557522344797713,-0.1939837894011273,-0.008547092387466938,-26.025149756128517,-3.813989297060596,1.5121970867266383,0.2015143693100552,4989.052568405793,0.2816289187796305,94.74805692863497,1.9271716262920124,1.1114948404290814,89859.81999841798,281.6412089686654,0.0,0.0,0.0,362.25,0.19441694639539714,0.9,nominal,14308.510310097045,nan,fixed_pitch,26.0,12.000000000000002,0.0
0.125,11.669715588737397,0.001465749725536518,1001.6804929942158,94.27600454300256,0.023802547657529753,13.12106540197537,95.18470442479942,17.97637713345429,0.05418842156516129,10.209499575873581,-0.33848556227137483,0.003400569279657289,-26.083511891733213,-5.675380336915572,2.286315229350275,0.347420300134666,5034.980512007454,0.28292787980853906,95.18470442479942,1.951748376036763,1.1114590293243132,89856.24455228678,281.63907679553756,0.0,0.0,0.0,367.3125,0.19713395341023965,0.9,nominal,14353.193984839942,nan,fixed_pitch,26.0,12.000000000000002,0.0
0.15000000000000002,14.038118993724543,0.002219665916166051,1002.0056714515642,94.73613619948586,0.030156647625181315,13.0071382939359,95.62490291774682,17.97144878461903,0.09061401485635508,10.724547736001869,-0.5361582229905427,0.020563417958935452,-20.611873002714283,-7.74937866046879,2.9072999740265972,0.5446486205959935,5081.496208380212,0.28423739638842793,95.62490291774681,1.9776995557882884,1.111423530030131,89852.70026461016,281.6369631355648,0.0,0.0,0.0,372.375,0.19985096042508213,0.9,nominal,14398.379946954734,nan,fixed_pitch,26.0,12.000000000000002,0.0
0.17500000000000002,16.418053363718293,0.0030650480852671053,1002.3284593118155,95.19737479974995,0.03381528676404218,12.911514410051081,96.06897790961786,17.966452510608406,0.13852252593080483,11.092199972916038,-0.7844201455144529,0.03709485916766525,-14.725607541036192,-9.721682615412687,3.3695299796787306,0.7893310264552607,5128.6393752930235,0.2855584375495589,96.06897790961784,2.003794390082281,1.1113882925720888,89849.18214524134,281.6348650144732,0.0,0.0,0.0,377.4375,0.20256796743992464,0.9,nominal,14444.108643809537,nan,fixed_pitch,26.0,12.000000000000002,0.0
0.2,18.809585548608535,0.003901191535021752,1002.6491606832153,95.66128739560963,0.033445737990185874,12.828054855992187,96.5175736132605,17.961388311422407,0.19667899589721677,11.372075520850526,-1.0769159774046646,0.047300507135733,-11.22856366913424,-11.442996400192053,3.7366694880856506,1.0744036492402733,5176.4846723927285,0.2868929192036811,96.5175736132605,2.0302460961046767,1.1113532837341065,89845.68687732922,281.6327804555591,0.0,0.0,0.0,382.5,0.20528497445476715,0.9,nominal,14490.450399709633,nan,fixed_pitch,26.0,12.000000000000002,0.0
0.225,21.21280128514728,0.004607412258243858,1002.9680154037819,96.12862946154972,0.028248828928884223,12.754188822663224,96.97104481584391,17.956256187061037,0.2635090604167142,11.627162536693664,-1.406142181805606,0.04778901208187875,-10.255237595697658,-12.863678312965357,4.073519504517933,1.3919110869991567,5225.076934590824,0.28824189678964335,96.97104481584391,2.057005367668813,1.1113184773191216,89842.21184489265,281.6307078998754,0.0,0.0,0.0,387.5625,0.20800198146960966,0.9,nominal,14537.448054597702,nan,fixed_pitch,26.0,12.000000000000002,0.0
0.25,23.62778913402107,0.005051642185993004,1003.2852487885127,96.59951395495175,0.01776919710996585,12.689335389233426,97.42938799303697,17.951056137524297,0.3376441654901022,11.915004834219074,-1.7649623653525808,0.037384301286539044,-11.587267590772695,-13.99046732881649,4.438180980974279,1.7342758470546984,5274.422990569847,0.28960536065827436,97.42938799303697,2.0857805622890866,1.1112838487179608,89838.75459056156,281.62864588287465,0.0,0.0,0.0,392.625,0.21071898848445217,0.9,nominal,14585.110107380735,nan,fixed_pitch,26.0,12.000000000000002,0.0
0.275,26.054613228986963,0.005095804714943239,1003.601169076034,97.07296379863563,0.0017665011580094044,12.636811500852263,97.89202883115571,17.945788162812185,0.4179067513939443,12.216107634604075,-2.146858514118152,0.017359973276087935,-12.142370133198472,-14.858755360200087,4.8093432407920265,2.0949395272419307,5324.46760109435,0.29098160479414686,97.8920288311557,2.1157918638669124,1.1112493642724046,89835.31175361006,281.6265924010058,0.0,0.0,0.0,397.6875,0.21343599549929468,0.9,nominal,14633.390059059398,nan,fixed_pitch,26.0,12.000000000000002,0.0
0.30000000000000004,28.493325593216106,0.004598802480044485,1003.9161143950356,97.5484945691658,-0.019880089395950165,12.597812760064137,98.35859939154359,17.940452262924705,0.5030130353831804,12.488815826403902,-2.5461749666344016,-0.01272094543632676,-11.033385742174278,-15.514827506942302,5.144803184964379,2.4685983704893144,5375.176955198193,0.29236953672291577,98.35859939154358,2.1457775547128404,1.1112149870649242,89831.87964801463,281.62454525643227,0.0,0.0,0.0,402.75,0.2161530025141372,0.9,nominal,14682.261000365155,nan,fixed_pitch,26.0,12.000000000000002,0.0
0.325,30.943985436431095,0.0034178975339094653,1004.230387767934,98.02639372859961,-0.047236197845400785,12.570934915934801,98.82916828221053,17.93504843786185,0.5916121668472033,12.715306703659444,-2.9584207842772736,-0.053781053995577255,-9.2129521617733,-16.005396319279402,5.427718430402709,2.8511759958753933,5426.564490467229,0.29376936148956306,98.82916828221052,2.1751848437701384,1.1111806840133356,89828.45497076349,281.6225024795084,0.0,0.0,0.0,407.8125,0.2188700095289797,0.9,nominal,14731.738183881153,nan,fixed_pitch,26.0,12.000000000000002,0.0
0.35000000000000003,33.40666651335335,0.0014091787386408686,1004.544239020353,98.50724307689018,-0.08034875181074386,12.55405009675908,99.30401587228675,17.929576687623626,0.6825440823934319,12.906230002227318,-3.3803816945526752,-0.10523017600284286,-7.8194632127105175,-16.372453438227637,5.670110102425502,3.2396647905741633,5478.667227768848,0.29518191344127315,99.30401587228675,2.2043815471806627,1.1111464278448397,89825.0349989203,281.6204624463677,0.0,0.0,0.0,412.875,0.2215870165438222,0.9,nominal,14781.857545770636,nan,fixed_pitch,26.0,12.000000000000002,0.0
0.375,35.8814516066711,-0.001572387710649921,1004.8578870254307,98.99140373270997,-0.11926265797163157,12.545920203109468,99.7833270155729,17.924037012210032,0.7749993642832934,13.079871921010444,-3.8099040473939203,-0.16464019845713992,-7.158049989332772,-16.651412055809146,5.89107496756238,3.63193468900621,5531.512255605557,0.29660774292619585,99.7833270155729,2.233905426506321,1.1111121946674878,89821.61734715206,281.61842373433467,0.0,0.0,0.0,417.9375,0.2243040235586647,0.9,nominal,14832.645772946318,nan,fixed_pitch,26.0,12.000000000000002,0.0
0.4,38.36842439367267,-0.005673122480634488,1005.1715459894444,99.4789114800627,-0.16402939079938267,12.546358560549663,100.26710252136078,17.918429411621066,0.8684710223285134,13.244906582208404,-4.2455261982925805,-0.2290069163706156,-6.844044649750601,-16.870783950148102,6.099460061979682,4.026552581267275,5585.106612226514,0.29804685322095686,100.2671025213608,2.263874323134497,1.111077961100936,89818.19968127021,281.6163849510686,0.0,0.0,0.0,423.0,0.2270210305735072,0.9,nominal,14884.111465491922,nan,fixed_pitch,26.0,12.000000000000002,0.0
0.42500000000000004,40.86766652915554,-0.011040975719871208,1005.4854331162126,99.96968541931503,-0.21471412956946875,12.555485070725089,100.75526939250098,17.912753885856727,0.9626148536871811,13.399239288157224,-4.686214608725006,-0.2960879970096749,-6.446606068286327,-17.0524454503518,6.293158017460469,4.422617854798023,5639.449134853895,0.2994990282342071,100.75526939250098,2.2659824739432675,1.1110437034398957,89814.77963471359,281.6143446847446,0.0,0.0,0.0,422.97039473684214,0.22700514164359586,0.9,nominal,14936.255877846828,nan,fixed_pitch,26.0,12.000000000000002,0.0
0.45,43.379087537259835,-0.017811879837625624,1005.7997197875757,100.4568403241718,-0.2708361647101766,12.571466854523804,101.24076204285828,17.907078757315638,1.0571577527148008,13.538280997995257,-5.131278220678415,-0.3647892314215252,-5.865945613665483,-17.21230165583371,6.468187864243441,4.819920663647785,5693.752038739875,0.3009432659039626,101.24076204285828,2.2681166960455648,1.1110094029821556,89811.35534045672,281.61230182138075,0.0,0.0,0.0,422.9407894736842,0.2269892527136845,0.9,nominal,14988.371771564154,nan,fixed_pitch,26.0,12.000000000000002,0.0
0.47500000000000003,45.90260037258405,-0.026121698999766303,1006.1145631848581,100.94051341296849,-0.3323927664856271,12.593735891296067,101.72364482618877,17.901404025997795,1.1518811048823236,13.661208004622942,-5.580346701726066,-0.4348073786591867,-5.252715224363207,-17.361165776183594,6.624108130071417,5.218251001427301,5748.018177778683,0.3023797580078974,101.72364482618877,2.2701997717256117,1.1109750425770224,89807.92508641836,281.6102553392984,0.0,0.0,0.0,422.91118421052636,0.22697336378377314,0.9,nominal,15040.46333941909,nan,fixed_pitch,26.0,12.000000000000002,0.0
0.5,48.438121952166156,-0.036106594894812334,1006.4301054157437,101.4208631832845,-0.3993958358018413,12.621689235423188,102.20400209889907,17.895729691903203,1.2466336098575794,13.770907068667308,-6.0333089332479695,-0.5060054891468021,-4.755398935947532,-17.506197809970537,6.764201429735773,5.617565485244216,5802.252843070917,0.3038087557430991,102.20400209889908,2.2723252897926645,1.1109406067204397,89804.48732495171,281.60820431479766,0.0,0.0,0.0,422.88157894736844,0.22695747485386178,0.9,nominal,15092.536815791183,nan,fixed_pitch,26.0,12.000000000000002,0.0
0.525,50.98557175416155,-0.04790328304626833,1006.7464780462002,101.89799207981568,-0.4718675260582398,12.654905218258193,102.68188776480216,17.890055755031856,1.3413239742352954,13.87064614237715,-6.49019971308207,-0.5781939235339759,-4.389303379135939,-17.651983868620583,6.892021372510358,6.0179252396134135,5856.458056169661,0.30523041975936205,102.68188776480216,2.274584358472715,1.1109060810602305,89801.04062344736,281.60614789269965,0.0,0.0,0.0,422.8519736842105,0.22694158592395042,0.9,nominal,15144.595386403482,nan,fixed_pitch,26.0,12.000000000000002,0.0
0.55,53.544870378626555,-0.06164921813382101,1007.0638062018013,102.37194497860044,-0.5498374035021073,12.693126224044954,103.15732108392223,17.884382215383756,1.4358928758067826,13.961924126333566,-6.9511016273816155,-0.6512169060945472,-4.083704132108947,-17.8013034809188,7.009253801804066,6.419453354825107,5910.632004446692,0.3066448077123639,103.15732108392223,2.2769713433688383,1.1108714519484135,89797.58361963743,281.60408525968825,0.0,0.0,0.0,422.8223684210526,0.22692569699403903,0.9,nominal,15196.638721694606,nan,fixed_pitch,26.0,12.000000000000002,0.0
0.5750000000000001,56.11593912795223,-0.07748275205694669,1007.3822094758955,102.84274997302704,-0.633341356925027,12.736130963768755,103.63031108326953,17.878709072958905,1.530288205630975,14.044830203683503,-7.416106555274727,-0.7250699652745795,-3.782235759412834,-17.95564530210311,7.116149885300921,6.822304527882292,5964.771758928031,0.3080519468279682,103.63031108326952,2.279510053325604,1.1108367063420246,89794.11501169231,281.60201563840667,0.0,0.0,0.0,422.79276315789474,0.2269098080641277,0.9,nominal,15248.665432164398,nan,fixed_pitch,26.0,12.000000000000002,0.0
0.6000000000000001,58.69869869884647,-0.09555600505552006,1007.7018006172697,103.31038283576956,-0.7229301199429351,12.783645654967653,104.10081376177308,17.8730363277573,1.623792691042298,14.119482048689774,-7.882588147087023,-0.7998856103736263,-3.4830348515413845,-18.009572422302405,7.212889900384612,7.223733295777561,6018.86829950645,0.3094517066831457,104.1008137617731,2.2821745855687827,1.1108018319462547,89790.63357250807,281.5999382959877,0.0,0.0,0.0,422.7631578947369,0.22689391913421636,0.9,nominal,15300.668575955031,nan,fixed_pitch,26.0,12.000000000000002,0.0
0.625,61.2930692195198,-0.11603382837813979,1008.0226849605921,103.77482082693321,-0.8191129329047893,12.83537373289434,104.56878694200299,17.867363979778947,1.715002139365557,14.186683040103922,-8.345259620682574,-0.8768220851528262,-3.209683579047632,-17.85926653081522,7.300194036279873,7.61845074914853,6072.912749458987,0.3108439622540557,104.56878694200299,2.2849314531979514,1.1107668172765262,89787.13815590084,281.59785254775613,0.0,0.0,0.0,422.73355263157896,0.22687803020430497,0.9,nominal,15352.641264729798,nan,fixed_pitch,26.0,12.000000000000002,0.0
0.65,63.89897093672137,-0.13908570720692823,1008.3449612279869,104.23606868806274,-0.9220751531515379,12.891050695793282,105.03422026259874,17.86169202902384,1.8021303100390833,14.2475816333102,-8.797546191235178,-0.9581090904488136,-2.9729837605599405,-17.454428398103488,7.378984862740602,8.000110241793543,6126.899880156136,0.31222868307495055,105.03422026259874,2.287767333322172,1.1107316515709371,89783.62768786374,281.5957577520181,0.0,0.0,0.0,422.7039473684211,0.22686214127439364,0.9,nominal,15404.579827112491,nan,fixed_pitch,26.0,12.000000000000002,0.0
0.675,66.51632468294325,-0.16488009111010052,1008.6687226757763,104.69414984887536,-1.0317753561268916,12.950457911575864,105.49712760584421,17.85602047549198,1.8831903125071952,14.303148753337199,-9.232344749676766,-1.0461658243168892,-2.7635058985270606,-16.7748010437322,7.449882128167381,8.361996698555355,6180.827305653479,0.31360591073329513,105.49712760584421,2.290651796507667,1.110696324665062,89780.10115406662,281.59365330260744,0.0,0.0,0.0,422.6743421052631,0.22684625234448222,0.9,nominal,15456.48309577029,nan,fixed_pitch,26.0,12.000000000000002,0.0
0.7000000000000001,69.14505250626102,-0.19358000321276997,1008.994057770019,105.14911293271115,-1.1479964841067773,13.01340376970862,105.95755057633707,17.85034931918337,1.9561245072890734,14.35404125137749,-9.642486610728207,-1.142767797649767,-2.567022005396233,-15.818283198900739,7.513105205339977,8.697444161125219,6234.69595363529,0.3149757692139536,105.95755057633708,2.2935320979470646,1.1106608269181844,89776.55759249025,281.59153862449483,0.0,0.0,0.0,422.64473684210526,0.22683036341457088,0.9,nominal,15508.352838698873,nan,fixed_pitch,26.0,12.000000000000002,0.0
0.7250000000000001,71.78507853710443,-0.22533938028197906,1009.3210503268184,105.60104123373584,-1.2703750827683633,13.079702271976524,106.41556452899005,17.844678560098004,2.0189109986128044,14.400792172448295,-10.02105457992002,-1.2486132246785764,-2.3776415088595013,-14.594835121122559,7.56870858339185,9.000112862088818,6288.510847479033,0.3163384828200721,106.41556452899006,2.2963492695986973,1.1106251491979349,89772.9960918913,281.58941317287565,0.0,0.0,0.0,422.6151315789474,0.22681447448465955,0.9,nominal,15560.194465199314,nan,fixed_pitch,26.0,12.000000000000002,0.0
0.75,74.43632994829505,-0.26029989246987406,1009.6497795326896,106.05005644762515,-1.3984204875157993,13.149168234848117,106.87128088346618,17.839008198235888,2.06965258892254,14.443990140069264,-10.361618295347478,-1.3632922889638117,-2.1974478545320744,-13.123248118213985,7.616800930533368,9.26419163916175,6342.2814646644165,0.31769438305472275,106.8712808834662,2.299051049927017,1.1105892828780153,89769.41579157354,281.5872764330375,0.0,0.0,0.0,422.5855263157895,0.2267985855547482,0.9,nominal,15612.01734929061,nan,fixed_pitch,26.0,12.000000000000002,0.0
0.775,77.09873787119831,-0.29858814118870985,1009.9803201400838,106.49631691613011,-1.5315299487534308,13.221624295767853,107.32484544458094,17.83333823359702,2.1066470316578596,14.484279339729,-10.658416207669147,-1.4855239426919584,-2.0293649283530413,-11.42929657808387,7.65757950993556,9.484557732020447,6396.02162468608,0.31904390363035334,107.32484544458094,2.3015920252697764,1.1105532198168182,89765.81587925201,281.5851279190894,0.0,0.0,0.0,422.5559210526316,0.22678269662483683,0.9,nominal,15663.834731353345,nan,fixed_pitch,26.0,12.000000000000002,0.0
0.8,79.77223823425098,-0.3403132106879128,1010.3127428033121,106.9400145221067,-1.6690027799681177,13.296906529133004,107.77643527001824,17.8276686661814,2.128439196937144,14.522261228039214,-10.906502076735322,-1.613495224084089,-1.8732218585484162,-9.544525575981279,7.691265691193305,9.656908487030217,6449.749196773801,0.32038757116029665,107.77643527001824,2.303928682120124,1.110516952320731,89762.19558738857,281.5829671717785,0.0,0.0,0.0,422.5263157894737,0.22676680769492547,0.9,nominal,15715.663458968316,nan,fixed_pitch,26.0,12.000000000000002,0.0
0.8250000000000001,82.45677253668934,-0.3855645854000306,1010.6471143906218,107.38137209753476,-1.8100549884847095,13.374863492389432,108.22625534522854,17.821999495989026,2.1338588568082235,14.558434326499702,-11.10186775857496,-1.745169278036466,-1.7272182313813162,-7.505301964607919,7.718078270959254,9.77787066025018,6503.485774171703,0.3217259952768593,108.22625534522855,2.306018985079299,1.1104804731100368,89758.55418978665,281.58079375646093,0.0,0.0,0.0,422.4967105263158,0.22675091876501408,0.9,nominal,15767.523697364097,nan,fixed_pitch,26.0,12.000000000000002,0.0
0.8500000000000001,85.1522885375643,-0.4344104576479672,1010.9834982079919,107.82064003499866,-1.9538348899174645,13.455352694803208,108.67453429610529,17.8163307230199,2.1220481851889867,14.593206836834913,-11.241546235580028,-1.8784924291410772,-1.5907220309842405,-5.351947916206509,7.738274950491744,9.84508883331978,6557.256221858121,0.323059855888499,108.67453429610529,2.3078273930811273,1.1104437752944702,89754.89099914985,281.578607261648,0.0,0.0,0.0,422.46710526315786,0.2267350298351027,0.9,nominal,15819.438524939085,nan,fixed_pitch,26.0,12.000000000000002,0.0
0.875,87.858740798089,-0.48689645110742485,1011.3219541931203,108.25809042098767,-2.099439738378306,13.538239405134858,109.12151811171147,17.81066234727402,2.0924814620363406,14.626929984067674,-11.323693016801894,-2.0114954390161772,-1.4649298815020797,-3.1278722509715964,7.752205328532982,9.85729261045748,6611.08797018087,0.324389884521051,109.12151811171144,2.3093301946073534,1.1104068523520056,89751.20536496372,281.5764072977447,0.0,0.0,0.0,422.4375,0.22671914090519138,0.9,nominal,15871.433299590248,nan,fixed_pitch,26.0,12.000000000000002,0.0
0.9,90.57609101516853,-0.5430447826758846,1011.6625391507065,108.69400868318084,-2.245933262738389,13.623398303448756,109.56746196373483,17.80499436875139,2.0449780258447454,14.659905897618076,-11.347643030772728,-2.1423226512471527,-1.3516359253975725,-0.8786637337166067,7.760327535576038,9.814341512826534,6665.010058425128,0.32571684000077233,109.56746196373483,2.310517585570958,1.1103696981031588,89747.49667092916,281.5741934955204,0.0,0.0,0.0,422.40789473684214,0.22670325197528002,0.9,nominal,15923.534800149515,nan,fixed_pitch,26.0,12.000000000000002,0.0
0.925,93.30430811520908,-0.6028538819721087,1012.00530703943,109.12868400162186,-2.392363971848959,13.7107155489418,110.01262108578103,17.79932678745201,1.979708926283998,14.692373174339544,-11.313941875749151,-2.269229751276988,-1.252098384635849,1.3488632553323034,7.763192140290164,9.717246325807007,6719.052039766995,0.32704148134217537,110.01262108578103,2.311393191103854,1.110332306679651,89743.76433183365,281.5719655042437,0.0,0.0,0.0,422.3782894736842,0.22668736304536866,0.9,nominal,15975.770243360044,nan,fixed_pitch,26.0,12.000000000000002,0.0
0.9500000000000001,96.04336810560505,-0.666298483020999,1012.3503092795712,109.5623996158386,-2.5377840419556144,13.80008960564927,110.45724163923461,17.793659603375875,1.897197407094698,14.724496434737935,-11.224351446495623,-2.390579163428021,-1.166948342289706,3.507665080958323,7.761420360359146,9.56816588394138,6773.242858345907,0.3283645405954113,110.45724163923461,2.3119732434286098,1.110294672490817,89740.00779019725,281.56972298968276,0.0,0.0,0.0,422.34868421052636,0.22667147411545732,0.9,nominal,16028.16627577064,nan,fixed_pitch,26.0,12.000000000000002,0.0
0.9750000000000001,98.79325369282479,-0.7333301960737909,1012.6975950583069,109.99542348878965,-2.681268522111676,13.891431149425241,110.90155205742194,17.78799281652299,1.798312926396166,14.756372004505677,-11.081829721832271,-2.504846811212654,-1.0965917928117115,5.551492958902743,7.7556890684530835,9.370378720516992,6827.609759133417,0.32968669711491894,110.90155205742192,2.3122861150345337,1.1102567901902796,89736.22651294543,281.56746563212096,0.0,0.0,0.0,422.31907894736844,0.22665558518554593,0.9,nominal,16080.747994951078,nan,fixed_pitch,26.0,12.000000000000002,0.0
1.0,101.55395368105864,-0.8038785595057646,1013.0472116336025,110.42799952935395,-2.821934537278948,13.984663011826287,111.34575516894223,17.782326426893352,1.6842581542053972,14.78804202148615,-10.89048415482495,-2.610642628256013,-1.0413299860296596,7.435926088191895,7.74671566438027,9.128229505125086,6882.177269453388,0.3310085541437815,111.34575516894222,2.3123713489681927,1.1102186546427812,89732.41998809756,281.56519312438155,0.0,0.0,0.0,422.2894736842105,0.22663969625563457,0.9,nominal,16133.538035037682,nan,fixed_pitch,26.0,12.000000000000002,0.0
1.0250000000000001,104.32546217573224,-0.8778525632078992,1013.3992046434907,110.86033978694358,-2.9589601480853847,14.079720395531261,111.79002151019957,17.77666043448696,1.556548525202946,14.81950650615201,-10.655498577386059,-2.706740856168765,-1.00110521983804,9.119392946456266,7.735234234886621,8.847050686730023,6936.966305611079,0.33233061893281896,111.79002151019957,2.3122774383763645,1.110180260890429,89728.58772139715,281.56290516981727,0.0,0.0,0.0,422.2598684210526,0.2266238073257232,0.9,nominal,16186.55576484253,nan,fixed_pitch,26.0,12.000000000000002,0.0
1.05,107.10777763120262,-0.9551426260280362,1013.7536184163116,111.29261821881542,-3.091602512805481,14.176550912834074,112.23448432580945,17.770994839303818,1.4169843119535832,14.850731874393952,-10.383034479263022,-2.792113860580503,-0.9752448198515342,10.564158578386385,7.721964306639742,8.53306028288238,6991.99347066188,0.3336532878769511,112.23448432580946,2.3120585902547823,1.1101416041188428,89724.72923293256,281.56060148029394,0.0,0.0,0.0,422.23026315789474,0.22660791839581185,0.9,nominal,16239.816657982505,nan,fixed_pitch,26.0,12.000000000000002,0.0
1.075,109.90090179398133,-1.0356230002280666,1014.1104962680128,111.72496651114818,-3.2192149680012134,14.275114068047683,112.6792366347197,17.76532964134392,1.267615523484809,14.881660050402532,-10.080108290851006,-2.865963880197905,-0.9624411256727946,11.737254816247518,7.707579478751144,8.193237334278873,7047.270596157575,0.33497683779216747,112.6792366347197,2.3117711927619085,1.1101026796247186,89720.84405389905,281.5582817742579,0.0,0.0,0.0,422.2006578947369,0.2265920294659005,0.9,nominal,16293.331882518285,nan,fixed_pitch,26.0,12.000000000000002,0.0
1.1,112.7048385975997,-1.1191545654170865,1014.4698807737309,112.15747214473488,-3.341262607560792,14.375380228726923,113.12433049715759,17.759664840607275,1.1107001364372322,14.912220219846839,-9.754446771730745,-2.9277493875753144,-0.9608878497121696,12.611330137645384,7.692680952895664,7.835177152863947,7102.804551719533,0.336301423734885,113.12433049715757,2.3114704455969903,1.1100634827862021,89716.93172364148,281.5559457749707,0.0,0.0,0.0,422.17105263157896,0.22657614053598915,0.9,nominal,16347.108131504776,nan,fixed_pitch,26.0,12.000000000000002,0.0
1.125,115.51959306422954,-1.2055879633659516,1014.8318140068086,112.5901786651934,-3.457335917954608,14.477329323108426,113.56977840886846,17.754000437093875,0.9486563256424371,14.94234121002061,-9.414323051841468,-2.9772050061333526,-0.9684096847064572,13.165396466702727,7.677776648750178,7.466929083703545,7158.5973205646105,0.3376270831452405,113.56977840886846,2.3112072488694033,1.1100240090368205,89712.99178705251,281.5535932089557,0.0,0.0,0.0,422.1414473684211,0.2265602516060778,0.9,nominal,16401.14769274961,nan,fixed_pitch,26.0,12.000000000000002,0.0
1.1500000000000001,118.34517026412283,-1.2947670141571688,1015.1963377415909,113.02308799573152,-3.567162031648687,14.580949391290927,114.01555661488608,17.74833643080372,0.7840095508307973,14.971961745894228,-9.068376433332624,-3.0143552383449954,-0.9825485101919965,13.385451530150156,7.663265510433733,7.0968200457610715,7214.646321909479,0.3389537456968397,114.01555661488608,2.3110254207877814,1.1099842538433669,89709.02379236506,281.55122380467964,0.0,0.0,0.0,422.1118421052631,0.2265443626761664,0.9,nominal,16455.448740614716,nan,fixed_pitch,26.0,12.000000000000002,0.0
1.175,121.18157437738985,-1.3865323438514978,1015.5634936162753,113.45616453068088,-3.6706131877731574,14.686234987374853,114.46161002402323,17.742672821736818,0.6193355562124898,15.001037719226183,-8.725419639813481,-3.0395225545291873,-1.000668713894312,13.26495721556984,7.649427965889136,6.733267602442213,7270.944946334692,0.3402812479053244,114.46161002402324,2.3109594819794523,1.1099442126881414,89705.02728938006,281.5488372914942,0.0,0.0,0.0,422.08223684210526,0.22652847374625507,0.9,nominal,16510.005819317834,nan,fixed_pitch,26.0,12.000000000000002,0.0
1.2000000000000002,124.02880789282572,-1.4807251447190606,1015.933323252447,113.88934061743512,-3.7677120347025133,14.793185446870433,114.90785828617683,17.73700960989316,0.457200511839032,15.02954697564661,-8.39423767387385,-3.053330075128698,-1.0201183211266371,12.805156751248814,7.63642410867831,6.384586725773181,7327.483253812608,0.3416093511940367,114.90785828617685,2.311033291040969,1.1099038810559265,89701.0018281667,281.54643339885905,0.0,0.0,0.0,422.0526315789474,0.2265125848163437,0.9,nominal,16564.810472431658,nan,fixed_pitch,26.0,12.000000000000002,0.0
1.225,126.8868709655759,-1.5771909815689282,1016.3058683304707,114.32252291000667,-3.8586334739947064,14.901803120947998,115.35420249410564,17.731346795272753,0.30009966702150614,15.05749191507096,-8.083382800659205,-3.056698563568225,-1.038415974139969,12.015216539180983,7.62430007738004,6.058794737246437,7384.248769559086,0.34293776181644353,115.35420249410564,2.3112596821525004,1.1098632544257718,89696.94695824264,281.5440118558519,0.0,0.0,0.0,422.0230263157895,0.22649669588643234,0.9,nominal,16619.851960188575,nan,fixed_pitch,26.0,12.000000000000002,0.0
1.25,129.75576094097335,-1.67578355234279,1016.6811706232381,114.75559901589783,-3.943702830954471,15.012091710696655,115.80053192903208,17.72568437787559,0.1503960046150782,15.08489962041871,-7.800970447727776,-3.050837028468061,-1.0534172631815664,10.912182144401758,7.613001651417938,5.763419115228567,7441.227305320155,0.34426615090916785,115.80053192903208,2.311641091527188,1.109822328267326,89692.86222820832,281.54157239094894,0.0,0.0,0.0,421.9934210526316,0.226480806956521,0.9,nominal,16675.117999415765,nan,fixed_pitch,26.0,12.000000000000002,0.0
1.2750000000000001,132.63547203778623,-1.776368308359183,1017.0592719931645,115.18844387251562,-4.023390240655721,15.124054797055392,116.24673029511247,17.72002235770168,0.010260469189955138,15.111819343884953,-7.554480995323341,-3.037226108690247,-1.0634420689219508,9.520742175133531,7.602393403244837,5.505312945032689,7498.403734716743,0.34559417302581125,116.24673029511249,2.3121710697590814,1.1097810980411722,89688.74718578075,281.5391147320444,0.0,0.0,0.0,421.9638157894737,0.22646491802660962,0.9,nominal,16730.595461844074,nan,fixed_pitch,26.0,12.000000000000002,0.0
1.3,135.52599517175565,-1.878825839653037,1017.4402143586127,115.62092535877694,-4.098301251754161,15.237694617924717,116.69268096688468,17.714360734751015,-0.11838462901570465,15.138317768654371,-7.350572494098475,-3.0175936421482303,-1.0673660670472331,7.872798444552898,7.592281660281018,5.290482752189645,7555.762659295023,0.3469214817367533,116.6926809668847,2.3128365312408143,1.1097395592025014,89684.60137816043,281.536638606669,0.0,0.0,0.0,421.9342105263158,0.22644902909669826,0.9,nominal,16786.270973759456,nan,fixed_pitch,26.0,12.000000000000002,0.0
1.3250000000000002,138.4273178906178,-1.9830549338044667,1017.8240396367927,116.05290875448554,-4.1691637660571885,15.353011127199611,117.13827089195514,17.708699509023596,-0.23391746725840934,15.164472844567518,-7.194909270199927,-2.993882309050986,-1.0646757558687654,6.006845771220868,7.582439401564698,5.123933302616317,7613.288915384741,0.3482477412313337,117.13827089195513,2.3136205282561075,1.109697707207352,89680.42435265439,281.5341437423608,0.0,0.0,0.0,421.90460526315786,0.2264331401667869,0.9,nominal,16842.131372082687,nan,fixed_pitch,26.0,12.000000000000002,0.0
1.35,141.33942438566186,-2.0889752224143243,1018.2107896708598,116.4842598017634,-4.236811544394302,15.470001362680913,117.58339294215308,17.703038680519427,-0.3350623453573777,15.190366993597147,-7.09201116162767,-2.968209829174297,-1.0554772288529903,3.967169933489518,7.5726309339252245,5.009533676341048,7670.96789013724,0.3495726333076027,117.58339294215308,2.314505257724866,1.109655537520563,89676.21565747033,281.5316298671394,0.0,0.0,0.0,421.875,0.22641725123687553,0.9,nominal,16898.163988420125,nan,fixed_pitch,26.0,12.000000000000002,0.0
1.375,144.2622955430371,-2.1965293378008597,1018.6005061490443,116.91484629501046,-4.302164615461417,15.58865912738307,118.02794668193714,17.697378249238504,-0.420927765816359,15.216080375117196,-7.045127779100052,-2.942822740818409,-1.0404520884435688,1.802877492468837,7.562634090293058,4.949908527638308,7728.78563728925,0.3508958596567294,118.02794668193712,2.3154749571822864,1.1096130456246054,89671.97484259814,281.5290967100312,0.0,0.0,0.0,421.84539473684214,0.2264013623069642,0.9,nominal,16954.356752603624,nan,fixed_pitch,26.0,12.000000000000002,0.0
1.4000000000000001,147.19590900081838,-2.3056845133311423,1018.9932305229172,117.34453831125023,-4.366207021211313,15.708974954912144,118.47183770570373,17.69171821518083,-0.49103579754682697,15.241684881237349,-7.056141700829535,-2.9200452105741053,-1.0207650705050146,-0.4332237349684419,7.55225796881735,4.946357940157846,7786.72880712554,0.3522171398928095,118.47183770570375,2.3165183479406406,1.109570227028495,89667.70146069983,281.526544001601,0.0,0.0,0.0,421.8157894736842,0.22638547337705284,0.9,nominal,17010.698128790867,nan,fixed_pitch,26.0,12.000000000000002,0.0
1.425,150.14023918498873,-2.4164335737812626,1019.3890039304446,117.77320736681416,-4.429962418004812,15.830936301095027,118.91497586368537,17.686058578346405,-0.5453417646329326,15.267239515915179,-7.125503899422217,-2.9022245721503714,-0.9979354624086086,-2.6858700021723427,7.541354778119571,4.998808678896996,7844.784427903174,0.35353620627839655,118.91497586368536,2.317630327712511,1.1095270772761958,89663.39506794813,281.5239714744521,0.0,0.0,0.0,421.78618421052636,0.22636958444714148,0.9,nominal,17067.17691772493,nan,fixed_pitch,26.0,12.000000000000002,0.0
1.4500000000000002,153.09525730818808,-2.5287952769406483,1019.7878671276495,118.20072492797365,-4.494468126375427,15.954527888199792,119.35727282982316,17.680399338735224,-0.5842435226494703,15.292787671484126,-7.252203973629402,-2.891675356401333,-0.9736857447217628,-4.898684877436512,7.529824995085275,5.105798940582286,7902.939594985432,0.3548527964935934,119.35727282982315,2.3188126865638488,1.1094835919540675,89659.05522477017,281.52137886367024,0.0,0.0,0.0,421.75657894736844,0.2263536955172301,0.9,nominal,17123.781975853784,nan,fixed_pitch,26.0,12.000000000000002,0.0
1.475,156.06093132812538,-2.642813984038696,1020.1898604306786,118.62696079749227,-4.560748283921922,16.07973212116225,119.7986395500692,17.674740496347294,-0.6085798182948159,15.31835656495008,-7.433776934567257,-2.8906234778548416,-0.949780944103983,-7.015588764009854,7.517615718384633,5.264497920640352,7961.181137038046,0.35616664604949433,119.7986395500692,2.3200737155917586,1.1094397666971896,89654.68149647859,281.5187659072006,0.0,0.0,0.0,421.7269736842105,0.22633780658731872,0.9,nominal,17180.501913816213,nan,fixed_pitch,26.0,12.000000000000002,0.0
1.5,159.0372258765052,-2.7585586541652414,1020.59502366803,119.05178193519336,-4.629786805061807,16.206529494057452,120.23898413595697,17.66908205118261,-0.6196174721421649,15.343958825695692,-7.666347393046974,-2.901152041346265,-0.9278736058232273,-8.982239969970736,7.504712813616187,5.470760661519787,8019.49533427533,0.3574774820252602,120.23898413595698,2.3214266969441684,1.1093955971945715,89650.27345379158,281.5161323461578,0.0,0.0,0.0,421.6973684210526,0.22632191765740736,0.9,nominal,17237.32484187754,nan,fixed_pitch,26.0,12.000000000000002,0.0
1.5250000000000001,162.0241021825321,-2.8761211763224503,1021.0033961408221,119.47505224107499,-4.702500886288368,16.33489891168487,120.67821073022299,17.663424003241175,-0.6190273806387646,15.369595986251023,-7.944711031699055,-2.925149994048234,-0.9093701003417145,-10.747470305527788,7.491128140312125,5.719217740181951,8077.867760846323,0.3587850196950199,120.67821073022297,2.3228873965660295,1.1093510791934855,89645.83067326543,281.51347792508466,0.0,0.0,0.0,421.66776315789474,0.22630602872749603,0.9,nominal,17294.238227288446,nan,fixed_pitch,26.0,12.000000000000002,0.0
1.55,165.02151802585976,-2.995614071644108,1021.4150165875207,119.89663373310702,-4.77971581286631,16.464817867938947,121.11621976930664,17.657766352522987,-0.6088496040733473,15.395263415977437,-8.262452245462987,-2.964264636710485,-0.8953320026551806,-12.264676764467612,7.476883721255742,6.003398412489119,8136.283311776041,0.3600889633077239,121.11621976930662,2.3244708091184068,1.109306208503314,89641.35273767846,281.5108023921811,0.0,0.0,0.0,421.6381578947369,0.2262901397975847,0.9,nominal,17351.2289180215,nan,fixed_pitch,26.0,12.000000000000002,0.0
1.5750000000000002,168.02942776075594,-3.11716761710269,1021.8299231487223,120.3163893958472,-4.862141818343282,16.596262448067357,121.55290990988223,17.65210909902805,-0.5914480927389304,15.42095605720522,-8.612095821736816,-3.019858871169809,-0.8864219786295496,-13.493130382723791,7.461995075435589,6.31588488336457,8194.726455216862,0.36138901181434174,121.55290990988222,2.3261875108361383,1.1092609809993883,89636.83923641412,281.50810549953326,0.0,0.0,0.0,421.60855263157896,0.2262742508676733,0.9,nominal,17408.28336962639,nan,fixed_pitch,26.0,12.000000000000002,0.0
1.6,171.04778245513853,-3.2409264600388172,1022.2481533275203,120.7341877753042,-4.95035371744509,16.72920715192119,121.98818168831819,17.646452242756357,-0.5694559015517185,15.446674204894787,-8.985289533493816,-3.092974022404454,-0.8828985464747541,-14.399163933337118,7.446456052898219,6.648494442020138,8253.181724901542,0.3626848697473881,121.98818168831819,2.3280400485537425,1.109215392627311,89632.2897658924,281.5053870033711,0.0,0.0,0.0,421.5789473684211,0.22625836193776197,0.9,nominal,17465.388088640393,nan,fixed_pitch,26.0,12.000000000000002,0.0
1.625,174.07653018439956,-3.3670458093461266,1022.6697439416763,121.14990917044163,-5.044773972292379,16.863624566238286,122.42194276333312,17.64079578370791,-0.5457120469346658,15.472428543215376,-9.373013563067719,-3.184299124106888,-0.8846589233583332,-14.957201775704819,7.430227376068936,6.992485321899359,8311.634438180614,0.36397626280777134,122.42194276333313,2.330019822393418,1.109169439408163,89627.70393008944,281.5026466643791,0.0,0.0,0.0,421.5493421052631,0.22624247300785055,0.9,nominal,17522.530279400045,nan,fixed_pitch,26.0,12.000000000000002,0.0
1.6500000000000001,177.1156165105561,-3.495687303343827,1023.0947310652533,121.56345304626183,-5.1456597599080185,16.999484943079256,122.8541143764645,17.635139721882716,-0.52319145668957,15.498243720748679,-9.765811790799601,-3.2941476569335575,-0.8913238687514456,-15.150597971571717,7.4132307106515105,7.338781346863709,8370.071594971318,0.36526295707278594,122.85411437646448,2.3321048982832284,1.1091231174448695,89623.0813411726,281.49988424807583,0.0,0.0,0.0,421.51973684210526,0.22622658407793922,0.9,nominal,17579.698654013777,nan,fixed_pitch,26.0,12.000000000000002,0.0
1.675,180.16498516288146,-3.6270146655267816,1023.5231499593956,121.97474609301443,-5.253094487318184,17.136755765691362,123.28463847666094,17.629484057280767,-0.5049297376115368,15.524159898897578,-10.154039201788388,-3.4224428162729956,-0.9023533280870375,-14.972252724800887,7.3953494815370435,7.678209739033624,8428.482885711332,0.3665447801791794,123.28463847666093,2.3342591118278655,1.1090764229297394,89618.42162025292,281.49709952526393,0.0,0.0,0.0,421.4901315789474,0.22621069514802788,0.9,nominal,17636.884340709803,nan,fixed_pitch,26.0,12.000000000000002,0.0
1.7000000000000002,183.22457891801037,-3.7611892668903835,1023.9550349943662,122.38375020515647,-5.366984054544074,17.27540139882517,123.71348481717908,17.623828789902067,-0.49394471856932853,15.55023193078257,-10.528119015450102,-3.568712392991579,-0.9171776156661267,-14.424982270086671,7.376436867697545,8.001745916866788,8486.86171528781,0.3678216424244884,123.7134848171791,2.3364327015783792,1.1090293521529546,89613.72439823198,281.4942922725366,0.0,0.0,0.0,421.4605263157895,0.2261948062181165,0.9,nominal,17694.0818067327,nan,fixed_pitch,26.0,12.000000000000002,0.0
1.725,186.29434065732244,-3.898365716997094,1024.39041956749,122.79046957248329,-5.487058004268437,17.415382924948634,124.14065726342737,17.618173919746614,-0.4931569013571159,15.576526102560457,-10.878802654272206,-3.7320942185841415,-0.9353265895120497,-13.52162345067865,7.3563305340778316,8.300758726824906,8545.206137700421,0.36909355552302003,124.14065726342737,2.338564549021601,1.1089819015115132,89608.98931669431,281.4914622728113,0.0,0.0,0.0,421.4309210526316,0.22617891728820516,0.9,nominal,17751.289700949397,nan,fixed_pitch,26.0,12.000000000000002,0.0
1.75,189.37421455926363,-4.03868760527768,1024.8293360239722,123.19495607764824,-5.612875531223415,17.556658259291364,124.56619856099097,17.61251944681441,-0.5053110542275363,15.603114669155964,-11.197425364211595,-3.911352825336273,-0.9565390434779291,-12.284861253609392,7.334872781624482,8.567249344493776,8603.519594852803,0.37036064678426417,124.56619856099097,2.3405859215941223,1.1089340675178456,89604.21602876674,281.48860931584414,0.0,0.0,0.0,421.4013157894737,0.2261630283582938,0.9,nominal,17808.511520087603,nan,fixed_pitch,26.0,12.000000000000002,0.0
1.7750000000000001,192.46414736635404,-4.182283509439387,1025.2718155893476,123.59731228361602,-5.743836166468254,17.699182615018955,124.99019290680656,17.606865371105453,-0.5329012062070737,15.630068707782817,-11.476150198428625,-4.104907511014369,-0.980836375435681,-10.746775322655942,7.3119340179294205,8.794077060821309,8661.811363151757,0.37162316676012996,124.99019290680657,2.3424254342913895,1.1088858468071696,89599.40419985217,281.4857331986692,0.0,0.0,0.0,421.3717105263158,0.2261471394283824,0.9,nominal,17865.756011789636,nan,fixed_pitch,26.0,12.000000000000002,0.0
1.8,195.56408965301267,-4.32926337975466,1025.7178883232546,123.99769146634554,-5.879194812610926,17.842909356280643,125.41276583715113,17.601211692619742,-0.5781012440535584,15.657450060428662,-11.708193190406877,-4.310871425296225,-1.0085483728981786,-8.948109703999231,7.287436868560431,8.97516533951389,8720.096633043324,0.3728814889148378,125.41276583715113,2.344014787146478,1.1088372361425145,89594.5535081306,281.48283372589884,0.0,0.0,0.0,421.34210526315786,0.22613125049847105,0.9,nominal,17923.037246987296,nan,fixed_pitch,26.0,12.000000000000002,0.0
1.8250000000000002,198.67399701270284,-4.47971539709144,1026.1675831041084,124.39629438760684,-6.0180806934712265,17.987791234154834,125.83408117868869,17.59555841135728,-0.6427031851137214,15.685303309936167,-11.888022876059438,-4.527100692300858,-1.0402843841588947,-6.937278520541165,7.261377948775625,9.10568189061671,8778.396177455077,0.3741361005627496,125.83408117868868,2.3452947208113204,1.1087882324163791,89589.66364472406,281.4799107098233,0.0,0.0,0.0,421.3125,0.22611536156855971,0.9,nominal,17980.37432189031,nan,fixed_pitch,26.0,12.000000000000002,0.0
1.85,201.79383108239173,-4.633703389565436,1026.6209276529337,124.79336278755574,-6.159519698959812,18.13378195301054,126.2543350806922,17.589905527318066,-0.7280650106440744,15.713648808935044,-12.01152787310806,-4.751252044531686,-1.0768496351821124,-4.769128623357543,7.233844355420956,9.18218704699943,8836.73560242461,0.37538758512772197,126.2543350806922,2.3462205768275135,1.1087388326481236,89584.73431343606,281.4769639702559,0.0,0.0,0.0,421.28289473684214,0.22609947263864835,0.9,nominal,18037.790683501495,nan,fixed_pitch,26.0,12.000000000000002,0.0
1.875,204.92356032934077,-4.791264878347919,1027.077948602136,125.1891698779619,-6.302459551299343,18.28083796809417,126.67374742994178,17.5842530405021,-0.835069709785798,15.7424777407988,-12.076146978039112,-4.980847053709475,-1.11911325085244,-2.503488240047726,7.20502233775213,9.202745446245203,8895.144213208758,0.37663659662013493,126.67374742994177,2.346766861786281,1.1086890339764628,89579.76523000209,281.4739933340861,0.0,0.0,0.0,421.2532894736842,0.226083583708737,0.9,nominal,18095.313108631475,nan,fixed_pitch,26.0,12.000000000000002,0.0
1.9000000000000001,208.06316053943007,-4.952409807995583,1027.5386716115179,125.58400840357156,-6.445797185906557,18.428920375271378,127.09255121472802,17.578600950909383,-0.9640969174103361,15.771750033256826,-12.08095717774085,-5.21334085777235,-1.1678408660922852,-0.20353795720437715,7.175196335748561,9.166996899597335,8953.653567678764,0.3778838280154639,127.09255121472803,2.346930295784938,1.1086388336468094,89574.75612082634,281.47099863452513,0.0,0.0,0.0,421.22368421052636,0.22606769477882566,0.9,nominal,18152.970401093226,nan,fixed_pitch,26.0,12.000000000000002,0.0
1.925,211.21261496644283,-5.117120000998907,1028.0031215296779,125.9781770805101,-6.588407720132943,18.577996726399572,127.51098062198871,17.57294925853991,-1.1150082381973083,15.801395678990508,-12.026716070575027,-5.446193308869971,-1.2235098650176077,2.0659532011009887,7.144737561798686,9.076183359211399,9012.295821628937,0.37912997586530284,127.51098062198872,2.346730967304882,1.108588228993682,89569.706721226,281.4679797100571,0.0,0.0,0.0,421.19407894736844,0.22605180584891427,0.9,nominal,18210.791901339602,nan,fixed_pitch,26.0,12.000000000000002,0.0
1.9500000000000002,214.37191412620584,-5.28534936014385,1028.4713225945052,126.37196639052081,-6.729174365797718,18.728042593093303,127.92925879727807,17.56729796339369,-1.2871470372599139,15.831319668332261,-11.915856422221667,-5.676940662206378,-1.2861286735091764,4.240478503605715,7.114082435524975,8.933130058775502,9071.101994060635,0.3803757039049445,127.92925879727808,2.3462114036211963,1.108537217418852,89564.61677325069,281.4649364031357,0.0,0.0,0.0,421.1644736842105,0.2260359169190029,0.9,nominal,18268.805923931875,nan,fixed_pitch,26.0,12.000000000000002,0.0
1.975,217.54105524592623,-5.457024825618862,1028.943298662255,126.76564478881605,-6.86701861900046,18.879042709992902,128.34758625343807,17.561647065470712,-1.4793531413042018,15.861410343561321,-11.752431914425996,-5.903266206762285,-1.3550827169116602,6.257678872055273,7.083702328263414,8.74218017948934,9130.100291749613,0.3816216085887359,128.34758625343807,2.345433577907945,1.1084857963663832,89559.48602319146,281.4618685586953,0.0,0.0,0.0,421.1348684210526,0.22602002798909154,0.9,nominal,18327.038248368066,nan,fixed_pitch,26.0,12.000000000000002,0.0
2.0,220.72004140495523,-5.632048076342665,1029.419073451154,127.15944636115957,-7.000930028952107,19.030991555954433,128.76613087201815,17.555996564770986,-1.6899925270810596,15.891550586433391,-11.542014546908188,-6.123068502748954,-1.429028411664177,8.059207982152174,7.05406709599988,8.509083755738187,9189.314629884564,0.38286818936017913,128.76613087201815,2.3444740888564857,1.1084339632960927,89554.31421893314,281.45877602256746,0.0,0.0,0.0,421.10526315789474,0.22600413905918018,0.9,nominal,18385.510786534614,nan,fixed_pitch,26.0,12.000000000000002,0.0
2.025,223.90888042602162,-5.8102979465329705,1029.898670783037,127.55356084265648,-7.12999480761222,19.18389327532146,129.1850203034267,17.550346461294506,-1.9170016694146421,15.921630897170026,-11.291545589381306,-6.33452604121261,-1.5058528913245066,9.592520976587595,7.025605655925404,8.240842947120838,9248.763469124862,0.38411582605335187,129.1850203034267,2.3434179436802007,1.1083817156572298,89549.10110732807,281.4556586399102,0.0,0.0,0.0,421.0756578947369,0.22598825012926885,0.9,nominal,18444.240535232857,nan,fixed_pitch,26.0,12.000000000000002,0.0
2.0500000000000003,227.10758359345502,-5.991633509038941,1030.382114805464,127.94812669733527,-7.253422500238809,19.337760897080795,129.60433734963115,17.544696755041276,-2.1579457776788016,15.951563157322788,-11.009143414997979,-6.536157117809813,-1.5827113122656524,10.81253097175697,6.998667302083828,7.945517222504697,9308.459060401425,0.38536476516173424,129.60433734963115,2.3423515308853324,1.108329050864292,89543.84643178346,281.4525162537645,0.0,0.0,0.0,421.04605263157896,0.22597236119935749,0.9,nominal,18503.238896075498,nan,fixed_pitch,26.0,12.000000000000002,0.0
2.075,230.3161642853172,-6.175897756647129,1030.8694301772487,128.3432276744877,-7.370569904327529,19.492614871391115,130.02411862860038,17.539047446011292,-2.410089674028261,15.981293724586662,-10.703872939436295,-6.726873509982132,-1.6561460141759483,11.683079464272025,6.9734875103669145,7.631993377575969,9368.407149920076,0.3866151158643207,130.0241186286004,2.3413554687585005,1.1082759662768262,89538.54993024645,281.4493487038479,0.0,0.0,0.0,421.0164473684211,0.22595647226944612,0.9,nominal,18562.511410019888,nan,fixed_pitch,26.0,12.000000000000002,0.0
2.1,233.53463660865296,-6.36292179199399,1031.3606422023568,128.73889293343072,-7.480961413874459,19.648481004323777,130.44435650183755,17.533398534204554,-2.670479576350189,16.01081450493966,-10.385482699710904,-6.906026221071505,-1.7222832230217602,12.178170329894016,6.95016164629089,7.309726585883752,9428.607152049648,0.38786685575385454,130.44435650183755,2.3404980472437513,1.1082224591848648,89533.21133375166,281.4461558256847,0.0,0.0,0.0,420.9868421052631,0.22594058333953473,0.9,nominal,18622.057913442986,nan,fixed_pitch,26.0,12.000000000000002,0.0
2.125,236.76301412107284,-6.55252941674664,1031.8557769005192,129.13510049679522,-7.5843049901059825,19.80538792650263,130.8650039293149,17.527750019621067,-2.9360335714275987,16.04017079042396,-10.064116790193122,-7.073441215204562,-1.7770942669107848,12.28292237785377,6.92862929536053,6.988459809898613,9489.05275183848,0.3891198452693648,130.8650039293149,2.339829938132116,1.108168526801252,89527.83036565612,281.4429374501466,0.0,0.0,0.0,420.95723684210526,0.2259246944096234,0.9,nominal,18681.87308125128,nan,fixed_pitch,26.0,12.000000000000002,0.0
2.15,240.00130870831202,-6.744541992458149,1032.3548610073772,129.5317834895674,-7.68050302846037,19.963364274317225,131.28598163515952,17.522101902260825,-3.2036381341642595,16.06946492681219,-9.750009885887737,-7.229442849849457,-1.8167004273186893,11.994202358408868,6.908670955097292,6.677929821544858,9549.732856899926,0.390373848999728,131.2859816351595,2.33938073090119,1.1081141662616556,89522.40674164111,281.439693403452,0.0,0.0,0.0,420.9276315789474,0.22590880547971204,0.9,nominal,18741.947284651716,nan,fixed_pitch,26.0,12.000000000000002,0.0
2.1750000000000003,243.24952966783644,-6.938783430191511,1032.8579219021117,129.92883838097663,-7.769657509334472,20.12243578937915,131.70718675508937,17.516454182123834,-3.4702477041116953,16.09885525650599,-9.453174381214076,-7.374862749519273,-1.837694563562823,11.320908842324242,6.889917657111706,6.387568756375261,9610.632785222564,0.39162856139352054,131.70718675508937,2.3391576661338678,1.1080593746324647,89516.94017050104,281.4364235076363,0.0,0.0,0.0,420.8980263157895,0.22589291654980068,0.9,nominal,18802.26766129134,nan,fixed_pitch,26.0,12.000000000000002,0.0
2.2,246.507683025264,-7.135085154829758,1033.3649874658681,130.32613429710162,-7.852068985529906,20.282622550255812,132.128502018663,17.51080685921009,-3.7329841041929375,16.12855022843174,-9.18308921598777,-7.511032243164207,-1.837449376822076,10.283887342979275,6.871872843481708,6.126210517470296,9671.735555170306,0.39288363405965043,132.128502018663,2.3391467005084867,1.108004148926236,89511.4303556848,281.4331275814718,0.0,0.0,0.0,420.8684210526316,0.22587702761988934,0.9,nominal,18862.81927718007,nan,fixed_pitch,26.0,12.000000000000002,0.0
2.225,249.7757710860705,-7.3332908839592115,1033.8760858793503,130.7235224322605,-7.928229165178126,20.443936539289982,132.54980451142058,17.50515993351959,-3.989232501741834,16.158798030855156,-8.948400214471956,-7.6397572288199465,-1.8143821844803503,8.91546819331474,6.85394463134772,5.901811431931179,9733.02313925887,0.3941387018194191,132.54980451142058,2.339315770529233,1.1079484861237572,89505.87699749786,281.4298054417842,0.0,0.0,0.0,420.8388157894737,0.22586113868997795,0.9,nominal,18923.586255596638,nan,fixed_pitch,26.0,12.000000000000002,0.0
2.25,253.0537922026398,-7.5332610610427695,1034.3912453722842,131.12084466277264,-7.998807083342311,20.606379717354002,132.97097316666995,17.49951340505234,-4.236730677824689,16.18987253472102,-8.756641702408384,-7.7632753696213435,-1.7681495196048593,7.258630691628927,6.835485590535726,5.721194335342526,9794.477555150745,0.3953934049818021,132.97097316666992,2.3396198570506455,1.1078923832013419,89500.27979582576,281.42645690508016,0.0,0.0,0.0,420.8092105263158,0.2258452497600666,0.9,nominal,18984.55275887574,nan,fixed_pitch,26.0,12.000000000000002,0.0
2.275,256.3417407188713,-7.734876788645047,1034.9104939406202,131.51794064925903,-8.064629104091113,20.76994273344302,133.39189434279385,17.493867273808338,-4.473648580449472,16.222056686889292,-8.613988776196006,-7.8841967286607835,-1.6997514611924476,5.365809487110012,6.815836446366911,5.589824721499157,9856.08169458602,0.3966474059265497,133.39189434279385,2.340007223619857,1.1078358371616384,89494.63845320797,281.42308178938595,0.0,0.0,0.0,420.77960526315786,0.2258293608301552,0.9,nominal,19045.70373358232,nan,fixed_pitch,26.0,12.000000000000002,0.0
2.3000000000000003,259.6396070433954,-7.938043119718115,1035.4338590490865,131.91465298096466,-8.126653242922703,20.934604338655483,133.81246512502148,17.488221539787585,-4.698655469510124,16.255624725107428,-8.525048876244274,-8.005430132460564,-1.6115346082664457,3.2973716295974675,6.794369792166997,5.511626761132735,9917.819830515717,0.39790039892133944,133.81246512502148,2.340426042147466,1.1077788450660264,89488.95267807013,281.41967991618094,0.0,0.0,0.0,420.75,0.22581347190024387,0.9,nominal,19107.025365261266,nan,fixed_pitch,26.0,12.000000000000002,0.0
2.325,262.9473777992299,-8.142691583065194,1035.9613673368726,132.3108302333806,-8.185938533883123,21.100331511444345,134.2325943153146,17.482576202990078,-4.9109723850524265,16.29082467322183,-8.492700275261905,-8.130098523429696,-1.5070929621600573,1.119804677426467,6.770530001064333,5.488845888721456,9979.677789644535,0.3991521130647013,134.23259431531463,2.3408305564136738,1.1077214040666574,89483.22218792034,281.4162511123103,0.0,0.0,0.0,420.72039473684214,0.22579758297033253,0.9,nominal,19168.505231304058,nan,fixed_pitch,26.0,12.000000000000002,0.0
2.35,266.2650360026408,-8.34878184246862,1036.493044342875,132.70632813643388,-8.243610376137031,21.26708024009439,134.65220139836939,17.47693126341582,-5.110408150996265,16.32786250602862,-8.517983757700822,-8.261447167584038,-1.3910764109106166,-1.0963327286272475,6.743866060284954,5.521963312076759,10041.642825846988,0.40040230921090547,134.65220139836939,2.341185982809012,1.107663511436366,89477.44671233301,281.4127952117713,0.0,0.0,0.0,420.6907894736842,0.22578169404042114,0.9,nominal,19230.13218401857,nan,fixed_pitch,26.0,12.000000000000002,0.0
2.375,269.59256123613534,-8.55630241680475,1037.0289142642828,133.10100933978123,-8.300822973445179,21.434796856313046,135.07121405235245,17.47128672106481,-5.297377632279915,16.36688915690322,-8.600052176825544,-8.402748746000732,-1.2689257387407127,-3.278636790508309,6.714054952714168,5.609666251726594,10103.703272992585,0.40165077256748183,135.07121405235245,2.3414715086167854,1.1076051645949396,89471.62599556883,281.40931205728214,0.0,0.0,0.0,420.66118421052636,0.2257658051105098,0.9,nominal,19291.896034858037,nan,fixed_pitch,26.0,12.000000000000002,0.0
2.4000000000000004,272.92992979795633,-8.765270419837977,1037.5689997587026,133.4947424728396,-8.358720121329114,21.603419776789032,135.48956497091808,17.465642575937046,-5.472901471630027,16.407991204941098,-8.736180779087336,-8.557209090690518,-1.1465599930410604,-5.355192076258758,6.680914367339576,5.748876006696688,10165.848087539582,0.40289730324466083,135.48956497091808,2.341681004570458,1.1075463611306418,89465.75979872142,281.4058015015684,0.0,0.0,0.0,420.63157894736844,0.22574991618059845,0.9,nominal,19353.787139488,nan,fixed_pitch,26.0,12.000000000000002,0.0
2.4250000000000003,276.2771148304099,-8.975730312233994,1038.1133217959978,133.88740129814366,-8.418395695840703,21.77288149180477,135.90718884929555,17.459998828032532,-5.638587031466631,16.45118566454471,-8.921839237500048,-8.727876729893527,-1.0300458125878618,-7.256937940250169,6.644404781269993,5.934834114728586,10228.066407073911,0.40414170729258114,135.90718884929555,2.3418213885731176,1.107487098816313,89459.84790132276,281.402263408326,0.0,0.0,0.0,420.6019736842105,0.22573402725068706,0.9,nominal,19415.795997649762,nan,fixed_pitch,26.0,12.000000000000002,0.0
2.45,279.63408644865865,-9.187751693478498,1038.6618995620734,134.2788647299487,-8.480855249780154,21.94311064302,136.32402034719854,17.454355477351264,-5.796590756612434,16.496418862671973,-9.150824297788155,-8.917558647905306,-0.9252785295705606,-8.91998964081402,6.6046221529483455,6.161244977590409,10290.347248054519,0.4053837906431503,136.32402034719857,2.3419089180922033,1.1074273756198205,89453.8901023845,281.3986976528465,0.0,0.0,0.0,420.5723684210526,0.2257181383207757,0.9,nominal,19477.912979152108,nan,fixed_pitch,26.0,12.000000000000002,0.0
2.475,283.0008119070549,-9.401426196512265,1039.2147504134457,134.66901833585075,-8.54698012135067,22.11403405489186,136.73999367748044,17.448712523893246,-5.949562661901557,16.54356898457283,-9.415449877993847,-9.12874392362419,-0.8377015154760539,-10.287834934621511,6.561783437806515,6.420471410730204,10352.679444172702,0.40662335788638443,136.73999367748044,2.341964000911733,1.1073671897089665,89447.88622088666,281.3951041223126,0.0,0.0,0.0,420.54276315789474,0.22570224939086436,0.9,nominal,19540.12826760071,nan,fixed_pitch,26.0,12.000000000000002,0.0
2.5,286.3772558489594,-9.6168635815408,1039.771889878984,135.05775767617854,-8.617495401141424,22.285578621533478,137.15504420181784,17.443069967658474,-6.100574144958018,16.5924515510028,-9.706789440921495,-9.36353634661406,-0.7720837906429332,-11.313328501736368,6.516207753701841,6.703777711479012,10415.0518884128,0.40786021701525255,137.15504420181784,2.34200535004901,1.1073065394512662,89441.83609575446,281.3914827157866,0.0,0.0,0.0,420.5131578947369,0.225686360460953,0.9,nominal,19602.43207888304,nan,fixed_pitch,26.0,12.000000000000002,0.0
2.5250000000000004,289.7633806864399,-9.834187156097512,1040.3333317038991,135.44499349921952,-8.692942982268498,22.457672996608625,137.5691120786901,17.43742780864695,-6.2530308338805956,16.642826900194198,-10.01496354723701,-9.623596811850067,-0.7323671902736926,-11.960410790906238,6.468296203300802,7.001613086221138,10477.454092046222,0.4090941902738888,137.5691120786901,2.3420444298157013,1.107245423409121,89435.73958537568,281.3878333439246,0.0,0.0,0.0,420.48355263157896,0.22567047153104164,0.9,nominal,19664.81516641364,nan,fixed_pitch,26.0,12.000000000000002,0.0
2.5500000000000003,293.15914714762516,-10.05352867448858,1040.899087930908,135.83065844741083,-8.773660735642743,22.63024908035598,137.98214765106496,17.431786046858676,-6.410572699135276,16.694408710051288,-10.329463763080536,-9.910096273181798,-0.7215845134158845,-12.20548477757351,6.418513084083054,7.303926701336165,10539.877019213696,0.41032513017987393,137.982147651065,2.3419497145843304,1.1071838403309509,89429.59656671494,281.38415592844905,0.0,0.0,0.0,420.4539473684211,0.2256545826011303,0.9,nominal,19727.269575857783,nan,fixed_pitch,26.0,12.000000000000002,0.0
2.575,296.5645154373614,-10.27502315215518,1041.46916746372,136.21473158944966,-8.859779106663966,22.803181312472045,138.39412511293307,17.426144682293646,-6.577405718225806,16.748849116548676,-10.639269227892454,-10.238860989717276,-0.821361243046204,-12.038393630817952,6.369336998511538,7.6005498778532266,10602.315205982193,0.4115529601593848,138.39412511293307,2.342045618612795,1.1071217893075143,89423.40695090558,281.3804504114858,0.0,0.0,0.0,420.4243421052631,0.2256386936712189,0.9,nominal,19789.790543995172,nan,fixed_pitch,26.0,12.000000000000002,0.0
2.6,299.9794442524017,-10.49880232979695,1042.0435810019178,136.5971526016125,-8.951167105670825,22.976541527913103,138.80499613488618,17.420503714951867,-6.75793345782852,16.806429239164842,-10.933595233812275,-10.619520018803552,-0.9788439732408798,-11.463128209364996,6.321809626220463,7.8815344698963266,10664.759682979713,0.4127775366647739,138.80499613488618,2.342391714147202,1.1070592692347259,89417.1706296644,281.3767167234875,0.0,0.0,0.0,420.39473684210526,0.22562280474130755,0.9,nominal,19852.370159635342,nan,fixed_pitch,26.0,12.000000000000002,0.0
