time_s,x_m,y_m,altitude_m,vx_mps,vy_mps,vz_mps,speed_mps,mass_kg,roll_deg,pitch_deg,yaw_deg,p_dps,q_dps,r_dps,alpha_deg,beta_deg,qbar_pa,mach,airspeed_mps,load_factor_g,density_kgpm3,pressure_pa,temperature_k,wind_x_mps,wind_y_mps,wind_z_mps,thrust_n,mass_flow_kgps,propulsion_throttle_actual,propulsion_health,energy_j_per_kg,target_distance_m,guidance_mode,pitch_command_deg,heading_command_deg,roll_command_deg,elevator_command_deg,aileron_command_deg,rudder_command_deg,elevator_deg,aileron_deg,rudder_deg,throttle,elevator_saturated,aileron_saturated,rudder_saturated,elevator_failed,aileron_failed,rudder_failed,elevator_raw_rad,aileron_raw_rad,rudder_raw_rad,elevator_effective_rad,aileron_effective_rad,rudder_effective_rad,imu_ax_mps2,imu_ay_mps2,imu_az_mps2,gyro_p_rps,gyro_q_rps,gyro_r_rps,gps_valid,gps_x_m,gps_y_m,gps_z_m,gps_vx_mps,gps_vy_mps,gps_vz_mps,baro_alt_m,pitot_airspeed_mps,pitot_qbar_pa,mag_heading_deg
0.0,0.0,0.0,1000.0,84.0,0.0,15.0,85.32877591996736,18.0,0.0,9.0,0.0,0.0,0.0,0.0,-1.1246716553978162,0.0,4046.934522364112,0.25362711007788913,85.32877591996736,1.7329231744426616,1.1116425003060326,89874.56291621955,281.65,0.0,0.0,0.0,323.0,0.17335175620624782,0.85,nominal,13447.15,nan,fixed_pitch,18.0,0.0,0.0,-20.05352282957881,-0.0,0.0,-2.6999999999999997,0.0,0.0,0.85,0.0,0.0,0.0,0.0,0.0,0.0,-0.047123889803846894,0.0,0.0,-0.047123889803846894,0.0,0.0,17.007343798494418,-0.2892272845464373,-0.6380093276952116,0.001565738031183101,-0.0036571952164712266,-0.0013815102141609857,1.0,-0.806223771082661,-3.036116460697097,998.193930698617,83.98374976179954,0.17024808068988678,14.758299894501135,999.9769622121428,85.36896211336294,4098.066982106759,0.4914089296374223
0.03,2.5351789957121817,-0.00022542513550626367,1000.4430414013383,84.50596652373939,-0.0075141711835421225,14.768046711275922,85.7866751788444,17.994799447313813,-0.003041183605462435,9.13458162651677,0.019297529388626996,0.0,-4.486073134779234,0.6350942606475132,-0.7781784168338118,-0.024069355214791234,4090.3071457318083,0.25498945119058214,85.7866751788444,1.766860385400648,1.1115941281793602,89869.73321037232,281.6471202308913,0.0,0.0,0.0,328.7375,0.17643103082306932,0.85,nominal,13490.671571078712,nan,fixed_pitch,18.0,0.0,0.0,-3.8511399858682895,-0.006133053604368538,-0.05956504071292876,-3.390683991520974,0.0,-0.035739024427757254,0.85,0.0,0.0,0.0,0.0,0.0,0.0,-0.059178599546704486,0.0,-0.0006237636477150464,-0.059178599546704486,0.0,-0.0006237636477150464,17.341234584407026,-0.27178109742933715,-0.4791057621217746,0.001429413143637282,-0.07765855323995914,0.009268278850674548,1.0,-0.806223771082661,-3.036116460697097,998.193930698617,83.98374976179954,0.17024808068988678,14.758299894501135,999.9769622121428,86.00001993568475,4131.389838433278,0.4914089296374223
0.06,5.085811461851493,-0.000673463740157197,1000.8793386250366,85.0210822046437,-0.014934620155031112,14.543240789943177,86.25595918524081,17.98950651638912,-0.009403132226318804,9.444834248168565,0.059734023033013735,0.005519973320646495,-10.341923704024028,1.3290871026564488,-0.2619191592881443,-0.06884219785961619,4135.0032522454185,0.2563856261034356,86.25595918524081,1.801979622149768,1.1115464939689164,89864.97722989027,281.64428429893724,0.0,0.0,0.0,334.47499999999997,0.17951030543989083,0.85,nominal,13535.318613610178,nan,fixed_pitch,18.0,0.0,0.0,-2.21860665773589,-0.013894343980634402,-0.13291893939217445,-2.6874375912499238,0.0,-0.09404697340640755,0.85,0.0,0.0,0.0,0.0,0.0,0.0,-0.04690463440917672,0.0,-0.001641429337477359,-0.04690463440917672,0.0,-0.001641429337477359,17.639922143260932,-0.3080805998557822,-0.024642097403098258,0.00031596232480351984,-0.17946135937116384,0.020450818651939602,1.0,-0.806223771082661,-3.036116460697097,998.193930698617,83.98374976179954,0.17024808068988678,14.758299894501135,1001.389106609725,86.46591095787724,4114.2077626596565,-0.11651096668192194
0.09,7.652138091927624,-0.0013333066216253129,1001.3093803982217,85.54422100253768,-0.021994762715603862,14.334725772839965,86.73695056712059,17.984121207225925,-0.019366239544467593,9.802529784811446,0.12308918577340866,0.020947511229566524,-11.923745593152194,2.0791357340901335,0.2898232897325131,-0.13582768794099676,4181.071479054282,0.25781659543348506,86.73695056712059,1.8332740392342537,1.1114995442464255,89860.28963814722,281.6414890274115,0.0,0.0,0.0,340.2125,0.18258958005671233,0.85,nominal,13581.13993212378,nan,fixed_pitch,18.0,0.0,0.0,-1.6278580144192474,-0.023383362704158656,-0.22064455866593896,-2.051689845151518,0.0,-0.17000552456212636,0.85,0.0,0.0,0.0,0.0,0.0,0.0,-0.035808743027626606,0.0,-0.0029671561501891965,-0.035808743027626606,0.0,-0.0029671561501891965,18.05625409358363,-0.28586371309664865,0.4448726784777468,0.002103488244867462,-0.2099740564518718,0.03816609014596662,1.0,-0.806223771082661,-3.036116460697097,998.193930698617,83.98374976179954,0.17024808068988678,14.758299894501135,1001.389106609725,86.76844667767716,4182.874032767074,-0.11651096668192194
0.12,10.234343153415178,-0.0021847097189029354,1001.7337047119046,86.07350204958513,-0.02838010324258742,14.144143789428437,87.22789326841628,17.978643519824224,-0.03297716082437011,10.08904402564656,0.2109131606651873,0.05192530238964734,-9.55181063997221,2.879117508341179,0.7572948795593984,-0.22632758696562968,4228.360039262111,0.2592771412781471,87.22789326841628,1.8613521915032207,1.1114532202134102,89855.66456259186,281.6387309193726,0.0,0.0,0.0,345.95,0.18566885467353383,0.85,nominal,13628.004517336109,nan,fixed_pitch,18.0,0.0,0.0,-2.0653340782007845,-0.0342268750883672,-0.32278079385745123,-2.059876384981078,0.0,-0.2616706861393213,0.85,0.0,0.0,0.0,0.0,0.0,0.0,-0.035951625101998085,0.0,-0.004567015029083846,-0.035951625101998085,0.0,-0.004567015029083846,18.14224310150038,-0.35023719723801117,0.7359105217017456,-9.090246754106307e-06,-0.16673893324082792,0.04911165453082857,1.0,-0.806223771082661,-3.036116460697097,998.193930698617,83.98374976179954,0.17024808068988678,14.758299894501135,1002.4372878269542,86.85186770534061,4208.241063838144,1.0295260944347606
0.15,12.83259099146876,-0.003196790471206931,1002.1527401452728,86.60826126845267,-0.03373602507679984,13.967847778940188,87.72737787965391,17.973073454184018,-0.049883812989460215,10.270360711270909,0.3244597269596349,0.1053717644771429,-6.046586660281579,3.720939458876828,1.1089378818764997,-0.3413887471158566,4276.747549669274,0.26076307570797846,87.72737787965391,1.8904798588828853,1.111407475023805,89851.0973242622,281.6360071890557,0.0,0.0,0.0,351.6875,0.18874812929035537,0.85,nominal,13675.807583965434,nan,fixed_pitch,18.0,0.0,0.0,-2.8450808112476347,-0.045637088154782596,-0.4390639287749095,-2.530999040741012,0.0,-0.3681066317206742,0.85,0.0,0.0,0.0,0.0,0.0,0.0,-0.04417426662574876,0.0,-0.0064246727219519646,-0.04417426662574876,0.0,-0.0064246727219519646,18.507234023765594,-0.23283278339444863,0.9460310577865632,0.0031314464032413756,-0.10701495252691598,0.06311573200708963,1.0,-0.806223771082661,-3.036116460697097,998.193930698617,83.98374976179954,0.17024808068988678,14.758299894501135,1002.4372878269542,87.78006041669381,4200.552370528654,1.0295260944347606
0.18,15.447079106462139,-0.004326970665909478,1002.5667786348297,87.14960383311268,-0.037672673156751574,13.801282985228376,88.235651975475,17.96741101030531,-0.06935835358876175,10.377865198195458,0.46469388677306894,0.1885908446290159,-3.5882673595569563,4.595063706990148,1.3793188746377951,-0.4817676419609637,4326.272328603585,0.2622751356033017,88.235651975475,1.9202516774257885,1.1113622767544578,89846.58473429429,281.6333159388736,0.0,0.0,0.0,357.425,0.19182740390717687,0.85,nominal,13724.586639467823,nan,fixed_pitch,18.0,0.0,0.0,-3.4045532352825565,-0.056732991421550055,-0.5691291919471807,-3.0551315574659386,0.0,-0.4887201678565781,0.85,0.0,0.0,0.0,0.0,0.0,0.0,-0.05332210475936298,0.0,-0.008529776049996647,-0.05332210475936298,0.0,-0.008529776049996647,18.78688991633892,-0.222344430452818,1.171619665010596,0.005147306518459282,-0.06280774622471517,0.0792189454998112,1.0,-0.806223771082661,-3.036116460697097,998.193930698617,83.98374976179954,0.17024808068988678,14.758299894501135,1003.0197749093454,87.68706339333076,4380.423851992336,0.6672407204359512
0.21,18.07802522896717,-0.005520037293585831,1002.976039729378,87.69820408350101,-0.03976888758921178,13.642036484946761,88.75292525033996,17.961656188188094,-0.09039880370604927,10.454277243207018,0.6322878528710513,0.3086577650015384,-2.554725985907509,5.4908536842844144,1.6128533736411241,-0.6479034568587194,4376.969792893059,0.263813945052337,88.75292525033996,1.9504346984683703,1.1113176013886166,89842.12439332844,281.630655741759,0.0,0.0,0.0,363.16249999999997,0.19490667852399834,0.85,nominal,13774.375850258322,nan,fixed_pitch,18.0,0.0,0.0,-3.6253936063382772,-0.0667069981592927,-0.7124781411337793,-3.3972887867893418,-0.04002419889557562,-0.6229749518228987,0.85,0.0,0.0,0.0,0.0,0.0,0.0,-0.05929387497055765,-0.0006985540512008726,-0.010872964066762634,-0.05929387497055765,-0.0006985540512008726,-0.010872964066762634,19.035567215556,-0.14896142930232034,1.305722362446642,0.003963820561059299,-0.04666389151536555,0.0951937774951638,1.0,16.065223776049073,1.2453577719807343,1001.3247955254978,87.96063680660794,0.2266334327860211,14.035237829019064,1003.0197749093454,89.17152651078614,4394.1048700119045,0.6672407204359512
0.24,20.725652045617085,-0.006707351398227586,1003.3807312894186,88.25422722166384,-0.039577136821391815,13.48971866801766,89.27924002020343,17.955808987832373,-0.11246521234081505,10.521502916733898,0.8275741470657021,0.44937154366487275,-2.252183908113307,6.3968207914096595,1.8317698329519077,-0.839877825554959,4428.859499431956,0.2653796305988437,89.27924002020343,1.9809065932429495,1.111273426188906,89837.7140298432,281.62802524661873,0.0,0.0,0.0,368.9,0.19798595314081988,0.85,nominal,13825.194997791921,nan,fixed_pitch,18.0,0.0,0.0,-3.668787423119045,-0.07614017204389592,-0.8683445929532996,-3.560187968587164,-0.061693782784567795,-0.7701967365011393,0.85,0.0,0.0,0.0,0.0,0.0,0.0,-0.06213700204173446,-0.0010767596376009035,-0.01344246894006007,-0.06213700204173446,-0.0010767596376009035,-0.01344246894006007,19.321078663421254,-0.19965420139847256,1.4606416026838367,0.007726447686605528,-0.03713759071795537,0.11155995516067585,1.0,16.065223776049073,1.2453577719807343,1001.3247955254978,87.96063680660794,0.2266334327860211,14.035237829019064,1003.9122103897723,88.6427947304177,4445.235659569143,0.6016901375265014
0.27,23.390180948350878,-0.0078062020356132735,1003.7810698569756,88.81763009112643,-0.03662835457952292,13.344618918568917,89.8145400852354,17.94986940923815,-0.13443216552387857,10.580067629507422,1.050490704008917,0.6283559994969555,-1.96789172923819,7.300710267548159,2.0364453881310496,-1.0574216635497091,4481.951535503878,0.2669720259857973,89.8145400852354,2.0115990160092223,1.1112297274736345,89833.35127814082,281.62542304592967,0.0,0.0,0.0,374.6375,0.20106522775764138,0.85,nominal,13877.055434074085,nan,fixed_pitch,18.0,0.0,0.0,-3.712617816332545,-0.0836628465718023,-1.035650247532363,-3.651645877234392,-0.0748752210569085,-0.9294688431198737,0.85,0.0,0.0,0.0,0.0,0.0,0.0,-0.06373324367461679,-0.0013068191356016418,-0.01622229160714444,-0.06373324367461679,-0.0013068191356016418,-0.01622229160714444,19.654107470537244,-0.17765780691751623,1.6763021242044385,0.006952159451082535,-0.032713967927993526,0.1270416889752943,1.0,16.065223776049073,1.2453577719807343,1001.3247955254978,87.96063680660794,0.2266334327860211,14.035237829019064,1003.9122103897723,89.47128472380531,4464.789591143862,0.6016901375265014
0.3,26.07183370813452,-0.008719317193843014,1004.1772709181151,89.38842532612145,-0.030437171940991332,13.206702037984108,90.35877648255935,17.943837452405422,-0.15469364216036652,10.623202561303154,1.3005545248537977,0.8581729890442434,-1.4584986720347228,8.189534475218132,2.2201486760339293,-1.299897642844705,4536.256849041116,0.2685909864693635,90.35877648255935,2.0424611014046943,1.111186481679691,89829.03378446425,281.62284773903224,0.0,0.0,0.0,380.375,0.20414450237446288,0.85,nominal,13929.969277561693,nan,fixed_pitch,18.0,0.0,0.0,-3.821469841138602,-0.08791190248360976,-1.2130697560249588,-3.7535402555769175,-0.08269722991292927,-1.0996293908629249,0.85,0.0,0.0,0.0,0.0,0.0,0.0,-0.06551163606596666,-0.0014433389442593592,-0.019192153422257687,-0.06551163606596666,-0.0014433389442593592,-0.019192153422257687,19.929034801976982,-0.14525997628640772,1.8040704071666518,0.015196333350988451,-0.02499495753694763,0.14611065155396155,1.0,16.065223776049073,1.2453577719807343,1001.3247955254978,87.96063680660794,0.2266334327860211,14.035237829019064,1004.7557362479818,90.09225012988252,4526.873924463172,2.506638796915008
0.32999999999999996,28.770836032358304,-0.009334543637533806,1004.5695341590477,89.96674414079284,-0.02050754812302643,13.075441364419364,90.91194992259697,17.937713117334187,-0.17119164155726663,10.647838978486707,1.5768610136440275,1.1499138198026497,-0.8469534066061385,9.049640307532984,2.3801231533352962,-1.5662844683060313,4591.791558327288,0.2702365149164319,90.911949922597,2.073459881090923,1.1111436669717043,89824.75936764436,281.62029802796616,0.0,0.0,0.0,386.1125,0.20722377699128441,0.85,nominal,13983.953141525217,nan,fixed_pitch,18.0,0.0,0.0,-3.966239032563589,-0.08741374020651405,-1.3990989291710796,-3.8811595217689203,-0.08552713608908014,-1.2793111138478177,0.85,0.0,0.0,0.0,0.0,0.0,0.0,-0.0677390124499962,-0.0014927301245557145,-0.022328191094000444,-0.0677390124499962,-0.0014927301245557145,-0.022328191094000444,20.256638869974694,-0.08692365888537101,1.8044713477023986,0.019062326623681097,-0.011910531101537638,0.1569936262824784,1.0,16.065223776049073,1.2453577719807343,1001.3247955254978,87.96063680660794,0.2266334327860211,14.035237829019064,1004.7557362479818,91.1704594417147,4487.258382701795,2.506638796915008
0.36,31.487418885582834,-0.009524730974627782,1004.9580384181909,90.55276177415102,-0.006339577903132512,12.950141971437738,91.4740885835808,17.93149640402445,-0.18143818735665884,10.65656046121474,1.878086263179064,1.5144699775071122,-0.321080701301166,9.866892385863572,2.5193062789689575,-1.8551683309571845,4648.574846902576,0.2719086957849968,91.47408858358081,2.1045826705716046,1.111101263792659,89820.52607406037,281.61777275028174,0.0,0.0,0.0,391.84999999999997,0.2103030516081059,0.85,nominal,14039.026188552145,nan,fixed_pitch,18.0,0.0,0.0,-4.0983855197551184,-0.08058094190715705,-1.5920635626286457,-4.011495120560639,-0.08255941957992628,-1.4669625831163144,0.85,0.0,0.0,0.0,0.0,0.0,0.0,-0.07001379778147003,-0.0014409337002051874,-0.025603327078940665,-0.07001379778147003,-0.0014409337002051874,-0.025603327078940665,20.55829578320983,-0.019141262151023776,2.037299016863149,0.028894742930938515,-0.004268911263079883,0.17126107463317314,1.0,16.065223776049073,1.2453577719807343,1001.3247955254978,87.96063680660794,0.2266334327860211,14.035237829019064,1004.7028588666159,91.78003310639471,4640.164364476704,1.092993737964369
0.39,34.2218172810125,-0.009147860785442913,1005.3429459617256,91.14661318098877,0.012562339639495618,12.830251451158484,92.0452095683264,17.925187312476208,-0.182527871533448,10.65415209472296,2.202479710645127,1.96303749640884,0.0465259950236261,10.626895885365677,2.6426594182359153,-2.1647430513472634,4706.625106910809,0.2736075805669543,92.0452095683264,2.1358239091045186,1.111059254396873,89816.33213100329,281.61527085124874,0.0,0.0,0.0,397.5875,0.2133823262249274,0.85,nominal,14095.20670325412,nan,fixed_pitch,18.0,0.0,0.0,-4.196890457232143,-0.06570089533133992,-1.7900906717137557,-4.122732322563541,-0.07244430503077447,-1.6608394362747791,0.85,0.0,0.0,0.0,0.0,0.0,0.0,-0.0719552532071267,-0.0012643916471061065,-0.02898711650996144,-0.0719552532071267,-0.0012643916471061065,-0.02898711650996144,20.844119839501825,0.05778839433733299,2.1749733117225607,0.03465527962158271,0.0008488338389005781,0.18385825915276274,1.0,16.065223776049073,1.2453577719807343,1001.3247955254978,87.96063680660794,0.2266334327860211,14.035237829019064,1004.7028588666159,91.64487407767618,4624.584647055937,1.092993737964369
0.42,36.97426828644384,-0.008047445783865344,1005.7244090214257,91.74836684771125,0.03668050005258559,12.715435323334795,92.62530140379138,17.91878584268946,-0.17112889676581175,10.64425100968143,2.5478535264135678,2.5074216782218284,0.2951163125475563,11.315181345180985,2.7537553528876826,-2.4928163241456858,4765.958102696426,0.2753331357861162,92.62530140379138,2.1453648615651573,1.1110176221361672,89812.17587540323,281.6127913413607,0.0,0.0,0.0,399.47763157894735,0.21439674612793488,0.85,nominal,14152.510505801562,nan,fixed_pitch,18.0,0.0,0.0,-4.2692878354975035,-0.04089682258865716,-1.9910953231428623,-4.210665630323918,-0.02897772201230979,-1.8589929683956292,0.85,0.0,0.0,0.0,0.0,0.0,0.0,-0.07348997894971476,-0.0005057566588424426,-0.03244554806992662,-0.07348997894971476,-0.0005057566588424426,-0.03244554806992662,20.89051093510608,0.08734940311567752,2.284425745671159,0.04780140359131217,0.0034432696638306507,0.19966126738111642,1.0,36.56906622921021,2.308938209228044,1007.6817897029094,91.85091058866989,0.1823321245001553,12.840580651817225,1006.755929997286,92.70265132063291,4748.682391523906,2.0576714456905942
0.44999999999999996,39.74482064166312,-0.006058929717103333,1006.1025338722978,92.35174517397611,0.06628386889206704,12.604161695737268,93.20790804584439,17.91235394030562,-0.14277491192883587,10.630190973411468,2.9103794426814447,3.1757609742564727,0.43613240065290515,11.877819098397882,2.8559209476431833,-2.8357748682500445,4825.922486078438,0.27706617094522223,93.2079080458444,2.144116791393809,1.1109763553800014,89808.05614517521,281.61033352983003,0.0,0.0,0.0,399.4440789473684,0.21437873867403534,0.85,nominal,14210.352474940062,nan,fixed_pitch,18.0,0.0,0.0,-4.3162412681280875,-0.002714577780131653,-2.189095142640595,-4.27401101300642,-0.011591088804923917,-2.057054272942609,0.85,0.0,0.0,0.0,0.0,0.0,0.0,-0.07459556444346022,-0.00020230266353697706,-0.035902369955066626,-0.07459556444346022,-0.00020230266353697706,-0.035902369955066626,20.917061785298877,0.10373566822943173,2.347996155793442,0.055856935350197486,0.005077719221435802,0.20761444131122372,1.0,36.56906622921021,2.308938209228044,1007.6817897029094,91.85091058866989,0.1823321245001553,12.840580651817225,1006.755929997286,94.00153221145011,4858.3627406698015,2.0576714456905942
0.48,42.53342810679244,-0.0030113026776735093,1006.4774039148577,92.95358217097738,0.10158756798099411,12.495668085329337,93.78976745546036,17.9059225781454,-0.0931242579697271,10.61359680854304,3.2851873525685082,3.9579376378929703,0.5278590520376023,12.280679989881161,2.9504832868043107,-3.1890215871105045,4886.18319657006,0.27879698955902543,93.78976745546036,2.1429795942592307,1.1109354449957436,89803.97202765067,281.6078968745534,0.0,0.0,0.0,399.41052631578947,0.2143607312201358,0.85,nominal,14268.431872776306,nan,fixed_pitch,18.0,0.0,0.0,-4.3510835806898704,0.050157599642430224,-2.3792664477775873,-4.320254553616491,-0.004636435521969567,-2.2503815778435956,0.85,0.0,0.0,0.0,0.0,0.0,0.0,-0.07540266648488565,-8.092106541479083e-05,-0.03927656795959582,-0.07540266648488565,-8.092106541479083e-05,-0.03927656795959582,20.835880589116538,0.2634426803788281,2.450200357186431,0.06937452320693126,0.010391174069694604,0.21647780795026944,1.0,36.56906622921021,2.308938209228044,1007.6817897029094,91.85091058866989,0.1823321245001553,12.840580651817225,1006.8815959406584,94.61107106398032,4847.090406062042,3.623950241599513
0.51,45.340043690210805,0.001272896804851004,1006.849100049332,93.5538527806121,0.14280664941748378,12.389871149143207,94.37082531655602,17.899491756208796,-0.01781609578350368,10.594451354190092,3.6669867541293866,4.852245518698523,0.6260711377567153,12.509972673681428,3.036881072341471,-3.5475592936976605,4946.733076546122,0.2805254302063408,94.37082531655602,2.14193883331221,1.1108948821249038,89799.92263756812,281.60548084967934,0.0,0.0,0.0,399.3769736842105,0.21434272376623625,0.85,nominal,14326.743062462747,nan,fixed_pitch,18.0,0.0,0.0,-4.387509110019431,0.11927797011947103,-2.558266174229995,-4.360607287458255,0.06971220786289478,-2.435112335675435,0.85,0.0,0.0,0.0,0.0,0.0,0.0,-0.07610695455260538,0.0012167075560421937,-0.04250072791346572,-0.07610695455260538,0.0012167075560421937,-0.04250072791346572,20.83129301594803,0.2796583676574002,2.526154486024565,0.08167527505917985,0.010103554754089094,0.21499936593214763,1.0,36.56906622921021,2.308938209228044,1007.6817897029094,91.85091058866989,0.1823321245001553,12.840580651817225,1006.8815959406584,94.574355088089,5009.115787350465,3.623950241599513
0.54,48.16462008402227,0.0069750146619154095,1007.2176990080382,94.15254646038207,0.19007059523548017,12.286631956872222,94.9510371541523,17.89306147449581,0.08901107081632573,10.572740219684846,4.050110167291261,5.906526986201183,0.7315045387192382,12.553131195583813,3.1144061339581075,-3.906154855781855,5007.565869919027,0.28225136071026546,94.9510371541523,2.140984827281705,1.1108546583650531,89795.90713523206,281.60308495644773,0.0,0.0,0.0,399.3434210526316,0.21432471631233674,0.85,nominal,14385.281176301782,nan,fixed_pitch,18.0,0.0,0.0,-4.425504369146355,0.20919915245210896,-2.7227087053606573,-4.399545536471115,0.15340437461642328,-2.607670157486569,0.85,0.0,0.0,0.0,0.0,0.0,0.0,-0.07678655520284122,0.0026774114240193997,-0.045512430054139685,-0.07678655520284122,0.0026774114240193997,-0.045512430054139685,20.83265850401898,0.3646878113872958,2.6665291496950387,0.10418731459851079,0.01448919256450135,0.2176692119057539,1.0,36.56906622921021,2.308938209228044,1007.6817897029094,91.85091058866989,0.1823321245001553,12.840580651817225,1008.0972128916355,94.30742983106428,5072.830517019734,4.216772274833589
0.57,51.00711011913811,0.014277429466955774,1007.5832722479222,94.74966783719486,0.24341382683467883,12.185774662802912,95.53037166096688,17.88663173300644,0.23354582076980906,10.549121596517505,4.428564957646753,7.12996128702708,0.8221938352283629,12.3992653312045,3.1829288172915473,-4.2593348406056375,5068.676607779638,0.2839746880234544,95.53037166096685,2.140113449811183,1.1108147658905883,89791.92473856632,281.6007087303885,0.0,0.0,0.0,399.3098684210526,0.21430670885843717,0.85,nominal,14444.042451631318,nan,fixed_pitch,18.0,0.0,0.0,-4.459097064013075,0.32263228719189285,-2.869210056492949,-4.435276452996291,0.25494112216170506,-2.764594096890397,0.85,0.0,0.0,0.0,0.0,0.0,0.0,-0.0774101773409608,0.004449561980450836,-0.04825126947193655,-0.0774101773409608,0.004449561980450836,-0.04825126947193655,20.799471431490804,0.49741029079932414,2.7832926813022376,0.1235524556681772,0.012704534016901435,0.217522162208757,1.0,36.56906622921021,2.308938209228044,1007.6817897029094,91.85091058866989,0.1823321245001553,12.840580651817225,1008.0972128916355,95.77729821449236,5145.416194391108,4.216772274833589
0.6,53.867466998117756,0.02336046950177152,1007.9458861573313,95.3452292993215,0.3027680011605248,12.087130313637832,96.10880884612807,17.880202531740686,0.4224149855042044,10.524643984407637,4.79609331697898,8.53597170088831,0.8848549673932453,12.039564099653722,3.2426085628825163,-4.601455247300748,5130.061453278112,0.28569535272594326,96.10880884612807,2.1393207543566706,1.1107751974300721,89787.97472084875,281.5983517399773,0.0,0.0,0.0,399.2763157894737,0.21428870140453765,0.85,nominal,14503.024093395585,nan,fixed_pitch,18.0,0.0,0.0,-4.484447981591413,0.4626271861504846,-2.9944348180170923,-4.464779370153365,0.3795527605549727,-2.902498529566414,0.85,0.0,0.0,0.0,0.0,0.0,0.0,-0.07792510038429486,0.006624445356717934,-0.05065815587522791,-0.07792510038429486,0.006624445356717934,-0.05065815587522791,20.744627599853743,0.5536099271911983,2.8234033365937288,0.1475396516197619,0.014839252275895361,0.21114643444634512,1.0,36.56906622921021,2.308938209228044,1007.6817897029094,91.85091058866989,0.1823321245001553,12.840580651817225,1007.4551831321644,95.38478601286542,5084.360687367252,4.279079673960896
0.63,56.74564450146615,0.03439913092738823,1008.3056027721321,95.93925011161318,0.3679553808538904,11.990553826695626,96.68634073234881,17.87377387069855,0.662733738623846,10.500269670555685,5.14624226241851,10.1401363001572,0.9211143192310148,11.467592512287112,3.2934423318468333,-4.9267756670550815,5191.717812655791,0.2874133311001739,96.68634073234881,2.138598050222709,1.1107359461879993,89784.0564028987,281.59601358198114,0.0,0.0,0.0,399.24276315789473,0.2142706939506381,0.85,nominal,14562.224381531256,nan,fixed_pitch,18.0,0.0,0.0,-4.501736616730433,0.6324880637177586,-3.0951522713879145,-4.486953718099605,0.5313139424526443,-3.0180907746593144,0.85,0.0,0.0,0.0,0.0,0.0,0.0,-0.0783121157654396,0.009273177657550319,-0.05267562114187128,-0.0783121157654396,0.009273177657550319,-0.05267562114187128,20.826202342783493,0.5767362083801773,2.869533639478938,0.1780565352763973,0.01483260961509472,0.1995521874505444,1.0,60.60868501014461,0.1845930285598386,1008.0647830761759,95.91232398592537,0.44928523319822267,11.852986395134334,1007.4551831321644,96.49396986304407,5133.856972885803,4.279079673960896
0.6599999999999999,59.641597394109404,0.047559645889901955,1008.6624801583725,96.53176308810835,0.4386838320837909,11.895912874681686,97.2629758516838,17.86734574988003,0.9621355243786951,10.476699314257617,5.472442213390266,11.95946232535851,0.9372033926248137,10.679519693713408,3.3351464607525974,-5.229536520337148,5253.644859280098,0.2891286484968815,97.26297585168379,2.137931142574794,1.1106970058029644,89780.16914889865,281.59369387897056,0.0,0.0,0.0,399.20921052631576,0.21425268649673854,0.85,nominal,14621.643146807717,nan,fixed_pitch,18.0,0.0,0.0,-4.512750350386353,0.8357504097906154,-3.1682922655485535,-4.502431697471654,0.7139758228554269,-3.1082116691928574,0.85,0.0,0.0,0.0,0.0,0.0,0.0,-0.07858225746703762,0.012461228888462982,-0.054248527476324165,-0.07858225746703762,0.012461228888462982,-0.054248527476324165,20.73214894592144,0.7031729158027751,2.945366265831166,0.207799430727938,0.017205055768911445,0.18552581854530809,1.0,60.60868501014461,0.1845930285598386,1008.0647830761759,95.91232398592537,0.44928523319822267,11.852986395134334,1008.5703473540661,96.93254801006542,5314.015010726089,7.972705151809525
0.69,62.55528207528022,0.06299595183463423,1009.0165723026041,97.12282270569386,0.5145435314910758,11.803071474385835,97.8387445830991,17.860918169285128,1.3287968120832876,10.454472973066123,5.768090099681142,14.012207493507052,0.9344673876391059,9.67432311666097,3.3673332226490804,-5.5040398532267245,5315.844166365681,0.29084139520210833,97.83874458309909,2.137302410799799,1.1106583703595594,89776.31236757964,281.59139228003306,0.0,0.0,0.0,399.17565789473684,0.21423467904283902,0.85,nominal,14681.282339569785,nan,fixed_pitch,18.0,0.0,0.0,-4.5185242917817385,1.0761810304034582,-3.2109922053083935,-4.512087254057705,0.9312989473842458,-3.1698799908621793,0.85,0.0,0.0,0.0,0.0,0.0,0.0,-0.07875077872057683,0.01625423295221252,-0.05532484273363279,-0.07875077872057683,0.01625423295221252,-0.05532484273363279,20.72417626753126,0.705795167133463,3.0417260658937457,0.24231831919611638,0.015867508984949954,0.1689495854721568,1.0,60.60868501014461,0.1845930285598386,1008.0647830761759,95.91232398592537,0.44928523319822267,11.852986395134334,1008.5703473540661,98.48075322497675,5352.993463413292,7.972705151809525
0.72,65.48665737362816,0.08084610601658158,1009.3679288171082,97.71250994493157,0.5950051393982453,11.711883816804464,98.41370256926922,17.854491128913843,1.7714631138461367,10.434104098627687,6.026634761598441,16.31793905567747,0.9079946029779246,8.453988980845201,3.38972919039712,-5.74473507383686,5378.320149942925,0.29255173659411643,98.41370256926922,2.1366927838969483,1.1106200344204578,89772.48551542185,281.5891084626888,0.0,0.0,0.0,399.1421052631579,0.21421667158893948,0.85,nominal,14741.146425830588,nan,fixed_pitch,18.0,0.0,0.0,-4.518991509399076,1.3577892594509284,-3.2206390316508013,-4.516229807262528,1.1871931346242555,-3.2003354153353527,0.85,0.0,0.0,0.0,0.0,0.0,0.0,-0.07882307991344002,0.02072042905626555,-0.05585639016578213,-0.07882307991344002,0.02072042905626555,-0.05585639016578213,20.745705944161248,0.8230944789804273,3.072949113835578,0.28801832622178813,0.015957865378961232,0.14753284544316972,1.0,60.60868501014461,0.1845930285598386,1008.0647830761759,95.91232398592537,0.44928523319822267,11.852986395134334,1007.7639505449797,98.44891630248435,5431.682274654187,5.9484821205379985
0.75,68.43568537612984,0.10122868426077758,1009.7165947511606,98.30093341672256,0.6794192748065333,11.622197801745338,98.98793160225541,17.848064628766174,2.299480352989794,10.416104112102337,6.241665205738561,18.8977228390486,0.8500122617275205,7.023694465345845,3.402292842968545,-5.946310120744761,5441.0802462257625,0.29425991577662347,98.98793160225541,2.1360823785437866,1.1105819930469365,89768.68809870083,281.58684213411743,0.0,0.0,0.0,399.10855263157896,0.21419866413503993,0.85,nominal,14801.242545362868,nan,fixed_pitch,18.0,0.0,0.0,-4.513881106776975,1.684846855452525,-3.1949139041172385,-4.514820586971196,1.4857853671212173,-3.197082508604484,0.85,0.0,0.0,0.0,0.0,0.0,0.0,-0.07879848437947037,0.025931846634217944,-0.055799616233068186,-0.07879848437947037,0.025931846634217944,-0.055799616233068186,20.68038466161903,0.8681819062753557,3.0802738228903928,0.3296338805298661,0.019329936438663833,0.12299920450846888,1.0,60.60868501014461,0.1845930285598386,1008.0647830761759,95.91232398592537,0.44928523319822267,11.852986395134334,1007.7639505449797,99.0158053525559,5385.674559078741,5.9484821205379985
0.78,71.40233222829002,0.12423920509640633,1010.0626105766707,98.88822840533936,0.767017361187625,11.53386085033588,99.56153865270385,17.841638668842123,2.9228347958889587,10.400920894948305,6.4070021195512625,21.77440592221303,0.7525405644276025,5.391947359297608,3.405257842018535,-6.103787356155593,5504.134886703399,0.29596625069389276,99.56153865270385,2.1354505574729714,1.1105442418003653,89764.91967363385,281.58459303125164,0.0,0.0,0.0,399.075,0.2141806566811404,0.85,nominal,14861.580489458629,nan,fixed_pitch,18.0,0.0,0.0,-4.503470077752038,2.0619162500597223,-3.1318393270453755,-4.5080102814397005,1.8314638968843204,-3.157936599669019,0.85,0.0,0.0,0.0,0.0,0.0,0.0,-0.078679622124879,0.03196507513203731,-0.055116391233458455,-0.078679622124879,0.03196507513203731,-0.055116391233458455,20.689303445493298,0.922164911153125,3.1343031671833894,0.3771346263245363,0.010161462278725015,0.09596269731997638,1.0,60.60868501014461,0.1845930285598386,1008.0647830761759,95.91232398592537,0.44928523319822267,11.852986395134334,1009.6241342339233,99.52266241585761,5482.519706344799,7.5096469952066185
0.8099999999999999,74.38656887169648,0.14994662372489181,1010.4060122897564,99.47455478021558,0.8569139542828492,11.446723769520931,100.13465351866391,17.835213249141688,3.6522042266022403,10.388870529152413,6.516790610911577,24.972980515643492,0.6074528608313758,3.570671908523953,3.399181608518644,-6.212623345825415,5567.497315769659,0.29767112714265115,100.13465351866392,2.1347764908459506,1.1105067767310468,89761.17984526366,281.58236092011657,0.0,0.0,0.0,399.0414473684211,0.21416264922724088,0.85,nominal,14922.172538072775,nan,fixed_pitch,18.0,0.0,0.0,-4.488677865629015,2.4938871971662677,-3.0298213668770657,-4.496410831953289,2.2289178770534885,-3.0810674599938475,0.85,0.0,0.0,0.0,0.0,0.0,0.0,-0.07847717353992235,0.03890195571114554,-0.0537747716529513,-0.07847717353992235,0.03890195571114554,-0.0537747716529513,20.70534632854536,1.0486956816795825,3.249705030088924,0.4382494726891832,0.01035045629538089,0.06147661088511036,1.0,60.60868501014461,0.1845930285598386,1008.0647830761759,95.91232398592537,0.44928523319822267,11.852986395134334,1009.6241342339233,99.97261150596414,5562.746605461982,7.5096469952066185
0.84,77.38837167363461,0.17838993724664115,1010.7468315981437,100.06009339793758,0.9481104507249781,11.360643612907984,100.70742488779202,17.82878836966487,4.499022816454358,10.380099049806704,6.565590725149001,28.52102827315367,0.40537305331662155,1.5752433844599596,3.385032471213111,-6.268812492981651,5631.183221845665,0.2993749870675607,100.70742488779202,2.1340404128174986,1.1104695943577083,89757.46826540909,281.580145594612,0.0,0.0,0.0,399.0078947368421,0.2141446417733413,0.85,nominal,14983.03312985707,nan,fixed_pitch,18.0,0.0,0.0,-4.470837780881351,2.98602230217923,-2.8876817425290287,-4.481067001310127,2.6831805321289335,-2.965036029514956,0.85,0.0,0.0,0.0,0.0,0.0,0.0,-0.07820937317533076,0.04683033471106338,-0.05174964115529575,-0.07820937317533076,0.04683033471106338,-0.05174964115529575,20.674225318998452,1.0906616643122697,3.2048552925002816,0.497197951703156,0.0053537732081099755,0.029205106786128344,1.0,79.09158256080477,-0.29037239300523154,1010.3518904187356,100.08130047730972,0.8364032416015202,11.38040274193408,1010.1036791684935,100.54112635898204,5793.225382843043,6.661599097628098
0.87,80.40772287981399,0.20957493138601985,1011.0850962399815,100.64504020597937,1.0394998046459565,11.275488061258027,101.28001436081372,17.82236403041167,5.475562166767789,10.374559919511794,6.548463143507892,32.44925256078147,0.13512260515635682,-0.5755268243662743,3.3642960658610175,-6.268995252099329,5695.210124236831,0.30107831079623687,101.28001436081374,2.133225044793173,1.1104326916326497,89753.7846291841,281.5779468744401,0.0,0.0,0.0,398.9743421052632,0.2141266343194418,0.85,nominal,15044.17831350513,nan,fixed_pitch,18.0,0.0,0.0,-4.451578715804627,3.5440123422244074,-2.7046809692303855,-4.463374030006827,3.199679618186218,-2.8088229933442137,0.85,0.0,0.0,0.0,0.0,0.0,0.0,-0.07790057257162732,0.055844944346304534,-0.0490232093395793,-0.07790057257162732,0.055844944346304534,-0.0490232093395793,20.661463501402487,1.1445206776321182,3.3247590067362527,0.5667123931599244,0.0025235370997628574,-0.011201801979286396,1.0,79.09158256080477,-0.29037239300523154,1010.3518904187356,100.08130047730972,0.8364032416015202,11.38040274193408,1010.1036791684935,101.9196894786548,5728.469504861516,6.661599097628098
0.8999999999999999,83.44461081149707,0.24347108293283454,1011.4208305090773,101.22959772276948,1.129871718227156,11.191142303195818,101.8525882403769,17.815940231382086,6.5950312094125545,10.371982996967873,6.4610488423659875,36.79211095399117,-0.21594268758955038,-2.859463637181865,3.339072081214088,-6.210571826651212,5759.59648463882,0.3027815926316716,101.85258824037692,2.1323167065285515,1.110396065884383,89750.1286692702,281.575764601691,0.0,0.0,0.0,398.9407894736842,0.21410862686554225,0.85,nominal,15105.624953143724,nan,fixed_pitch,18.0,0.0,0.0,-4.43291353803946,4.1740426610356725,-2.480535710748616,-4.4450977348264065,3.7842974438958907,-2.6118506237868555,0.85,0.0,0.0,0.0,0.0,0.0,0.0,-0.0775815910456626,0.06604845027078868,-0.04558539295534835,-0.0775815910456626,0.06604845027078868,-0.04558539295534835,20.63633134429762,1.0957946894887785,3.268241521648676,0.6415824071810254,-0.0062950053182357375,-0.049703525203821035,1.0,79.09158256080477,-0.29037239300523154,1010.3518904187356,100.08130047730972,0.8364032416015202,11.38040274193408,1012.654207078121,102.1817578600327,5763.469818671757,7.446392691185118
0.9299999999999999,86.49902973506077,0.280008613852092,1011.7540560395184,101.81396411879008,1.2179176973085823,11.107517681370283,102.42530723479254,17.80951697257612,7.871698054965894,10.371828743472712,6.299641526952046,41.58856203853229,-0.6613010060755801,-5.251173133263167,3.3121509863696565,-6.09182212906203,5824.360550464502,0.3044853102465273,102.42530723479256,2.1313060735891782,1.1103597147319897,89746.50014736623,281.5735986357431,0.0,0.0,0.0,398.90723684210525,0.21409061941164267,0.85,nominal,15167.389694730766,nan,fixed_pitch,18.0,0.0,0.0,-4.4173879140111305,4.882872395160328,-2.2154299335493706,-4.428471842337241,4.443442414654553,-2.3739982096443644,0.85,0.0,0.0,0.0,0.0,0.0,0.0,-0.07729141448064407,0.07755270025848908,-0.04143408519474476,-0.07729141448064407,0.07755270025848908,-0.04143408519474476,20.637474942226756,1.0578647801501955,3.210164958421821,0.7249544274501385,-0.008524781070568754,-0.08881641000736376,1.0,79.09158256080477,-0.29037239300523154,1010.3518904187356,100.08130047730972,0.8364032416015202,11.38040274193408,1012.654207078121,102.88609864315936,5788.322997369737,7.446392691185118
0.96,89.5709793446147,0.3190756712071935,1012.0847928692702,102.39832031846399,1.3022352451700485,11.024560991727412,102.99831438298801,17.80309425399377,9.321037474785712,10.373236066275652,6.061250531705571,46.88294185569021,-1.21483083700094,-7.722274791198418,3.2870750213410598,-5.9120328370377,5889.518955793056,0.3061898887898843,102.99831438298803,2.130188838029379,1.1103236359690563,89742.8988426017,281.5714488463497,0.0,0.0,0.0,398.8736842105263,0.21407261195774313,0.85,nominal,15229.487716859847,nan,fixed_pitch,18.0,0.0,0.0,-4.408162735784214,5.677928815874667,-1.9100159026590622,-4.416286378405425,5.184134255386621,-2.095608825453183,0.85,0.0,0.0,0.0,0.0,0.0,0.0,-0.07707873801415087,0.09048021162192113,-0.036575273838009195,-0.07707873801415087,0.09048021162192113,-0.036575273838009195,20.640571426221708,1.1551383370634225,3.3509702785152893,0.8196702982097627,-0.024758689664262507,-0.13491291897837437,1.0,79.09158256080477,-0.29037239300523154,1010.3518904187356,100.08130047730972,0.8364032416015202,11.38040274193408,1011.7366030931393,103.16905365963414,5885.776205194422,4.917671828704287
0.99,92.66046380945113,0.36051557847229754,1012.4130607812949,102.9828154945479,1.3813302421701346,10.942263734156436,103.57172150760972,17.796672075635037,10.95990840069393,10.374971960477499,5.743650975232964,52.72598765442342,-1.8905828179972852,-10.241734404454778,3.268187239604294,-5.67163274037621,5955.085107267345,0.30789566061881035,103.57172150760972,2.1289666013453785,1.1102878274173573,89739.32453693126,281.56931510492154,0.0,0.0,0.0,398.84013157894736,0.21405460450384362,0.85,nominal,15291.931290535818,nan,fixed_pitch,18.0,0.0,0.0,-4.40902755686396,6.56741948342326,-1.5654012590041777,-4.411931085480546,6.014105392208605,-1.7774842855837798,0.85,0.0,0.0,0.0,0.0,0.0,0.0,-0.07700272381272293,0.10496594065598508,-0.031022953185896138,-0.07700272381272293,0.10496594065598508,-0.031022953185896138,20.56442145896412,1.0845292556621011,3.283924223371031,0.9176297129266922,-0.030759700661705847,-0.18073337957636465,1.0,79.09158256080477,-0.29037239300523154,1010.3518904187356,100.08130047730972,0.8364032416015202,11.38040274193408,1011.7366030931393,104.08169270426266,6006.802119580827,4.917671828704287
1.02,95.76749034833851,0.4041240667058194,1012.738880904173,103.56755129624611,1.4536162744507284,10.860670762601737,104.14559448765726,17.79025043749992,12.806766576161014,10.375384226946005,5.3454178525336005,59.176029918331636,-2.702555927918472,-12.776312746486374,3.260665537137871,-5.372338034176116,6021.067381921515,0.3096028215208485,104.14559448765728,2.1276483972179263,1.1102522867522528,89735.77699770618,281.56719727412286,0.0,0.0,0.0,398.8065789473684,0.21403659704994404,0.85,nominal,15354.728172012681,nan,fixed_pitch,18.0,0.0,0.0,-4.42440168821664,7.560465260768167,-1.1831205041991864,-4.419413447122202,6.941921313344342,-1.4208660167530238,0.85,0.0,0.0,0.0,0.0,0.0,0.0,-0.07713331565919475,0.12115938333222774,-0.024798790222037174,-0.07713331565919475,0.12115938333222774,-0.024798790222037174,20.60882266980553,1.1195906874808434,3.3410648503205524,1.0339219101591897,-0.04322672202850916,-0.222826386692239,1.0,79.09158256080477,-0.29037239300523154,1010.3518904187356,100.08130047730972,0.8364032416015202,11.38040274193408,1012.3752762067949,104.36387729790923,5981.193083422699,3.832274680245458
1.05,98.89206730487813,0.4496463490154412,1013.0622775240524,104.15256521798693,1.517409410320726,10.779887329314379,104.71993766059195,17.783829339588422,14.881918379216556,10.372354879020222,4.865940763902324,66.30037741537161,-3.6644020618003026,-15.291150083633584,3.2705353973190037,-5.017309619897354,6087.467167496159,0.31131138434861516,104.71993766059194,2.1262534580246553,1.1102170113050591,89732.2559579485,281.56509519609364,0.0,0.0,0.0,398.7730263157895,0.21401858959604453,0.85,nominal,15417.879855700381,nan,fixed_pitch,18.0,0.0,0.0,-4.459354830079997,8.667257771151695,-0.7650895511555487,-4.44337827689688,7.977123188028753,-1.0274001373945387,0.85,0.0,0.0,0.0,0.0,0.0,0.0,-0.07755158084344284,0.13922706446828845,-0.017931515132976816,-0.07755158084344284,0.13922706446828845,-0.017931515132976816,20.581230528705714,1.0422072886302303,3.3322959553955362,1.1584025975591279,-0.06121415671999038,-0.2651214284261225,1.0,100.57854949752519,1.2487384059082647,1012.771868118734,104.17684639419225,1.6629285340152067,10.88944579424885,1012.3752762067949,105.00966580932027,6184.685616874608,3.832274680245458
1.08,102.03420171255601,0.4967738504048131,1013.3832800062187,104.73781358926304,1.5709167129790633,10.70008273887528,105.2946776688979,17.77740878190054,17.207822985402554,10.363252697831681,4.305415269151072,74.17692437671626,-4.789161314527939,-17.750511640746808,3.3046566820978223,-4.61132488696149,6154.276777988514,0.3130211310025017,105.29467766889792,2.124816154983591,1.110181997853496,89728.7610954357,281.5630086799596,0.0,0.0,0.0,398.7394736842105,0.21400058214214498,0.85,nominal,15481.379715571537,nan,fixed_pitch,18.0,0.0,0.0,-4.519641043783101,9.899245721867528,-0.3135397603734808,-4.489135937028612,9.130396708332018,-0.599083911181904,0.85,0.0,0.0,0.0,0.0,0.0,0.0,-0.07835020267075012,0.1593554845736461,-0.010455986745849497,-0.07835020267075012,0.1593554845736461,-0.010455986745849497,20.520007382326895,0.9582939240414864,3.4074529119829142,1.2968796021497206,-0.0859368361931104,-0.31001217130312786,1.0,100.57854949752519,1.2487384059082647,1012.771868118734,104.17684639419225,1.6629285340152067,10.88944579424885,1012.8680133229332,105.11571593834556,6087.77200276398,1.0700170392441015
1.1099999999999999,105.19389635231904,0.5451403493294399,1013.7019246457363,105.32315465876778,1.6122166308208945,10.621487983921567,105.8696470039076,17.770988764436275,19.809451491554814,10.344884730523598,3.664805244124002,82.89601439177709,-6.08918924798286,-20.118722250949517,3.3706821242179235,-4.160967021454218,6221.477271642183,0.314731563512382,105.86964700390762,2.1233943338425747,1.1101472424198928,89725.29201256082,281.5609374898027,0.0,0.0,0.0,398.7059210526316,0.21398257468824547,0.85,nominal,15545.211057693112,nan,fixed_pitch,18.0,0.0,0.0,-4.611735058966915,11.269355532297961,0.16907519754012762,-4.562695410191594,10.413772002711584,-0.13818844594868504,0.85,0.0,0.0,0.0,0.0,0.0,0.0,-0.07963405767347656,0.181754608999321,-0.002411843370018773,-0.07963405767347656,0.181754608999321,-0.002411843370018773,20.5524511368907,0.9512047260845191,3.5105796925976507,1.4470171023252896,-0.10263548720981365,-0.353711841908325,1.0,100.57854949752519,1.2487384059082647,1012.771868118734,104.17684639419225,1.6629285340152067,10.88944579424885,1012.8680133229332,106.16338162047948,6086.4361524274245,1.0700170392441015
1.14,108.37114631684685,0.594317230430326,1014.0182561589422,105.90833215092674,1.6392293700295382,10.544383773529294,106.44456736293336,17.764569287195627,22.71471334546624,10.313445573651848,2.945768277508723,92.56260260358135,-7.5764252785591015,-22.361320008709335,3.4769856765940212,-3.6748357109495986,6289.036184052352,0.31644185456224244,106.44456736293334,2.122082457756449,1.1101127401085995,89721.84822010652,281.5588813349668,0.0,0.0,0.0,398.6723684210526,0.2139645672343459,0.85,nominal,15609.34509230212,nan,fixed_pitch,18.0,0.0,0.0,-4.742879499168287,12.792252760765585,0.6802092344204312,-4.670805863577611,11.840860457543984,0.35285016227278476,0.85,0.0,0.0,0.0,0.0,0.0,0.0,-0.08152094104088639,0.20666200125334477,0.006158397097856372,-0.08152094104088639,0.20666200125334477,0.006158397097856372,20.518000874286447,0.8220654438635995,3.666836572481119,1.6138924024514623,-0.1327434591752491,-0.38769762793141455,1.0,100.57854949752519,1.2487384059082647,1012.771868118734,104.17684639419225,1.6629285340152067,10.88944579424885,1013.0396726580315,106.10310141945466,6380.699583711376,3.5986597062989287
1.17,111.56593510262272,0.643807497111437,1014.3323283813208,106.49295952586236,1.6496755560370346,10.469074079287282,107.01903274695931,17.758150350178596,25.95496241403893,10.264460229933425,2.150532810393721,103.29876642908184,-9.263180556759215,-24.44645889106561,3.632558364472594,-3.1637842024442033,6356.905167805965,0.3181507972398321,107.01903274695933,2.121031011124226,1.1100784850299747,89718.42912966126,281.5568398655214,0.0,0.0,0.0,398.6388157894737,0.21394655978044638,0.85,nominal,15673.738813168055,nan,fixed_pitch,18.0,0.0,0.0,-4.9211708392348275,14.32394487827058,1.2174041319413123,-4.82102484897194,13.330711109979942,0.8715825440739013,0.85,0.0,0.0,0.0,0.0,0.0,0.0,-0.08414275693502273,0.23266480050133792,0.015211985096998169,-0.08414275693502273,0.23266480050133792,0.015211985096998169,20.451128888219582,0.7285721259047664,3.83901827921991,1.8071487223625533,-0.16654357549871499,-0.42608886071185575,1.0,100.57854949752519,1.2487384059082647,1012.771868118734,104.17684639419225,1.6629285340152067,10.88944579424885,1013.0396726580315,107.22790541872712,6321.5244319465255,3.5986597062989287
1.2,114.77823025253035,0.6930381611031371,1014.6442035388318,107.0765049969213,1.6410221330566697,10.395838583699344,107.59249200504293,17.751731953385182,29.563146359967874,10.192730137573912,1.2817082297008524,115.16483486013114,-11.163739765328286,-26.34658670563697,3.8469995241131505,-2.641031794958854,6425.017504168198,0.31985675313531126,107.59249200504293,2.1204745140026264,1.1100444703799606,89715.0340615651,281.5548126769976,0.0,0.0,0.0,398.60526315789474,0.21392855232654684,0.85,nominal,15738.332746561697,nan,fixed_pitch,18.0,0.0,0.0,-5.155563624882625,14.32394487827058,1.7785480920399126,-5.021748114518351,13.926651370954325,1.415761872853508,0.85,0.0,0.0,0.0,0.0,0.0,0.0,-0.08764603880416248,0.24306592020053516,0.02470970610549504,-0.08764603880416248,0.24306592020053516,0.02470970610549504,20.430173098407348,0.6717240857298628,4.075746951897804,2.0118005761733704,-0.19108812938252553,-0.4566779830196642,1.0,100.57854949752519,1.2487384059082647,1012.771868118734,104.17684639419225,1.6629285340152067,10.88944579424885,1013.9034115113856,107.78083926613495,6416.409601280594,4.275242850826828
1.23,118.00797851594379,0.7413506731248976,1014.9539493605347,107.65827544711486,1.6104170673920155,10.324860723429119,108.1642291348485,17.745314096815385,33.54941980305994,10.092429998673774,0.34199370740050994,127.40680539956782,-13.295495601453764,-28.040574191323987,4.131330290267094,-2.12070949242778,6493.285284254018,0.321557593760101,108.1642291348485,2.120779364362446,1.1100106887550838,89711.6622763532,281.5527993291565,0.0,0.0,0.0,398.57171052631577,0.21391054487264727,0.85,nominal,15803.048379664491,nan,fixed_pitch,18.0,0.0,0.0,-5.454559965839295,14.32394487827058,2.3622680356926886,-5.2814352253109185,14.165027475344079,1.9836655705570165,0.85,0.0,0.0,0.0,0.0,0.0,0.0,-0.09217843391248408,0.24722636808021406,0.034621495464671824,-0.09217843391248408,0.24722636808021406,0.034621495464671824,20.326407185867566,0.5586544855074365,4.434540717863247,2.2270594548013674,-0.23317177838788225,-0.48768467862234693,1.0,100.57854949752519,1.2487384059082647,1012.771868118734,104.17684639419225,1.6629285340152067,10.88944579424885,1013.9034115113856,107.83975292369061,6398.080849937485,4.275242850826828
1.26,121.25510008940317,0.7879896009245072,1015.261634373816,108.23738578197924,1.5546309266536562,10.256167109378142,108.73333215721203,17.738896780469204,37.91463935581953,9.956865238329552,-0.6660135211315396,139.7205790105336,-15.665572971224476,-29.518203038833626,4.495990193790833,-1.6184773054399773,6561.595145182985,0.323250607989516,108.73333215721203,2.122480397956266,1.1099771326656094,89708.31302597557,281.5507993765702,0.0,0.0,0.0,398.5381578947368,0.21389253741874772,0.85,nominal,15867.784267737283,nan,fixed_pitch,18.0,0.0,0.0,-5.829173957856559,14.32394487827058,2.96774495496074,-5.610078464838303,14.26037791709998,2.5741132011992507,0.85,0.0,0.0,0.0,0.0,0.0,0.0,-0.09791434050665732,0.24889054723208562,0.04492675067997817,-0.09791434050665732,0.24889054723208562,0.04492675067997817,20.25990575300705,0.48630882432764655,4.830850962860718,2.439027131864827,-0.2753213143093904,-0.5157234786970927,1.0,119.90189803868924,1.0486018176757679,1016.6618879763715,108.37986276292699,1.7614288020851774,10.465610178918013,1015.5515116699821,108.43967459209541,6504.251467854022,-1.2980639414281256
1.29,124.51948247444605,0.8320899218015197,1015.5673185666018,108.81274616809604,1.4700106959004196,10.189473092857126,109.29867346861361,17.73248000434664,42.65596110319076,9.77836560562142,-1.7401939514285862,151.98785481813854,-18.285727757845148,-30.78232993488333,4.950038321021872,-1.151554915281308,6629.805297431502,0.32493244360815465,109.29867346861361,2.1263224049166274,1.109943795553881,89704.98565543696,281.5488124293171,0.0,0.0,0.0,398.5046052631579,0.2138745299648482,0.85,nominal,15932.413255620475,nan,fixed_pitch,18.0,0.0,0.0,-6.291857335842307,14.32394487827058,3.59536260705877,-6.019145787440705,14.29851809380234,3.186862844714962,0.85,0.0,0.0,0.0,0.0,0.0,0.0,-0.10505391214838705,0.24955621889283425,0.05562124944974886,-0.10505391214838705,0.24955621889283425,0.05562124944974886,20.163478320411325,0.43495247802227943,5.340322153226074,2.6513949259796883,-0.3190996432968904,-0.5376570933231941,1.0,119.90189803868924,1.0486018176757679,1016.6618879763715,108.37986276292699,1.7614288020851774,10.465610178918013,1015.5515116699821,109.44896068017748,6635.762234610923,-1.2980639414281256
1.3199999999999998,127.8009740359795,0.8726636783221244,1015.8710378421982,109.38305205111459,1.3524585506868219,10.12397585321576,109.85889179863716,17.726063768447695,47.76928879747421,9.548223949070012,-2.8795881907057885,164.1698047403484,-21.18890675385987,-31.851145630687622,5.5011338116731965,-0.7384504381364368,6697.74269974897,0.3265990536011977,109.85889179863716,2.13330165886911,1.1099106734894608,89701.67977198314,281.5468382540257,0.0,0.0,0.0,398.4710526315789,0.21385652251094864,0.85,nominal,15996.779766867527,nan,fixed_pitch,18.0,0.0,0.0,-6.856157927835574,14.32394487827058,4.247811678168961,-6.521353071677627,14.313774164483284,3.8234321447873616,0.85,0.0,0.0,0.0,0.0,0.0,0.0,-0.11381908278582036,0.2498224875571337,0.066731479653128,-0.11381908278582036,0.2498224875571337,0.066731479653128,20.03907192666,0.38591628068064104,6.0447346850412265,2.8708610969538886,-0.3680655603765977,-0.5543351897546269,1.0,119.90189803868924,1.0486018176757679,1016.6618879763715,108.37986276292699,1.7614288020851774,10.465610178918013,1015.8531046946285,109.67309526434568,6708.991781322865,-1.3556429155424978
1.3499999999999999,131.09937702312624,0.9085869021289462,1016.1727814494151,109.94676623822463,1.197440793560725,10.058120240560708,110.41236820877664,17.719648072772365,53.2504711275483,9.256413829657399,-4.0853938819385345,176.26452556482948,-24.44332135824343,-32.75994718238056,6.156049498219556,-0.3985559517484659,6765.199473923707,0.3282456247018662,110.41236820877663,2.144702964506293,1.109877767630088,89698.39549071479,281.54487692057876,0.0,0.0,0.0,398.4375,0.21383851505704912,0.85,nominal,16060.696333936141,nan,fixed_pitch,18.0,0.0,0.0,-7.538721603585625,14.32394487827058,4.931347273701521,-7.1317741908224255,14.319876592755662,4.488181222135856,0.85,0.0,0.0,0.0,0.0,0.0,0.0,-0.12447294113860569,0.24992899502285348,0.0783335397524537,-0.12447294113860569,0.24992899502285348,0.0783335397524537,19.839046971331722,0.36726015353746866,6.761192584450473,3.0773043754699274,-0.4268940338442484,-0.5739260722770233,1.0,119.90189803868924,1.0486018176757679,1016.6618879763715,108.37986276292699,1.7614288020851774,10.465610178918013,1015.8531046946285,111.4262303941471,6771.688513106397,-1.3556429155424978
1.38,134.414439563949,0.9385878429006664,1016.4724618686955,110.50208469409243,1.0000313590573402,9.989347309345957,110.95718924038322,17.713232917320653,59.09599721327936,8.890885729919372,-5.362336858819307,188.29022147369506,-28.17005434276203,-33.56214767539572,6.921768389946609,-0.1517486918277541,6831.927701065852,0.3298664677018806,110.95718924038322,2.1621389199081946,1.1098450875049861,89695.13376226813,281.54292899785344,0.0,0.0,0.0,398.40394736842103,0.21382050760314958,0.85,nominal,16123.93859024775,nan,fixed_pitch,18.0,0.0,0.0,-8.363199310712712,14.32394487827058,5.657362752386166,-7.870629262756597,14.322317564064614,5.189690140286042,0.85,0.0,0.0,0.0,0.0,0.0,0.0,-0.13736839483891652,0.2499715980091414,0.09057718010627785,-0.13736839483891652,0.2499715980091414,0.09057718010627785,19.764324501616994,0.3839173513460065,7.757992560459431,3.28278101452209,-0.49249410772418095,-0.584954184494861,1.0,119.90189803868924,1.0486018176757679,1016.6618879763715,108.37986276292699,1.7614288020851774,10.465610178918013,1017.3756552325958,111.41900544482002,6850.811822208189,-5.933281315610598
1.41,137.74584579031713,0.9612374878780826,1016.7698768301995,111.04687421227132,0.7549881659138725,9.913832050132122,111.49108639422663,17.706818302092557,65.30347305170889,8.436240061668483,-6.720607340919513,200.27875515722602,-32.57160949749938,-34.32913461536806,7.807461542855006,-0.018168551368245026,6897.631228895711,0.3314548373623318,111.49108639422663,2.1876175136671536,1.1098126551557062,89691.89678607008,281.5409958006037,0.0,0.0,0.0,398.3703947368421,0.21380250014925004,0.85,nominal,16186.237485299327,nan,fixed_pitch,18.0,0.0,0.0,-9.366185545170097,14.32394487827058,6.444709702120074,-8.767963032204698,14.323293952588193,5.942701877386461,0.85,0.0,0.0,0.0,0.0,0.0,0.0,-0.15302982360511758,0.24998863920365655,0.1037197142248421,-0.15302982360511758,0.24998863920365655,0.1037197142248421,19.587267902606502,0.4227790766636301,8.800944657645557,3.495607205713544,-0.568619127064907,-0.6025751781075481,1.0,119.90189803868924,1.0486018176757679,1016.6618879763715,108.37986276292699,1.7614288020851774,10.465610178918013,1017.3756552325958,111.83337530392795,6898.715451982161,-5.933281315610598
1.44,141.09320259354377,0.9749428788761827,1017.0646632742626,111.5785601075548,0.45684636660333505,9.826214802101722,112.01133104117163,17.70040422708808,71.87194738598349,7.871392906199118,-8.17868723675536,212.2734501648188,-37.978176565771015,-35.14837954529539,8.827826808686535,-0.018426575427262244,6961.951827425459,0.3330026197861852,112.01133104117163,2.223692324485372,1.109780510155084,89688.68851121813,281.53907968871727,0.0,0.0,0.0,398.33684210526314,0.2137844926953505,0.85,nominal,16247.266320906016,nan,fixed_pitch,18.0,0.0,0.0,-10.606922843309926,14.32394487827058,7.323261694999496,-9.871338918867835,14.323684507997626,6.771037767954282,0.85,0.0,0.0,0.0,0.0,0.0,0.0,-0.17228736571450112,0.2499954556814626,0.11817690282769001,-0.17228736571450112,0.2499954556814626,0.11817690282769001,19.367891472278366,0.5734551043365201,10.02690002937022,3.701828489977846,-0.6607914462039643,-0.6122931787470073,1.0,119.90189803868924,1.0486018176757679,1016.6618879763715,108.37986276292699,1.7614288020851774,10.465610178918013,1017.3133747124426,111.86610812010159,6860.844042041568,-7.002302877030157
1.47,144.45602031710098,0.9779427280089782,1017.3562427825342,112.0939241185739,0.09999497109318334,9.719316942388277,112.51454548244614,17.693990692307217,78.80200778501865,7.165480322472235,-9.76757761112103,224.32886818999876,-44.92257514916726,-36.118985857859435,10.008537400856062,-0.1746418343214338,7024.444663947757,0.33449977046545665,112.51454548244614,2.273310167503096,1.1097487155556276,89685.51523010342,281.5371844219135,0.0,0.0,0.0,398.30328947368423,0.21376648524145098,0.85,nominal,16306.618070844059,nan,fixed_pitch,18.0,0.0,0.0,-12.184279837482604,14.32394487827058,8.339423594979305,-11.259103470036697,14.323840730161399,7.712069264169295,0.85,0.0,0.0,0.0,0.0,0.0,0.0,-0.19650842637485907,0.24999818227258505,0.13460100080161055,-0.19650842637485907,0.24999818227258505,0.13460100080161055,19.126789438478607,0.6949149454321201,11.410845661026457,3.914103704302742,-0.7861991550332502,-0.630654486922074,1.0,144.83010078849335,1.3217766517711556,1016.2724745827046,112.21010781779768,0.2771588961894474,9.891602723987676,1017.3133747124426,112.83770564901765,6999.430195361959,-7.002302877030157
1.5,147.83368122900393,0.9683081735677304,1017.6437555769267,112.58869706343188,-0.3211518147082606,9.583759813081281,112.996310988829,17.687577697749973,86.09543375608212,6.270638456233224,-11.537822404552157,236.51201268807785,-54.28495331620357,-37.34337480508417,11.395756211256638,-0.5129946329900317,7084.527930075678,0.33593314869722307,112.99631098882901,2.2612191127532975,1.1097173650837486,89682.38629635329,281.53531558874994,0.0,0.0,0.0,398.2697368421052,0.21374847778755138,0.85,nominal,16363.759284170546,nan,fixed_pitch,18.0,0.0,0.0,-14.26683958710407,14.32394487827058,9.566538192394933,-13.06374514027712,14.323903219026908,8.824750621104677,0.85,0.0,0.0,0.0,0.0,0.0,0.0,-0.22800536533924423,0.249999272909034,0.1540209540056912,-0.22800536533924423,0.249999272909034,0.1540209540056912,18.487867622434678,1.0907361500958894,12.197062079494497,4.127399875553039,-0.9469835547083868,-0.654082738327136,1.0,144.83010078849335,1.3217766517711556,1016.2724745827046,112.21010781779768,0.2771588961894474,9.891602723987676,1017.6317442471634,112.46166298999177,7030.321094441525,-12.433684038616898
1.53,151.22519212962743,0.9447249724952667,1017.9258969235352,113.05036335411705,-0.7861067024154553,9.404711553617492,113.44360368770123,17.681165243416345,93.76242200004573,5.108409188869445,-13.659428021091099,248.90548705574804,-70.48440356028793,-38.911868115241205,13.17326286879913,-1.0765020866962405,7140.528789062835,0.337264029027657,113.44360368770124,2.254756068560459,1.1096866009746582,89679.31590473039,281.533481669997,0.0,0.0,0.0,398.2361842105263,0.21373047033365186,0.85,nominal,16417.168605891296,nan,fixed_pitch,18.0,0.0,0.0,-17.153651274020667,14.32394487827058,11.3945747462954,-15.517688820523247,14.323928214573112,10.366645096219111,0.85,0.0,0.0,0.0,0.0,0.0,0.0,-0.2708347622180461,0.2499997091636136,0.18093208931474786,-0.2708347622180461,0.2499997091636136,0.18093208931474786,17.63903434054698,1.425597490426158,13.208748688145148,4.347165475867691,-1.2316554246619713,-0.6796568661452884,1.0,144.83010078849335,1.3217766517711556,1016.2724745827046,112.21010781779768,0.2771588961894474,9.891602723987676,1017.6317442471634,113.37558154363104,7170.281033453063,-12.433684038616898
