time_s,x_m,y_m,altitude_m,vx_mps,vy_mps,vz_mps,speed_mps,mass_kg,roll_deg,pitch_deg,yaw_deg,p_dps,q_dps,r_dps,alpha_deg,beta_deg,qbar_pa,mach,airspeed_mps,load_factor_g,density_kgpm3,pressure_pa,temperature_k,wind_x_mps,wind_y_mps,wind_z_mps,thrust_n,mass_flow_kgps,propulsion_throttle_actual,propulsion_health,energy_j_per_kg,target_distance_m,guidance_mode,pitch_command_deg,heading_command_deg,roll_command_deg
0.0,0.0,0.0,1000.0,84.0,0.0,15.0,85.32877591996736,18.0,0.0,9.0,0.0,0.0,0.0,0.0,-1.1246716553978162,0.0,4046.934522364112,0.25362711007788913,85.32877591996736,1.7329231744426616,1.1116425003060326,89874.56291621955,281.65,0.0,0.0,0.0,323.0,0.17335175620624782,0.85,nominal,13447.15,nan,fixed_pitch,18.0,0.0,0.0
0.03,2.5351789957121817,-0.00022542513550626367,1000.4430414013383,84.50596652373939,-0.0075141711835421225,14.768046711275922,85.7866751788444,17.994799447313813,-0.003041183605462435,9.13458162651677,0.019297529388626996,0.0,-4.486073134779234,0.6350942606475132,-0.7781784168338118,-0.024069355214791234,4090.3071457318083,0.25498945119058214,85.7866751788444,1.766860385400648,1.1115941281793602,89869.73321037232,281.6471202308913,0.0,0.0,0.0,328.7375,0.17643103082306932,0.85,nominal,13490.671571078712,nan,fixed_pitch,18.0,0.0,0.0
0.06,5.085811461851493,-0.000673463740157197,1000.8793386250366,85.0210822046437,-0.014934620155031112,14.543240789943177,86.25595918524081,17.98950651638912,-0.009403132226318804,9.444834248168565,0.059734023033013735,0.005519973320646495,-10.341923704024028,1.3290871026564488,-0.2619191592881443,-0.06884219785961619,4135.0032522454185,0.2563856261034356,86.25595918524081,1.801979622149768,1.1115464939689164,89864.97722989027,281.64428429893724,0.0,0.0,0.0,334.47499999999997,0.17951030543989083,0.85,nominal,13535.318613610178,nan,fixed_pitch,18.0,0.0,0.0
0.09,7.652138091927624,-0.0013333066216253129,1001.3093803982217,85.54422100253768,-0.021994762715603862,14.334725772839965,86.73695056712059,17.984121207225925,-0.019366239544467593,9.802529784811446,0.12308918577340866,0.020947511229566524,-11.923745593152194,2.0791357340901335,0.2898232897325131,-0.13582768794099676,4181.071479054282,0.25781659543348506,86.73695056712059,1.8332740392342537,1.1114995442464255,89860.28963814722,281.6414890274115,0.0,0.0,0.0,340.2125,0.18258958005671233,0.85,nominal,13581.13993212378,nan,fixed_pitch,18.0,0.0,0.0
0.12,10.234343153415178,-0.0021847097189029354,1001.7337047119046,86.07350204958513,-0.02838010324258742,14.144143789428437,87.22789326841628,17.978643519824224,-0.03297716082437011,10.08904402564656,0.2109131606651873,0.05192530238964734,-9.55181063997221,2.879117508341179,0.7572948795593984,-0.22632758696562968,4228.360039262111,0.2592771412781471,87.22789326841628,1.8613521915032207,1.1114532202134102,89855.66456259186,281.6387309193726,0.0,0.0,0.0,345.95,0.18566885467353383,0.85,nominal,13628.004517336109,nan,fixed_pitch,18.0,0.0,0.0
0.15,12.83259099146876,-0.003196790471206931,1002.1527401452728,86.60826126845267,-0.03373602507679984,13.967847778940188,87.72737787965391,17.973073454184018,-0.049883812989460215,10.270360711270909,0.3244597269596349,0.1053717644771429,-6.046586660281579,3.720939458876828,1.1089378818764997,-0.3413887471158566,4276.747549669274,0.26076307570797846,87.72737787965391,1.8904798588828853,1.111407475023805,89851.0973242622,281.6360071890557,0.0,0.0,0.0,351.6875,0.18874812929035537,0.85,nominal,13675.807583965434,nan,fixed_pitch,18.0,0.0,0.0
0.18,15.447079106462139,-0.004326970665909478,1002.5667786348297,87.14960383311268,-0.037672673156751574,13.801282985228376,88.235651975475,17.96741101030531,-0.06935835358876175,10.377865198195458,0.46469388677306894,0.1885908446290159,-3.5882673595569563,4.595063706990148,1.3793188746377951,-0.4817676419609637,4326.272328603585,0.2622751356033017,88.235651975475,1.9202516774257885,1.1113622767544578,89846.58473429429,281.6333159388736,0.0,0.0,0.0,357.425,0.19182740390717687,0.85,nominal,13724.586639467823,nan,fixed_pitch,18.0,0.0,0.0
0.21,18.07802522896717,-0.005520037293585831,1002.976039729378,87.69820408350101,-0.03976888758921178,13.642036484946761,88.75292525033996,17.961656188188094,-0.09039880370604927,10.454277243207018,0.6322878528710513,0.3086577650015384,-2.554725985907509,5.4908536842844144,1.6128533736411241,-0.6479034568587194,4376.969792893059,0.263813945052337,88.75292525033996,1.9504346984683703,1.1113176013886166,89842.12439332844,281.630655741759,0.0,0.0,0.0,363.16249999999997,0.19490667852399834,0.85,nominal,13774.375850258322,nan,fixed_pitch,18.0,0.0,0.0
0.24,20.725652045617085,-0.006707351398227586,1003.3807312894186,88.25422722166384,-0.039577136821391815,13.48971866801766,89.27924002020343,17.955808987832373,-0.11246521234081505,10.521502916733898,0.8275741470657021,0.44937154366487275,-2.252183908113307,6.3968207914096595,1.8317698329519077,-0.839877825554959,4428.859499431956,0.2653796305988437,89.27924002020343,1.9809065932429495,1.111273426188906,89837.7140298432,281.62802524661873,0.0,0.0,0.0,368.9,0.19798595314081988,0.85,nominal,13825.194997791921,nan,fixed_pitch,18.0,0.0,0.0
0.27,23.390180948350878,-0.0078062020356132735,1003.7810698569756,88.81763009112643,-0.03662835457952292,13.344618918568917,89.8145400852354,17.94986940923815,-0.13443216552387857,10.580067629507422,1.050490704008917,0.6283559994969555,-1.96789172923819,7.300710267548159,2.0364453881310496,-1.0574216635497091,4481.951535503878,0.2669720259857973,89.8145400852354,2.0115990160092223,1.1112297274736345,89833.35127814082,281.62542304592967,0.0,0.0,0.0,374.6375,0.20106522775764138,0.85,nominal,13877.055434074085,nan,fixed_pitch,18.0,0.0,0.0
0.3,26.07183370813452,-0.008719317193843014,1004.1772709181151,89.38842532612145,-0.030437171940991332,13.206702037984108,90.35877648255935,17.943837452405422,-0.15469364216036652,10.623202561303154,1.3005545248537977,0.8581729890442434,-1.4584986720347228,8.189534475218132,2.2201486760339293,-1.299897642844705,4536.256849041116,0.2685909864693635,90.35877648255935,2.0424611014046943,1.111186481679691,89829.03378446425,281.62284773903224,0.0,0.0,0.0,380.375,0.20414450237446288,0.85,nominal,13929.969277561693,nan,fixed_pitch,18.0,0.0,0.0
0.32999999999999996,28.770836032358304,-0.009334543637533806,1004.5695341590477,89.96674414079284,-0.02050754812302643,13.075441364419364,90.91194992259697,17.937713117334187,-0.17119164155726663,10.647838978486707,1.5768610136440275,1.1499138198026497,-0.8469534066061385,9.049640307532984,2.3801231533352962,-1.5662844683060313,4591.791558327288,0.2702365149164319,90.911949922597,2.073459881090923,1.1111436669717043,89824.75936764436,281.62029802796616,0.0,0.0,0.0,386.1125,0.20722377699128441,0.85,nominal,13983.953141525217,nan,fixed_pitch,18.0,0.0,0.0
0.36,31.487418885582834,-0.009524730974627782,1004.9580384181909,90.55276177415102,-0.006339577903132512,12.950141971437738,91.4740885835808,17.93149640402445,-0.18143818735665884,10.65656046121474,1.878086263179064,1.5144699775071122,-0.321080701301166,9.866892385863572,2.5193062789689575,-1.8551683309571845,4648.574846902576,0.2719086957849968,91.47408858358081,2.1045826705716046,1.111101263792659,89820.52607406037,281.61777275028174,0.0,0.0,0.0,391.84999999999997,0.2103030516081059,0.85,nominal,14039.026188552145,nan,fixed_pitch,18.0,0.0,0.0
0.39,34.2218172810125,-0.009147860785442913,1005.3429459617256,91.14661318098877,0.012562339639495618,12.830251451158484,92.0452095683264,17.925187312476208,-0.182527871533448,10.65415209472296,2.202479710645127,1.96303749640884,0.0465259950236261,10.626895885365677,2.6426594182359153,-2.1647430513472634,4706.625106910809,0.2736075805669543,92.0452095683264,2.1358239091045186,1.111059254396873,89816.33213100329,281.61527085124874,0.0,0.0,0.0,397.5875,0.2133823262249274,0.85,nominal,14095.20670325412,nan,fixed_pitch,18.0,0.0,0.0
0.42,36.97426828644384,-0.008047445783865344,1005.7244090214257,91.74836684771125,0.03668050005258559,12.715435323334795,92.62530140379138,17.91878584268946,-0.17112889676581175,10.64425100968143,2.5478535264135678,2.5074216782218284,0.2951163125475563,11.315181345180985,2.7537553528876826,-2.4928163241456858,4765.958102696426,0.2753331357861162,92.62530140379138,2.1453648615651573,1.1110176221361672,89812.17587540323,281.6127913413607,0.0,0.0,0.0,399.47763157894735,0.21439674612793488,0.85,nominal,14152.510505801562,nan,fixed_pitch,18.0,0.0,0.0
0.44999999999999996,39.74482064166312,-0.006058929717103333,1006.1025338722978,92.35174517397611,0.06628386889206704,12.604161695737268,93.20790804584439,17.91235394030562,-0.14277491192883587,10.630190973411468,2.9103794426814447,3.1757609742564727,0.43613240065290515,11.877819098397882,2.8559209476431833,-2.8357748682500445,4825.922486078438,0.27706617094522223,93.2079080458444,2.144116791393809,1.1109763553800014,89808.05614517521,281.61033352983003,0.0,0.0,0.0,399.4440789473684,0.21437873867403534,0.85,nominal,14210.352474940062,nan,fixed_pitch,18.0,0.0,0.0
0.48,42.53342810679244,-0.0030113026776735093,1006.4774039148577,92.95358217097738,0.10158756798099411,12.495668085329337,93.78976745546036,17.9059225781454,-0.0931242579697271,10.61359680854304,3.2851873525685082,3.9579376378929703,0.5278590520376023,12.280679989881161,2.9504832868043107,-3.1890215871105045,4886.18319657006,0.27879698955902543,93.78976745546036,2.1429795942592307,1.1109354449957436,89803.97202765067,281.6078968745534,0.0,0.0,0.0,399.41052631578947,0.2143607312201358,0.85,nominal,14268.431872776306,nan,fixed_pitch,18.0,0.0,0.0
0.51,45.340043690210805,0.001272896804851004,1006.849100049332,93.5538527806121,0.14280664941748378,12.389871149143207,94.37082531655602,17.899491756208796,-0.01781609578350368,10.594451354190092,3.6669867541293866,4.852245518698523,0.6260711377567153,12.509972673681428,3.036881072341471,-3.5475592936976605,4946.733076546122,0.2805254302063408,94.37082531655602,2.14193883331221,1.1108948821249038,89799.92263756812,281.60548084967934,0.0,0.0,0.0,399.3769736842105,0.21434272376623625,0.85,nominal,14326.743062462747,nan,fixed_pitch,18.0,0.0,0.0
0.54,48.16462008402227,0.0069750146619154095,1007.2176990080382,94.15254646038207,0.19007059523548017,12.286631956872222,94.9510371541523,17.89306147449581,0.08901107081632573,10.572740219684846,4.050110167291261,5.906526986201183,0.7315045387192382,12.553131195583813,3.1144061339581075,-3.906154855781855,5007.565869919027,0.28225136071026546,94.9510371541523,2.140984827281705,1.1108546583650531,89795.90713523206,281.60308495644773,0.0,0.0,0.0,399.3434210526316,0.21432471631233674,0.85,nominal,14385.281176301782,nan,fixed_pitch,18.0,0.0,0.0
0.57,51.00711011913811,0.014277429466955774,1007.5832722479222,94.74966783719486,0.24341382683467883,12.185774662802912,95.53037166096688,17.88663173300644,0.23354582076980906,10.549121596517505,4.428564957646753,7.12996128702708,0.8221938352283629,12.3992653312045,3.1829288172915473,-4.2593348406056375,5068.676607779638,0.2839746880234544,95.53037166096685,2.140113449811183,1.1108147658905883,89791.92473856632,281.6007087303885,0.0,0.0,0.0,399.3098684210526,0.21430670885843717,0.85,nominal,14444.042451631318,nan,fixed_pitch,18.0,0.0,0.0
0.6,53.867466998117756,0.02336046950177152,1007.9458861573313,95.3452292993215,0.3027680011605248,12.087130313637832,96.10880884612807,17.880202531740686,0.4224149855042044,10.524643984407637,4.79609331697898,8.53597170088831,0.8848549673932453,12.039564099653722,3.2426085628825163,-4.601455247300748,5130.061453278112,0.28569535272594326,96.10880884612807,2.1393207543566706,1.1107751974300721,89787.97472084875,281.5983517399773,0.0,0.0,0.0,399.2763157894737,0.21428870140453765,0.85,nominal,14503.024093395585,nan,fixed_pitch,18.0,0.0,0.0
0.63,56.74564450146615,0.03439913092738823,1008.3056027721321,95.93925011161318,0.3679553808538904,11.990553826695626,96.68634073234881,17.87377387069855,0.662733738623846,10.500269670555685,5.14624226241851,10.1401363001572,0.9211143192310148,11.467592512287112,3.2934423318468333,-4.9267756670550815,5191.717812655791,0.2874133311001739,96.68634073234881,2.138598050222709,1.1107359461879993,89784.0564028987,281.59601358198114,0.0,0.0,0.0,399.24276315789473,0.2142706939506381,0.85,nominal,14562.224381531256,nan,fixed_pitch,18.0,0.0,0.0
0.6599999999999999,59.641597394109404,0.047559645889901955,1008.6624801583725,96.53176308810835,0.4386838320837909,11.895912874681686,97.2629758516838,17.86734574988003,0.9621355243786951,10.476699314257617,5.472442213390266,11.95946232535851,0.9372033926248137,10.679519693713408,3.3351464607525974,-5.229536520337148,5253.644859280098,0.2891286484968815,97.26297585168379,2.137931142574794,1.1106970058029644,89780.16914889865,281.59369387897056,0.0,0.0,0.0,399.20921052631576,0.21425268649673854,0.85,nominal,14621.643146807717,nan,fixed_pitch,18.0,0.0,0.0
0.69,62.55528207528022,0.06299595183463423,1009.0165723026041,97.12282270569386,0.5145435314910758,11.803071474385835,97.8387445830991,17.860918169285128,1.3287968120832876,10.454472973066123,5.768090099681142,14.012207493507052,0.9344673876391059,9.67432311666097,3.3673332226490804,-5.5040398532267245,5315.844166365681,0.29084139520210833,97.83874458309909,2.137302410799799,1.1106583703595594,89776.31236757964,281.59139228003306,0.0,0.0,0.0,399.17565789473684,0.21423467904283902,0.85,nominal,14681.282339569785,nan,fixed_pitch,18.0,0.0,0.0
0.72,65.48665737362816,0.08084610601658158,1009.3679288171082,97.71250994493157,0.5950051393982453,11.711883816804464,98.41370256926922,17.854491128913843,1.7714631138461367,10.434104098627687,6.026634761598441,16.31793905567747,0.9079946029779246,8.453988980845201,3.38972919039712,-5.74473507383686,5378.320149942925,0.29255173659411643,98.41370256926922,2.1366927838969483,1.1106200344204578,89772.48551542185,281.5891084626888,0.0,0.0,0.0,399.1421052631579,0.21421667158893948,0.85,nominal,14741.146425830588,nan,fixed_pitch,18.0,0.0,0.0
0.75,68.43568537612984,0.10122868426077758,1009.7165947511606,98.30093341672256,0.6794192748065333,11.622197801745338,98.98793160225541,17.848064628766174,2.299480352989794,10.416104112102337,6.241665205738561,18.8977228390486,0.8500122617275205,7.023694465345845,3.402292842968545,-5.946310120744761,5441.0802462257625,0.29425991577662347,98.98793160225541,2.1360823785437866,1.1105819930469365,89768.68809870083,281.58684213411743,0.0,0.0,0.0,399.10855263157896,0.21419866413503993,0.85,nominal,14801.242545362868,nan,fixed_pitch,18.0,0.0,0.0
0.78,71.40233222829002,0.12423920509640633,1010.0626105766707,98.88822840533936,0.767017361187625,11.53386085033588,99.56153865270385,17.841638668842123,2.9228347958889587,10.400920894948305,6.4070021195512625,21.77440592221303,0.7525405644276025,5.391947359297608,3.405257842018535,-6.103787356155593,5504.134886703399,0.29596625069389276,99.56153865270385,2.1354505574729714,1.1105442418003653,89764.91967363385,281.58459303125164,0.0,0.0,0.0,399.075,0.2141806566811404,0.85,nominal,14861.580489458629,nan,fixed_pitch,18.0,0.0,0.0
0.8099999999999999,74.38656887169648,0.14994662372489181,1010.4060122897564,99.47455478021558,0.8569139542828492,11.446723769520931,100.13465351866391,17.835213249141688,3.6522042266022403,10.388870529152413,6.516790610911577,24.972980515643492,0.6074528608313758,3.570671908523953,3.399181608518644,-6.212623345825415,5567.497315769659,0.29767112714265115,100.13465351866392,2.1347764908459506,1.1105067767310468,89761.17984526366,281.58236092011657,0.0,0.0,0.0,399.0414473684211,0.21416264922724088,0.85,nominal,14922.172538072775,nan,fixed_pitch,18.0,0.0,0.0
0.84,77.38837167363461,0.17838993724664115,1010.7468315981437,100.06009339793758,0.9481104507249781,11.360643612907984,100.70742488779202,17.82878836966487,4.499022816454358,10.380099049806704,6.565590725149001,28.52102827315367,0.40537305331662155,1.5752433844599596,3.385032471213111,-6.268812492981651,5631.183221845665,0.2993749870675607,100.70742488779202,2.1340404128174986,1.1104695943577083,89757.46826540909,281.580145594612,0.0,0.0,0.0,399.0078947368421,0.2141446417733413,0.85,nominal,14983.03312985707,nan,fixed_pitch,18.0,0.0,0.0
0.87,80.40772287981399,0.20957493138601985,1011.0850962399815,100.64504020597937,1.0394998046459565,11.275488061258027,101.28001436081372,17.82236403041167,5.475562166767789,10.374559919511794,6.548463143507892,32.44925256078147,0.13512260515635682,-0.5755268243662743,3.3642960658610175,-6.268995252099329,5695.210124236831,0.30107831079623687,101.28001436081374,2.133225044793173,1.1104326916326497,89753.7846291841,281.5779468744401,0.0,0.0,0.0,398.9743421052632,0.2141266343194418,0.85,nominal,15044.17831350513,nan,fixed_pitch,18.0,0.0,0.0
0.8999999999999999,83.44461081149707,0.24347108293283454,1011.4208305090773,101.22959772276948,1.129871718227156,11.191142303195818,101.8525882403769,17.815940231382086,6.5950312094125545,10.371982996967873,6.4610488423659875,36.79211095399117,-0.21594268758955038,-2.859463637181865,3.339072081214088,-6.210571826651212,5759.59648463882,0.3027815926316716,101.85258824037692,2.1323167065285515,1.110396065884383,89750.1286692702,281.575764601691,0.0,0.0,0.0,398.9407894736842,0.21410862686554225,0.85,nominal,15105.624953143724,nan,fixed_pitch,18.0,0.0,0.0
0.9299999999999999,86.49902973506077,0.280008613852092,1011.7540560395184,101.81396411879008,1.2179176973085823,11.107517681370283,102.42530723479254,17.80951697257612,7.871698054965894,10.371828743472712,6.299641526952046,41.58856203853229,-0.6613010060755801,-5.251173133263167,3.3121509863696565,-6.09182212906203,5824.360550464502,0.3044853102465273,102.42530723479256,2.1313060735891782,1.1103597147319897,89746.50014736623,281.5735986357431,0.0,0.0,0.0,398.90723684210525,0.21409061941164267,0.85,nominal,15167.389694730766,nan,fixed_pitch,18.0,0.0,0.0
0.96,89.5709793446147,0.3190756712071935,1012.0847928692702,102.39832031846399,1.3022352451700485,11.024560991727412,102.99831438298801,17.80309425399377,9.321037474785712,10.373236066275652,6.061250531705571,46.88294185569021,-1.21483083700094,-7.722274791198418,3.2870750213410598,-5.9120328370377,5889.518955793056,0.3061898887898843,102.99831438298803,2.130188838029379,1.1103236359690563,89742.8988426017,281.5714488463497,0.0,0.0,0.0,398.8736842105263,0.21407261195774313,0.85,nominal,15229.487716859847,nan,fixed_pitch,18.0,0.0,0.0
0.99,92.66046380945113,0.36051557847229754,1012.4130607812949,102.9828154945479,1.3813302421701346,10.942263734156436,103.57172150760972,17.796672075635037,10.95990840069393,10.374971960477499,5.743650975232964,52.72598765442342,-1.8905828179972852,-10.241734404454778,3.268187239604294,-5.67163274037621,5955.085107267345,0.30789566061881035,103.57172150760972,2.1289666013453785,1.1102878274173573,89739.32453693126,281.56931510492154,0.0,0.0,0.0,398.84013157894736,0.21405460450384362,0.85,nominal,15291.931290535818,nan,fixed_pitch,18.0,0.0,0.0
1.02,95.76749034833851,0.4041240667058194,1012.738880904173,103.56755129624611,1.4536162744507284,10.860670762601737,104.14559448765726,17.79025043749992,12.806766576161014,10.375384226946005,5.3454178525336005,59.176029918331636,-2.702555927918472,-12.776312746486374,3.260665537137871,-5.372338034176116,6021.067381921515,0.3096028215208485,104.14559448765728,2.1276483972179263,1.1102522867522528,89735.77699770618,281.56719727412286,0.0,0.0,0.0,398.8065789473684,0.21403659704994404,0.85,nominal,15354.728172012681,nan,fixed_pitch,18.0,0.0,0.0
1.05,98.89206730487813,0.4496463490154412,1013.0622775240524,104.15256521798693,1.517409410320726,10.779887329314379,104.71993766059195,17.783829339588422,14.881918379216556,10.372354879020222,4.865940763902324,66.30037741537161,-3.6644020618003026,-15.291150083633584,3.2705353973190037,-5.017309619897354,6087.467167496159,0.31131138434861516,104.71993766059194,2.1262534580246553,1.1102170113050591,89732.2559579485,281.56509519609364,0.0,0.0,0.0,398.7730263157895,0.21401858959604453,0.85,nominal,15417.879855700381,nan,fixed_pitch,18.0,0.0,0.0
1.08,102.03420171255601,0.4967738504048131,1013.3832800062187,104.73781358926304,1.5709167129790633,10.70008273887528,105.2946776688979,17.77740878190054,17.207822985402554,10.363252697831681,4.305415269151072,74.17692437671626,-4.789161314527939,-17.750511640746808,3.3046566820978223,-4.61132488696149,6154.276777988514,0.3130211310025017,105.29467766889792,2.124816154983591,1.110181997853496,89728.7610954357,281.5630086799596,0.0,0.0,0.0,398.7394736842105,0.21400058214214498,0.85,nominal,15481.379715571537,nan,fixed_pitch,18.0,0.0,0.0
1.1099999999999999,105.19389635231904,0.5451403493294399,1013.7019246457363,105.32315465876778,1.6122166308208945,10.621487983921567,105.8696470039076,17.770988764436275,19.809451491554814,10.344884730523598,3.664805244124002,82.89601439177709,-6.08918924798286,-20.118722250949517,3.3706821242179235,-4.160967021454218,6221.477271642183,0.314731563512382,105.86964700390762,2.1233943338425747,1.1101472424198928,89725.29201256082,281.5609374898027,0.0,0.0,0.0,398.7059210526316,0.21398257468824547,0.85,nominal,15545.211057693112,nan,fixed_pitch,18.0,0.0,0.0
1.14,108.37114631684685,0.594317230430326,1014.0182561589422,105.90833215092674,1.6392293700295382,10.544383773529294,106.44456736293336,17.764569287195627,22.71471334546624,10.313445573651848,2.945768277508723,92.56260260358135,-7.5764252785591015,-22.361320008709335,3.4769856765940212,-3.6748357109495986,6289.036184052352,0.31644185456224244,106.44456736293334,2.122082457756449,1.1101127401085995,89721.84822010652,281.5588813349668,0.0,0.0,0.0,398.6723684210526,0.2139645672343459,0.85,nominal,15609.34509230212,nan,fixed_pitch,18.0,0.0,0.0
1.17,111.56593510262272,0.643807497111437,1014.3323283813208,106.49295952586236,1.6496755560370346,10.469074079287282,107.01903274695931,17.758150350178596,25.95496241403893,10.264460229933425,2.150532810393721,103.29876642908184,-9.263180556759215,-24.44645889106561,3.632558364472594,-3.1637842024442033,6356.905167805965,0.3181507972398321,107.01903274695933,2.121031011124226,1.1100784850299747,89718.42912966126,281.5568398655214,0.0,0.0,0.0,398.6388157894737,0.21394655978044638,0.85,nominal,15673.738813168055,nan,fixed_pitch,18.0,0.0,0.0
1.2,114.77823025253035,0.6930381611031371,1014.6442035388318,107.0765049969213,1.6410221330566697,10.395838583699344,107.59249200504293,17.751731953385182,29.563146359967874,10.192730137573912,1.2817082297008524,115.16483486013114,-11.163739765328286,-26.34658670563697,3.8469995241131505,-2.641031794958854,6425.017504168198,0.31985675313531126,107.59249200504293,2.1204745140026264,1.1100444703799606,89715.0340615651,281.5548126769976,0.0,0.0,0.0,398.60526315789474,0.21392855232654684,0.85,nominal,15738.332746561697,nan,fixed_pitch,18.0,0.0,0.0
1.23,118.00797851594379,0.7413506731248976,1014.9539493605347,107.65827544711486,1.6104170673920155,10.324860723429119,108.1642291348485,17.745314096815385,33.54941980305994,10.092429998673774,0.34199370740050994,127.40680539956782,-13.295495601453764,-28.040574191323987,4.131330290267094,-2.12070949242778,6493.285284254018,0.321557593760101,108.1642291348485,2.120779364362446,1.1100106887550838,89711.6622763532,281.5527993291565,0.0,0.0,0.0,398.57171052631577,0.21391054487264727,0.85,nominal,15803.048379664491,nan,fixed_pitch,18.0,0.0,0.0
1.26,121.25510008940317,0.7879896009245072,1015.261634373816,108.23738578197924,1.5546309266536562,10.256167109378142,108.73333215721203,17.738896780469204,37.91463935581953,9.956865238329552,-0.6660135211315396,139.7205790105336,-15.665572971224476,-29.518203038833626,4.495990193790833,-1.6184773054399773,6561.595145182985,0.323250607989516,108.73333215721203,2.122480397956266,1.1099771326656094,89708.31302597557,281.5507993765702,0.0,0.0,0.0,398.5381578947368,0.21389253741874772,0.85,nominal,15867.784267737283,nan,fixed_pitch,18.0,0.0,0.0
1.29,124.51948247444605,0.8320899218015197,1015.5673185666018,108.81274616809604,1.4700106959004196,10.189473092857126,109.29867346861361,17.73248000434664,42.65596110319076,9.77836560562142,-1.7401939514285862,151.98785481813854,-18.285727757845148,-30.78232993488333,4.950038321021872,-1.151554915281308,6629.805297431502,0.32493244360815465,109.29867346861361,2.1263224049166274,1.109943795553881,89704.98565543696,281.5488124293171,0.0,0.0,0.0,398.5046052631579,0.2138745299648482,0.85,nominal,15932.413255620475,nan,fixed_pitch,18.0,0.0,0.0
1.3199999999999998,127.8009740359795,0.8726636783221244,1015.8710378421982,109.38305205111459,1.3524585506868219,10.12397585321576,109.85889179863716,17.726063768447695,47.76928879747421,9.548223949070012,-2.8795881907057885,164.1698047403484,-21.18890675385987,-31.851145630687622,5.5011338116731965,-0.7384504381364368,6697.74269974897,0.3265990536011977,109.85889179863716,2.13330165886911,1.1099106734894608,89701.67977198314,281.5468382540257,0.0,0.0,0.0,398.4710526315789,0.21385652251094864,0.85,nominal,15996.779766867527,nan,fixed_pitch,18.0,0.0,0.0
1.3499999999999999,131.09937702312624,0.9085869021289462,1016.1727814494151,109.94676623822463,1.197440793560725,10.058120240560708,110.41236820877664,17.719648072772365,53.2504711275483,9.256413829657399,-4.0853938819385345,176.26452556482948,-24.44332135824343,-32.75994718238056,6.156049498219556,-0.3985559517484659,6765.199473923707,0.3282456247018662,110.41236820877663,2.144702964506293,1.109877767630088,89698.39549071479,281.54487692057876,0.0,0.0,0.0,398.4375,0.21383851505704912,0.85,nominal,16060.696333936141,nan,fixed_pitch,18.0,0.0,0.0
1.38,134.414439563949,0.9385878429006664,1016.4724618686955,110.50208469409243,1.0000313590573402,9.989347309345957,110.95718924038322,17.713232917320653,59.09599721327936,8.890885729919372,-5.362336858819307,188.29022147369506,-28.17005434276203,-33.56214767539572,6.921768389946609,-0.1517486918277541,6831.927701065852,0.3298664677018806,110.95718924038322,2.1621389199081946,1.1098450875049861,89695.13376226813,281.54292899785344,0.0,0.0,0.0,398.40394736842103,0.21382050760314958,0.85,nominal,16123.93859024775,nan,fixed_pitch,18.0,0.0,0.0
1.41,137.74584579031713,0.9612374878780826,1016.7698768301995,111.04687421227132,0.7549881659138725,9.913832050132122,111.49108639422663,17.706818302092557,65.30347305170889,8.436240061668483,-6.720607340919513,200.27875515722602,-32.57160949749938,-34.32913461536806,7.807461542855006,-0.018168551368245026,6897.631228895711,0.3314548373623318,111.49108639422663,2.1876175136671536,1.1098126551557062,89691.89678607008,281.5409958006037,0.0,0.0,0.0,398.3703947368421,0.21380250014925004,0.85,nominal,16186.237485299327,nan,fixed_pitch,18.0,0.0,0.0
1.44,141.09320259354377,0.9749428788761827,1017.0646632742626,111.5785601075548,0.45684636660333505,9.826214802101722,112.01133104117163,17.70040422708808,71.87194738598349,7.871392906199118,-8.17868723675536,212.2734501648188,-37.978176565771015,-35.14837954529539,8.827826808686535,-0.018426575427262244,6961.951827425459,0.3330026197861852,112.01133104117163,2.223692324485372,1.109780510155084,89688.68851121813,281.53907968871727,0.0,0.0,0.0,398.33684210526314,0.2137844926953505,0.85,nominal,16247.266320906016,nan,fixed_pitch,18.0,0.0,0.0
1.47,144.45602031710098,0.9779427280089782,1017.3562427825342,112.0939241185739,0.09999497109318334,9.719316942388277,112.51454548244614,17.693990692307217,78.80200778501865,7.165480322472235,-9.76757761112103,224.32886818999876,-44.92257514916726,-36.118985857859435,10.008537400856062,-0.1746418343214338,7024.444663947757,0.33449977046545665,112.51454548244614,2.273310167503096,1.1097487155556276,89685.51523010342,281.5371844219135,0.0,0.0,0.0,398.30328947368423,0.21376648524145098,0.85,nominal,16306.618070844059,nan,fixed_pitch,18.0,0.0,0.0
1.5,147.83368122900393,0.9683081735677304,1017.6437555769267,112.58869706343188,-0.3211518147082606,9.583759813081281,112.996310988829,17.687577697749973,86.09543375608212,6.270638456233224,-11.537822404552157,236.51201268807785,-54.28495331620357,-37.34337480508417,11.395756211256638,-0.5129946329900317,7084.527930075678,0.33593314869722307,112.99631098882901,2.2612191127532975,1.1097173650837486,89682.38629635329,281.53531558874994,0.0,0.0,0.0,398.2697368421052,0.21374847778755138,0.85,nominal,16363.759284170546,nan,fixed_pitch,18.0,0.0,0.0
1.53,151.22519212962743,0.9447249724952667,1017.9258969235352,113.05036335411705,-0.7861067024154553,9.404711553617492,113.44360368770123,17.681165243416345,93.76242200004573,5.108409188869445,-13.659428021091099,248.90548705574804,-70.48440356028793,-38.911868115241205,13.17326286879913,-1.0765020866962405,7140.528789062835,0.337264029027657,113.44360368770124,2.254756068560459,1.1096866009746582,89679.31590473039,281.533481669997,0.0,0.0,0.0,398.2361842105263,0.21373047033365186,0.85,nominal,16417.168605891296,nan,fixed_pitch,18.0,0.0,0.0
1.56,154.62920679915698,0.9057792511611711,1018.2011324987966,113.46715565098485,-1.298190711136521,9.17451917538015,113.8448616001035,17.674753329306334,101.8009064843777,3.5110745378941943,-16.345890334058026,261.6261495453404,-95.93181991788009,-40.75892576953167,15.571936786807978,-1.9436750165625722,7190.936738879658,0.33845803072716746,113.84486160010351,2.2740816380781443,1.109656590485304,89676.32074690021,281.5316926387578,0.0,0.0,0.0,398.2026315789473,0.21371246287975232,0.85,nominal,16465.468392392686,nan,fixed_pitch,18.0,0.0,0.0
1.5899999999999999,158.04375913801138,0.8497513528241706,1018.467591964501,113.81841129514665,-1.8675966112333486,8.881982190148737,114.1797191907546,17.66834195541994,110.17038420664547,1.218214903028154,-19.703354437924844,274.83562503495693,-128.9318199178801,-42.78343919920344,18.749174912412798,-3.2339157937341105,7233.1116939646345,0.33945459844270226,114.1797191907546,2.35243382384849,1.1096275374962703,89673.42116927536,281.5299606522307,0.0,0.0,0.0,398.1690789473684,0.21369445542585278,0.85,nominal,16506.25934797846,nan,fixed_pitch,18.0,0.0,0.0
1.6199999999999999,161.46601324393353,0.7746182395963215,1018.7226288786084,114.07513686407202,-2.5044371075949705,8.501230470246076,114.41887945304701,17.661931121757164,118.79346444946154,-1.9151859399889306,-23.436136928995897,288.74143865542794,-157.06048965843942,-43.604340211488825,22.461321024450157,-5.117319780226826,7263.262286136772,0.34016661983493063,114.41887945304703,2.3429211431000554,1.1095997304922474,89670.6459614925,281.528302912289,0.0,0.0,0.0,398.13552631578943,0.21367644797195323,0.85,nominal,16536.096256137855,nan,fixed_pitch,18.0,0.0,0.0
1.65,164.894137838783,0.6802699562538053,1018.9639519762403,114.27081982831575,-3.1449427780838732,8.044103254396452,114.59676490407665,17.655520828318004,127.61687015293823,-5.975086017504494,-27.270203866884685,303.5518729609301,-181.50039952758326,-43.52317908195859,26.510834862215138,-7.733391717526131,7285.691263489398,0.34069642131473893,114.59676490407665,2.308981420084364,1.1095734192142181,89668.02004591019,281.5267343121544,0.0,0.0,0.0,398.1019736842105,0.21365844051805372,0.85,nominal,16558.832102887904,nan,fixed_pitch,18.0,0.0,0.0
1.68,168.32675547687919,0.5672245013947719,1019.1897040719538,114.42058793653923,-3.768181828634448,7.52506985711531,114.72966841402194,17.64911107510246,136.63237557103417,-11.03169290714211,-30.974775642789385,319.54275576825984,-204.54050822403707,-43.2198848084417,30.724405204746375,-11.179108675192557,7302.438222369653,0.3410924326585023,114.72966841402193,2.2980261998908573,1.1095488060630636,89665.56361986435,281.5252669235323,0.0,0.0,0.0,398.06842105263155,0.21364043306415414,0.85,nominal,16576.285118632935,nan,fixed_pitch,18.0,0.0,0.0
1.71,171.76214802708049,0.4359646282418538,1019.3981531337115,114.5130850067098,-4.375329105097271,6.948302058589283,114.80709492025854,17.642701862110535,145.91441090770337,-17.096786566001253,-34.27515689005446,337.0505019071179,-225.60940275031987,-43.37106708410508,34.8755572014774,-15.508763849200214,7312.148026693358,0.3413234437812439,114.80709492025854,2.3284163177360897,1.1095260797866262,89663.29551785701,281.52391200463086,0.0,0.0,0.0,398.03486842105264,0.21362242561025463,0.85,nominal,16587.21542044334,nan,fixed_pitch,18.0,0.0,0.0
1.74,175.19822266875278,0.286892126349097,1019.5875530524186,114.5358213890767,-4.9690833964252255,6.31333062356905,114.81726488047694,17.636293189342226,155.67477608264147,-24.12057774417347,-36.832390499028826,356.43901840959956,-244.6812481586142,-44.78964906029537,35.0,-20.72673925869976,7313.307439766792,0.3413544256152433,114.81726488047696,2.4979950092834264,1.1095054306625325,89661.23472691175,281.52268090515923,0.0,0.0,0.0,398.00131578947367,0.21360441815635509,0.85,nominal,16590.2404344583,nan,fixed_pitch,18.0,0.0,0.0
1.77,178.6324707482173,0.12024392524826066,1019.7549449607372,114.47493598215057,-5.5549400366945445,5.579730277289327,114.74537775830468,17.629885056797534,166.3506635121938,-31.97323214044724,-38.1686720037161,378.084204277728,-261.9926513476676,-48.2697924886577,35.0,-26.785001125335604,7304.032437960299,0.34114136274579765,114.74537775830467,2.6925073585286587,1.1094871811830365,89659.41342897074,281.5215928577552,0.0,0.0,0.0,397.96776315789475,0.21358641070245554,0.85,nominal,16583.630689447233,nan,fixed_pitch,18.0,0.0,0.0
1.7999999999999998,182.06207953704364,-0.06292519258971016,1019.8970739647049,114.3202929608785,-6.105637261265694,4.737633465586251,114.58120858099501,17.62347746447646,178.77006421436863,-40.39076337784283,-37.504383016370525,402.3506989320955,-277.93096317254674,-54.46561612020293,35.0,-29.999999999999996,7283.045536926659,0.3406538419256711,114.581208580995,2.8333323161409187,1.109471686108071,89657.86702611057,281.5206690192294,0.0,0.0,0.0,397.9342105263158,0.213568403248556,0.85,nominal,16566.200320336713,nan,fixed_pitch,18.0,0.0,0.0
1.8299999999999998,185.48466541367367,-0.25959466855971497,1020.0105362643059,114.08619588766703,-6.55564919900016,3.782076653365373,114.33696135699697,17.617070412379,-165.7211178345259,-48.85433739871526,-33.64081129224202,428.0105690191256,-292.99073003477673,-59.592090295980796,35.0,-29.999999999999996,7251.947944325738,0.33992813185481946,114.33696135699697,2.876158355173925,1.109459316430533,89656.63254042236,281.519931514282,0.0,0.0,0.0,397.9006578947368,0.21355039579465646,0.85,nominal,16539.356691632063,nan,fixed_pitch,18.0,0.0,0.0
1.8599999999999999,188.89895100972123,-0.4645683574078852,1020.0926689652113,113.80951986825191,-6.832456294939008,2.7377566968456506,114.04729099542611,17.61066390050516,-145.21913726175632,-56.470880197732335,-24.818470578384332,450.97605865366336,-307.21466655937326,-57.6731948818547,35.0,-29.999999999999996,7215.190934700832,0.33906725235661406,114.04729099542612,2.8927405898380756,1.109450362376543,89655.7389337371,281.5193976517261,0.0,0.0,0.0,397.8671052631579,0.2135323883407569,0.85,nominal,16507.08406380539,nan,fixed_pitch,18.0,0.0,0.0
1.89,192.30429548244274,-0.6718379038269433,1020.1421744826049,113.51148242405004,-6.908984880635271,1.6501839131213487,113.73352109705121,17.604257928854935,-117.59001010342017,-61.71027913420075,-9.047647430396118,471.08342082344194,-319.80121084604014,-48.85990812733283,35.0,-29.999999999999996,7175.509396998775,0.3381345948879072,113.73352109705121,2.880035295872584,1.1094449653437255,89655.20031544392,281.51907586586304,0.0,0.0,0.0,397.8335526315789,0.21351438088685737,0.85,nominal,16471.834165956534,nan,fixed_pitch,18.0,0.0,0.0
1.92,195.70078462148186,-0.8750958179644942,1020.1593701919136,113.21630463463758,-6.7752638045850295,0.5731903102887204,113.42029969047246,17.597852497428327,-84.32329315489658,-62.6087108199359,12.039823016275596,488.4274533955032,-329.93766964359446,-33.52987009400348,22.349540622207634,-29.999999999999996,7136.029145503295,0.33720344126630186,113.42029969047246,3.0031818909173826,1.109443090692582,89655.01322734276,281.5189640937525,0.0,0.0,0.0,397.8,0.21349637343295785,0.85,nominal,16436.428078630823,nan,fixed_pitch,18.0,0.0,0.0
1.95,199.0900399896389,-1.0643442985348148,1020.1464359795818,112.97517893856822,-6.308282685677352,-0.4311404110578634,113.15198349431606,17.591447606225337,-52.81840984643016,-58.5693610601836,30.77044843673358,507.73395296440026,-336.8719175409397,-12.275089564796156,2.4518373055631937,-29.999999999999996,7102.314978103424,0.3364056754144463,113.15198349431607,2.465254125187791,1.1094445007613156,89655.1539506287,281.5190481661327,0.0,0.0,0.0,397.76644736842104,0.21347836597905828,0.85,nominal,16405.904730748152,nan,fixed_pitch,18.0,0.0,0.0
1.98,202.4795030899257,-1.2462943914466544,1020.1041819359599,112.98210334289227,-6.065003097061323,-1.4084681207317293,113.15354046956936,17.585043255245964,-26.954476241036073,-50.39230486026507,43.448353120862976,520.0,-369.8719175409397,14.63290680810534,-16.94106602101023,-29.999999999999996,7102.539925721454,0.3364101402667113,113.15354046956938,3.0819068051697154,1.109449107244329,89655.61367278534,281.51932281741625,0.0,0.0,0.0,397.7328947368421,0.21346035852515877,0.85,nominal,16405.666536181518,nan,fixed_pitch,18.0,0.0,0.0
2.01,205.86423491330515,-1.4286336835031197,1020.026321339587,112.82439411264855,-6.077976401882173,-2.595353212432772,113.01779312269979,17.578639444490207,-6.651587643554782,-39.36173957117098,50.21325483143923,520.0,-402.8719175409397,47.63290680810534,-29.16292719332542,-29.999999999999996,7085.562895207147,0.3360062557856285,113.01779312269979,2.7983936870996176,1.109457595547533,89656.46079768626,281.5198289112927,0.0,0.0,0.0,397.69934210526316,0.21344235107125922,0.85,nominal,16389.551905327542,nan,fixed_pitch,18.0,0.0,0.0
2.04,209.24446139524062,-1.6005733688380561,1019.917692887531,112.67421606451558,-5.731322844497882,-3.6209484018678144,112.87797967110323,17.572236173958068,10.146302969869192,-26.392857992366025,52.580063990323296,520.0,-435.87191754093965,80.63290680810533,-34.9583179147286,-29.999999999999996,7068.118193442064,0.3355901641546337,112.87797967110322,2.6494209818169185,1.109469438222056,89657.64268832326,281.52053499623105,0.0,0.0,0.0,397.66578947368424,0.2134243436173597,0.85,nominal,16372.694990270502,nan,fixed_pitch,18.0,0.0,0.0
2.07,212.621228094541,-1.7552109279584673,1019.7848963776366,112.55888997668009,-5.154585304013707,-4.426550329809444,112.76376993636326,17.565833443649545,25.292692038286933,-12.161964324384371,51.50316869826168,520.0,-468.8719175409397,113.63290680810533,-35.0,-29.999999999999996,7053.914457259511,0.3352501006772244,112.76376993636326,2.5813377056999567,1.1094839158297718,89659.08754747754,281.5213981735453,0.0,0.0,0.0,397.6322368421052,0.2134063361634601,0.85,nominal,16358.507459192282,nan,fixed_pitch,18.0,0.0,0.0
2.1,215.99635417171487,-1.8888326450697266,1019.6346337455956,112.5042025724624,-4.454057237041977,-5.008754401370552,112.7036904586081,17.559431253564643,40.428584253525955,2.651578427302992,47.093709126064674,520.0,-501.8719175409397,146.63290680810533,-33.87183743762891,-29.999999999999996,7046.503983654372,0.33507090132656114,112.70369045860811,2.5444783598372878,1.1095002977858077,89660.72246513482,281.5223748806536,0.0,0.0,0.0,397.5986842105263,0.2133883287095606,0.85,nominal,16350.260902516118,nan,fixed_pitch,18.0,0.0,0.0
2.13,219.3718337290639,-2.0000156173662815,1019.4747004101944,112.51598524496784,-3.706099076551825,-5.331111180039748,112.70316256620745,17.553029603703358,57.274374874130174,16.588557006477238,39.14034024095076,520.0,-510.4451225789858,179.63290680810533,-30.098418190436345,-29.999999999999996,7046.548712731833,0.33506871324219517,112.70316256620744,2.5690744556930363,1.1095177342660654,89662.4626304409,281.5234144473337,0.0,0.0,0.0,397.56513157894733,0.21337032125566102,0.85,nominal,16348.632996990124,nan,fixed_pitch,18.0,0.0,0.0
2.16,222.74954272942688,-2.089703543616167,1019.312809095691,112.59030001209962,-2.989597541662838,-5.3963771501117535,112.75918692781518,17.54662849406569,77.36510771340552,28.07406028463167,27.168487919114114,520.0,-495.81381178741384,212.6329068081053,-26.145826679206614,-29.999999999999996,7053.668292779453,0.33523464823972876,112.75918692781518,2.6118699192929222,1.1095353844254159,89664.22412752092,281.524466740878,0.0,0.0,0.0,397.5315789473684,0.2133523138017615,0.85,nominal,16353.36107762924,nan,fixed_pitch,18.0,0.0,0.0
2.19,226.13086513435428,-2.1615720596139107,1019.1562657798554,112.71074683091388,-2.395617199924798,-5.218110527852642,112.85690103149132,17.54022792465164,101.35868648857563,35.53838505434751,11.17143088108436,520.0,-462.81381178741384,245.63290680810528,-23.229275415273925,-29.999999999999996,7066.007321682382,0.33552454729074377,112.85690103149132,2.650614760559053,1.1095524517248498,89665.92746107379,281.5254842724309,0.0,0.0,0.0,397.49802631578945,0.21333430634786196,0.85,nominal,16362.848849025931,nan,fixed_pitch,18.0,0.0,0.0
2.2199999999999998,229.51634833629495,-2.2220507674769174,1019.0109056239612,112.84944006468866,-2.0159569287668897,-4.845338529806471,112.97140129572983,17.533827895461204,128.08656821764487,37.72855914715541,-7.526731445055434,520.0,-429.81381178741384,278.63290680810525,-21.996949092004154,-29.999999999999996,7080.453524398862,0.33586439396639867,112.97140129572983,2.6730599182597303,1.1095682999483631,89667.50913514306,281.52642911344424,0.0,0.0,0.0,397.46447368421053,0.21331629889396245,0.85,nominal,16374.352052997634,nan,fixed_pitch,18.0,0.0,0.0
2.25,232.90561204764506,-2.2797442324924915,1018.8798426685224,112.97545704500406,-1.923115500519141,-4.368765181292435,113.07625027814271,17.527428406494387,154.23613800508636,34.33657846571664,-25.517721848354217,520.0,-396.8138117874139,311.63290680810525,-23.04756959007675,-29.999999999999996,7093.693744364679,0.3361756017395671,113.07625027814272,2.7163553185540117,1.1095825895353557,89668.93525973747,281.52728102265456,0.0,0.0,0.0,397.43092105263156,0.21329829144006288,0.85,nominal,16384.91719758785,nan,fixed_pitch,18.0,0.0,0.0
2.28,236.29717529127404,-2.3436956084303873,1018.7629854058792,113.05210812096598,-2.1317125312632004,-3.895242088104916,113.13927814793354,17.521029457751187,177.1275834948787,26.3876090085488,-40.038425770732616,520.0,-363.8138117874139,344.63290680810525,-26.82293052676763,-29.999999999999996,7101.685438465755,0.3363625297864237,113.13927814793352,2.722205265634263,1.1095953304168282,89670.20682457945,281.52804059486175,0.0,0.0,0.0,397.39736842105265,0.21328028398616336,0.85,nominal,16390.9001607483,nan,fixed_pitch,18.0,0.0,0.0
2.31,239.68878745814126,-2.422493976278318,1018.6561946656661,113.05373889557411,-2.6266122615976872,-3.55969134043628,113.14025973401598,17.514631049231603,-163.6256491567478,15.351931321161697,-50.468802058574596,520.0,-330.8138117874139,371.5933211254957,-33.27208530154679,-29.999999999999996,7101.883188301135,0.33636503336401485,113.14025973401598,2.696320653415967,1.1096069738489105,89671.36886483015,281.52873473467315,0.0,0.0,0.0,397.3638157894737,0.21326227653226382,0.85,nominal,16389.963957758355,nan,fixed_pitch,18.0,0.0,0.0
2.34,243.07769995009687,-2.5222303638985712,1018.5515644347547,112.96374973185371,-3.324546254008444,-3.487674363713711,113.06646378897337,17.508233180935637,-147.0819523161513,2.2252908978783106,-57.21688602976429,520.0,-308.83255679310065,390.43355096522555,-35.0,-29.999999999999996,7092.694696445728,0.33614523262752544,113.06646378897338,2.752302737602066,1.1096183818105545,89672.5074073896,281.52941483117405,0.0,0.0,0.0,397.33026315789476,0.21324426907836427,0.85,nominal,16380.5913162357,nan,fixed_pitch,18.0,0.0,0.0
2.37,246.4613142170028,-2.6455137946292493,1018.4408599150038,112.78714223019826,-4.1094476910226,-3.690150658365421,112.9222928595663,17.501835852863287,-131.86444329492892,-12.353805315965667,-60.44303585006867,520.0,-303.9783097824092,403.29077051286,-35.0,-29.999999999999996,7074.695410333102,0.33571618515474616,112.92229285956631,2.8071819851942212,1.1096304521570093,89673.71206057278,281.5301344105525,0.0,0.0,0.0,397.29671052631574,0.2132262616244647,0.85,nominal,16363.2151712163,nan,fixed_pitch,18.0,0.0,0.0
2.4,249.8377312592136,-2.791843169519145,1018.3157696995931,112.54723474035944,-4.877645829663187,-4.169673847019888,112.73002109700735,17.495439065014555,-116.03687401094327,-27.71215688411003,-59.50895129477045,520.0,-314.99794643920916,414.53131336218433,-35.0,-29.999999999999996,7050.710544135653,0.3351440802910629,112.73002109700738,2.833839861731961,1.1096440911269718,89675.07327032478,281.53094749695265,0.0,0.0,0.0,397.2631578947368,0.2132082541705652,0.85,nominal,16340.295171190377,nan,fixed_pitch,18.0,0.0,0.0
2.4299999999999997,253.20601413780864,-2.957634508454897,1018.1684161300407,112.2760959531683,-5.52637796452506,-4.911785651749579,112.51927929995186,17.48904281738944,-96.16827567611413,-42.652115240858734,-52.00643434133593,520.0,-340.120671988979,427.531115275332,-35.0,-29.285912668754186,7024.475157181833,0.3345169801459107,112.51927929995186,2.8032114817308336,1.1096601577032612,89676.67676744884,281.53190529515473,0.0,0.0,0.0,397.22960526315785,0.21319024671666562,0.85,nominal,16315.11540513195,nan,fixed_pitch,18.0,0.0,0.0
2.46,256.5666397925419,-3.136743872870989,1017.9928456074506,112.02085515777462,-5.970312147203064,-5.852350753001195,112.33239348803316,17.48264710998794,-66.05789892787571,-54.154895887124475,-32.525529291109066,516.6708289199258,-373.1206719889789,448.0512313315678,-35.0,-24.632964216987958,7001.281097781759,0.33396069647415005,112.33239348803318,2.7008522675524382,1.1096793011243642,89678.58735092108,281.53304650355153,0.0,0.0,0.0,397.19605263157894,0.2131722392627661,0.85,nominal,16292.382852751462,nan,fixed_pitch,18.0,0.0,0.0
2.4899999999999998,259.9215056756192,-3.321923942650177,1017.7861313832229,111.8288627692427,-6.172668992639597,-6.890474140920211,112.2108507437739,17.47625194281006,-23.94102890836205,-55.77429418681165,-0.024778895840839633,511.95537394336975,-406.1206719889789,481.05123133156786,-35.0,-21.73145579320573,6986.280535416055,0.3335985576285642,112.21085074377388,2.6174898478022226,1.109701840638648,89680.83688684649,281.534390146009,0.0,0.0,0.0,397.16249999999997,0.21315423180886656,0.85,nominal,16276.709877650035,nan,fixed_pitch,18.0,0.0,0.0
2.52,263.27286551282793,-3.504861035559133,1017.5478700983307,111.71199457362444,-6.0979030969652,-7.9420428297415375,112.15984218117875,17.469857315855794,11.14253877403515,-44.36417763235077,25.738931916571733,506.02705850796974,-439.1206719889789,514.0512313315678,-35.0,-21.356894026487783,6980.093773289602,0.3334459939986732,112.15984218117876,2.5300324570656754,1.1097278203866376,89683.42978551784,281.5359388443608,0.0,0.0,0.0,397.12894736842105,0.213136224354967,0.85,nominal,16268.650919353257,nan,fixed_pitch,18.0,0.0,0.0
2.55,266.62339218044167,-3.6767747770546313,1017.281384062568,111.68422225379189,-5.730458049849942,-8.8828678587553,112.1833721693709,17.463463229125146,32.48218651351568,-25.756359209206412,36.76481666523879,499.76996010720467,-470.5862559618002,520.0,-35.0,-23.358609176594673,6983.20563350483,0.3335149215798873,112.18337216937091,2.4771629833639532,1.1097568782816172,89686.32991435383,281.5376710035933,0.0,0.0,0.0,397.0953947368421,0.21311821690106747,0.85,nominal,16268.676980662973,nan,fixed_pitch,18.0,0.0,0.0
2.58,269.97545186520597,-3.8305875807748926,1016.9939087525887,111.73532282547598,-5.127093457342037,-9.58251033264171,112.26261157887268,17.457069682618116,47.96354918560186,-5.058910866456819,39.380942144152165,495.236987212169,-481.3705412634629,520.0,-32.903881807280754,-27.461385386282533,6993.271661315216,0.3337493883743164,112.2626115788727,2.5289439210467908,1.109788225520014,89689.45855155984,281.53953959310815,0.0,0.0,0.0,397.06184210526317,0.21310020944716795,0.85,nominal,16274.750294522992,nan,fixed_pitch,18.0,0.0,0.0
2.61,273.3302801611934,-3.9623910731671703,1016.6951351637462,111.82760986624784,-4.393449746409251,-9.959119628083664,112.35613375707815,17.4506766763347,62.94328602139882,15.468395935528612,36.5600125075781,493.3706416428769,-474.5317278335464,520.0,-30.277477921719782,-29.999999999999996,7005.133873085935,0.33402627164622467,112.35613375707815,2.604852348718503,1.1098208054771725,89692.71024329303,281.54148162143565,0.0,0.0,0.0,397.0282894736842,0.21308220199326838,0.85,nominal,16282.323743672769,nan,fixed_pitch,18.0,0.0,0.0
2.6399999999999997,276.6879932816475,-4.07274183482488,1016.3952854158248,111.92377068180302,-3.678358721923651,-9.994991597377739,112.42935837027458,17.444284210274905,81.39137865252964,34.15431361754003,27.816405443105307,493.51040494075096,-451.662662457472,520.0,-31.25108430778381,-29.999999999999996,7014.474261905365,0.33424280594546746,112.42935837027457,2.6282699667317155,1.109853503520451,89695.97374334095,281.5434306447971,0.0,0.0,0.0,396.9947368421052,0.21306419453936884,0.85,nominal,16287.613137498913,nan,fixed_pitch,18.0,0.0,0.0
2.67,280.0474071530146,-4.167393438857971,1016.1036050916412,111.9804623789032,-3.1550534677697124,-9.722677472789359,112.44602604902197,17.437892284438725,108.24426720520083,48.52858230610234,9.74763996604134,494.99142683607477,-418.662662457472,520.0,-35.0,-29.999999999999996,7016.755302192115,0.33429123195802607,112.44602604902198,2.6353622516852995,1.1098853114108,89699.14842139775,281.5453265669043,0.0,0.0,0.0,396.9611842105263,0.21304618708546932,0.85,nominal,16286.626805980604,nan,fixed_pitch,18.0,0.0,0.0
2.6999999999999997,283.4060694415586,-4.255938761720871,1015.8255328448768,111.95540961813303,-2.951510762096659,-9.269074892147042,112.37722593078617,17.43150089882616,146.32113480744698,53.99476051991616,-19.729228838422394,498.12347840640894,-385.66266245747204,520.0,-35.0,-29.999999999999996,7008.363002443365,0.3340856234339869,112.37722593078618,2.7156957319767336,1.109915635982614,89702.17507248426,281.5471340365083,0.0,0.0,0.0,396.92763157894734,0.21302817963156975,0.85,nominal,16276.165915622689,nan,fixed_pitch,18.0,0.0,0.0
2.73,286.7609958971489,-4.347881807835749,1015.5620681208167,111.83088185301058,-3.0647682038292667,-8.78215746867074,112.21704518463201,17.425110053437216,-176.78398018933493,47.83083694160303,-47.679543883261445,502.8040557030878,-352.66266245747204,520.0,-35.0,-29.999999999999996,6988.578925983887,0.3336084084028163,112.21704518463203,2.807143115371322,1.1099443681471832,89705.04280566322,281.5488465572147,0.0,0.0,0.0,396.8940789473684,0.21301017217767024,0.85,nominal,16255.594370321876,nan,fixed_pitch,18.0,0.0,0.0
2.76,290.10903357872087,-4.4518052187821935,1015.3103436955406,111.60125605239747,-3.4641136982148177,-8.390814175867671,111.96984504196156,17.418719748271887,-150.9973180514222,34.40957817459175,-63.75318570319235,506.3943390756653,-319.66266245747204,520.0,-35.0,-29.999999999999996,6957.994993651564,0.33287254348721723,111.96984504196158,2.8733592034183975,1.1099718205041635,89707.7828186179,281.550482765979,0.0,0.0,0.0,396.86052631578946,0.2129921647237707,0.85,nominal,16225.416281362315,nan,fixed_pitch,18.0,0.0,0.0
2.79,293.44761161530255,-4.57439996659317,1015.0641152282586,111.285934552722,-4.086491593699197,-8.207615576066706,111.662991166557,17.412329983330174,-132.51049536714396,18.055021103363234,-71.15653979882217,508.8842312374215,-294.8987649087576,520.0,-35.0,-29.761641582507625,6920.0778291659,0.33195936123373376,111.66299116655702,2.9033013706826165,1.1099986739899919,89710.46307379716,281.5520832510163,0.0,0.0,0.0,396.82697368421054,0.21297415726987115,0.85,nominal,16188.690303734496,nan,fixed_pitch,18.0,0.0,0.0
2.82,296.7752668806681,-4.719434185258983,1014.8148754721344,110.9218421788512,-4.83447395552711,-8.307991870805473,111.33754954956576,17.40594075861208,-117.01915880320782,0.5838793957002394,-72.90973874627782,509.79742013547445,-289.2779776144902,520.0,-35.0,-20.93467745143295,6879.9679750905125,0.3309909139190441,111.33754954956576,2.7879531778618434,1.110025856390814,89713.17617360613,281.5537033094311,0.0,0.0,0.0,396.7934210526316,0.2129561498159716,0.85,nominal,16149.95926839981,nan,fixed_pitch,18.0,0.0,0.0
2.85,300.09301738663845,-4.88694096024008,1014.5552774602633,110.59168353234563,-5.5835591660365695,-8.653267062373686,111.07013833759224,17.3995520741176,-101.48814516142336,-16.829779006407264,-69.57472551453115,504.7121678697471,-300.61785511064335,520.0,-35.0,-12.780997862791347,6847.1336049244865,0.3301949484555671,111.07013833759223,2.6727219058267164,1.11005416901745,89716.0020988656,281.55539069650825,0.0,0.0,0.0,396.75986842105266,0.2129381423620721,0.85,nominal,16117.67632687163,nan,fixed_pitch,18.0,0.0,0.0
2.88,303.4027366593644,-5.075058704318115,1014.2786619404695,110.32397575753231,-6.270591469267841,-9.220517326457724,110.88605811413146,17.39316392984674,-82.54096022211941,-32.54614177473585,-59.55874593579527,493.2217687140771,-327.82721897098634,520.0,-35.0,-6.763026527825627,6824.641925262992,0.3296466528647585,110.88605811413146,2.558651631782745,1.1100843382383414,89719.01335218968,281.55718869738695,0.0,0.0,0.0,396.7263157894737,0.21292013490817252,0.85,nominal,16094.534782163775,nan,fixed_pitch,18.0,0.0,0.0
2.9099999999999997,306.70712521133316,-5.280227183126281,1013.9794091055533,110.14628506562546,-6.838949293605544,-9.975094497209614,110.80829324300053,17.386776325799495,-56.14214362922467,-43.26881387363685,-40.066509467660495,479.0956886089265,-360.82721897098634,520.0,-35.0,-4.072567788472528,6815.27335800951,0.3294143323636138,110.80829324300053,2.4519098793432894,1.1101169771165982,89722.27112885936,281.5591338408139,0.0,0.0,0.0,396.6927631578948,0.212902127454273,0.85,nominal,16082.980098018372,nan,fixed_pitch,18.0,0.0,0.0
2.94,310.0095365020364,-5.496821640600082,1013.6530615504441,110.08037635677442,-7.219815249126707,-10.87825183696981,110.85193437242835,17.380389261975868,-23.613279637481966,-44.209468664634386,-13.346478100864623,464.902618578173,-393.82721897098634,520.0,-35.0,-5.389130939650447,6820.861415419979,0.3295428286861305,110.85193437242833,2.3461917615176424,1.110152571995963,89725.82397782739,281.5612550999221,0.0,0.0,0.0,396.65921052631575,0.21288412000037343,0.85,nominal,16084.616473108243,nan,fixed_pitch,18.0,0.0,0.0
2.9699999999999998,313.31378609207894,-5.716973288393287,1013.2975741890408,110.14165300141914,-7.3383882597735015,-11.849578713444568,111.0200350559408,17.374002738375857,4.148975635072489,-34.2432386495202,8.94294200815667,452.29935928549645,-426.8272189709863,520.0,-28.718651724113137,-10.710394120941828,6841.802955618242,0.3300412074719385,111.02003505594078,2.4512445291465976,1.1101913461610917,89729.69419284776,281.5635657677712,0.0,0.0,0.0,396.62565789473683,0.2128661125464739,0.85,nominal,16099.778747832119,nan,fixed_pitch,18.0,0.0,0.0
3.0,316.62299068733614,-5.93147535753266,1012.9129760202629,110.30681984190649,-7.15006897131244,-12.819938959263967,111.27923806734388,17.367616754999464,23.103248812215792,-17.376945092535646,21.90439663896013,442.9570395010613,-459.8272189709863,520.0,-19.415609630961196,-19.45985347994049,6874.047662359865,0.33081029960074076,111.27923806734388,2.716310799482137,1.1102332967036403,89733.88149143445,281.5660656558683,0.0,0.0,0.0,396.59210526315786,0.21284810509257435,0.85,nominal,16124.81744871341,nan,fixed_pitch,18.0,0.0,0.0
3.03,319.9388234700995,-6.13011123761215,1012.5028487057616,110.52775942544575,-6.621196002649654,-13.670910483376032,111.56666004483237,17.361231311846687,36.976372506401844,2.785229416080898,27.975787058944434,438.21714883708745,-488.8890171357435,520.0,-12.118684066927502,-29.999999999999996,6909.881752919445,0.33166317598954753,111.56666004483237,2.6840610146868387,1.1102780332068836,89738.34691199397,281.56873148341253,0.0,0.0,0.0,396.55855263157895,0.21283009763867483,0.85,nominal,16152.820878039955,nan,fixed_pitch,18.0,0.0,0.0
3.06,323.262936706405,-6.306912030571783,1012.0799164300123,110.80377454351633,-5.893359765321094,-14.097742524976006,111.8523781003981,17.354846408917528,49.72840971398135,23.690111973756434,29.34626583196875,437.60541375964,-484.4961801711087,520.0,-8.986097006082025,-29.999999999999996,6945.607565134741,0.33251092980437774,111.8523781003981,2.577596731660983,1.11032416791387,89742.95193999285,281.57148054320487,0.0,0.0,0.0,396.525,0.21281209018477526,0.85,nominal,16180.590755815589,nan,fixed_pitch,18.0,0.0,0.0
3.09,326.59488143633985,-6.4639599688755185,1011.6562879224499,111.0648243311616,-5.2349312767911975,-14.120950252081702,112.08122476671228,17.348462046211985,64.76171411803216,43.79903419739528,25.87535235389512,437.7265266980101,-451.49618017110873,520.0,-13.827879923590093,-29.999999999999996,6974.347918821635,0.33318960817430776,112.0812247667123,2.875254930628723,1.1103703800380675,89747.56474061827,281.57423412850403,0.0,0.0,0.0,396.49144736842106,0.21279408273087574,0.85,nominal,16202.059608557833,nan,fixed_pitch,18.0,0.0,0.0
3.12,329.92862794815613,-6.60104905744992,1011.2394050483247,111.12488372720944,-4.569636285813378,-13.896095804175035,112.08355293159318,17.34207822373006,89.70867644965928,61.67162143757069,11.237841598282944,439.66272583798815,-426.5129099424007,520.0,-33.258061798551175,-29.999999999999996,6974.923327735866,0.3331949259773398,112.08355293159319,2.799471088712801,1.1104158577416159,89752.10427690182,281.5769438671859,0.0,0.0,0.0,396.4578947368421,0.2127760752769762,0.85,nominal,16198.232330401777,nan,fixed_pitch,18.0,0.0,0.0
3.15,333.2579404919005,-6.728882767530347,1010.8361749304029,110.9770847914792,-4.26112366934756,-13.441003930726147,111.86925900535157,17.33569494147175,143.35865471875667,70.84335241266736,-32.45584104033888,442.8329615018096,-393.5129099424007,520.0,-35.0,-29.999999999999996,6948.553199702944,0.33255633873244206,111.86925900535158,2.9184830093762795,1.1104598474233265,89756.49532198366,281.57956486295234,0.0,0.0,0.0,396.4243421052632,0.21275806782307669,0.85,nominal,16170.282130084452,nan,fixed_pitch,18.0,0.0,0.0
3.1799999999999997,336.5772991971993,-6.85612494018743,1010.4478718095656,110.64529017662521,-4.241405755236087,-12.943437361241612,111.48050202512783,17.32931219943706,-162.92087199941648,62.38506256027201,-75.99006758101314,447.4714049954735,-360.5129099424007,520.0,-35.0,-29.999999999999996,6900.606502118459,0.3313991865844536,111.48050202512782,3.033564094626764,1.1105022099305717,89760.72398132575,281.5820888332378,0.0,0.0,0.0,396.3907894736842,0.21274006036917711,0.85,nominal,16123.059787968541,nan,fixed_pitch,18.0,0.0,0.0
3.21,339.88206407318893,-6.99049467214032,1010.0720310758629,110.15882919965371,-4.478991065096343,-12.52802445675535,110.95936377065593,17.322929997625984,-137.57702232150066,46.11965567431079,-90.45313923817123,450.93614174506166,-332.47406906146074,520.0,-35.0,-29.999999999999996,6836.4931467960005,0.3298485629058644,110.95936377065593,3.095535495573977,1.1105432140125833,89764.81707767467,281.5845317980069,0.0,0.0,0.0,396.35723684210524,0.21272205291527757,0.85,nominal,16061.413087744488,nan,fixed_pitch,18.0,0.0,0.0
3.2399999999999998,343.1691770687377,-7.1386646020603655,1009.7030008071764,109.57043318496004,-4.9389976640015085,-12.301008956219004,110.3693270234343,17.316548336038526,-122.13238199204584,28.197515442357794,-93.5894321158461,452.990538952434,-323.43377209693284,520.0,-35.0,-26.891366940287444,6764.224308027803,0.32809316502469454,110.36932702343434,3.061492892366304,1.1105834762024127,89768.83615165218,281.58693049475335,0.0,0.0,0.0,396.32368421052627,0.212704045461378,0.85,nominal,15992.498106668587,nan,fixed_pitch,18.0,0.0,0.0
3.27,346.43818908056716,-7.305094289277553,1009.3334571916972,108.96706706098048,-5.547656240572932,-12.318120515974204,109.80134009510927,17.310167214674685,-109.39524351667802,10.110672040635357,-91.34555729982243,451.5096968568621,-330.97579680874765,520.0,-35.0,-12.778465430554181,6695.025872758886,0.3264033270400148,109.8013400951093,2.8883709529957025,1.1106237955187772,89772.86096245445,281.5893325282539,0.0,0.0,0.0,396.29013157894735,0.21268603800747848,0.85,nominal,15926.347091309883,nan,fixed_pitch,18.0,0.0,0.0
