time_s,x_m,y_m,altitude_m,vx_mps,vy_mps,vz_mps,speed_mps,mass_kg,roll_deg,pitch_deg,yaw_deg,p_dps,q_dps,r_dps,alpha_deg,beta_deg,qbar_pa,mach,airspeed_mps,load_factor_g,density_kgpm3,pressure_pa,temperature_k,wind_x_mps,wind_y_mps,wind_z_mps,thrust_n,mass_flow_kgps,propulsion_throttle_actual,propulsion_health,energy_j_per_kg,target_distance_m,guidance_mode,pitch_command_deg,heading_command_deg,roll_command_deg,elevator_command_deg,aileron_command_deg,rudder_command_deg,elevator_deg,aileron_deg,rudder_deg,throttle,elevator_saturated,aileron_saturated,rudder_saturated,elevator_failed,aileron_failed,rudder_failed,elevator_raw_rad,aileron_raw_rad,rudder_raw_rad,elevator_effective_rad,aileron_effective_rad,rudder_effective_rad,sensor_time_s,imu_valid,imu_ax_mps2,imu_ay_mps2,imu_az_mps2,gyro_p_rps,gyro_q_rps,gyro_r_rps,imu_accel_norm_mps2,imu_gyro_norm_rps,gps_valid,gps_latency_s,gps_x_m,gps_y_m,gps_z_m,gps_vx_mps,gps_vy_mps,gps_vz_mps,baro_valid,baro_alt_m,baro_bias_m,pitot_valid,pitot_airspeed_mps,pitot_qbar_pa,pitot_compressibility_factor,mag_valid,mag_heading_deg,mag_x_ut,mag_y_ut,mag_z_ut,radar_valid,radar_agl_m,optical_flow_valid,optical_flow_x_radps,optical_flow_y_radps,optical_flow_quality,horizon_valid,horizon_roll_deg,horizon_pitch_deg
0.0,0.0,0.0,20.0,85.0,0.0,8.0,85.37564055396598,17.633519126604632,0.0,6.000000000000002,0.0,0.0,0.0,0.0,0.5396440755261187,0.09042345829106828,4467.806158736801,0.25127822353723156,85.48917787541667,1.7829021991174387,1.2226496753673843,101084.96761777384,288.02,-0.10114574227902196,-0.1349178589895554,-0.13488317908401584,326.8,0.17539118863220368,0.86,nominal,3840.633,nan,pitch_program,13.0,0.0,0.0,-20.05352282957881,-0.0,0.07685993954740804,-2.6999999999999997,0.0,0.04611596372844482,0.86,0.0,0.0,0.0,0.0,0.0,0.0,-0.047123889803846894,0.0,0.0008048754047916423,-0.047123889803846894,0.0,0.0008048754047916423,0.0,1.0,17.454093490872985,-0.0164974735537802,0.11435436130614011,-0.00041663729163987705,-0.0007873491565204804,0.002827713925469424,17.454475892295306,0.002964704263725511,1.0,0.0,-0.245673998367889,-1.6935992341378452,18.988461048442854,84.93652578647725,-0.05802398367878919,7.9916836480015006,1.0,20.222815898508227,0.0,1.0,85.17452146921394,4530.735658660058,1.0,1.0,-0.5417128263890634,19.546582590338236,-0.0032372630234107527,-43.912301700596245,1.0,20.027074900609485,1.0,0.021251598833740712,4.288711711651136,0.95,1.0,0.09558769260067916,6.0754624275550455
0.03,2.565637560838371,-1.3494925008070879e-05,20.232930217655287,85.5212520279457,-0.00044983083360236267,7.764340588509544,85.872984887007,17.628257390945667,-0.0008375108722259178,6.273938748274728,0.0011759882025547987,-0.023726358322743626,-9.131309288507111,0.038908334257954605,1.002949320169477,0.08844478791035167,4519.796814484726,0.2527395146989118,85.9861082832785,1.8115128072471938,1.2226223224144446,101082.1747930085,288.01848595358524,-0.10114574227902196,-0.1349178589895554,-0.13488317908401584,332.605,0.1785066900092231,0.86,nominal,3885.5020318210354,nan,pitch_program,12.985,0.0,0.0,-0.4433671065770525,0.020194542505860003,0.0911328281878539,-1.3460202639462313,0.0,0.07312608240409027,0.86,0.0,0.0,0.0,0.0,0.0,0.0,-0.02349248540442486,0.0,0.0012762909070360656,-0.02349248540442486,0.0,0.0012762909070360656,0.03,1.0,17.639755551194597,0.01015430269223262,0.6784929286214243,-0.0020013244144646836,-0.1605807177427007,-0.00011533331075433417,17.65280237440937,0.16059322996921574,1.0,0.0,-0.245673998367889,-1.6935992341378452,18.988461048442854,84.93652578647725,-0.05802398367878919,7.9916836480015006,1.0,20.222815898508227,0.0,1.0,86.21504444865538,4536.096982545767,1.0,1.0,-0.5417128263890634,19.546582590338236,-0.0032372630234107527,-43.912301700596245,1.0,20.027074900609485,1.0,0.021251598833740712,4.288711711651136,0.95,1.0,0.09558769260067916,6.0754624275550455
0.06,5.147093779793474,-3.803392686421748e-05,20.459357948763405,86.04854063183677,-0.0008179667285382198,7.547591036937276,86.37891800664552,17.62290219024539,-0.002466279934979107,6.592644835437067,0.0030990315377129093,-0.04710994183979902,-10.6235654636552,0.06339175480644237,1.4967195617188056,0.08581118560445132,4573.001272149625,0.25422612892435553,86.49165772038045,1.8411028742893134,1.2225957334960436,101079.4599927071,288.017014173333,-0.10114574227902196,-0.1349178589895554,-0.13488317908401584,338.40999999999997,0.18162219138624247,0.86,nominal,3931.2965006276354,nan,pitch_program,12.97,0.0,0.0,0.2619686640466768,0.03945872771554147,0.09816040969795105,-0.38122690715048646,0.0,0.08814667878040673,0.86,0.0,0.0,0.0,0.0,0.0,0.0,-0.0066536647269707025,0.0,0.0015384497694159172,-0.0066536647269707025,0.0,0.0015384497694159172,0.06,1.0,18.044142292112593,0.002228359563694089,1.165342474462133,0.0005124517243301025,-0.18775028275204486,0.001273656317154787,18.08173385232672,0.187755302137268,1.0,0.0,-0.245673998367889,-1.6935992341378452,18.988461048442854,84.93652578647725,-0.05802398367878919,7.9916836480015006,1.0,20.032691066708427,0.0,1.0,86.74116816204135,4590.822815077602,1.0,1.0,0.7447512187258163,19.0081153088312,0.03642565734568791,-44.033957425910934,1.0,20.23930430799596,1.0,0.00443259996296413,4.204218489634235,0.9488516051280915,1.0,-0.14412623245727307,6.4967123042162775
0.09,7.7445387672120445,-7.163641492993246e-05,20.679859227071187,86.58149958061901,-0.001120082935523833,7.350042610259414,86.89291799252655,17.617453524503805,-0.004843533496867923,6.787910675009977,0.00548767379580438,-0.0699657019432933,-6.508872651279534,0.07866413424237999,1.8527349489036482,0.08279942119506982,4627.379788830685,0.25573653442147465,87.00530452847224,1.8713667812069645,1.2225698409333283,101076.81630553244,288.01558091502403,-0.10114574227902196,-0.1349178589895554,-0.13488317908401584,344.215,0.18473769276326188,0.86,nominal,3977.98974011713,nan,pitch_program,12.955,0.0,0.0,-1.0641207305371174,0.05761304059454234,0.10063297832542578,-0.7909632011824651,0.03456782435672541,0.09563845850741816,0.86,0.0,0.0,0.0,0.0,0.0,0.0,-0.013804912122748321,0.0006033223502759492,0.0016692059924864285,-0.013804912122748321,0.0006033223502759492,0.0016692059924864285,0.09,1.0,18.326117487997987,-0.03755314501279185,1.4254098034918847,-0.0029863575659619104,-0.11632037074372777,-0.0007920727222812734,18.381506617535376,0.11636139549123428,1.0,0.0,-0.245673998367889,-1.6935992341378452,18.988461048442854,84.93652578647725,-0.05802398367878919,7.9916836480015006,1.0,20.032691066708427,0.0,1.0,86.78568238597181,4672.761925762407,1.0,1.0,0.7447512187258163,19.0081153088312,0.03642565734568791,-44.033957425910934,1.0,20.23930430799596,1.0,0.00443259996296413,4.204218489634235,0.9488516051280915,1.0,-0.14412623245727307,6.4967123042162775
0.12,10.358184438898276,-0.00011257974681707806,20.894749802897287,87.12152238954106,-0.0013647777295715203,7.163019194203287,87.41549353124104,17.611911393720906,-0.007291569108929539,6.886925621612346,0.00816283409180658,-0.07098503964053006,-3.300508399576585,0.08818832975524406,2.1041307246908407,0.07955756600859333,4683.0005512931,0.2572721893673118,87.52754453033153,1.9019725407090216,1.222544607616082,101074.23994141699,288.0141841262811,-0.10114574227902196,-0.1349178589895554,-0.13488317908401584,350.02,0.1878531941402813,0.86,nominal,4025.6417528098054,nan,pitch_program,12.94,0.0,0.0,-2.1268314049914725,0.055739182367773525,0.1002842858108395,-1.5924841234678693,0.013827129742690163,0.09842595488947095,0.86,0.0,0.0,0.0,0.0,0.0,0.0,-0.02779409124025022,0.0002413289401103797,0.0017178569822406797,-0.02779409124025022,0.0002413289401103797,0.0017178569822406797,0.12,1.0,18.59811351260648,-0.060270211462112505,1.4993368643884273,0.0006269016408601087,-0.05724731570468078,-0.0002699790236480278,18.658549508445173,0.057251384697070105,1.0,0.0,-0.245673998367889,-1.6935992341378452,18.988461048442854,84.93652578647725,-0.05802398367878919,7.9916836480015006,1.0,20.080842671906296,0.0,1.0,87.50383567948018,4643.86496958612,1.0,1.0,-0.43601799291970694,18.837470578790732,0.005088580036360287,-44.11470995200659,1.0,21.00748441081161,1.0,-0.003958001475794014,4.1794368390058105,0.9477631254927568,1.0,-0.13883152006276978,6.857835225845311
0.15,12.988270145869427,-0.00015929913208248049,21.104208744994406,87.66952356570505,-0.0015573128421800804,6.981964736570586,87.94710453588368,17.606275797896696,-0.010154904714639828,6.9741022711818506,0.011021386699838853,-0.08394689103520898,-2.90590324767558,0.09414646681370682,2.338427448443044,0.07620053635315573,4739.928736152299,0.2588344262170161,88.05883090333032,1.9331330787960899,1.2225200124866087,101071.72874937086,288.0128226431575,-0.10114574227902196,-0.1349178589895554,-0.13488317908401584,355.825,0.1909686955173007,0.86,nominal,4074.3081868119248,nan,pitch_program,12.925,0.0,0.0,-2.2112960103337396,0.06449891655422896,0.09817332859463454,-1.9637712555873914,0.044230201829613444,0.0982743791125691,0.86,0.0,0.0,0.0,0.0,0.0,0.0,-0.03427427416602307,0.0007719626507483745,0.001715211485867474,-0.03427427416602307,0.0007719626507483745,0.001715211485867474,0.15,1.0,18.87255593718339,0.03386177659532269,1.7571545531330734,-0.0027343651191180205,-0.04835339825353563,3.7824623989102246e-05,18.954210781397006,0.04843066493423203,1.0,0.0,-0.245673998367889,-1.6935992341378452,18.988461048442854,84.93652578647725,-0.05802398367878919,7.9916836480015006,1.0,20.080842671906296,0.0,1.0,88.06336547109963,4724.799594699163,1.0,1.0,-0.43601799291970694,18.837470578790732,0.005088580036360287,-44.11470995200659,1.0,21.00748441081161,1.0,-0.003958001475794014,4.1794368390058105,0.9477631254927568,1.0,-0.13883152006276978,6.857835225845311
0.18,15.635032134242207,-0.0002103067812575404,21.30844824940621,88.22539961242605,-0.0017002549725019978,6.8079834803935055,88.4876815084023,17.600546737031177,-0.012828842213087562,7.074721656784896,0.013998527001682947,-0.07699520816058411,-3.354000070161721,0.09782046786950739,2.580240500451481,0.07277202539910273,4798.174522992406,0.2604230457714771,88.59909569898596,1.9647812889502103,1.2224960305994943,101069.28018153134,288.01149508637883,-0.10114574227902196,-0.1349178589895554,-0.13488317908401584,361.63,0.19408419689432013,0.86,nominal,4123.999383391261,nan,pitch_program,12.91,0.0,0.0,-1.993217838873947,0.055180819662209064,0.09492984569904674,-1.9814392055593248,0.01769208073184538,0.09626765906445568,0.86,0.0,0.0,0.0,0.0,0.0,0.0,-0.03458263806511095,0.00030878506029934983,0.0016801876138621157,-0.03458263806511095,0.00030878506029934983,0.0016801876138621157,0.18,1.0,19.19861379012383,-0.01600873603428833,1.904185278005081,-0.0005342969241484607,-0.056734097462857895,0.0022552514211132647,19.292821185999045,0.056781418149784234,1.0,0.0,-0.245673998367889,-1.6935992341378452,18.988461048442854,84.93652578647725,-0.05802398367878919,7.9916836480015006,1.0,21.344656355609605,0.0,1.0,88.69760040430283,4776.58922244009,1.0,1.0,-2.5925017825295855,18.702451920907155,-0.024562685771230726,-44.22522088137868,1.0,21.168182770200243,1.0,0.011723032817558474,4.129043023112503,0.9467288793764844,1.0,0.7138081499609419,6.790844616184873
0.21,18.298697742696422,-0.00026415240091371106,21.507732540606053,88.78885361514054,-0.001794853988539022,6.642809706661404,89.03700045661506,17.594724211124348,-0.015783342272740197,7.165943583550756,0.017047223752156303,-0.08588676483256152,-3.0407566189436737,0.10008030143980755,2.805669251147574,0.06933330255833699,4857.731442426374,0.26203739747152466,89.14811735729472,1.9966315241434613,1.222472630902482,101066.89106659679,288.01019973848605,-0.10114574227902196,-0.1349178589895554,-0.13488317908401584,367.435,0.19719969827133954,0.86,nominal,4174.712530474971,nan,pitch_program,12.895,0.0,0.0,-2.046807495833248,0.06017593157149867,0.09104293500075773,-2.020660179723679,0.04318239123563735,0.09313282462623691,0.86,0.0,0.0,0.0,0.0,0.0,0.0,-0.03526717320011856,0.0007536749059462143,0.0016254744314102914,-0.03526717320011856,0.0007536749059462143,0.0016254744314102914,0.21,1.0,19.512175958978965,-0.057901837355983594,2.2169115441945895,-0.003601077540964336,-0.05273025238500192,0.0003250438073106954,19.637796721417327,0.05285407202400501,1.0,0.0,17.556279157399636,0.177559492649353,22.894764029668696,88.55340540167118,0.003982168477667346,6.61522422818211,1.0,21.344656355609605,0.0,1.0,88.36145445262412,4841.441732247512,1.0,1.0,-2.5925017825295855,18.702451920907155,-0.024562685771230726,-44.22522088137868,1.0,21.168182770200243,1.0,0.011723032817558474,4.129043023112503,0.9467288793764844,1.0,0.7138081499609419,6.790844616184873
0.24,20.979496336294822,-0.00031938482664479903,21.702314516187354,89.35995311994661,-0.0018410808577029323,6.486065852709965,89.59503488047943,17.588808220176208,-0.01849436242836985,7.230984634865811,0.020135744930898838,-0.07746692955119606,-2.1680657329484974,0.10149074357971259,2.9982644660464386,0.06588365960309767,4918.614039578136,0.26367740218289437,89.70586873302882,2.028504898971197,1.2224497836757482,101064.55836938396,288.00893495564475,-0.10114574227902196,-0.1349178589895554,-0.13488317908401584,373.24,0.20031519964835895,0.86,nominal,4226.462140267331,nan,pitch_program,12.88,0.0,0.0,-2.310816967005533,0.04952842102267871,0.08678141561005509,-2.194754252092791,0.01727295649425494,0.08932197921652782,0.86,0.0,0.0,0.0,0.0,0.0,0.0,-0.038305687971164855,0.0003014699623784857,0.0015589626317263554,-0.038305687971164855,0.0003014699623784857,0.0015589626317263554,0.24,1.0,19.706869787675675,-0.019914457545039458,2.343780381925115,0.0005794141069365279,-0.03632519104605749,0.0013796002682945282,19.845765792549315,0.03635599705880958,1.0,0.0,17.556279157399636,0.177559492649353,22.894764029668696,88.55340540167118,0.003982168477667346,6.61522422818211,1.0,21.83170754482754,0.0,1.0,90.67840467271674,4873.271934571558,1.0,1.0,-1.3861285642121035,18.69384756838207,0.002451416472765168,-44.285182935374486,1.0,21.844773533363707,1.0,-0.016741071117817783,4.137350260839298,0.9457442137095317,1.0,-0.24860800369660696,7.482344033753491
0.27,23.67766585542323,-0.0003745493266235877,21.89240510106574,89.93898397094686,-0.0018388166659596232,6.336352829279618,90.16191107271742,17.58279876418676,-0.021433124449137652,7.275368171876525,0.023248769880067004,-0.08485767501633869,-1.4794870849266515,0.10242165758319838,3.1645347389035767,0.062459293353698236,4980.853781928561,0.2653434254725384,90.27247401219259,2.060466574229796,1.222427464129966,101062.27955818105,288.00769936684304,-0.10114574227902196,-0.1349178589895554,-0.13488317908401584,379.045,0.20343070102537836,0.86,nominal,4279.276258626668,nan,pitch_program,12.865,0.0,0.0,-2.521919782714573,0.05320608972178675,0.08232348620023537,-2.39105357046586,0.006909182597701977,0.08512288340675235,0.86,0.0,0.0,0.0,0.0,0.0,0.0,-0.04173175739619551,0.0001205879849513943,0.0014856745842390762,-0.04173175739619551,0.0001205879849513943,0.0014856745842390762,0.27,1.0,20.047057276217053,-0.04430769541247333,2.5289727234828954,-0.002397798535103455,-0.026956766154268758,0.0025761666081397403,20.20599345847465,0.027185535008599115,1.0,0.0,17.556279157399636,0.177559492649353,22.894764029668696,88.55340540167118,0.003982168477667346,6.61522422818211,1.0,21.83170754482754,0.0,1.0,90.42947689916883,5025.802049441636,1.0,1.0,-1.3861285642121035,18.69384756838207,0.002451416472765168,-44.285182935374486,1.0,21.844773533363707,1.0,-0.016741071117817783,4.137350260839298,0.9457442137095317,1.0,-0.24860800369660696,7.482344033753491
0.3,26.39345012162367,-0.00042816138959838305,22.078190651338325,90.52614220668131,-0.0017870687658265107,6.192851675752768,90.73772003910929,17.576695843155996,-0.024774505430879407,7.309840682879737,0.026380244539435625,-0.09812940970151622,-1.1491253921905833,0.10307476404472836,3.315821322592148,0.059079367276265754,5044.4789498170385,0.26703573162766925,90.84802294592983,2.092602526860554,1.2224056503624252,101060.05239605643,288.00649176076627,-0.10114574227902196,-0.1349178589895554,-0.13488317908401584,384.84999999999997,0.20654620240239774,0.86,nominal,4333.180007298835,nan,pitch_program,12.850000000000001,0.0,0.0,-2.6131673248127134,0.06188083407887707,0.07776312971217435,-2.524321823073972,0.039892173486407036,0.08070703119000557,0.86,0.0,0.0,0.0,0.0,0.0,0.0,-0.044057727192586583,0.0006962497731145881,0.0014086034237753542,-0.044057727192586583,0.0006962497731145881,0.0014086034237753542,0.3,1.0,20.331099424153404,0.024628461807030516,2.7474631532481317,-0.0012081774747364667,-0.020398021014782632,0.001151373357191275,20.51591489879011,0.02046618222184158,1.0,0.0,17.556279157399636,0.177559492649353,22.894764029668696,88.55340540167118,0.003982168477667346,6.61522422818211,1.0,22.374231201777654,0.0,1.0,90.91175489405707,5015.05398539791,1.0,1.0,-0.00457599808625005,18.519787675092594,0.04206388152939351,-44.27843972200038,1.0,22.03809262109475,1.0,-0.0011824519120267427,4.093194286500122,0.9448045233716542,1.0,-0.8362863960101213,7.479499129959458
0.32999999999999996,29.127094734023007,-0.0004786883917552782,22.259853709956385,91.121487079978,-0.0016842334052298387,6.055435287268721,91.32247098617918,17.570499457083923,-0.027829070074192816,7.337338374625,0.029526143048991437,-0.08845158627449363,-0.9166373911763366,0.10358704263121297,3.4552052148242804,0.055709099706805626,5109.509335109357,0.26875434741788407,91.43252448083327,2.124875428187094,1.2223843209198102,101057.87469201384,288.00531095088525,-0.10114574227902196,-0.1349178589895554,-0.13488317908401584,390.655,0.20966170377941715,0.86,nominal,4388.191447895513,nan,pitch_program,12.835,0.0,0.0,-2.6740395083283155,0.049748833464068457,0.07314054403882499,-2.614152434226578,0.01595686939456281,0.07616713889929723,0.86,0.0,0.0,0.0,0.0,0.0,0.0,-0.04562556712627829,0.00027849990924583523,0.0013293673556165862,-0.04562556712627829,0.00027849990924583523,0.0013293673556165862,0.32999999999999996,1.0,20.721043431930116,0.030035329493354013,2.826129824482114,-0.001863466242003836,-0.016245803264032018,0.004337307941945971,20.912903978495653,0.01691776788799246,1.0,0.0,17.556279157399636,0.177559492649353,22.894764029668696,88.55340540167118,0.003982168477667346,6.61522422818211,1.0,22.374231201777654,0.0,1.0,91.3496684298557,5122.885593897083,1.0,1.0,-0.00457599808625005,18.519787675092594,0.04206388152939351,-44.27843972200038,1.0,22.03809262109475,1.0,-0.0011824519120267427,4.093194286500122,0.9448045233716542,1.0,-0.8362863960101213,7.479499129959458
0.36,31.878846588146033,-0.0005245642064963589,22.43757395321829,91.72506180410085,-0.0015291938247026916,5.924008108730169,91.91616200308222,17.56420960597054,-0.031049590876239378,7.355838993857141,0.032682720514916226,-0.093896191979792,-0.6167408511022197,0.10403860804340105,3.580786580010388,0.05237582960364762,5175.9638019037275,0.2704992670551533,92.02597648775249,2.15720292320491,1.2223634546869795,101055.744289634,288.0041557693041,-0.10114574227902196,-0.1349178589895554,-0.13488317908401584,396.46,0.21277720515643656,0.86,nominal,4444.327853296756,nan,pitch_program,12.82,0.0,0.0,-2.763522916445131,0.05136061594542525,0.06852426579889327,-2.70377472355771,0.006382747757825125,0.07158141503905485,0.86,0.0,0.0,0.0,0.0,0.0,0.0,-0.047189771158281525,0.00011139996369833409,0.0012493313756680926,-0.047189771158281525,0.00011139996369833409,0.0012493313756680926,0.36,1.0,21.00156948674581,-0.02445858379688146,2.9590055723241004,-0.0024893539948818806,-0.011740999496638732,0.002121794298535991,21.209013015837847,0.012188107463310503,1.0,0.0,17.556279157399636,0.177559492649353,22.894764029668696,88.55340540167118,0.003982168477667346,6.61522422818211,1.0,23.02566168284351,0.0,1.0,92.24853855246023,5182.9233410945035,1.0,1.0,0.1875316755096849,18.511174372407112,0.00516851394749651,-44.33805982872581,1.0,22.922162684659124,1.0,0.016457123498817804,4.0741617516033655,0.9439060651169543,1.0,-0.030642255663543644,7.588551592800899
0.39,34.64895523362467,-0.000564173646198247,22.611520844599806,92.33695484928786,-0.0013203146567296025,5.798229712717209,92.51882349221748,17.557826289815846,-0.03460313367250588,7.3648866167040445,0.03584839046413873,-0.10493301040790055,-0.3016473380157163,0.10448002566330505,3.692384782376275,0.049091141346115565,5243.865124015334,0.2722705786936611,92.62840880565392,2.189556113269978,1.2223430317493755,101053.6591551219,288.0030251145101,-0.10114574227902196,-0.1349178589895554,-0.13488317908401584,402.265,0.21589270653345596,0.86,nominal,4501.609621082741,nan,pitch_program,12.805,0.0,0.0,-2.863604636866668,0.0577717643149702,0.06394431846966396,-2.799672671543085,0.037216157692112166,0.06699915709742031,0.86,0.0,0.0,0.0,0.0,0.0,0.0,-0.04886350609653258,0.0006495444866687714,0.0011693558874109116,-0.04886350609653258,0.0006495444866687714,0.0011693558874109116,0.39,1.0,21.276433297474803,0.03717479872823255,3.111215929606981,0.0030255074897381335,-0.004080983330045768,0.002316802250539527,21.502736113997102,0.005583519784032113,1.0,0.0,17.556279157399636,0.177559492649353,22.894764029668696,88.55340540167118,0.003982168477667346,6.61522422818211,1.0,23.02566168284351,0.0,1.0,92.09677495392441,5304.13374953335,1.0,1.0,0.1875316755096849,18.511174372407112,0.00516851394749651,-44.33805982872581,1.0,22.922162684659124,1.0,0.016457123498817804,4.0741617516033655,0.9439060651169543,1.0,-0.030642255663543644,7.588551592800899
0.42,37.43767323630903,-0.00059584379618096,22.78185208988077,92.95726675614551,-0.0010556716660904348,5.677708176032053,93.13049883910115,17.551349508619843,-0.03781827722081583,7.366430481078531,0.0390240349848996,-0.09360073763210831,-0.05152848333227279,0.10494877775982013,3.7922524294063975,0.045811314730858,5313.2379334731595,0.2740684084237563,93.2398641894855,2.199584980603546,1.2223230335742734,101051.61739580739,288.00191796141576,-0.10114574227902196,-0.1349178589895554,-0.13488317908401584,404.1773684210526,0.21691906078826353,0.86,nominal,4560.058556807139,nan,pitch_program,12.79,0.0,0.0,-2.945137420600161,0.04396075902370259,0.05937372516557497,-2.8869515209773304,0.014886463076844868,0.06242389793831311,0.86,0.0,0.0,0.0,0.0,0.0,0.0,-0.05038680938651256,0.0002598177946675086,0.0010895025509524638,-0.05038680938651256,0.0002598177946675086,0.0010895025509524638,0.42,1.0,21.371186050950456,-0.0011157474777678481,3.2634482559825324,-0.0013173330260466045,-0.0008610649854515984,0.0017793301630760702,21.618919699853347,0.0023754610162905598,1.0,0.0,36.65686519079079,0.8710218978820843,23.198276237489836,92.79140077231911,0.04042269489460061,5.505813843941427,1.0,23.403440523265534,0.0,1.0,92.84402761539002,5345.657553283866,1.0,1.0,-1.2819575456182266,18.500145581122236,-0.030319992841518855,-44.432714040302706,1.0,22.86563321065391,1.0,0.00549958999741945,4.067835261461025,0.9430453697752981,1.0,-0.13862253995763413,7.94263625008408
0.44999999999999996,40.24505748226473,-0.0006179999935532545,22.948691774765795,93.57947486518995,-0.000738539912409816,5.56132282950092,93.74458079379355,17.544841936796196,-0.0411335356770546,7.362303190197479,0.04221084005881749,-0.09689258310444836,0.13750374523663375,0.10544534123700837,3.882717513098348,0.04256606592452747,5383.344278258998,0.27587333207219095,93.85373431239935,2.1985073219161,1.2223034455774027,101049.61752218448,288.000833503464,-0.10114574227902196,-0.1349178589895554,-0.13488317908401584,404.14342105263154,0.21690084148196515,0.86,nominal,4619.07300229505,nan,pitch_program,12.775,0.0,0.0,-3.0084591715657063,0.04350007821646022,0.054836044183498765,-2.959856111330356,0.005954585230737947,0.024969559175325243,0.86,0.0,0.0,0.0,0.0,0.0,0.0,-0.05165923452799055,0.00010392711786700343,0.0004358010203809855,-0.05165923452799055,0.00010392711786700343,0.0004358010203809855,0.44999999999999996,1.0,21.326052505480604,-0.031580691453270825,3.380679883440191,-0.002842513530290545,0.0020099367868602813,0.005058972056766479,21.59237155295558,0.006141085191413901,1.0,0.0,36.65686519079079,0.8710218978820843,23.198276237489836,92.79140077231911,0.04042269489460061,5.505813843941427,1.0,23.403440523265534,0.0,1.0,93.54042227995794,5256.320311906209,1.0,1.0,-1.2819575456182266,18.500145581122236,-0.030319992841518855,-44.432714040302706,1.0,22.86563321065391,1.0,0.00549958999741945,4.067835261461025,0.9430453697752981,1.0,-0.13862253995763413,7.94263625008408
0.48,43.071067524368644,-0.0006319951255368839,23.112145628617498,94.20033473679732,-0.0004665043994543174,5.4484617950567396,94.35777021885629,17.538334911551736,-0.0447854503755863,7.353143054094939,0.04599909351397261,-0.10555921422065168,0.3052438854887338,0.12546425954622703,3.9647386559237137,0.038725125283360126,5453.808536462351,0.2776756498834445,94.46671921270807,2.197496030755077,1.2222842553306361,101047.65826491413,287.99977105341395,-0.10114574227902196,-0.1349178589895554,-0.13488317908401584,404.1094736842105,0.2168826221756668,0.86,nominal,4678.347123266123,nan,pitch_program,12.76,0.0,0.0,-3.06714735282163,0.047178924557176795,0.057789256506821894,-3.0242308562251203,0.0023818340922951787,0.04466137757422323,0.86,0.0,0.0,0.0,0.0,0.0,0.0,-0.0527827857815356,4.157084714680137e-05,0.0007794880871465535,-0.0527827857815356,4.157084714680137e-05,0.0007794880871465535,0.48,1.0,21.185318178245225,0.024947348896148417,3.5123593522831356,-0.0035629565552496223,0.007032295049455999,0.0012859591560216315,21.47451971298253,0.007987585619456951,1.0,0.0,36.65686519079079,0.8710218978820843,23.198276237489836,92.79140077231911,0.04042269489460061,5.505813843941427,1.0,22.822376142055532,0.0,1.0,94.82947318060798,5470.415828214394,1.0,1.0,-1.0459063767908028,18.467892474743714,-0.018894724079946593,-44.251596599545636,1.0,23.224690063325166,1.0,0.019625727535803352,4.085099922617149,0.9422196359284563,1.0,-0.19518106860286982,7.159391868321555
0.51,45.91566453604694,-0.0006338079007509455,23.27231369140869,94.81990038927654,-6.0425840468718024e-05,5.338935426373128,94.97008866650046,17.531828432886467,-0.048758714371541764,7.339226036451606,0.049941151023293266,-0.11564054446937133,0.4637940496100291,0.13070198234640085,4.038776291345598,0.03484276564721263,5524.631206828884,0.2794754249231786,95.07884031350837,2.196533168365108,1.2222654510746975,101045.73842297246,287.99872996100584,-0.10114574227902196,-0.1349178589895554,-0.13488317908401584,404.0755263157895,0.21686440286936848,0.86,nominal,4737.882305723332,nan,pitch_program,12.745,0.0,0.0,-3.125280042998881,0.05216836485051849,0.05427128590876671,-3.084860368289377,0.0009527336369180714,0.017864551029689292,0.86,0.0,0.0,0.0,0.0,0.0,0.0,-0.0538409703909345,1.6628338858720547e-05,0.0003117952348586214,-0.0538409703909345,1.6628338858720547e-05,0.0003117952348586214,0.51,1.0,21.188064811815778,-0.025881487635206063,3.597367915601341,0.0006454909848508592,0.004987827212191865,0.0008510961662823357,21.49129629038942,0.005100925758572251,1.0,0.0,36.65686519079079,0.8710218978820843,23.198276237489836,92.79140077231911,0.04042269489460061,5.505813843941427,1.0,22.822376142055532,0.0,1.0,95.41879244755957,5556.300812729759,1.0,1.0,-1.0459063767908028,18.467892474743714,-0.018894724079946593,-44.251596599545636,1.0,23.224690063325166,1.0,0.019625727535803352,4.085099922617149,0.9422196359284563,1.0,-0.19518106860286982,7.159391868321555
0.54,48.778811351828516,-0.0006234488955987053,23.429289985868344,95.4382271927191,0.00034530017174134146,5.232543148655086,95.58156055228874,17.525322500800385,-0.053099097433830816,7.321149223454039,0.05443244568895233,-0.12557837909928374,0.6024282144736296,0.14902184284151834,4.105614317802194,0.03044561223442587,5595.813137788141,0.28127272732503905,95.69012144583462,2.195613126200276,1.222247021757578,101043.85686757076,287.9977096150918,-0.10114574227902196,-0.1349178589895554,-0.13488317908401584,404.0415789473684,0.2168461835630701,0.86,nominal,4797.680205445335,nan,pitch_program,12.73,0.0,0.0,-3.1787767465149512,0.05633986632987358,0.0555831645153908,-3.1412101952247213,0.0003810934547672286,0.007145820411875717,0.86,0.0,0.0,0.0,0.0,0.0,0.0,-0.05482446040388525,6.651335543488219e-06,0.00012471809394344857,-0.05482446040388525,6.651335543488219e-06,0.00012471809394344857,0.54,1.0,21.212703145244497,-0.05477211158721596,3.6746161909277735,-0.00455583702707626,0.01358798575517138,0.002741079870646304,21.528691991458796,0.014591179758925656,1.0,0.0,36.65686519079079,0.8710218978820843,23.198276237489836,92.79140077231911,0.04042269489460061,5.505813843941427,1.0,21.98102324810832,0.0,1.0,95.12668993732436,5525.790095948139,1.0,1.0,-1.1110833923341061,18.499707969431448,0.028721228953317086,-44.22227736020196,1.0,23.323386956991836,1.0,-0.007557579309163013,4.070317241585141,0.9414267750353291,1.0,-0.47567681369784515,7.284822784156249
0.57,51.66047229665399,-0.0005991685399085332,23.583163217968966,96.05536482751596,0.0008093451896724022,5.1291077366873505,96.19220789116328,17.518817115293494,-0.057789022561949316,7.299641262374544,0.05956523784212238,-0.1345601734063458,0.7167674914094878,0.17039600541657665,4.166148887853627,0.02547553092873809,5667.355007119186,0.2830676210847732,96.30058435541486,2.1947348816426477,1.2222289569522364,101042.01253375101,287.9967094390832,-0.10114574227902196,-0.1349178589895554,-0.13488317908401584,404.0076315789474,0.21682796425677175,0.86,nominal,4857.742257059883,nan,pitch_program,12.715,0.0,0.0,-3.2256972483383155,0.05919816628827955,0.057314735815372254,-3.1919024270928777,0.03567133715487462,0.037247169653973636,0.86,0.0,0.0,0.0,0.0,0.0,0.0,-0.05570920675516897,0.0006225822819415484,0.000650085747510757,-0.05570920675516897,0.0006225822819415484,0.000650085747510757,0.57,1.0,21.206991706100137,0.00814000653110983,3.7538805406477653,-0.006502328323203918,0.014421825388078404,0.0011695880009593626,21.536670647891707,0.015863078428821776,1.0,0.0,36.65686519079079,0.8710218978820843,23.198276237489836,92.79140077231911,0.04042269489460061,5.505813843941427,1.0,21.98102324810832,0.0,1.0,95.86608258005617,5681.794496187123,1.0,1.0,-1.1110833923341061,18.499707969431448,0.028721228953317086,-44.22227736020196,1.0,23.323386956991836,1.0,-0.007557579309163013,4.070317241585141,0.9414267750353291,1.0,-0.47567681369784515,7.284822784156249
0.6,54.560612947303234,-0.0005550624164820883,23.734017766341974,96.67135502164136,0.00147020411421483,5.028484945766957,96.80204824657135,17.51231227636579,-0.06189524634717627,7.275240533507661,0.0646484810694726,-0.11538095597602124,0.813181655671424,0.1689221561514218,4.2210611406038,0.020635228367799782,5739.257052365772,0.284860157580739,96.91024649746512,2.1938938944532715,1.22221124674038,101040.20440851848,287.99572888451877,-0.10114574227902196,-0.1349178589895554,-0.13488317908401584,403.9736842105263,0.21680974495047337,0.86,nominal,4918.069477694061,nan,pitch_program,12.7,0.0,0.0,-3.2679643268382983,0.03729170019771998,0.049385614012658986,-3.23753956694013,0.014268534861949844,0.014898867861589454,0.86,0.0,0.0,0.0,0.0,0.0,0.0,-0.05650572510669662,0.00024903291277661937,0.0002600342990043028,-0.05650572510669662,0.00024903291277661937,0.0002600342990043028,0.6,1.0,21.186394460042656,0.02316035746250654,3.9156662037083088,-0.0019049597272655329,0.01236972125539886,0.003136378745643656,21.54521497775196,0.012902548086904974,1.0,0.0,36.65686519079079,0.8710218978820843,23.198276237489836,92.79140077231911,0.04042269489460061,5.505813843941427,1.0,23.519454897609652,0.0,1.0,96.61582689563134,5760.662986232268,1.0,1.0,0.27287469029160777,18.563482622227305,-0.06502299247324256,-44.321252257918964,1.0,23.88543038480724,1.0,0.01705392910757822,4.058617832805051,0.9406649555841451,1.0,-0.5675062150312764,6.9310054162390005
0.63,57.47919999254349,-0.0004901109028569053,23.88193422165908,97.28623484134205,0.002165050454172767,4.930548510570134,97.41109691871499,17.505807984017277,-0.06589190884943215,7.248320178066202,0.06998055837784496,-0.11075574322127588,0.897148027333808,0.1773108599336289,4.270852905559962,0.015561853498749348,5811.519249508398,0.2866503803841848,97.51912267276438,2.193083547267532,1.22219388164909,101038.43152437013,287.99476742755917,-0.10114574227902196,-0.1349178589895554,-0.13488317908401584,403.9397368421053,0.21679152564417503,0.86,nominal,4978.662671688476,nan,pitch_program,12.685,0.0,0.0,-3.3072952590661617,0.02866483823792179,0.045332487425960584,-3.279392982215749,0.005707413944779938,0.005959547144635782,0.86,0.0,0.0,0.0,0.0,0.0,0.0,-0.057236205006460664,9.961316511064775e-05,0.00010401371960172111,-0.057236205006460664,9.961316511064775e-05,0.00010401371960172111,0.63,1.0,21.135699959778883,0.01351074094889064,3.9756809291503217,-0.0008565677811788871,0.01774796590852292,0.004022994299340629,21.506371943689796,0.018218355726749128,1.0,0.0,55.84558430821297,1.9074432261841743,23.528278009197496,97.08105884592327,0.14511308578751497,5.0329860879181885,1.0,23.519454897609652,0.0,1.0,97.38863478779587,5778.662302838218,1.0,1.0,0.27287469029160777,18.563482622227305,-0.06502299247324256,-44.321252257918964,1.0,23.88543038480724,1.0,0.01705392910757822,4.058617832805051,0.9406649555841451,1.0,-0.5675062150312764,6.9310054162390005
0.6599999999999999,60.4162011415011,-0.0004019060731648597,24.026989632264296,97.90003829858681,0.0029401609897348547,4.835180353507249,98.01936786452079,17.49930423824795,-0.06992881884234896,7.219240847804124,0.07560101408755822,-0.11097308732280292,0.9690900599367168,0.1870061087752921,4.316005133424063,0.01025300786916823,5884.141497323207,0.2884383300244858,98.1272266486897,2.1922999580459206,1.222176852621947,101036.69295634504,287.9938245673903,-0.10114574227902196,-0.1349178589895554,-0.13488317908401584,403.9057894736842,0.21677330633787664,0.86,nominal,5039.522516157371,nan,pitch_program,12.67,0.0,0.0,-3.3436357996031174,0.024423676313184196,0.04145795480122834,-3.31793867264817,0.0022829655779119753,0.002383818857854313,0.86,0.0,0.0,0.0,0.0,0.0,0.0,-0.057908954216960885,3.98452660442591e-05,4.160548784068845e-05,-0.057908954216960885,3.98452660442591e-05,4.160548784068845e-05,0.6599999999999999,1.0,21.132648545432144,-0.030163105235680783,4.0701744243508955,0.0006440534855474231,0.019802271495901334,0.0032860208649301216,21.52106094509081,0.02008339349847003,1.0,0.0,55.84558430821297,1.9074432261841743,23.528278009197496,97.08105884592327,0.14511308578751497,5.0329860879181885,1.0,24.115469980831833,0.0,1.0,98.29046084415366,5781.083143237069,1.0,1.0,-0.8269024999802838,18.591351419385163,0.0006693228984115847,-44.27981639911889,1.0,23.97122021919044,1.0,0.004248272925752047,4.045756558006644,0.9399325259193393,1.0,0.028998448711210788,6.489396838857222
0.69,63.371585023890354,-0.00028735205939027763,24.16925785055006,98.5127960796419,0.0038184671258194016,4.742273942858835,98.62687345829694,17.492801039057817,-0.0740216838180795,7.188369595853718,0.0814387367745818,-0.11202732142664444,1.0287984287721021,0.19434727193827953,4.3569951855869276,0.00479302633113275,5957.123545493396,0.29022404233791166,98.73457059722043,2.1915412763899536,1.2221601509783155,101034.98781786651,287.9928998239714,-0.10114574227902196,-0.1349178589895554,-0.13488317908401584,403.8718421052631,0.21675508703157828,0.86,nominal,5100.649536579556,nan,pitch_program,12.655,0.0,0.0,-3.3767071965575766,0.02095009570591658,0.03630777703138715,-3.3531997869938137,0.0009131862311647902,0.0009535275431417253,0.86,0.0,0.0,0.0,0.0,0.0,0.0,-0.05852437676021458,1.593810641770364e-05,1.664219513627538e-05,-0.05852437676021458,1.593810641770364e-05,1.664219513627538e-05,0.69,1.0,21.165635315217198,0.018510300819744155,4.219022484328542,-0.003272119503277807,0.020340802266636142,0.003823574443487558,21.582043732030467,0.02095410996484967,1.0,0.0,55.84558430821297,1.9074432261841743,23.528278009197496,97.08105884592327,0.14511308578751497,5.0329860879181885,1.0,24.115469980831833,0.0,1.0,99.07562255304576,5965.552753035118,1.0,1.0,-0.8269024999802838,18.591351419385163,0.0006693228984115847,-44.27981639911889,1.0,23.97122021919044,1.0,0.004248272925752047,4.045756558006644,0.9399325259193393,1.0,0.028998448711210788,6.489396838857222
0.72,66.34532107520896,-0.0001430001985397214,24.308809955980223,99.12453504395343,0.004811728695018541,4.651736847672078,99.23362397157868,17.48629838644687,-0.07813034934685258,7.156025225559968,0.08737414610925788,-0.11225396565944269,1.0778841140529407,0.197730276423113,4.3942410047600085,-0.0006962692040870664,6030.464927743942,0.29200754699966064,99.34116459519446,2.1908054792015146,1.2221437683636545,101033.31525566771,287.9919927352861,-0.10114574227902196,-0.1349178589895554,-0.13488317908401584,403.8378947368421,0.21673686772527995,0.86,nominal,5162.0440544211515,nan,pitch_program,12.64,0.0,0.0,-3.406894983509178,0.016790502238459612,0.029372473821718797,-3.3854169049030323,0.00036527449246591604,0.0003814110172566902,0.86,0.0,0.0,0.0,0.0,0.0,0.0,-0.059086671543233674,6.375242567081456e-06,6.6568780545101535e-06,-0.059086671543233674,6.375242567081456e-06,6.6568780545101535e-06,0.72,1.0,21.109309413821727,-0.013723564428946752,4.270954302699653,0.0016504383654458964,0.019222882971730356,0.002800804468033727,21.53704211168358,0.01949583756115993,1.0,0.0,55.84558430821297,1.9074432261841743,23.528278009197496,97.08105884592327,0.14511308578751497,5.0329860879181885,1.0,24.68446969261775,0.0,1.0,99.32308809711783,5933.765536704094,1.0,1.0,0.3795677652214006,18.599781705208365,0.02578269006361723,-44.16723250414103,1.0,24.324053290580178,1.0,0.0028920533342333523,4.065988599150072,0.9392279751100494,1.0,0.08310020931863535,6.847262435768071
0.75,69.33737943863586,3.476050879552462e-05,24.44571459753032,99.7352787808971,0.005925356911174868,4.563488051669876,99.83962786294254,17.479796280415112,-0.08219174080072843,7.122469576648076,0.09326679608720347,-0.11096819542078593,1.1182478902918287,0.19646352843391626,4.4280943090662035,-0.006077820064237447,6104.164989608943,0.29378886838496515,99.947016916991,2.1900902070364503,1.2221276967092825,101031.67444568299,287.991102855116,-0.10114574227902196,-0.1349178589895554,-0.13488317908401584,403.80394736842106,0.21671864841898159,0.86,nominal,5223.706212963297,nan,pitch_program,12.625,0.0,0.0,-3.4347180312622942,0.011395338398886025,0.02056011213735455,-3.4149975807185897,0.00014610979698636645,0.00015256440690267608,0.86,0.0,0.0,0.0,0.0,0.0,0.0,-0.05960295173118021,2.550097026832583e-06,2.6627512218040614e-06,-0.05960295173118021,2.550097026832583e-06,2.6627512218040614e-06,0.75,1.0,21.014769813891817,-0.002002168147378106,4.4244658892465045,0.00014870597869993734,0.01979152945860601,0.003121998744607231,21.475484924551573,0.02003680682993924,1.0,0.0,55.84558430821297,1.9074432261841743,23.528278009197496,97.08105884592327,0.14511308578751497,5.0329860879181885,1.0,24.68446969261775,0.0,1.0,100.37799578056553,6049.930450267768,1.0,1.0,0.3795677652214006,18.599781705208365,0.02578269006361723,-44.16723250414103,1.0,24.324053290580178,1.0,0.0028920533342333523,4.065988599150072,0.9392279751100494,1.0,0.08310020931863535,6.847262435768071
0.78,72.34773088704267,0.0002495697864468954,24.580038247871475,100.34504828022675,0.007160309255045694,4.477455011371886,100.44489219970285,17.473294720962542,-0.08613450335433893,7.08793512356898,0.09896911559230039,-0.10791445411064222,1.1508701644800798,0.19030841202540685,4.458870182437997,-0.011210739496899678,6178.2229332299075,0.2955680268046929,100.55213445469917,2.1893936693947396,1.2221119282025026,101030.06458999694,287.9902297513888,-0.10114574227902196,-0.1349178589895554,-0.13488317908401584,403.77,0.21670042911268322,0.86,nominal,5285.636016588452,nan,pitch_program,12.61,0.0,0.0,-3.4603894927245658,0.004608095678078179,0.00998067719798834,-3.442232727922175,5.8443918794546585e-05,6.102576276107044e-05,0.86,0.0,0.0,0.0,0.0,0.0,0.0,-0.0600782947221481,1.0200388107330333e-06,1.0651004887216247e-06,-0.0600782947221481,1.0200388107330333e-06,1.0651004887216247e-06,0.78,1.0,20.975407718189132,-0.017209369181880235,4.463519044437564,0.0013032805593783398,0.017251417993979907,0.0035296903800697737,21.445070001441188,0.017656972481108542,1.0,0.0,55.84558430821297,1.9074432261841743,23.528278009197496,97.08105884592327,0.14511308578751497,5.0329860879181885,1.0,25.101432610401652,0.0,1.0,100.86218771211496,6238.267425615234,1.0,1.0,-0.22294828070584746,18.70989706213033,0.05094821341350565,-44.19715059214277,1.0,24.7751916026735,1.0,-0.01270154164871168,4.06382340373093,0.9385499043803213,1.0,-0.3280897691304189,7.2211046457608274
0.8099999999999999,75.37634675093128,0.0005049853640340769,24.71184544123527,100.9538621296202,0.008513852586239382,4.393573112126475,101.04942273988334,17.466793708089163,-0.08988623545437548,7.052636002787937,0.10433454491368019,-0.10304394747726914,1.1763633753294622,0.1792948665112006,4.486858656923355,-0.015957351530084964,6252.637822241937,0.29734503874714274,101.15652280019764,2.1887147205953355,1.2220964552586582,101028.48491399045,287.98937300463194,-0.10114574227902196,-0.1349178589895554,-0.13488317908401584,403.73605263157896,0.21668220980638486,0.86,nominal,5347.833337128116,nan,pitch_program,12.595,0.0,0.0,-3.4840039706950567,-0.0035425976023920596,-0.0021440528004879823,-3.467295473585904,2.3377567517818635e-05,2.441030510442817e-05,0.86,0.0,0.0,0.0,0.0,0.0,0.0,-0.0605157221535701,4.080155242932133e-07,4.2604019548864985e-07,-0.0605157221535701,4.080155242932133e-07,4.2604019548864985e-07,0.8099999999999999,1.0,20.98932082383441,0.06840822286850481,4.587886969098605,5.715835726354543e-06,0.020976627193466615,0.004395749029745141,21.48499418599013,0.021432254445507278,1.0,0.0,55.84558430821297,1.9074432261841743,23.528278009197496,97.08105884592327,0.14511308578751497,5.0329860879181885,1.0,25.101432610401652,0.0,1.0,100.56656648153825,6251.088027370711,1.0,1.0,-0.22294828070584746,18.70989706213033,0.05094821341350565,-44.19715059214277,1.0,24.7751916026735,1.0,-0.01270154164871168,4.06382340373093,0.9385499043803213,1.0,-0.3280897691304189,7.2211046457608274
0.84,78.42319884866373,0.0008043830073708506,24.84119900920245,101.56173659108197,0.009979921444559123,4.311785598906052,101.65322392352387,17.46029324179497,-0.09337769214674503,7.016761606239455,0.10922336020698323,-0.09642404746761188,1.1955530710515245,0.1636460098881557,4.512318575713543,-0.020188412065599678,6327.408575766787,0.2991199168535537,101.76018623663542,2.18805237453352,1.2220812704934227,101026.93466351116,287.98853220644014,-0.10114574227902196,-0.1349178589895554,-0.13488317908401584,403.7021052631579,0.2166639905000865,0.86,nominal,5410.297911286637,nan,pitch_program,12.58,0.0,0.0,-3.505744510099058,-0.012928864693956314,-0.015520822920871591,-3.4903648954937965,9.351027007127455e-06,9.764122041771271e-06,0.86,0.0,0.0,0.0,0.0,0.0,0.0,-0.06091835952239454,1.6320620971728534e-07,1.7041607819545997e-07,-0.06091835952239454,1.6320620971728534e-07,1.7041607819545997e-07,0.84,1.0,20.907657156417482,-0.0144580635406922,4.6775965848179455,-0.00309316944713699,0.019410795810561297,0.005343792197548458,21.424524419837116,0.020369163121703983,1.0,0.0,77.35234605616512,-0.014049773797687844,21.9372940269841,101.4526988540636,0.21778942147377592,4.271989118928707,1.0,24.834095437001324,0.0,1.0,101.82444000615807,6345.964089550199,1.0,1.0,-0.7348704692841005,18.765897541007124,0.04338243779199743,-44.19230301666473,1.0,24.75721765187536,1.0,0.024640362045200204,4.074238065027903,0.9378970024769939,1.0,-0.11500758415065372,6.974999997850705
0.87,81.4882594239549,0.0011508639862414644,24.96816028831648,102.1686858430388,0.011549365962353795,4.232042637134302,102.25629899993415,17.45379332207997,-0.09654569692205349,6.9804756119395925,0.11350747806264389,-0.08820015462622208,1.2092966039862592,0.14374439418384483,4.535477378143948,-0.023787472629557348,6402.533979241099,0.3008926702894185,102.36312786458612,2.1874056783502756,1.2220663666984115,101025.41310238262,287.9877069581259,-0.10114574227902196,-0.1349178589895554,-0.13488317908401584,403.66815789473685,0.21664577119378817,0.86,nominal,5473.0293516733855,nan,pitch_program,12.565,0.0,0.0,-3.525819716094808,-0.023360840331056464,-0.029806117536183202,-3.511637787854404,3.740410802850982e-06,3.905648816708509e-06,0.86,0.0,0.0,0.0,0.0,0.0,0.0,-0.06128964153550948,6.528248388691414e-08,6.8166431278184e-08,-0.06128964153550948,6.528248388691414e-08,6.8166431278184e-08,0.87,1.0,20.872393614825324,0.046744364225464456,4.702785744651426,0.0023229698195002136,0.02305507635834315,0.003601399178297638,21.395681667287082,0.023450006625005144,1.0,0.0,77.35234605616512,-0.014049773797687844,21.9372940269841,101.4526988540636,0.21778942147377592,4.271989118928707,1.0,24.834095437001324,0.0,1.0,101.88069777512156,6574.429723183544,1.0,1.0,-0.7348704692841005,18.765897541007124,0.04338243779199743,-44.19230301666473,1.0,24.75721765187536,1.0,0.024640362045200204,4.074238065027903,0.9378970024769939,1.0,-0.11500758415065372,6.974999997850705
0.8999999999999999,84.57150109161252,0.001547170266682369,25.092789295468943,102.77472225525405,0.013210209348030152,4.154300238415464,102.85865019348222,17.447293948944157,-0.09933542795140098,6.94392224574582,0.11707467773599478,-0.07857782496046244,1.2182420427716327,0.12011250400389852,4.556538167196593,-0.026654701032776344,6478.012700662202,0.3026633052286017,102.9653497666056,2.1867738749452648,1.2220517368205681,101023.91951029933,287.9868968695794,-0.10114574227902196,-0.1349178589895554,-0.13488317908401584,403.6342105263158,0.2166275518874898,0.86,nominal,5536.027161956981,nan,pitch_program,12.55,0.0,0.0,-3.5443758908104623,-0.03460497806862189,-0.04462046434278706,-3.5312806496280387,1.4961643211403928e-06,1.5622595266834035e-06,0.86,0.0,0.0,0.0,0.0,0.0,0.0,-0.06163247414797355,2.6112993554765656e-08,2.7266572511273598e-08,-0.06163247414797355,2.6112993554765656e-08,2.7266572511273598e-08,0.8999999999999999,1.0,20.95543518259326,0.009377016466769873,4.7600854279449685,-0.0007912961530950979,0.01810748217207822,0.004522135256824001,21.489270925316177,0.018680384564966655,1.0,0.0,77.35234605616512,-0.014049773797687844,21.9372940269841,101.4526988540636,0.21778942147377592,4.271989118928707,1.0,25.260767638220575,0.0,1.0,102.29938720859957,6403.769014318868,1.0,1.0,0.2748424848658357,18.892684450330453,0.01463652385254703,-44.15650901489466,1.0,25.22046314744108,1.0,0.0016623589179689986,4.087523830959134,0.9372680267613276,1.0,-0.08064967740439673,6.485926548371781
0.9299999999999999,87.67289678861508,0.001995609117125882,25.215144885365206,103.3798565667521,0.014947961681450444,4.078519663208791,103.46027880228709,17.44079512238753,-0.10170230875689118,6.907230034069271,0.1198323239015872,-0.067812128816747,1.222911793252539,0.0933964496591673,4.57568397399177,-0.028710214541691297,6553.843299177027,0.3044318251422995,103.56685310540892,2.1861562751088677,1.2220373739436576,101022.45318093673,287.9861015582451,-0.10114574227902196,-0.1349178589895554,-0.13488317908401584,403.6002631578947,0.21660933258119142,0.86,nominal,5599.290745513555,nan,pitch_program,12.535000000000002,0.0,0.0,-3.5615242120666917,-0.046395367329167936,-0.05956058376828836,-3.5494267870912304,5.984657284561572e-07,-0.035735725357162344,0.86,0.0,0.0,0.0,0.0,0.0,0.0,-0.061949183993225736,1.0445197421906262e-08,-0.0006237060680709095,-0.061949183993225736,1.0445197421906262e-08,-0.0006237060680709095,0.9299999999999999,1.0,20.907551729984647,-0.03269849360441254,4.738831900142831,-0.0035686032153436527,0.022335578305107358,0.0013371900866818616,21.437894400133594,0.022658355290269057,1.0,0.0,77.35234605616512,-0.014049773797687844,21.9372940269841,101.4526988540636,0.21778942147377592,4.271989118928707,1.0,25.260767638220575,0.0,1.0,104.58095677302907,6525.967228306684,1.0,1.0,0.2748424848658357,18.892684450330453,0.01463652385254703,-44.15650901489466,1.0,25.22046314744108,1.0,0.0016623589179689986,4.087523830959134,0.9372680267613276,1.0,-0.08064967740439673,6.485926548371781
0.96,90.79241973648949,0.0024941501400105367,25.335284901796513,103.98409826248047,0.01661803409615515,4.004667214376919,104.06118549737052,17.434296842410095,-0.10370734471297971,6.870510705432408,0.12249244642698272,-0.0561990072514137,1.2238178987362027,0.09022449417352588,4.593078499358221,-0.030741035929462143,6630.024238609638,0.3061982311918165,104.16763825736484,2.1855526395163984,1.2220232712705033,101021.01342013704,287.9853206481383,-0.10114574227902196,-0.1349178589895554,-0.13488317908401584,403.56631578947366,0.21659111327489305,0.86,nominal,5662.81943524128,nan,pitch_program,12.520000000000001,0.0,0.0,-3.5773933148978077,-0.05910401970873766,-0.06431714009512951,-3.5662067037751766,-0.03546217243895121,-0.05288457419994264,0.86,0.0,0.0,0.0,0.0,0.0,0.0,-0.062242048787570926,-0.0006189316689696864,-0.0009230099433042451,-0.062242048787570926,-0.0006189316689696864,-0.0009230099433042451,0.96,1.0,20.87292195761412,0.015173639915611745,4.965928606907071,0.0011085609384481072,0.023143297187896854,0.0016495371411644221,21.45552488793728,0.023228475732635756,1.0,0.0,77.35234605616512,-0.014049773797687844,21.9372940269841,101.4526988540636,0.21778942147377592,4.271989118928707,1.0,25.2414400329337,0.0,1.0,104.63708816369069,6604.885912968413,1.0,1.0,0.2230564874153577,18.845753235096083,0.05058164986865356,-44.16992522377808,1.0,25.365706302931947,1.0,0.004440209450115024,4.093473753703047,0.9366617877455087,1.0,-0.4698142028612994,7.129760633767871
0.99,93.93004338955559,0.0030426426663912784,25.453266293826005,104.58745510220331,0.01828308421269139,3.9327130676497495,104.66136981283506,17.427799109011847,-0.1063030361071001,6.833863649331097,0.12537133190751437,-0.0750738766889752,1.2213919136050797,0.09751600630467563,4.608869433184459,-0.03295190323930055,6706.553875257438,0.3079625220163411,104.76770474020506,2.184962587039864,1.2220094221093158,101019.59954451324,287.9845537690901,-0.10114574227902196,-0.1349178589895554,-0.13488317908401584,403.53236842105264,0.21657289396859472,0.86,nominal,5726.61243944986,nan,pitch_program,12.505,0.0,0.0,-3.592073478482005,-0.04461107191915413,-0.06487479530966403,-3.5817267685992737,-0.014184868975580484,-0.060078706865775475,0.86,0.0,0.0,0.0,0.0,0.0,0.0,-0.06251292501887437,-0.00024757266758787457,-0.001048571245148305,-0.06251292501887437,-0.00024757266758787457,-0.001048571245148305,0.99,1.0,20.82490444147618,0.018108853769882194,5.059163252625492,-0.003869479685262288,0.02320352972538484,0.00404498520474849,21.43063474897361,0.023869197097056063,1.0,0.0,77.35234605616512,-0.014049773797687844,21.9372940269841,101.4526988540636,0.21778942147377592,4.271989118928707,1.0,25.2414400329337,0.0,1.0,104.86006594493814,6679.715728386105,1.0,1.0,0.2230564874153577,18.845753235096083,0.05058164986865356,-44.16992522377808,1.0,25.365706302931947,1.0,0.004440209450115024,4.093473753703047,0.9366617877455087,1.0,-0.4698142028612994,7.129760633767871
1.02,97.08574139914019,0.00364217138015035,25.569145232591584,105.18993365281985,0.019984290458635718,3.8626312921859682,105.26083061498176,17.42130192219279,-0.10890604362154753,6.79737572681762,0.12856367384191764,-0.07413857993289764,1.2160635462602087,0.10794343578624599,4.62318750638251,-0.03546143646592901,6783.430476362575,0.3097246942281488,105.36705138139213,2.1843858103465177,1.2219958198599827,101018.2108800487,287.9838005559881,-0.10114574227902196,-0.1349178589895554,-0.13488317908401584,403.49842105263156,0.21655467466229633,0.86,nominal,5790.668888973135,nan,pitch_program,12.49,0.0,0.0,-3.6056633396873794,-0.04841695296325051,-0.06453781357165954,-3.596088711252137,-0.005673947590232193,-0.06275417088930592,0.86,0.0,0.0,0.0,0.0,0.0,0.0,-0.06276358820514945,-9.902906703514983e-05,-0.0010952669013775662,-0.06276358820514945,-9.902906703514983e-05,-0.0010952669013775662,1.02,1.0,20.764773048596123,-0.0020198373963223196,5.15020120607856,-0.005607276086660683,0.020216681156315496,6.64297902541809e-05,21.39393316579586,0.02097999416122874,1.0,0.0,77.35234605616512,-0.014049773797687844,21.9372940269841,101.4526988540636,0.21778942147377592,4.271989118928707,1.0,26.205849007862565,0.0,1.0,105.51599284815785,6742.3664190175705,1.0,1.0,0.6276186173265117,18.940034970381085,0.002690703986282756,-44.07095199750148,1.0,25.568983742085283,1.0,0.007027620155950753,4.109721999319611,0.936077136918521,1.0,0.04706574423873871,7.237289124713198
1.05,100.25948758210183,0.004294512034384213,25.682977212419352,105.79153943205438,0.021744688474462096,3.794399327592274,105.85956619263385,17.41480528195292,-0.11125282858344224,6.761122626722476,0.13205432456292474,-0.06449111292088547,1.2082124961976355,0.11786300606261746,4.636149306689126,-0.038263588460903955,6860.652229783474,0.31148474269087945,105.96567641270232,2.1838220529393966,1.2219824580021739,101016.8467608826,287.98306064811925,-0.10114574227902196,-0.1349178589895554,-0.13488317908401584,403.46447368421053,0.216536455355998,0.86,nominal,5854.987845726485,nan,pitch_program,12.475,0.0,0.0,-3.6182514436719146,-0.05995595557088861,-0.06485622421602959,-3.609386350704004,-0.03824315237862604,-0.06401540288534012,0.86,0.0,0.0,0.0,0.0,0.0,0.0,-0.06299567579632762,-0.0006674689253489256,-0.0011172795523398632,-0.06299567579632762,-0.0006674689253489256,-0.0011172795523398632,1.05,1.0,20.824754668708866,0.011102104741704161,5.148713285094574,-0.0013758073224321584,0.02147882083082034,0.003683065946687675,21.45180129408136,0.02183569474137679,1.0,0.0,100.31854883664947,-1.3957238685494924,25.33930808252492,105.67688384658564,0.2380633331311302,3.600535416775799,1.0,26.205849007862565,0.0,1.0,106.07435111067429,6835.839644898511,1.0,1.0,0.6276186173265117,18.940034970381085,0.002690703986282756,-44.07095199750148,1.0,25.568983742085283,1.0,0.007027620155950753,4.109721999319611,0.936077136918521,1.0,0.04706574423873871,7.237289124713198
1.08,103.45125589270184,0.0050017742574022936,25.794817139090455,106.39227702000036,0.02357540743393602,3.7279975557033778,106.45757432459028,17.40830918829224,-0.1141951067188809,6.725170675337693,0.1357857150818234,-0.08347144725814722,1.1981530875381048,0.12587678848686368,4.647860138911487,-0.04122643614313741,6938.217251589687,0.31324266074125356,106.56357754557726,2.183271131288594,1.221969330084973,101015.50652825079,287.9823336885959,-0.10114574227902196,-0.1349178589895554,-0.13488317908401584,403.43052631578945,0.21651823604969964,0.86,nominal,5919.568309034893,nan,pitch_program,12.46,0.0,0.0,-3.629909920590074,-0.04573993888349564,-0.066280799631069,-3.6217004926356458,-0.01529726095145042,-0.06537464093277745,0.86,0.0,0.0,0.0,0.0,0.0,0.0,-0.06321059811759266,-0.00026698757013957026,-0.0011410027315860234,-0.06321059811759266,-0.00026698757013957026,-0.0011410027315860234,1.08,1.0,20.773201009896894,-0.07452144306888331,5.255764325425456,-0.002374769282925332,0.01764276353509581,0.006008480490604965,21.427890523508683,0.018788519689119005,1.0,0.0,100.31854883664947,-1.3957238685494924,25.33930808252492,105.67688384658564,0.2380633331311302,3.600535416775799,1.0,26.073126003167594,0.0,1.0,106.75895850306283,6790.381772239002,1.0,1.0,-1.6164390753367217,18.98789106579487,-0.004299678599345991,-44.061215834215446,1.0,25.39076997274206,1.0,0.014873354551992006,4.110142526385951,0.9355129571522739,1.0,-0.14433922360217255,6.517036230455252
1.1099999999999999,106.66102039684328,0.005766248730769037,25.90471940896092,106.9921501380481,0.025482482445558105,3.6634089956820692,107.05485232341961,17.401813641210747,-0.1170541478117318,6.689577783590284,0.13969642721240355,-0.08007585062441767,1.1861660836230534,0.13185885083282223,4.6584135295475235,-0.04434068775857183,7016.123590978036,0.31499844034300906,107.16075202342373,2.1827328895545817,1.2219564297175762,101014.18952953603,287.98161932384176,-0.10114574227902196,-0.1349178589895554,-0.13488317908401584,403.3965789473684,0.21650001674340127,0.86,nominal,5984.409219586478,nan,pitch_program,12.445,0.0,0.0,-3.6407043292621335,-0.05197766607254838,-0.0688188143027811,-3.6331027946115384,-0.006118904380580168,-0.06744114495477964,0.86,0.0,0.0,0.0,0.0,0.0,0.0,-0.06340960582937864,-0.00010679502805582811,-0.001177070030775667,-0.06340960582937864,-0.00010679502805582811,-0.001177070030775667,1.1099999999999999,1.0,20.6761703469346,0.03240460506113156,5.418277289974389,0.0012834598768712597,0.023249819825838465,0.003713868523536702,21.374349091023547,0.023579529482150537,1.0,0.0,100.31854883664947,-1.3957238685494924,25.33930808252492,105.67688384658564,0.2380633331311302,3.600535416775799,1.0,26.073126003167594,0.0,1.0,107.04275793794318,6999.576309652309,1.0,1.0,-1.6164390753367217,18.98789106579487,-0.004299678599345991,-44.061215834215446,1.0,25.39076997274206,1.0,0.014873354551992006,4.110142526385951,0.9355129571522739,1.0,-0.14433922360217255,6.517036230455252
1.14,109.88875524933142,0.006590261200836254,26.012737978070145,107.59116174960471,0.027467082335573902,3.6006189703075666,107.65139710212569,17.395318640708446,-0.11952666281125597,6.654394261310314,0.1437354069720502,-0.06677485348492089,1.1725055394073718,0.13614186849676696,4.667893482754884,-0.04758001192848906,7094.369237311449,0.31675207228286634,107.7571966882199,2.1822071977475197,1.2219437505611672,101012.89511743795,287.9809172031425,-0.10114574227902196,-0.1349178589895554,-0.13488317908401584,403.3626315789474,0.21648179743710294,0.86,nominal,6049.509465912419,nan,pitch_program,12.43,0.0,0.0,-3.6506949985318577,-0.0668857471156495,-0.07227420789699891,-3.64365811696373,-0.04257901002162176,-0.0703409827201112,0.86,0.0,0.0,0.0,0.0,0.0,0.0,-0.06359383095803374,-0.0007431439171169617,-0.0012276817475543776,-0.06359383095803374,-0.0007431439171169617,-0.0012276817475543776,1.14,1.0,20.725960425889777,-0.04658302623407644,5.426703514941638,-0.0023107137453845968,0.01826345816746931,0.004627191933826654,21.424675413946467,0.018981680838126038,1.0,0.0,100.31854883664947,-1.3957238685494924,25.33930808252492,105.67688384658564,0.2380633331311302,3.600535416775799,1.0,26.192128619281096,0.0,1.0,107.6878864226222,7009.866825695071,1.0,1.0,-0.41515817261087906,19.02513321960981,-0.008443569473729394,-44.06716509654849,1.0,26.312776826987186,1.0,-0.0038797040004716968,4.131428432180237,0.9349681550548247,1.0,-0.8362987776989572,6.619765974930871
1.17,113.1344346734667,0.007476106165836293,26.118926422824533,108.18931413784257,0.029528165500001306,3.539614825146281,108.24720522322845,17.38882418678533,-0.12260187673984878,6.619663638183146,0.14786582543266028,-0.08659412579682914,1.1573959237859734,0.1392037762932771,4.67637642716429,-0.05082825186592701,7172.952125538123,0.3185035463238579,108.35290803262404,2.1816939598067253,1.2219312863217895,101011.62264924517,287.9802269782516,-0.10114574227902196,-0.1349178589895554,-0.13488317908401584,403.3286842105263,0.21646357813080455,0.86,nominal,6114.86788912426,nan,pitch_program,12.415,0.0,0.0,-3.659936228131453,-0.051929715771817125,-0.07631908098976212,-3.6534249836643635,-0.01703160400864871,-0.07392784168190175,0.86,0.0,0.0,0.0,0.0,0.0,0.0,-0.06376429493956319,-0.0002972575668467847,-0.001290284246242288,-0.06376429493956319,-0.0002972575668467847,-0.001290284246242288,1.17,1.0,20.66002536335879,0.020609308006841066,5.459014904944555,-0.0008391851391087718,0.020563608359423193,0.0021151433979696294,21.369087872218877,0.020689128837421234,1.0,0.0,100.31854883664947,-1.3957238685494924,25.33930808252492,105.67688384658564,0.2380633331311302,3.600535416775799,1.0,26.192128619281096,0.0,1.0,107.75479595842705,7190.746843858997,1.0,1.0,-0.41515817261087906,19.02513321960981,-0.008443569473729394,-44.06716509654849,1.0,26.312776826987186,1.0,-0.0038797040004716968,4.131428432180237,0.9349681550548247,1.0,-0.8362987776989572,6.619765974930871
