time_s,sensor_time_s,imu_valid,imu_ax_mps2,imu_ay_mps2,imu_az_mps2,gyro_p_rps,gyro_q_rps,gyro_r_rps,imu_accel_norm_mps2,imu_gyro_norm_rps,gps_valid,gps_latency_s,gps_x_m,gps_y_m,gps_z_m,gps_vx_mps,gps_vy_mps,gps_vz_mps,baro_valid,baro_alt_m,baro_bias_m,pitot_valid,pitot_airspeed_mps,pitot_qbar_pa,pitot_compressibility_factor,mag_valid,mag_heading_deg,mag_x_ut,mag_y_ut,mag_z_ut,radar_valid,radar_agl_m,optical_flow_valid,optical_flow_x_radps,optical_flow_y_radps,optical_flow_quality,horizon_valid,horizon_roll_deg,horizon_pitch_deg
0.0,0.0,1.0,17.454093490872985,-0.0164974735537802,0.11435436130614011,-0.00041663729163987705,-0.0007873491565204804,0.002827713925469424,17.454475892295306,0.002964704263725511,1.0,0.0,-0.245673998367889,-1.6935992341378452,18.988461048442854,84.93652578647725,-0.05802398367878919,7.9916836480015006,1.0,20.222815898508227,0.0,1.0,85.17452146921394,4530.735658660058,1.0,1.0,-0.5417128263890634,19.546582590338236,-0.0032372630234107527,-43.912301700596245,1.0,20.027074900609485,1.0,0.021251598833740712,4.288711711651136,0.95,1.0,0.09558769260067916,6.0754624275550455
0.03,0.03,1.0,17.639755551194597,0.01015430269223262,0.6784929286214243,-0.0020013244144646836,-0.1605807177427007,-0.00011533331075433417,17.65280237440937,0.16059322996921574,1.0,0.0,-0.245673998367889,-1.6935992341378452,18.988461048442854,84.93652578647725,-0.05802398367878919,7.9916836480015006,1.0,20.222815898508227,0.0,1.0,86.21504444865538,4536.096982545767,1.0,1.0,-0.5417128263890634,19.546582590338236,-0.0032372630234107527,-43.912301700596245,1.0,20.027074900609485,1.0,0.021251598833740712,4.288711711651136,0.95,1.0,0.09558769260067916,6.0754624275550455
0.06,0.06,1.0,18.044142292112593,0.002228359563694089,1.165342474462133,0.0005124517243301025,-0.18775028275204486,0.001273656317154787,18.08173385232672,0.187755302137268,1.0,0.0,-0.245673998367889,-1.6935992341378452,18.988461048442854,84.93652578647725,-0.05802398367878919,7.9916836480015006,1.0,20.032691066708427,0.0,1.0,86.74116816204135,4590.822815077602,1.0,1.0,0.7447512187258163,19.0081153088312,0.03642565734568791,-44.033957425910934,1.0,20.23930430799596,1.0,0.00443259996296413,4.204218489634235,0.9488516051280915,1.0,-0.14412623245727307,6.4967123042162775
0.09,0.09,1.0,18.326117487997987,-0.03755314501279185,1.4254098034918847,-0.0029863575659619104,-0.11632037074372777,-0.0007920727222812734,18.381506617535376,0.11636139549123428,1.0,0.0,-0.245673998367889,-1.6935992341378452,18.988461048442854,84.93652578647725,-0.05802398367878919,7.9916836480015006,1.0,20.032691066708427,0.0,1.0,86.78568238597181,4672.761925762407,1.0,1.0,0.7447512187258163,19.0081153088312,0.03642565734568791,-44.033957425910934,1.0,20.23930430799596,1.0,0.00443259996296413,4.204218489634235,0.9488516051280915,1.0,-0.14412623245727307,6.4967123042162775
0.12,0.12,1.0,18.59811351260648,-0.060270211462112505,1.4993368643884273,0.0006269016408601087,-0.05724731570468078,-0.0002699790236480278,18.658549508445173,0.057251384697070105,1.0,0.0,-0.245673998367889,-1.6935992341378452,18.988461048442854,84.93652578647725,-0.05802398367878919,7.9916836480015006,1.0,20.080842671906296,0.0,1.0,87.50383567948018,4643.86496958612,1.0,1.0,-0.43601799291970694,18.837470578790732,0.005088580036360287,-44.11470995200659,1.0,21.00748441081161,1.0,-0.003958001475794014,4.1794368390058105,0.9477631254927568,1.0,-0.13883152006276978,6.857835225845311
0.15,0.15,1.0,18.87255593718339,0.03386177659532269,1.7571545531330734,-0.0027343651191180205,-0.04835339825353563,3.7824623989102246e-05,18.954210781397006,0.04843066493423203,1.0,0.0,-0.245673998367889,-1.6935992341378452,18.988461048442854,84.93652578647725,-0.05802398367878919,7.9916836480015006,1.0,20.080842671906296,0.0,1.0,88.06336547109963,4724.799594699163,1.0,1.0,-0.43601799291970694,18.837470578790732,0.005088580036360287,-44.11470995200659,1.0,21.00748441081161,1.0,-0.003958001475794014,4.1794368390058105,0.9477631254927568,1.0,-0.13883152006276978,6.857835225845311
0.18,0.18,1.0,19.19861379012383,-0.01600873603428833,1.904185278005081,-0.0005342969241484607,-0.056734097462857895,0.0022552514211132647,19.292821185999045,0.056781418149784234,1.0,0.0,-0.245673998367889,-1.6935992341378452,18.988461048442854,84.93652578647725,-0.05802398367878919,7.9916836480015006,1.0,21.344656355609605,0.0,1.0,88.69760040430283,4776.58922244009,1.0,1.0,-2.5925017825295855,18.702451920907155,-0.024562685771230726,-44.22522088137868,1.0,21.168182770200243,1.0,0.011723032817558474,4.129043023112503,0.9467288793764844,1.0,0.7138081499609419,6.790844616184873
0.21,0.21,1.0,19.512175958978965,-0.057901837355983594,2.2169115441945895,-0.003601077540964336,-0.05273025238500192,0.0003250438073106954,19.637796721417327,0.05285407202400501,1.0,0.0,17.556279157399636,0.177559492649353,22.894764029668696,88.55340540167118,0.003982168477667346,6.61522422818211,1.0,21.344656355609605,0.0,1.0,88.36145445262412,4841.441732247512,1.0,1.0,-2.5925017825295855,18.702451920907155,-0.024562685771230726,-44.22522088137868,1.0,21.168182770200243,1.0,0.011723032817558474,4.129043023112503,0.9467288793764844,1.0,0.7138081499609419,6.790844616184873
0.24,0.24,1.0,19.706869787675675,-0.019914457545039458,2.343780381925115,0.0005794141069365279,-0.03632519104605749,0.0013796002682945282,19.845765792549315,0.03635599705880958,1.0,0.0,17.556279157399636,0.177559492649353,22.894764029668696,88.55340540167118,0.003982168477667346,6.61522422818211,1.0,21.83170754482754,0.0,1.0,90.67840467271674,4873.271934571558,1.0,1.0,-1.3861285642121035,18.69384756838207,0.002451416472765168,-44.285182935374486,1.0,21.844773533363707,1.0,-0.016741071117817783,4.137350260839298,0.9457442137095317,1.0,-0.24860800369660696,7.482344033753491
0.27,0.27,1.0,20.047057276217053,-0.04430769541247333,2.5289727234828954,-0.002397798535103455,-0.026956766154268758,0.0025761666081397403,20.20599345847465,0.027185535008599115,1.0,0.0,17.556279157399636,0.177559492649353,22.894764029668696,88.55340540167118,0.003982168477667346,6.61522422818211,1.0,21.83170754482754,0.0,1.0,90.42947689916883,5025.802049441636,1.0,1.0,-1.3861285642121035,18.69384756838207,0.002451416472765168,-44.285182935374486,1.0,21.844773533363707,1.0,-0.016741071117817783,4.137350260839298,0.9457442137095317,1.0,-0.24860800369660696,7.482344033753491
0.3,0.3,1.0,20.331099424153404,0.024628461807030516,2.7474631532481317,-0.0012081774747364667,-0.020398021014782632,0.001151373357191275,20.51591489879011,0.02046618222184158,1.0,0.0,17.556279157399636,0.177559492649353,22.894764029668696,88.55340540167118,0.003982168477667346,6.61522422818211,1.0,22.374231201777654,0.0,1.0,90.91175489405707,5015.05398539791,1.0,1.0,-0.00457599808625005,18.519787675092594,0.04206388152939351,-44.27843972200038,1.0,22.03809262109475,1.0,-0.0011824519120267427,4.093194286500122,0.9448045233716542,1.0,-0.8362863960101213,7.479499129959458
0.32999999999999996,0.32999999999999996,1.0,20.721043431930116,0.030035329493354013,2.826129824482114,-0.001863466242003836,-0.016245803264032018,0.004337307941945971,20.912903978495653,0.01691776788799246,1.0,0.0,17.556279157399636,0.177559492649353,22.894764029668696,88.55340540167118,0.003982168477667346,6.61522422818211,1.0,22.374231201777654,0.0,1.0,91.3496684298557,5122.885593897083,1.0,1.0,-0.00457599808625005,18.519787675092594,0.04206388152939351,-44.27843972200038,1.0,22.03809262109475,1.0,-0.0011824519120267427,4.093194286500122,0.9448045233716542,1.0,-0.8362863960101213,7.479499129959458
0.36,0.36,1.0,21.00156948674581,-0.02445858379688146,2.9590055723241004,-0.0024893539948818806,-0.011740999496638732,0.002121794298535991,21.209013015837847,0.012188107463310503,1.0,0.0,17.556279157399636,0.177559492649353,22.894764029668696,88.55340540167118,0.003982168477667346,6.61522422818211,1.0,23.02566168284351,0.0,1.0,92.24853855246023,5182.9233410945035,1.0,1.0,0.1875316755096849,18.511174372407112,0.00516851394749651,-44.33805982872581,1.0,22.922162684659124,1.0,0.016457123498817804,4.0741617516033655,0.9439060651169543,1.0,-0.030642255663543644,7.588551592800899
0.39,0.39,1.0,21.276433297474803,0.03717479872823255,3.111215929606981,0.0030255074897381335,-0.004080983330045768,0.002316802250539527,21.502736113997102,0.005583519784032113,1.0,0.0,17.556279157399636,0.177559492649353,22.894764029668696,88.55340540167118,0.003982168477667346,6.61522422818211,1.0,23.02566168284351,0.0,1.0,92.09677495392441,5304.13374953335,1.0,1.0,0.1875316755096849,18.511174372407112,0.00516851394749651,-44.33805982872581,1.0,22.922162684659124,1.0,0.016457123498817804,4.0741617516033655,0.9439060651169543,1.0,-0.030642255663543644,7.588551592800899
0.42,0.42,1.0,21.371186050950456,-0.0011157474777678481,3.2634482559825324,-0.0013173330260466045,-0.0008610649854515984,0.0017793301630760702,21.618919699853347,0.0023754610162905598,1.0,0.0,36.65686519079079,0.8710218978820843,23.198276237489836,92.79140077231911,0.04042269489460061,5.505813843941427,1.0,23.403440523265534,0.0,1.0,92.84402761539002,5345.657553283866,1.0,1.0,-1.2819575456182266,18.500145581122236,-0.030319992841518855,-44.432714040302706,1.0,22.86563321065391,1.0,0.00549958999741945,4.067835261461025,0.9430453697752981,1.0,-0.13862253995763413,7.94263625008408
0.44999999999999996,0.44999999999999996,1.0,21.326052505480604,-0.031580691453270825,3.380679883440191,-0.002842513530290545,0.0020099367868602813,0.005058972056766479,21.59237155295558,0.006141085191413901,1.0,0.0,36.65686519079079,0.8710218978820843,23.198276237489836,92.79140077231911,0.04042269489460061,5.505813843941427,1.0,23.403440523265534,0.0,1.0,93.54042227995794,5256.320311906209,1.0,1.0,-1.2819575456182266,18.500145581122236,-0.030319992841518855,-44.432714040302706,1.0,22.86563321065391,1.0,0.00549958999741945,4.067835261461025,0.9430453697752981,1.0,-0.13862253995763413,7.94263625008408
0.48,0.48,1.0,21.185318178245225,0.024947348896148417,3.5123593522831356,-0.0035629565552496223,0.007032295049455999,0.0012859591560216315,21.47451971298253,0.007987585619456951,1.0,0.0,36.65686519079079,0.8710218978820843,23.198276237489836,92.79140077231911,0.04042269489460061,5.505813843941427,1.0,22.822376142055532,0.0,1.0,94.82947318060798,5470.415828214394,1.0,1.0,-1.0459063767908028,18.467892474743714,-0.018894724079946593,-44.251596599545636,1.0,23.224690063325166,1.0,0.019625727535803352,4.085099922617149,0.9422196359284563,1.0,-0.19518106860286982,7.159391868321555
0.51,0.51,1.0,21.188064811815778,-0.025881487635206063,3.597367915601341,0.0006454909848508592,0.004987827212191865,0.0008510961662823357,21.49129629038942,0.005100925758572251,1.0,0.0,36.65686519079079,0.8710218978820843,23.198276237489836,92.79140077231911,0.04042269489460061,5.505813843941427,1.0,22.822376142055532,0.0,1.0,95.41879244755957,5556.300812729759,1.0,1.0,-1.0459063767908028,18.467892474743714,-0.018894724079946593,-44.251596599545636,1.0,23.224690063325166,1.0,0.019625727535803352,4.085099922617149,0.9422196359284563,1.0,-0.19518106860286982,7.159391868321555
0.54,0.54,1.0,21.212703145244497,-0.05477211158721596,3.6746161909277735,-0.00455583702707626,0.01358798575517138,0.002741079870646304,21.528691991458796,0.014591179758925656,1.0,0.0,36.65686519079079,0.8710218978820843,23.198276237489836,92.79140077231911,0.04042269489460061,5.505813843941427,1.0,21.98102324810832,0.0,1.0,95.12668993732436,5525.790095948139,1.0,1.0,-1.1110833923341061,18.499707969431448,0.028721228953317086,-44.22227736020196,1.0,23.323386956991836,1.0,-0.007557579309163013,4.070317241585141,0.9414267750353291,1.0,-0.47567681369784515,7.284822784156249
0.57,0.57,1.0,21.206991706100137,0.00814000653110983,3.7538805406477653,-0.006502328323203918,0.014421825388078404,0.0011695880009593626,21.536670647891707,0.015863078428821776,1.0,0.0,36.65686519079079,0.8710218978820843,23.198276237489836,92.79140077231911,0.04042269489460061,5.505813843941427,1.0,21.98102324810832,0.0,1.0,95.86608258005617,5681.794496187123,1.0,1.0,-1.1110833923341061,18.499707969431448,0.028721228953317086,-44.22227736020196,1.0,23.323386956991836,1.0,-0.007557579309163013,4.070317241585141,0.9414267750353291,1.0,-0.47567681369784515,7.284822784156249
0.6,0.6,1.0,21.186394460042656,0.02316035746250654,3.9156662037083088,-0.0019049597272655329,0.01236972125539886,0.003136378745643656,21.54521497775196,0.012902548086904974,1.0,0.0,36.65686519079079,0.8710218978820843,23.198276237489836,92.79140077231911,0.04042269489460061,5.505813843941427,1.0,23.519454897609652,0.0,1.0,96.61582689563134,5760.662986232268,1.0,1.0,0.27287469029160777,18.563482622227305,-0.06502299247324256,-44.321252257918964,1.0,23.88543038480724,1.0,0.01705392910757822,4.058617832805051,0.9406649555841451,1.0,-0.5675062150312764,6.9310054162390005
0.63,0.63,1.0,21.135699959778883,0.01351074094889064,3.9756809291503217,-0.0008565677811788871,0.01774796590852292,0.004022994299340629,21.506371943689796,0.018218355726749128,1.0,0.0,55.84558430821297,1.9074432261841743,23.528278009197496,97.08105884592327,0.14511308578751497,5.0329860879181885,1.0,23.519454897609652,0.0,1.0,97.38863478779587,5778.662302838218,1.0,1.0,0.27287469029160777,18.563482622227305,-0.06502299247324256,-44.321252257918964,1.0,23.88543038480724,1.0,0.01705392910757822,4.058617832805051,0.9406649555841451,1.0,-0.5675062150312764,6.9310054162390005
0.6599999999999999,0.6599999999999999,1.0,21.132648545432144,-0.030163105235680783,4.0701744243508955,0.0006440534855474231,0.019802271495901334,0.0032860208649301216,21.52106094509081,0.02008339349847003,1.0,0.0,55.84558430821297,1.9074432261841743,23.528278009197496,97.08105884592327,0.14511308578751497,5.0329860879181885,1.0,24.115469980831833,0.0,1.0,98.29046084415366,5781.083143237069,1.0,1.0,-0.8269024999802838,18.591351419385163,0.0006693228984115847,-44.27981639911889,1.0,23.97122021919044,1.0,0.004248272925752047,4.045756558006644,0.9399325259193393,1.0,0.028998448711210788,6.489396838857222
0.69,0.69,1.0,21.165635315217198,0.018510300819744155,4.219022484328542,-0.003272119503277807,0.020340802266636142,0.003823574443487558,21.582043732030467,0.02095410996484967,1.0,0.0,55.84558430821297,1.9074432261841743,23.528278009197496,97.08105884592327,0.14511308578751497,5.0329860879181885,1.0,24.115469980831833,0.0,1.0,99.07562255304576,5965.552753035118,1.0,1.0,-0.8269024999802838,18.591351419385163,0.0006693228984115847,-44.27981639911889,1.0,23.97122021919044,1.0,0.004248272925752047,4.045756558006644,0.9399325259193393,1.0,0.028998448711210788,6.489396838857222
0.72,0.72,1.0,21.109309413821727,-0.013723564428946752,4.270954302699653,0.0016504383654458964,0.019222882971730356,0.002800804468033727,21.53704211168358,0.01949583756115993,1.0,0.0,55.84558430821297,1.9074432261841743,23.528278009197496,97.08105884592327,0.14511308578751497,5.0329860879181885,1.0,24.68446969261775,0.0,1.0,99.32308809711783,5933.765536704094,1.0,1.0,0.3795677652214006,18.599781705208365,0.02578269006361723,-44.16723250414103,1.0,24.324053290580178,1.0,0.0028920533342333523,4.065988599150072,0.9392279751100494,1.0,0.08310020931863535,6.847262435768071
0.75,0.75,1.0,21.014769813891817,-0.002002168147378106,4.4244658892465045,0.00014870597869993734,0.01979152945860601,0.003121998744607231,21.475484924551573,0.02003680682993924,1.0,0.0,55.84558430821297,1.9074432261841743,23.528278009197496,97.08105884592327,0.14511308578751497,5.0329860879181885,1.0,24.68446969261775,0.0,1.0,100.37799578056553,6049.930450267768,1.0,1.0,0.3795677652214006,18.599781705208365,0.02578269006361723,-44.16723250414103,1.0,24.324053290580178,1.0,0.0028920533342333523,4.065988599150072,0.9392279751100494,1.0,0.08310020931863535,6.847262435768071
0.78,0.78,1.0,20.975407718189132,-0.017209369181880235,4.463519044437564,0.0013032805593783398,0.017251417993979907,0.0035296903800697737,21.445070001441188,0.017656972481108542,1.0,0.0,55.84558430821297,1.9074432261841743,23.528278009197496,97.08105884592327,0.14511308578751497,5.0329860879181885,1.0,25.101432610401652,0.0,1.0,100.86218771211496,6238.267425615234,1.0,1.0,-0.22294828070584746,18.70989706213033,0.05094821341350565,-44.19715059214277,1.0,24.7751916026735,1.0,-0.01270154164871168,4.06382340373093,0.9385499043803213,1.0,-0.3280897691304189,7.2211046457608274
0.8099999999999999,0.8099999999999999,1.0,20.98932082383441,0.06840822286850481,4.587886969098605,5.715835726354543e-06,0.020976627193466615,0.004395749029745141,21.48499418599013,0.021432254445507278,1.0,0.0,55.84558430821297,1.9074432261841743,23.528278009197496,97.08105884592327,0.14511308578751497,5.0329860879181885,1.0,25.101432610401652,0.0,1.0,100.56656648153825,6251.088027370711,1.0,1.0,-0.22294828070584746,18.70989706213033,0.05094821341350565,-44.19715059214277,1.0,24.7751916026735,1.0,-0.01270154164871168,4.06382340373093,0.9385499043803213,1.0,-0.3280897691304189,7.2211046457608274
0.84,0.84,1.0,20.907657156417482,-0.0144580635406922,4.6775965848179455,-0.00309316944713699,0.019410795810561297,0.005343792197548458,21.424524419837116,0.020369163121703983,1.0,0.0,77.35234605616512,-0.014049773797687844,21.9372940269841,101.4526988540636,0.21778942147377592,4.271989118928707,1.0,24.834095437001324,0.0,1.0,101.82444000615807,6345.964089550199,1.0,1.0,-0.7348704692841005,18.765897541007124,0.04338243779199743,-44.19230301666473,1.0,24.75721765187536,1.0,0.024640362045200204,4.074238065027903,0.9378970024769939,1.0,-0.11500758415065372,6.974999997850705
0.87,0.87,1.0,20.872393614825324,0.046744364225464456,4.702785744651426,0.0023229698195002136,0.02305507635834315,0.003601399178297638,21.395681667287082,0.023450006625005144,1.0,0.0,77.35234605616512,-0.014049773797687844,21.9372940269841,101.4526988540636,0.21778942147377592,4.271989118928707,1.0,24.834095437001324,0.0,1.0,101.88069777512156,6574.429723183544,1.0,1.0,-0.7348704692841005,18.765897541007124,0.04338243779199743,-44.19230301666473,1.0,24.75721765187536,1.0,0.024640362045200204,4.074238065027903,0.9378970024769939,1.0,-0.11500758415065372,6.974999997850705
0.8999999999999999,0.8999999999999999,1.0,20.95543518259326,0.009377016466769873,4.7600854279449685,-0.0007912961530950979,0.01810748217207822,0.004522135256824001,21.489270925316177,0.018680384564966655,1.0,0.0,77.35234605616512,-0.014049773797687844,21.9372940269841,101.4526988540636,0.21778942147377592,4.271989118928707,1.0,25.260767638220575,0.0,1.0,102.29938720859957,6403.769014318868,1.0,1.0,0.2748424848658357,18.892684450330453,0.01463652385254703,-44.15650901489466,1.0,25.22046314744108,1.0,0.0016623589179689986,4.087523830959134,0.9372680267613276,1.0,-0.08064967740439673,6.485926548371781
0.9299999999999999,0.9299999999999999,1.0,20.907551729984647,-0.03269849360441254,4.738831900142831,-0.0035686032153436527,0.022335578305107358,0.0013371900866818616,21.437894400133594,0.022658355290269057,1.0,0.0,77.35234605616512,-0.014049773797687844,21.9372940269841,101.4526988540636,0.21778942147377592,4.271989118928707,1.0,25.260767638220575,0.0,1.0,104.58095677302907,6525.967228306684,1.0,1.0,0.2748424848658357,18.892684450330453,0.01463652385254703,-44.15650901489466,1.0,25.22046314744108,1.0,0.0016623589179689986,4.087523830959134,0.9372680267613276,1.0,-0.08064967740439673,6.485926548371781
0.96,0.96,1.0,20.87292195761412,0.015173639915611745,4.965928606907071,0.0011085609384481072,0.023143297187896854,0.0016495371411644221,21.45552488793728,0.023228475732635756,1.0,0.0,77.35234605616512,-0.014049773797687844,21.9372940269841,101.4526988540636,0.21778942147377592,4.271989118928707,1.0,25.2414400329337,0.0,1.0,104.63708816369069,6604.885912968413,1.0,1.0,0.2230564874153577,18.845753235096083,0.05058164986865356,-44.16992522377808,1.0,25.365706302931947,1.0,0.004440209450115024,4.093473753703047,0.9366617877455087,1.0,-0.4698142028612994,7.129760633767871
0.99,0.99,1.0,20.82490444147618,0.018108853769882194,5.059163252625492,-0.003869479685262288,0.02320352972538484,0.00404498520474849,21.43063474897361,0.023869197097056063,1.0,0.0,77.35234605616512,-0.014049773797687844,21.9372940269841,101.4526988540636,0.21778942147377592,4.271989118928707,1.0,25.2414400329337,0.0,1.0,104.86006594493814,6679.715728386105,1.0,1.0,0.2230564874153577,18.845753235096083,0.05058164986865356,-44.16992522377808,1.0,25.365706302931947,1.0,0.004440209450115024,4.093473753703047,0.9366617877455087,1.0,-0.4698142028612994,7.129760633767871
1.02,1.02,1.0,20.764773048596123,-0.0020198373963223196,5.15020120607856,-0.005607276086660683,0.020216681156315496,6.64297902541809e-05,21.39393316579586,0.02097999416122874,1.0,0.0,77.35234605616512,-0.014049773797687844,21.9372940269841,101.4526988540636,0.21778942147377592,4.271989118928707,1.0,26.205849007862565,0.0,1.0,105.51599284815785,6742.3664190175705,1.0,1.0,0.6276186173265117,18.940034970381085,0.002690703986282756,-44.07095199750148,1.0,25.568983742085283,1.0,0.007027620155950753,4.109721999319611,0.936077136918521,1.0,0.04706574423873871,7.237289124713198
1.05,1.05,1.0,20.824754668708866,0.011102104741704161,5.148713285094574,-0.0013758073224321584,0.02147882083082034,0.003683065946687675,21.45180129408136,0.02183569474137679,1.0,0.0,100.31854883664947,-1.3957238685494924,25.33930808252492,105.67688384658564,0.2380633331311302,3.600535416775799,1.0,26.205849007862565,0.0,1.0,106.07435111067429,6835.839644898511,1.0,1.0,0.6276186173265117,18.940034970381085,0.002690703986282756,-44.07095199750148,1.0,25.568983742085283,1.0,0.007027620155950753,4.109721999319611,0.936077136918521,1.0,0.04706574423873871,7.237289124713198
1.08,1.08,1.0,20.773201009896894,-0.07452144306888331,5.255764325425456,-0.002374769282925332,0.01764276353509581,0.006008480490604965,21.427890523508683,0.018788519689119005,1.0,0.0,100.31854883664947,-1.3957238685494924,25.33930808252492,105.67688384658564,0.2380633331311302,3.600535416775799,1.0,26.073126003167594,0.0,1.0,106.75895850306283,6790.381772239002,1.0,1.0,-1.6164390753367217,18.98789106579487,-0.004299678599345991,-44.061215834215446,1.0,25.39076997274206,1.0,0.014873354551992006,4.110142526385951,0.9355129571522739,1.0,-0.14433922360217255,6.517036230455252
1.1099999999999999,1.1099999999999999,1.0,20.6761703469346,0.03240460506113156,5.418277289974389,0.0012834598768712597,0.023249819825838465,0.003713868523536702,21.374349091023547,0.023579529482150537,1.0,0.0,100.31854883664947,-1.3957238685494924,25.33930808252492,105.67688384658564,0.2380633331311302,3.600535416775799,1.0,26.073126003167594,0.0,1.0,107.04275793794318,6999.576309652309,1.0,1.0,-1.6164390753367217,18.98789106579487,-0.004299678599345991,-44.061215834215446,1.0,25.39076997274206,1.0,0.014873354551992006,4.110142526385951,0.9355129571522739,1.0,-0.14433922360217255,6.517036230455252
1.14,1.14,1.0,20.725960425889777,-0.04658302623407644,5.426703514941638,-0.0023107137453845968,0.01826345816746931,0.004627191933826654,21.424675413946467,0.018981680838126038,1.0,0.0,100.31854883664947,-1.3957238685494924,25.33930808252492,105.67688384658564,0.2380633331311302,3.600535416775799,1.0,26.192128619281096,0.0,1.0,107.6878864226222,7009.866825695071,1.0,1.0,-0.41515817261087906,19.02513321960981,-0.008443569473729394,-44.06716509654849,1.0,26.312776826987186,1.0,-0.0038797040004716968,4.131428432180237,0.9349681550548247,1.0,-0.8362987776989572,6.619765974930871
1.17,1.17,1.0,20.66002536335879,0.020609308006841066,5.459014904944555,-0.0008391851391087718,0.020563608359423193,0.0021151433979696294,21.369087872218877,0.020689128837421234,1.0,0.0,100.31854883664947,-1.3957238685494924,25.33930808252492,105.67688384658564,0.2380633331311302,3.600535416775799,1.0,26.192128619281096,0.0,1.0,107.75479595842705,7190.746843858997,1.0,1.0,-0.41515817261087906,19.02513321960981,-0.008443569473729394,-44.06716509654849,1.0,26.312776826987186,1.0,-0.0038797040004716968,4.131428432180237,0.9349681550548247,1.0,-0.8362987776989572,6.619765974930871
1.2,1.2,1.0,20.65575959715642,0.006132128088849316,5.45603533755243,-0.0029395652175805533,0.018856001931381684,0.004307494367428321,21.364193496201423,0.019563853409543478,1.0,0.0,100.31854883664947,-1.3957238685494924,25.33930808252492,105.67688384658564,0.2380633331311302,3.600535416775799,1.0,26.33910528069422,0.0,1.0,108.63066866605314,7102.5453099794795,1.0,1.0,-0.8980657100120685,19.067449872902284,0.04364002223612688,-44.00338281485786,1.0,25.833728849658037,1.0,0.01671547304333815,4.1561878848280625,0.9344416550151117,1.0,-0.3797634069753059,7.509521081894972
1.23,1.23,1.0,20.596696159908017,0.0175679662214287,5.659065837887046,-0.0024188330508732973,0.02260601593089916,0.0016490887519189483,21.359991280301287,0.022794784563749868,1.0,0.0,100.31854883664947,-1.3957238685494924,25.33930808252492,105.67688384658564,0.2380633331311302,3.600535416775799,1.0,26.33910528069422,0.0,1.0,108.71664247726221,7389.76999688711,1.0,1.0,-0.8980657100120685,19.067449872902284,0.04364002223612688,-44.00338281485786,1.0,25.833728849658037,1.0,0.01671547304333815,4.1561878848280625,0.9344416550151117,1.0,-0.3797634069753059,7.509521081894972
1.26,1.26,1.0,20.58548003320436,-0.034245884978425366,5.696066301706376,-0.002489082183688823,0.019914670867309033,0.0029768612841752657,21.35903397374348,0.020289192910897806,1.0,0.0,120.82659203386369,2.180863940135962,27.305504022806296,109.96601778231582,0.17960560551512825,3.1964380015138607,1.0,25.819796468218165,0.0,1.0,110.31983741513146,7240.10070005877,1.0,1.0,1.2705401426315373,19.162374563933273,0.06113785227824994,-43.9518650791382,1.0,26.671518959606857,1.0,0.00561943365107127,4.149034750530136,0.9339323945986377,1.0,0.0356373432608954,6.080253980408971
1.29,1.29,1.0,20.547307059696976,-0.07605908925519343,5.755289677762014,-0.0044382794472145205,0.017219615126594267,0.0010886466411609813,21.33825137319095,0.017815684692677743,1.0,0.0,120.82659203386369,2.180863940135962,27.305504022806296,109.96601778231582,0.17960560551512825,3.1964380015138607,1.0,25.819796468218165,0.0,1.0,111.72791977985352,7394.1081914525685,1.0,1.0,1.2705401426315373,19.162374563933273,0.06113785227824994,-43.9518650791382,1.0,26.671518959606857,1.0,0.00561943365107127,4.149034750530136,0.9339323945986377,1.0,0.0356373432608954,6.080253980408971
1.3199999999999998,1.3199999999999998,1.0,20.58382184583245,-0.022286630161577253,5.863290019247527,-0.0005149503852765309,0.019676210714115502,0.0023913390912863913,21.40262573435,0.019827681271774686,1.0,0.0,120.82659203386369,2.180863940135962,27.305504022806296,109.96601778231582,0.17960560551512825,3.1964380015138607,1.0,26.385582654522025,0.0,1.0,110.50735817860178,7659.960360085967,1.0,1.0,1.0805573802784383,19.165830347303174,0.0037673645878539552,-43.993027795951065,1.0,26.601346349397748,1.0,0.038296721673072374,4.159494957214291,0.9334393210341037,1.0,0.13538379255368943,6.408753853905824
1.3499999999999999,1.3499999999999999,1.0,20.510165779449927,0.05724026408482031,5.881931039253703,-0.001028713478395576,0.017527652230405196,0.0034707308935477783,21.336993450317397,0.017897564556835322,1.0,0.0,120.82659203386369,2.180863940135962,27.305504022806296,109.96601778231582,0.17960560551512825,3.1964380015138607,1.0,26.385582654522025,0.0,1.0,112.61701114772602,7614.150323709886,1.0,1.0,1.0805573802784383,19.165830347303174,0.0037673645878539552,-43.993027795951065,1.0,26.601346349397748,1.0,0.038296721673072374,4.159494957214291,0.9334393210341037,1.0,0.13538379255368943,6.408753853905824
1.38,1.38,1.0,20.5059177368192,-0.05069466929924961,5.944129904776574,-0.006017769493307711,0.019645339642464295,0.004384148463854467,21.35012675614716,0.021008895189787623,1.0,0.0,120.82659203386369,2.180863940135962,27.305504022806296,109.96601778231582,0.17960560551512825,3.1964380015138607,1.0,27.794135282311462,0.0,1.0,112.19627145491278,7733.834097101385,1.0,1.0,0.5477722167208187,19.298734855529304,0.06221692702419909,-43.94995807681275,1.0,27.23799149470799,1.0,0.020030597033127,4.18288298114711,0.9329613885744461,1.0,0.1751538590173045,6.817254154522974
1.41,1.41,1.0,20.454277390303343,0.09485197005336778,6.072785737604007,-0.0017656709129466655,0.01629458434942465,0.004579347949193684,21.336944183048896,0.017017681996474285,1.0,0.0,120.82659203386369,2.180863940135962,27.305504022806296,109.96601778231582,0.17960560551512825,3.1964380015138607,1.0,27.794135282311462,0.0,1.0,113.1476310781346,7832.637185224872,1.0,1.0,0.5477722167208187,19.298734855529304,0.06221692702419909,-43.94995807681275,1.0,27.23799149470799,1.0,0.020030597033127,4.18288298114711,0.9329613885744461,1.0,0.1751538590173045,6.817254154522974
1.44,1.44,1.0,20.46141739830427,0.04308304822843924,6.174947172568546,-0.0016033174686467505,0.01786091466162355,0.004815819344591413,21.37291348133627,0.018568118251853304,1.0,0.0,120.82659203386369,2.180863940135962,27.305504022806296,109.96601778231582,0.17960560551512825,3.1964380015138607,1.0,26.64494830688823,0.0,1.0,114.34896723432512,7988.7422379810405,1.0,1.0,-0.5815799490930115,19.239954904447448,0.02899106125583589,-43.94725071434883,1.0,27.272516263751218,1.0,0.0006505763257071504,4.178132265970647,0.9324975565595189,1.0,-0.2220047502937715,5.9337647542644705
1.47,1.47,1.0,20.474661330410193,-0.02410077655196987,6.210731533337538,-0.0006099467048100737,0.018799116006288658,0.004220553196534878,21.395923060751976,0.01927671826025861,1.0,0.0,145.09597676507053,1.3054891510577362,26.713823867425784,114.05573634722488,-0.15812263728034995,3.124962157867711,1.0,26.64494830688823,0.0,1.0,114.21993803123712,7933.1039562098995,1.0,1.0,-0.5815799490930115,19.239954904447448,0.02899106125583589,-43.94725071434883,1.0,27.272516263751218,1.0,0.0006505763257071504,4.178132265970647,0.9324975565595189,1.0,-0.2220047502937715,5.9337647542644705
1.5,1.5,1.0,20.434337198161828,-0.005974176780713231,6.270781821262428,-0.0023916658714519005,0.016215706855502863,0.004841933120599292,21.374865545047147,0.017091329111822366,1.0,0.0,145.09597676507053,1.3054891510577362,26.713823867425784,114.05573634722488,-0.15812263728034995,3.124962157867711,1.0,27.64086549297147,0.0,1.0,115.15122666106915,8028.748160163126,1.0,1.0,0.008071137415895893,19.253690317400977,0.0007534966033792764,-43.95450348067336,1.0,27.10607955044459,1.0,0.013159136938475185,4.217812520415602,0.9320467880328804,1.0,-0.4010603770404985,6.223433271177119
1.53,1.53,1.0,20.356420832162332,0.0711583024413089,6.297473817241912,-0.0037134561095021916,0.01510411756668167,0.00397929498252535,21.308381193299184,0.016054871917997118,1.0,0.0,145.09597676507053,1.3054891510577362,26.713823867425784,114.05573634722488,-0.15812263728034995,3.124962157867711,1.0,27.64086549297147,0.0,1.0,115.33733343977444,8157.668867163018,1.0,1.0,0.008071137415895893,19.253690317400977,0.0007534966033792764,-43.95450348067336,1.0,27.10607955044459,1.0,0.013159136938475185,4.217812520415602,0.9320467880328804,1.0,-0.4010603770404985,6.223433271177119
1.56,1.56,1.0,20.38020893763682,0.0033119862854810427,6.405407395357343,-0.003354821357962435,0.016257319230657017,0.003646070944219726,21.363103033302146,0.016995560839278435,1.0,0.0,145.09597676507053,1.3054891510577362,26.713823867425784,114.05573634722488,-0.15812263728034995,3.124962157867711,1.0,27.252766980783903,0.0,1.0,115.53065464488074,8296.273942893029,1.0,1.0,-1.5092741909339515,19.357162390744147,-0.030916050273101937,-43.96446126005439,1.0,27.66169900317719,1.0,0.018582341932635065,4.22908540348375,0.9316080488297372,1.0,-0.36017890651008844,6.0085265196884485
1.5899999999999999,1.5899999999999999,1.0,20.332396002153708,0.06505114042498142,6.4865759277045605,-0.006350608666440265,0.01762782610087277,0.001889930987742327,21.342123280150524,0.01883194951711867,1.0,0.0,145.09597676507053,1.3054891510577362,26.713823867425784,114.05573634722488,-0.15812263728034995,3.124962157867711,1.0,27.252766980783903,0.0,1.0,115.98324961032364,8353.913516118455,1.0,1.0,-1.5092741909339515,19.357162390744147,-0.030916050273101937,-43.96446126005439,1.0,27.66169900317719,1.0,0.018582341932635065,4.22908540348375,0.9316080488297372,1.0,-0.36017890651008844,6.0085265196884485
1.6199999999999999,1.6199999999999999,1.0,20.27884422014838,0.03683742650590496,6.488186707421006,0.0014534532905625679,0.01174436828517152,0.003317309404223446,21.29153462415031,0.012290128338180162,1.0,0.0,145.09597676507053,1.3054891510577362,26.713823867425784,114.05573634722488,-0.15812263728034995,3.124962157867711,1.0,26.91005861497345,0.0,1.0,117.67118588256793,8417.793527786964,1.0,1.0,1.0048278187937192,19.4338043269639,0.023671696623950328,-43.89079790641207,1.0,27.355044510089293,1.0,0.01664904422198924,4.246572484234026,0.9311803070198668,1.0,-0.08827492918718081,6.081382088025532
1.65,1.65,1.0,20.232646474253137,0.003996946345070605,6.665152702359422,-0.0030233707425203894,0.01484227073885474,0.00023893100087164776,21.302212558170034,0.015148955718311725,1.0,0.0,145.09597676507053,1.3054891510577362,26.713823867425784,114.05573634722488,-0.15812263728034995,3.124962157867711,1.0,26.91005861497345,0.0,1.0,117.86674378877142,8374.160245250156,1.0,1.0,1.0048278187937192,19.4338043269639,0.023671696623950328,-43.89079790641207,1.0,27.355044510089293,1.0,0.01664904422198924,4.246572484234026,0.9311803070198668,1.0,-0.08827492918718081,6.081382088025532
1.68,1.68,1.0,20.23931819006645,0.026774367510419166,6.673301699710006,-0.003976916976255227,0.014305734290082873,0.0008886925622829736,21.31111618946466,0.014874800055286021,1.0,0.0,169.29577713220576,1.4315615758743812,24.690381691871664,118.14690540761696,0.3708861580517907,2.684971514771585,1.0,27.91427354109244,0.0,1.0,118.2725114267363,8521.572418382546,1.0,1.0,-0.3683692986502843,19.407178451708486,0.08726535046391665,-43.896088268500776,1.0,27.683091761332793,1.0,0.00858664121398188,4.259176391392628,0.9307625326328924,1.0,-0.5275908912487876,6.414281888664048
1.71,1.71,1.0,20.209959737060807,0.027254627594272836,6.786149110985175,-0.002906994329109744,0.01649469115867483,0.005945245290781597,21.318889163013843,0.017772771140626958,1.0,0.0,169.29577713220576,1.4315615758743812,24.690381691871664,118.14690540761696,0.3708861580517907,2.684971514771585,1.0,27.91427354109244,0.0,1.0,119.9460792514709,8681.605819906452,1.0,1.0,-0.3683692986502843,19.407178451708486,0.08726535046391665,-43.896088268500776,1.0,27.683091761332793,1.0,0.00858664121398188,4.259176391392628,0.9307625326328924,1.0,-0.5275908912487876,6.414281888664048
1.74,1.74,1.0,20.268743967324806,0.03781725705318622,6.803442257759167,-0.004579626459705104,0.01482107944959123,8.117182095185478e-05,21.380136545694928,0.015512703292013394,1.0,0.0,169.29577713220576,1.4315615758743812,24.690381691871664,118.14690540761696,0.3708861580517907,2.684971514771585,1.0,27.229903538001516,0.0,1.0,119.65695972008031,8710.3752794425,1.0,1.0,2.846001795272218,19.45210197202442,0.031166554495616502,-43.92810970813546,1.0,27.512471027181636,1.0,0.006994744176466533,4.276500626693329,0.9303536976242965,1.0,-0.11215847808898863,5.894796821293196
1.77,1.77,1.0,20.233816221983496,0.0495452181078303,6.900303176138608,-0.005628529883555028,0.015422083081792916,0.0024265777545384357,21.378118662695,0.01659545946428167,1.0,0.0,169.29577713220576,1.4315615758743812,24.690381691871664,118.14690540761696,0.3708861580517907,2.684971514771585,1.0,27.229903538001516,0.0,1.0,119.68206478743556,8859.993747343746,1.0,1.0,2.846001795272218,19.45210197202442,0.031166554495616502,-43.92810970813546,1.0,27.512471027181636,1.0,0.006994744176466533,4.276500626693329,0.9303536976242965,1.0,-0.11215847808898863,5.894796821293196
1.7999999999999998,1.7999999999999998,1.0,20.16176945818494,0.0933658414238242,6.952385505645422,0.003784915219471628,0.01326033529798305,0.001835967004528099,21.327009379761904,0.013911608471892782,1.0,0.0,169.29577713220576,1.4315615758743812,24.690381691871664,118.14690540761696,0.3708861580517907,2.684971514771585,1.0,26.79623479983874,0.0,1.0,119.71924585257356,8843.547766824735,1.0,1.0,0.058238403931997744,19.524339697407076,0.08848839328723265,-43.86844427360922,1.0,27.997302120541384,1.0,-0.0032390329009430053,4.281480576185411,0.9299527759931704,1.0,-0.07615613221342483,6.174185680278753
1.8299999999999998,1.8299999999999998,1.0,20.099971209966064,0.023754228545223573,7.01093246464223,-0.007802075078420026,0.014074143475995652,0.0036819542338139668,21.287615670351926,0.016507897415846587,1.0,0.0,169.29577713220576,1.4315615758743812,24.690381691871664,118.14690540761696,0.3708861580517907,2.684971514771585,1.0,26.79623479983874,0.0,1.0,120.93417860137173,8927.548446267529,1.0,1.0,0.058238403931997744,19.524339697407076,0.08848839328723265,-43.86844427360922,1.0,27.997302120541384,1.0,-0.0032390329009430053,4.281480576185411,0.9299527759931704,1.0,-0.07615613221342483,6.174185680278753
1.8599999999999999,1.8599999999999999,1.0,20.059751663185054,0.03805741531496064,7.08479653506415,-0.0013103717694069668,0.011597606183078427,0.0017096177221642538,21.274149268508317,0.011795945748763673,1.0,0.0,169.29577713220576,1.4315615758743812,24.690381691871664,118.14690540761696,0.3708861580517907,2.684971514771585,1.0,28.12529146300596,0.0,1.0,121.42696116243096,9057.95660806512,1.0,1.0,-2.109921683434144,19.597902879643986,0.08648491191789505,-43.889955374884025,1.0,28.314600514454426,1.0,0.012150042837681625,4.284893909983535,0.9295587440916232,1.0,-0.5607049673143589,6.680614367932411
1.89,1.89,1.0,20.11446482560879,0.036788867319936476,7.18467285287076,-0.0018849197076839619,0.011475200408420051,0.00300629548781064,21.35913323719364,0.012011284663925408,1.0,0.0,196.02151876832505,0.8020793197780344,27.48586103337663,122.3637820684478,-0.016165163774536126,2.278904348975225,1.0,28.12529146300596,0.0,1.0,122.0709912312127,9029.373767143494,1.0,1.0,-2.109921683434144,19.597902879643986,0.08648491191789505,-43.889955374884025,1.0,28.314600514454426,1.0,0.012150042837681625,4.284893909983535,0.9295587440916232,1.0,-0.5607049673143589,6.680614367932411
1.92,1.92,1.0,20.060943434000055,0.06494352921708255,7.193799975131033,-0.003608788133914255,0.008377278173238769,0.0026009414229174006,21.311884646983533,0.009485095554223512,1.0,0.0,196.02151876832505,0.8020793197780344,27.48586103337663,122.3637820684478,-0.016165163774536126,2.278904348975225,1.0,28.648746190481216,0.0,1.0,122.92275875522856,9100.243690705938,1.0,1.0,-0.506979557651418,19.55259821517337,0.12932239400672457,-43.811192508238335,1.0,28.193547605446422,1.0,0.01896185183109607,4.323596411551792,0.9291705809725695,1.0,-0.09512527803269606,5.839009992327935
1.95,1.95,1.0,20.04444279885904,0.06646884030695521,7.341170761467914,-0.0030152288043929446,0.009647778481783508,0.004040486378518542,21.34658973636059,0.010885621918448192,1.0,0.0,196.02151876832505,0.8020793197780344,27.48586103337663,122.3637820684478,-0.016165163774536126,2.278904348975225,1.0,28.648746190481216,0.0,1.0,123.50472698937915,9226.092942553809,1.0,1.0,-0.506979557651418,19.55259821517337,0.12932239400672457,-43.811192508238335,1.0,28.193547605446422,1.0,0.01896185183109607,4.323596411551792,0.9291705809725695,1.0,-0.09512527803269606,5.839009992327935
1.98,1.98,1.0,19.929092577299897,-0.004762845927346757,7.359392400853328,-0.00856063891472564,0.009214992815597905,0.0048016371744472415,21.244514824985504,0.013463147877627642,1.0,0.0,196.02151876832505,0.8020793197780344,27.48586103337663,122.3637820684478,-0.016165163774536126,2.278904348975225,1.0,28.425341260392866,0.0,1.0,123.78164724016615,9487.628659376618,1.0,1.0,0.6095979285512064,19.592748732102603,0.013074916222325421,-43.80548665634801,1.0,28.28218785738,1.0,0.01675826008081441,4.348014164719884,0.9287872688777972,1.0,-0.49510255271906634,6.0938868206221635
2.01,2.01,1.0,20.01028458888602,0.0028726886405759933,7.418119116286093,-0.002854093541376157,0.013305408093626967,0.003423803426443106,21.341040012238356,0.014032183165274128,1.0,0.0,196.02151876832505,0.8020793197780344,27.48586103337663,122.3637820684478,-0.016165163774536126,2.278904348975225,1.0,28.425341260392866,0.0,1.0,124.1873454836525,9638.896639429982,1.0,1.0,0.6095979285512064,19.592748732102603,0.013074916222325421,-43.80548665634801,1.0,28.28218785738,1.0,0.01675826008081441,4.348014164719884,0.9287872688777972,1.0,-0.49510255271906634,6.0938868206221635
2.04,2.04,1.0,19.926239288768155,0.02153930972004043,7.508445206672159,-0.0013485323490451473,0.010982014261555794,0.0026113700653713767,21.293948096976028,0.0113684840834543,1.0,0.0,196.02151876832505,0.8020793197780344,27.48586103337663,122.3637820684478,-0.016165163774536126,2.278904348975225,1.0,28.303572691349498,0.0,1.0,124.61946641628609,9584.717768986362,1.0,1.0,0.33464489006043835,19.621347972314773,0.09775913280285306,-43.83098483988598,1.0,28.825853115189556,1.0,0.014191828936491154,4.368344752523058,0.9284077937790993,1.0,-0.7379127895844309,5.64051200762217
2.07,2.07,1.0,19.845119388663402,0.05362355743875357,7.464808534529382,-0.0037445246665162913,0.009325113154340335,0.0007865212920025789,21.202712220218412,0.010079574200439893,1.0,0.0,196.02151876832505,0.8020793197780344,27.48586103337663,122.3637820684478,-0.016165163774536126,2.278904348975225,1.0,28.303572691349498,0.0,1.0,126.07069193203823,9453.631227978382,1.0,1.0,0.33464489006043835,19.621347972314773,0.09775913280285306,-43.83098483988598,1.0,28.825853115189556,1.0,0.014191828936491154,4.368344752523058,0.9284077937790993,1.0,-0.7379127895844309,5.64051200762217
2.1,2.1,1.0,19.892809752678346,-0.0037304162559708004,7.656534443036889,-0.0026922397548325722,0.010402034998829118,0.004814737908027032,21.31540319697637,0.011774217092331844,1.0,0.0,222.1779777206197,-2.148697195890353,28.171795079337993,126.15709902718783,0.08412742159595957,2.5524534832928505,1.0,28.2925352462419,0.0,1.0,126.62068219880176,9789.626500856763,1.0,1.0,-1.2801619059177942,19.613111431780304,0.09113346477922395,-43.81597404643497,1.0,28.785931709695216,1.0,0.007716665730808123,4.37365255245642,0.9280311459464863,1.0,-0.6493938821137707,5.606383236258605
2.13,2.13,1.0,19.85324817173439,0.0726906406829455,7.680253821939523,-0.006183228963892276,0.006938321519048184,0.004067329212470666,21.287156824412563,0.010144742128029705,1.0,0.0,222.1779777206197,-2.148697195890353,28.171795079337993,126.15709902718783,0.08412742159595957,2.5524534832928505,1.0,28.2925352462419,0.0,1.0,126.98125304806034,9876.639457746409,1.0,1.0,-1.2801619059177942,19.613111431780304,0.09113346477922395,-43.81597404643497,1.0,28.785931709695216,1.0,0.007716665730808123,4.37365255245642,0.9280311459464863,1.0,-0.6493938821137707,5.606383236258605
2.16,2.16,1.0,19.847194466733217,-0.016152026422620307,7.826702496833146,-0.004980250922823415,0.01008531930202129,0.0007306945834357052,21.334682117674436,0.011271667101732066,1.0,0.0,222.1779777206197,-2.148697195890353,28.171795079337993,126.15709902718783,0.08412742159595957,2.5524534832928505,1.0,29.34475782616688,0.0,1.0,127.68089050356694,9950.1635241138,1.0,1.0,0.20527615274388392,19.67485080401389,0.07847663356006424,-43.78117719759794,1.0,28.946948809809303,1.0,-0.007719658520251974,4.393389414539103,0.927656320553766,1.0,0.12079929081893047,5.670260524467688
2.19,2.19,1.0,19.870318399690685,0.036656662814684174,7.845363136469252,-0.006644799291803895,0.009938717447918397,0.008015344875458609,21.363066721776757,0.014393651920567473,1.0,0.0,222.1779777206197,-2.148697195890353,28.171795079337993,126.15709902718783,0.08412742159595957,2.5524534832928505,1.0,29.34475782616688,0.0,1.0,128.79276295264597,9985.227896698167,1.0,1.0,0.20527615274388392,19.67485080401389,0.07847663356006424,-43.78117719759794,1.0,28.946948809809303,1.0,-0.007719658520251974,4.393389414539103,0.927656320553766,1.0,0.12079929081893047,5.670260524467688
2.2199999999999998,2.2199999999999998,1.0,19.786950641291504,-0.006495859924403394,7.881055531784682,-0.004300513081955115,0.009115507764140864,0.004938312597760999,21.298697006440943,0.011223806211770783,1.0,0.0,222.1779777206197,-2.148697195890353,28.171795079337993,126.15709902718783,0.08412742159595957,2.5524534832928505,1.0,28.997896658689502,0.0,1.0,128.91261713462399,10325.550224750346,1.0,1.0,0.5041234956083425,19.616788563944894,0.06673690298321498,-43.76905101739348,1.0,28.87888223826656,1.0,0.04128410341843991,4.417725151638603,0.9272823183045915,1.0,-0.39727237957222356,5.651468982596925
2.25,2.25,1.0,19.777500332985504,0.11908069208963258,7.951404595390052,-0.007405080182308176,0.009296810703579732,0.004934087466178562,21.316391220656005,0.012868998441545805,1.0,0.0,222.1779777206197,-2.148697195890353,28.171795079337993,126.15709902718783,0.08412742159595957,2.5524534832928505,1.0,28.997896658689502,0.0,1.0,129.9801588168993,10175.391037474015,1.0,1.0,0.5041234956083425,19.616788563944894,0.06673690298321498,-43.76905101739348,1.0,28.87888223826656,1.0,0.04128410341843991,4.417725151638603,0.9272823183045915,1.0,-0.39727237957222356,5.651468982596925
2.28,2.28,1.0,19.72432655405446,0.04249581055580094,7.9679672581260155,-0.003191402752195655,0.006061335428521901,0.004115260746297423,21.27297266795266,0.007991258331063589,1.0,0.0,222.1779777206197,-2.148697195890353,28.171795079337993,126.15709902718783,0.08412742159595957,2.5524534832928505,1.0,29.254209476232443,0.0,1.0,129.74528041901846,10364.975844813333,1.0,1.0,-1.2830172610739405,19.75638309247991,0.16607339847577704,-43.78836359262476,1.0,30.063177185647017,1.0,0.030631659803709754,4.418708682788894,0.9269081460674793,1.0,-0.015472040455389201,5.355392371781106
2.31,2.31,1.0,19.662394701022993,0.025041896911581898,8.05872687264861,-0.004082937086643196,0.007422144427920656,0.0015729832029922589,21.249787558546718,0.008615850469877936,1.0,0.0,249.1503359804613,1.592528699972083,30.739874740337715,130.4526078492605,0.14623270885177098,2.4784518346395457,1.0,29.254209476232443,0.0,1.0,129.77838734800594,10278.93009749471,1.0,1.0,-1.2830172610739405,19.75638309247991,0.16607339847577704,-43.78836359262476,1.0,30.063177185647017,1.0,0.030631659803709754,4.418708682788894,0.9269081460674793,1.0,-0.015472040455389201,5.355392371781106
2.34,2.34,1.0,19.663491377674955,-0.002236446694798,8.083409481521121,-0.0017989530273979856,0.01065574249016953,0.00716633970636109,21.260160088944218,0.012966784674642988,1.0,0.0,249.1503359804613,1.592528699972083,30.739874740337715,130.4526078492605,0.14623270885177098,2.4784518346395457,1.0,29.67085024870494,0.0,1.0,131.4828001897534,10451.044148769923,1.0,1.0,1.8982729088967765,19.723580918982776,0.07917839095715562,-43.76386535604053,1.0,29.603909094119295,1.0,0.012067077409320833,4.4547101143430075,0.9265328175142811,1.0,-0.40098613323197146,5.734947830764126
2.37,2.37,1.0,19.55693810211285,0.07471505556321273,8.147344726376879,-0.005321828186685659,0.006111136445474995,0.004956507869996797,21.18628415649668,0.009499200712120726,1.0,0.0,249.1503359804613,1.592528699972083,30.739874740337715,130.4526078492605,0.14623270885177098,2.4784518346395457,1.0,29.67085024870494,0.0,1.0,131.43241795842079,10504.944829423337,1.0,1.0,1.8982729088967765,19.723580918982776,0.07917839095715562,-43.76386535604053,1.0,29.603909094119295,1.0,0.012067077409320833,4.4547101143430075,0.9265328175142811,1.0,-0.40098613323197146,5.734947830764126
2.4,2.4,1.0,19.56612643212166,0.010488916418758258,8.259857429539185,-0.00942181752415449,0.0035084386014281902,0.0025635767294991912,21.238141593167967,0.010375534324866638,1.0,0.0,249.1503359804613,1.592528699972083,30.739874740337715,130.4526078492605,0.14623270885177098,2.4784518346395457,1.0,29.057083223833356,0.0,1.0,131.74204887597287,10530.105504016748,1.0,1.0,-1.883077158077017,19.694313122070312,0.146396604754969,-43.80053378625032,1.0,29.702194065676725,1.0,0.04158270200061436,4.459450851288291,0.9261553614959662,1.0,-0.8241731595177246,5.401561842156349
2.4299999999999997,2.4299999999999997,1.0,19.590538305639228,0.1263179246936687,8.38086456694513,-0.008337084456317945,-0.003552832268971188,0.004146616683705583,21.308309135459183,0.00996614390247335,1.0,0.0,249.1503359804613,1.592528699972083,30.739874740337715,130.4526078492605,0.14623270885177098,2.4784518346395457,1.0,29.057083223833356,0.0,1.0,132.53739273328222,10825.855563619423,1.0,1.0,-1.883077158077017,19.694313122070312,0.146396604754969,-43.80053378625032,1.0,29.702194065676725,1.0,0.04158270200061436,4.459450851288291,0.9261553614959662,1.0,-0.8241731595177246,5.401561842156349
2.46,2.46,1.0,19.588438647424557,0.03210016954197562,8.395389906973117,-0.007482988777113991,0.0035620938318674574,0.004834921257573658,21.311746309369084,0.009594795311645777,1.0,0.0,249.1503359804613,1.592528699972083,30.739874740337715,130.4526078492605,0.14623270885177098,2.4784518346395457,1.0,30.039373555932126,0.0,1.0,133.39460865997702,10661.104361479682,1.0,1.0,-2.261598869435863,19.794372233817704,0.09836447745020033,-43.772741410281434,1.0,30.179574883463758,1.0,0.04066367844056071,4.477540300942607,0.925774742949091,1.0,-0.019535913419607358,5.3993254407980835
2.4899999999999998,2.4899999999999998,1.0,19.480918654258232,-0.007403365580131931,8.427108039190227,-0.004990641343953469,-0.0025839495910923013,0.004855271789058919,21.2255128637174,0.007426773233303624,1.0,0.0,249.1503359804613,1.592528699972083,30.739874740337715,130.4526078492605,0.14623270885177098,2.4784518346395457,1.0,30.039373555932126,0.0,1.0,133.89056331368448,10850.2818450335,1.0,1.0,-2.261598869435863,19.794372233817704,0.09836447745020033,-43.772741410281434,1.0,30.179574883463758,1.0,0.04066367844056071,4.477540300942607,0.925774742949091,1.0,-0.019535913419607358,5.3993254407980835
2.52,2.52,1.0,19.591643927378012,0.11886681709381469,8.503554973106143,-0.008170367250869285,-0.0012496359842888195,0.0059002255327392054,21.357834353651402,0.010155252455970478,1.0,0.0,277.4342538940378,1.5887197522087324,32.336190806438566,134.15942127284475,0.022470443532493556,2.548368865869417,1.0,30.65612585371192,0.0,1.0,134.64283224629918,11058.460305526965,1.0,1.0,-0.6139507089817525,19.739086066960816,0.0885893391422965,-43.71596609797511,1.0,29.389895145473808,1.0,0.02636103479865288,4.47112493175538,0.9253897843631383,1.0,-0.23293721341003254,6.409197782249671
2.55,2.55,1.0,19.4951195505419,-0.019732238412814032,8.62842345822821,-0.0051830135085364605,-0.0012370752922502529,0.006968145196379718,21.319234672606257,0.008772059723132147,1.0,0.0,277.4342538940378,1.5887197522087324,32.336190806438566,134.15942127284475,0.022470443532493556,2.548368865869417,1.0,30.65612585371192,0.0,1.0,134.89028096150767,11086.604798502438,1.0,1.0,-0.6139507089817525,19.739086066960816,0.0885893391422965,-43.71596609797511,1.0,29.389895145473808,1.0,0.02636103479865288,4.47112493175538,0.9253897843631383,1.0,-0.23293721341003254,6.409197782249671
2.58,2.58,1.0,19.475533549181844,0.09017522649815761,8.728521341745422,-0.00517517481015293,-0.003668610873169717,0.007480595899087493,21.342249727010667,0.009808183066186372,1.0,0.0,277.4342538940378,1.5887197522087324,32.336190806438566,134.15942127284475,0.022470443532493556,2.548368865869417,1.0,30.082584753004248,0.0,1.0,135.29595434682008,11198.250778708027,1.0,1.0,-1.2223541181511646,19.719360798629808,0.15423326935687848,-43.78274860050366,1.0,30.30538375745959,1.0,0.04183206280044101,4.500289850264529,0.9249992049403248,1.0,-0.6337080108465237,5.353212588227704
2.61,2.61,1.0,19.42270840230728,0.03836247694590533,8.760427907294986,-0.007144249837909761,-0.004423550120876888,0.006387074915689288,21.30699815740378,0.01055475378192267,1.0,0.0,277.4342538940378,1.5887197522087324,32.336190806438566,134.15942127284475,0.022470443532493556,2.548368865869417,1.0,30.082584753004248,0.0,1.0,136.02312945025903,11183.725001473926,1.0,1.0,-1.2223541181511646,19.719360798629808,0.15423326935687848,-43.78274860050366,1.0,30.30538375745959,1.0,0.04183206280044101,4.500289850264529,0.9249992049403248,1.0,-0.6337080108465237,5.353212588227704
2.6399999999999997,2.6399999999999997,1.0,19.34485520766833,0.05121435959177171,8.884632598685247,-0.00736768824952539,-0.00258071008609205,0.007657881209470164,21.287619461318393,0.010935540192830346,1.0,0.0,277.4342538940378,1.5887197522087324,32.336190806438566,134.15942127284475,0.022470443532493556,2.548368865869417,1.0,30.94051952924866,0.0,1.0,136.41110647507335,11335.980324657208,1.0,1.0,0.348484722521507,19.758223507664166,0.1318185999481223,-43.75452042173743,1.0,30.07861635513498,1.0,0.01609010777618112,4.498000335148044,0.9246016443967362,1.0,-0.036127298995061834,6.386364840344444
2.67,2.67,1.0,19.357067798657116,0.044569257655394774,8.978144441916157,-0.007139282503205664,-0.004772243474944511,0.008181085275718328,21.337880349286014,0.011860599425547775,1.0,0.0,277.4342538940378,1.5887197522087324,32.336190806438566,134.15942127284475,0.022470443532493556,2.548368865869417,1.0,30.94051952924866,0.0,1.0,137.10485335712332,11454.692114069416,1.0,1.0,0.348484722521507,19.758223507664166,0.1318185999481223,-43.75452042173743,1.0,30.07861635513498,1.0,0.01609010777618112,4.498000335148044,0.9246016443967362,1.0,-0.036127298995061834,6.386364840344444
2.6999999999999997,2.6999999999999997,1.0,19.311659804193397,0.14281681446056205,9.083464321118129,-0.012056039189403487,-0.006213000261818516,0.01037258307761885,21.34174137947552,0.017074540488455157,1.0,0.0,277.4342538940378,1.5887197522087324,32.336190806438566,134.15942127284475,0.022470443532493556,2.548368865869417,1.0,30.97760251521978,0.0,1.0,137.64549380678542,11519.386990837174,1.0,1.0,0.3960272147578363,19.79379066760266,0.2879194751790833,-43.71825915347707,1.0,30.559825786505016,1.0,0.03553007477562855,4.532841588640516,0.9241956818509104,1.0,-0.7790773450163344,5.548355606818241
2.73,2.73,1.0,19.322369588827033,0.06288623002571044,9.049656297066303,-0.011873060921966485,-0.004298373028015315,0.0059947383534418065,21.336686722642444,0.013977928110808245,1.0,0.0,307.7006688770869,3.108825369397819,31.698020727744467,138.04039833444114,0.32770755529730916,2.643001979289698,1.0,30.97760251521978,0.0,1.0,137.8637141959736,11528.019544837134,1.0,1.0,0.3960272147578363,19.79379066760266,0.2879194751790833,-43.71825915347707,1.0,30.559825786505016,1.0,0.03553007477562855,4.532841588640516,0.9241956818509104,1.0,-0.7790773450163344,5.548355606818241
2.76,2.76,1.0,19.29779023684509,0.09193159408037452,9.199909384074902,-0.011460040164983507,-0.009163872480297316,0.006089870432032303,21.378762642362005,0.015886963249693978,1.0,0.0,307.7006688770869,3.108825369397819,31.698020727744467,138.04039833444114,0.32770755529730916,2.643001979289698,1.0,30.899343722476015,0.0,1.0,138.56056895110035,11540.875154729285,1.0,1.0,0.04387976200583201,19.637347547643305,0.14534132397831406,-43.744151588573224,1.0,30.569305366380302,1.0,0.046432199524148246,4.515438079114633,0.9237798516877618,1.0,-0.5178057907161643,5.218112921353549
2.79,2.79,1.0,19.292914711350377,0.09256956132340798,9.285814357838929,-0.007434395626365457,-0.008312331689668788,0.008587422813965531,21.41147999255005,0.014075117300904084,1.0,0.0,307.7006688770869,3.108825369397819,31.698020727744467,138.04039833444114,0.32770755529730916,2.643001979289698,1.0,30.899343722476015,0.0,1.0,139.77924655612685,11812.385801779255,1.0,1.0,0.04387976200583201,19.637347547643305,0.14534132397831406,-43.744151588573224,1.0,30.569305366380302,1.0,0.046432199524148246,4.515438079114633,0.9237798516877618,1.0,-0.5178057907161643,5.218112921353549
2.82,2.82,1.0,19.22523788618054,0.09534805688876354,9.354333789276081,-0.006872299925162492,-0.009258549965648004,0.009624226524715365,21.38042150364151,0.01501915410157389,1.0,0.0,307.7006688770869,3.108825369397819,31.698020727744467,138.04039833444114,0.32770755529730916,2.643001979289698,1.0,30.233491096582227,0.0,1.0,140.24978868110423,12095.388575731815,1.0,1.0,1.652096483665161,19.656752104164518,0.1613014573107926,-43.80349901229869,1.0,30.438142371183414,1.0,0.0370242758352653,4.542783782220897,0.9233526569485923,1.0,0.11102051259922543,5.72860378104327
2.85,2.85,1.0,19.09191256921496,0.12611256946561356,9.485061524323308,-0.010818088201917994,-0.009038830959714184,0.007885754034895866,21.318616794973444,0.016152913488335204,1.0,0.0,307.7006688770869,3.108825369397819,31.698020727744467,138.04039833444114,0.32770755529730916,2.643001979289698,1.0,30.233491096582227,0.0,1.0,140.27255571743643,12071.414148760992,1.0,1.0,1.652096483665161,19.656752104164518,0.1613014573107926,-43.80349901229869,1.0,30.438142371183414,1.0,0.0370242758352653,4.542783782220897,0.9233526569485923,1.0,0.11102051259922543,5.72860378104327
2.88,2.88,1.0,19.130955185301293,0.09869393485881733,9.416951711777648,-0.00951460598012229,-0.00483206777840981,0.00914839865878291,21.323277570222086,0.014055952617739792,1.0,0.0,307.7006688770869,3.108825369397819,31.698020727744467,138.04039833444114,0.32770755529730916,2.643001979289698,1.0,31.51238548731058,0.0,1.0,141.29489211947643,12081.77331345169,1.0,1.0,-0.13138738342892542,19.654935322140954,0.2136633063196982,-43.7884378133775,1.0,31.015319224982505,1.0,0.04855981575412418,4.539821683506258,0.9229125806049424,1.0,-0.707778926345361,5.787834042202598
2.9099999999999997,2.9099999999999997,1.0,19.099728489617792,0.11067576693991499,9.554354196951888,-0.011693607161131167,-0.009500019889306542,0.00799256165188332,21.356440752693725,0.017054966083086587,1.0,0.0,307.7006688770869,3.108825369397819,31.698020727744467,138.04039833444114,0.32770755529730916,2.643001979289698,1.0,31.51238548731058,0.0,1.0,140.9532107481335,12458.305706537772,1.0,1.0,-0.13138738342892542,19.654935322140954,0.2136633063196982,-43.7884378133775,1.0,31.015319224982505,1.0,0.04855981575412418,4.539821683506258,0.9229125806049424,1.0,-0.707778926345361,5.787834042202598
2.94,2.94,1.0,19.125894683795693,0.03943708842288725,9.653432967155716,-0.008870085738499385,-0.010688621516919957,0.006777304162059683,21.42405589030603,0.01545499604158364,1.0,0.0,336.4997355682079,0.8783591811332456,29.240369185992297,141.99498429856848,0.21953036762189063,3.201805778813683,1.0,30.921036402703553,0.0,1.0,142.206934418209,12121.936165377065,1.0,1.0,-0.4325203196829847,19.625283062119507,0.21721950781824995,-43.78900113031771,1.0,30.81326497826724,1.0,0.010196614631876075,4.535325765453015,0.9224580950652828,1.0,-0.8862782660010521,5.726452128094116
2.9699999999999998,2.9699999999999998,1.0,18.977821305873814,0.06999949049875157,9.768176259826003,-0.013326255881164435,-0.0062585508772928615,0.010726466836807344,21.34431701623119,0.018215807577350522,1.0,0.0,336.4997355682079,0.8783591811332456,29.240369185992297,141.99498429856848,0.21953036762189063,3.201805778813683,1.0,30.921036402703553,0.0,1.0,142.3841507805637,12448.540257411612,1.0,1.0,-0.4325203196829847,19.625283062119507,0.21721950781824995,-43.78900113031771,1.0,30.81326497826724,1.0,0.010196614631876075,4.535325765453015,0.9224580950652828,1.0,-0.8862782660010521,5.726452128094116
3.0,3.0,1.0,18.99605412997561,0.1901647132671972,9.89145019888813,-0.014103150609404142,-0.010213459847683931,0.01250180110234307,21.41791358102417,0.0214361528725267,1.0,0.0,336.4997355682079,0.8783591811332456,29.240369185992297,141.99498429856848,0.21953036762189063,3.201805778813683,1.0,31.26244070859278,0.0,1.0,142.54070738904613,12444.509126968269,1.0,1.0,2.7089120837741643,19.597115447961762,0.29416532427524666,-43.818443693882244,1.0,30.952412935177676,1.0,0.02655066838953861,4.570965750735069,0.9219876702195698,1.0,-1.1242393500610415,6.78791970735942
