time_s,x_m,y_m,altitude_m,vx_mps,vy_mps,vz_mps,speed_mps,mass_kg,roll_deg,pitch_deg,yaw_deg,p_dps,q_dps,r_dps,alpha_deg,beta_deg,qbar_pa,mach,airspeed_mps,load_factor_g,density_kgpm3,pressure_pa,temperature_k,wind_x_mps,wind_y_mps,wind_z_mps,thrust_n,mass_flow_kgps,propulsion_throttle_actual,propulsion_health,energy_j_per_kg,target_distance_m,guidance_mode,pitch_command_deg,heading_command_deg,roll_command_deg
0.0,0.0,0.0,20.0,85.0,0.0,8.0,85.37564055396598,17.633519126604632,0.0,6.000000000000002,0.0,0.0,0.0,0.0,0.5396440755261187,0.09042345829106828,4467.806158736801,0.25127822353723156,85.48917787541667,1.7829021991174387,1.2226496753673843,101084.96761777384,288.02,-0.10114574227902196,-0.1349178589895554,-0.13488317908401584,326.8,0.17539118863220368,0.86,nominal,3840.633,nan,pitch_program,13.0,0.0,0.0
0.03,2.565637560838371,-1.3494925008070879e-05,20.232930217655287,85.5212520279457,-0.00044983083360236267,7.764340588509544,85.872984887007,17.628257390945667,-0.0008375108722259178,6.273938748274728,0.0011759882025547987,-0.023726358322743626,-9.131309288507111,0.038908334257954605,1.002949320169477,0.08844478791035167,4519.796814484726,0.2527395146989118,85.9861082832785,1.8115128072471938,1.2226223224144446,101082.1747930085,288.01848595358524,-0.10114574227902196,-0.1349178589895554,-0.13488317908401584,332.605,0.1785066900092231,0.86,nominal,3885.5020318210354,nan,pitch_program,12.985,0.0,0.0
0.06,5.147093779793474,-3.803392686421748e-05,20.459357948763405,86.04854063183677,-0.0008179667285382198,7.547591036937276,86.37891800664552,17.62290219024539,-0.002466279934979107,6.592644835437067,0.0030990315377129093,-0.04710994183979902,-10.6235654636552,0.06339175480644237,1.4967195617188056,0.08581118560445132,4573.001272149625,0.25422612892435553,86.49165772038045,1.8411028742893134,1.2225957334960436,101079.4599927071,288.017014173333,-0.10114574227902196,-0.1349178589895554,-0.13488317908401584,338.40999999999997,0.18162219138624247,0.86,nominal,3931.2965006276354,nan,pitch_program,12.97,0.0,0.0
0.09,7.7445387672120445,-7.163641492993246e-05,20.679859227071187,86.58149958061901,-0.001120082935523833,7.350042610259414,86.89291799252655,17.617453524503805,-0.004843533496867923,6.787910675009977,0.00548767379580438,-0.0699657019432933,-6.508872651279534,0.07866413424237999,1.8527349489036482,0.08279942119506982,4627.379788830685,0.25573653442147465,87.00530452847224,1.8713667812069645,1.2225698409333283,101076.81630553244,288.01558091502403,-0.10114574227902196,-0.1349178589895554,-0.13488317908401584,344.215,0.18473769276326188,0.86,nominal,3977.98974011713,nan,pitch_program,12.955,0.0,0.0
0.12,10.358184438898276,-0.00011257974681707806,20.894749802897287,87.12152238954106,-0.0013647777295715203,7.163019194203287,87.41549353124104,17.611911393720906,-0.007291569108929539,6.886925621612346,0.00816283409180658,-0.07098503964053006,-3.300508399576585,0.08818832975524406,2.1041307246908407,0.07955756600859333,4683.0005512931,0.2572721893673118,87.52754453033153,1.9019725407090216,1.222544607616082,101074.23994141699,288.0141841262811,-0.10114574227902196,-0.1349178589895554,-0.13488317908401584,350.02,0.1878531941402813,0.86,nominal,4025.6417528098054,nan,pitch_program,12.94,0.0,0.0
0.15,12.988270145869427,-0.00015929913208248049,21.104208744994406,87.66952356570505,-0.0015573128421800804,6.981964736570586,87.94710453588368,17.606275797896696,-0.010154904714639828,6.9741022711818506,0.011021386699838853,-0.08394689103520898,-2.90590324767558,0.09414646681370682,2.338427448443044,0.07620053635315573,4739.928736152299,0.2588344262170161,88.05883090333032,1.9331330787960899,1.2225200124866087,101071.72874937086,288.0128226431575,-0.10114574227902196,-0.1349178589895554,-0.13488317908401584,355.825,0.1909686955173007,0.86,nominal,4074.3081868119248,nan,pitch_program,12.925,0.0,0.0
0.18,15.635032134242207,-0.0002103067812575404,21.30844824940621,88.22539961242605,-0.0017002549725019978,6.8079834803935055,88.4876815084023,17.600546737031177,-0.012828842213087562,7.074721656784896,0.013998527001682947,-0.07699520816058411,-3.354000070161721,0.09782046786950739,2.580240500451481,0.07277202539910273,4798.174522992406,0.2604230457714771,88.59909569898596,1.9647812889502103,1.2224960305994943,101069.28018153134,288.01149508637883,-0.10114574227902196,-0.1349178589895554,-0.13488317908401584,361.63,0.19408419689432013,0.86,nominal,4123.999383391261,nan,pitch_program,12.91,0.0,0.0
0.21,18.298697742696422,-0.00026415240091371106,21.507732540606053,88.78885361514054,-0.001794853988539022,6.642809706661404,89.03700045661506,17.594724211124348,-0.015783342272740197,7.165943583550756,0.017047223752156303,-0.08588676483256152,-3.0407566189436737,0.10008030143980755,2.805669251147574,0.06933330255833699,4857.731442426374,0.26203739747152466,89.14811735729472,1.9966315241434613,1.222472630902482,101066.89106659679,288.01019973848605,-0.10114574227902196,-0.1349178589895554,-0.13488317908401584,367.435,0.19719969827133954,0.86,nominal,4174.712530474971,nan,pitch_program,12.895,0.0,0.0
0.24,20.979496336294822,-0.00031938482664479903,21.702314516187354,89.35995311994661,-0.0018410808577029323,6.486065852709965,89.59503488047943,17.588808220176208,-0.01849436242836985,7.230984634865811,0.020135744930898838,-0.07746692955119606,-2.1680657329484974,0.10149074357971259,2.9982644660464386,0.06588365960309767,4918.614039578136,0.26367740218289437,89.70586873302882,2.028504898971197,1.2224497836757482,101064.55836938396,288.00893495564475,-0.10114574227902196,-0.1349178589895554,-0.13488317908401584,373.24,0.20031519964835895,0.86,nominal,4226.462140267331,nan,pitch_program,12.88,0.0,0.0
0.27,23.67766585542323,-0.0003745493266235877,21.89240510106574,89.93898397094686,-0.0018388166659596232,6.336352829279618,90.16191107271742,17.58279876418676,-0.021433124449137652,7.275368171876525,0.023248769880067004,-0.08485767501633869,-1.4794870849266515,0.10242165758319838,3.1645347389035767,0.062459293353698236,4980.853781928561,0.2653434254725384,90.27247401219259,2.060466574229796,1.222427464129966,101062.27955818105,288.00769936684304,-0.10114574227902196,-0.1349178589895554,-0.13488317908401584,379.045,0.20343070102537836,0.86,nominal,4279.276258626668,nan,pitch_program,12.865,0.0,0.0
0.3,26.39345012162367,-0.00042816138959838305,22.078190651338325,90.52614220668131,-0.0017870687658265107,6.192851675752768,90.73772003910929,17.576695843155996,-0.024774505430879407,7.309840682879737,0.026380244539435625,-0.09812940970151622,-1.1491253921905833,0.10307476404472836,3.315821322592148,0.059079367276265754,5044.4789498170385,0.26703573162766925,90.84802294592983,2.092602526860554,1.2224056503624252,101060.05239605643,288.00649176076627,-0.10114574227902196,-0.1349178589895554,-0.13488317908401584,384.84999999999997,0.20654620240239774,0.86,nominal,4333.180007298835,nan,pitch_program,12.850000000000001,0.0,0.0
0.32999999999999996,29.127094734023007,-0.0004786883917552782,22.259853709956385,91.121487079978,-0.0016842334052298387,6.055435287268721,91.32247098617918,17.570499457083923,-0.027829070074192816,7.337338374625,0.029526143048991437,-0.08845158627449363,-0.9166373911763366,0.10358704263121297,3.4552052148242804,0.055709099706805626,5109.509335109357,0.26875434741788407,91.43252448083327,2.124875428187094,1.2223843209198102,101057.87469201384,288.00531095088525,-0.10114574227902196,-0.1349178589895554,-0.13488317908401584,390.655,0.20966170377941715,0.86,nominal,4388.191447895513,nan,pitch_program,12.835,0.0,0.0
0.36,31.878846588146033,-0.0005245642064963589,22.43757395321829,91.72506180410085,-0.0015291938247026916,5.924008108730169,91.91616200308222,17.56420960597054,-0.031049590876239378,7.355838993857141,0.032682720514916226,-0.093896191979792,-0.6167408511022197,0.10403860804340105,3.580786580010388,0.05237582960364762,5175.9638019037275,0.2704992670551533,92.02597648775249,2.15720292320491,1.2223634546869795,101055.744289634,288.0041557693041,-0.10114574227902196,-0.1349178589895554,-0.13488317908401584,396.46,0.21277720515643656,0.86,nominal,4444.327853296756,nan,pitch_program,12.82,0.0,0.0
0.39,34.64895523362467,-0.000564173646198247,22.611520844599806,92.33695484928786,-0.0013203146567296025,5.798229712717209,92.51882349221748,17.557826289815846,-0.03460313367250588,7.3648866167040445,0.03584839046413873,-0.10493301040790055,-0.3016473380157163,0.10448002566330505,3.692384782376275,0.049091141346115565,5243.865124015334,0.2722705786936611,92.62840880565392,2.189556113269978,1.2223430317493755,101053.6591551219,288.0030251145101,-0.10114574227902196,-0.1349178589895554,-0.13488317908401584,402.265,0.21589270653345596,0.86,nominal,4501.609621082741,nan,pitch_program,12.805,0.0,0.0
0.42,37.43767323630903,-0.00059584379618096,22.78185208988077,92.95726675614551,-0.0010556716660904348,5.677708176032053,93.13049883910115,17.551349508619843,-0.03781827722081583,7.366430481078531,0.0390240349848996,-0.09360073763210831,-0.05152848333227279,0.10494877775982013,3.7922524294063975,0.045811314730858,5313.2379334731595,0.2740684084237563,93.2398641894855,2.199584980603546,1.2223230335742734,101051.61739580739,288.00191796141576,-0.10114574227902196,-0.1349178589895554,-0.13488317908401584,404.1773684210526,0.21691906078826353,0.86,nominal,4560.058556807139,nan,pitch_program,12.79,0.0,0.0
0.44999999999999996,40.24505748226473,-0.0006179999935532545,22.948691774765795,93.57947486518995,-0.000738539912409816,5.56132282950092,93.74458079379355,17.544841936796196,-0.0411335356770546,7.362303190197479,0.04221084005881749,-0.09689258310444836,0.13750374523663375,0.10544534123700837,3.882717513098348,0.04256606592452747,5383.344278258998,0.27587333207219095,93.85373431239935,2.1985073219161,1.2223034455774027,101049.61752218448,288.000833503464,-0.10114574227902196,-0.1349178589895554,-0.13488317908401584,404.14342105263154,0.21690084148196515,0.86,nominal,4619.07300229505,nan,pitch_program,12.775,0.0,0.0
0.48,43.071067524368644,-0.0006319951255368839,23.112145628617498,94.20033473679732,-0.0004665043994543174,5.4484617950567396,94.35777021885629,17.538334911551736,-0.0447854503755863,7.353143054094939,0.04599909351397261,-0.10555921422065168,0.3052438854887338,0.12546425954622703,3.9647386559237137,0.038725125283360126,5453.808536462351,0.2776756498834445,94.46671921270807,2.197496030755077,1.2222842553306361,101047.65826491413,287.99977105341395,-0.10114574227902196,-0.1349178589895554,-0.13488317908401584,404.1094736842105,0.2168826221756668,0.86,nominal,4678.347123266123,nan,pitch_program,12.76,0.0,0.0
0.51,45.91566453604694,-0.0006338079007509455,23.27231369140869,94.81990038927654,-6.0425840468718024e-05,5.338935426373128,94.97008866650046,17.531828432886467,-0.048758714371541764,7.339226036451606,0.049941151023293266,-0.11564054446937133,0.4637940496100291,0.13070198234640085,4.038776291345598,0.03484276564721263,5524.631206828884,0.2794754249231786,95.07884031350837,2.196533168365108,1.2222654510746975,101045.73842297246,287.99872996100584,-0.10114574227902196,-0.1349178589895554,-0.13488317908401584,404.0755263157895,0.21686440286936848,0.86,nominal,4737.882305723332,nan,pitch_program,12.745,0.0,0.0
0.54,48.778811351828516,-0.0006234488955987053,23.429289985868344,95.4382271927191,0.00034530017174134146,5.232543148655086,95.58156055228874,17.525322500800385,-0.053099097433830816,7.321149223454039,0.05443244568895233,-0.12557837909928374,0.6024282144736296,0.14902184284151834,4.105614317802194,0.03044561223442587,5595.813137788141,0.28127272732503905,95.69012144583462,2.195613126200276,1.222247021757578,101043.85686757076,287.9977096150918,-0.10114574227902196,-0.1349178589895554,-0.13488317908401584,404.0415789473684,0.2168461835630701,0.86,nominal,4797.680205445335,nan,pitch_program,12.73,0.0,0.0
0.57,51.66047229665399,-0.0005991685399085332,23.583163217968966,96.05536482751596,0.0008093451896724022,5.1291077366873505,96.19220789116328,17.518817115293494,-0.057789022561949316,7.299641262374544,0.05956523784212238,-0.1345601734063458,0.7167674914094878,0.17039600541657665,4.166148887853627,0.02547553092873809,5667.355007119186,0.2830676210847732,96.30058435541486,2.1947348816426477,1.2222289569522364,101042.01253375101,287.9967094390832,-0.10114574227902196,-0.1349178589895554,-0.13488317908401584,404.0076315789474,0.21682796425677175,0.86,nominal,4857.742257059883,nan,pitch_program,12.715,0.0,0.0
0.6,54.560612947303234,-0.0005550624164820883,23.734017766341974,96.67135502164136,0.00147020411421483,5.028484945766957,96.80204824657135,17.51231227636579,-0.06189524634717627,7.275240533507661,0.0646484810694726,-0.11538095597602124,0.813181655671424,0.1689221561514218,4.2210611406038,0.020635228367799782,5739.257052365772,0.284860157580739,96.91024649746512,2.1938938944532715,1.22221124674038,101040.20440851848,287.99572888451877,-0.10114574227902196,-0.1349178589895554,-0.13488317908401584,403.9736842105263,0.21680974495047337,0.86,nominal,4918.069477694061,nan,pitch_program,12.7,0.0,0.0
0.63,57.47919999254349,-0.0004901109028569053,23.88193422165908,97.28623484134205,0.002165050454172767,4.930548510570134,97.41109691871499,17.505807984017277,-0.06589190884943215,7.248320178066202,0.06998055837784496,-0.11075574322127588,0.897148027333808,0.1773108599336289,4.270852905559962,0.015561853498749348,5811.519249508398,0.2866503803841848,97.51912267276438,2.193083547267532,1.22219388164909,101038.43152437013,287.99476742755917,-0.10114574227902196,-0.1349178589895554,-0.13488317908401584,403.9397368421053,0.21679152564417503,0.86,nominal,4978.662671688476,nan,pitch_program,12.685,0.0,0.0
0.6599999999999999,60.4162011415011,-0.0004019060731648597,24.026989632264296,97.90003829858681,0.0029401609897348547,4.835180353507249,98.01936786452079,17.49930423824795,-0.06992881884234896,7.219240847804124,0.07560101408755822,-0.11097308732280292,0.9690900599367168,0.1870061087752921,4.316005133424063,0.01025300786916823,5884.141497323207,0.2884383300244858,98.1272266486897,2.1922999580459206,1.222176852621947,101036.69295634504,287.9938245673903,-0.10114574227902196,-0.1349178589895554,-0.13488317908401584,403.9057894736842,0.21677330633787664,0.86,nominal,5039.522516157371,nan,pitch_program,12.67,0.0,0.0
0.69,63.371585023890354,-0.00028735205939027763,24.16925785055006,98.5127960796419,0.0038184671258194016,4.742273942858835,98.62687345829694,17.492801039057817,-0.0740216838180795,7.188369595853718,0.0814387367745818,-0.11202732142664444,1.0287984287721021,0.19434727193827953,4.3569951855869276,0.00479302633113275,5957.123545493396,0.29022404233791166,98.73457059722043,2.1915412763899536,1.2221601509783155,101034.98781786651,287.9928998239714,-0.10114574227902196,-0.1349178589895554,-0.13488317908401584,403.8718421052631,0.21675508703157828,0.86,nominal,5100.649536579556,nan,pitch_program,12.655,0.0,0.0
0.72,66.34532107520896,-0.0001430001985397214,24.308809955980223,99.12453504395343,0.004811728695018541,4.651736847672078,99.23362397157868,17.48629838644687,-0.07813034934685258,7.156025225559968,0.08737414610925788,-0.11225396565944269,1.0778841140529407,0.197730276423113,4.3942410047600085,-0.0006962692040870664,6030.464927743942,0.29200754699966064,99.34116459519446,2.1908054792015146,1.2221437683636545,101033.31525566771,287.9919927352861,-0.10114574227902196,-0.1349178589895554,-0.13488317908401584,403.8378947368421,0.21673686772527995,0.86,nominal,5162.0440544211515,nan,pitch_program,12.64,0.0,0.0
0.75,69.33737943863586,3.476050879552462e-05,24.44571459753032,99.7352787808971,0.005925356911174868,4.563488051669876,99.83962786294254,17.479796280415112,-0.08219174080072843,7.122469576648076,0.09326679608720347,-0.11096819542078593,1.1182478902918287,0.19646352843391626,4.4280943090662035,-0.006077820064237447,6104.164989608943,0.29378886838496515,99.947016916991,2.1900902070364503,1.2221276967092825,101031.67444568299,287.991102855116,-0.10114574227902196,-0.1349178589895554,-0.13488317908401584,403.80394736842106,0.21671864841898159,0.86,nominal,5223.706212963297,nan,pitch_program,12.625,0.0,0.0
0.78,72.34773088704267,0.0002495697864468954,24.580038247871475,100.34504828022675,0.007160309255045694,4.477455011371886,100.44489219970285,17.473294720962542,-0.08613450335433893,7.08793512356898,0.09896911559230039,-0.10791445411064222,1.1508701644800798,0.19030841202540685,4.458870182437997,-0.011210739496899678,6178.2229332299075,0.2955680268046929,100.55213445469917,2.1893936693947396,1.2221119282025026,101030.06458999694,287.9902297513888,-0.10114574227902196,-0.1349178589895554,-0.13488317908401584,403.77,0.21670042911268322,0.86,nominal,5285.636016588452,nan,pitch_program,12.61,0.0,0.0
0.8099999999999999,75.37634675093128,0.0005049853640340769,24.71184544123527,100.9538621296202,0.008513852586239382,4.393573112126475,101.04942273988334,17.466793708089163,-0.08988623545437548,7.052636002787937,0.10433454491368019,-0.10304394747726914,1.1763633753294622,0.1792948665112006,4.486858656923355,-0.015957351530084964,6252.637822241937,0.29734503874714274,101.15652280019764,2.1887147205953355,1.2220964552586582,101028.48491399045,287.98937300463194,-0.10114574227902196,-0.1349178589895554,-0.13488317908401584,403.73605263157896,0.21668220980638486,0.86,nominal,5347.833337128116,nan,pitch_program,12.595,0.0,0.0
0.84,78.42319884866373,0.0008043830073708506,24.84119900920245,101.56173659108197,0.009979921444559123,4.311785598906052,101.65322392352387,17.46029324179497,-0.09337769214674503,7.016761606239455,0.10922336020698323,-0.09642404746761188,1.1955530710515245,0.1636460098881557,4.512318575713543,-0.020188412065599678,6327.408575766787,0.2991199168535537,101.76018623663542,2.18805237453352,1.2220812704934227,101026.93466351116,287.98853220644014,-0.10114574227902196,-0.1349178589895554,-0.13488317908401584,403.7021052631579,0.2166639905000865,0.86,nominal,5410.297911286637,nan,pitch_program,12.58,0.0,0.0
0.87,81.4882594239549,0.0011508639862414644,24.96816028831648,102.1686858430388,0.011549365962353795,4.232042637134302,102.25629899993415,17.45379332207997,-0.09654569692205349,6.9804756119395925,0.11350747806264389,-0.08820015462622208,1.2092966039862592,0.14374439418384483,4.535477378143948,-0.023787472629557348,6402.533979241099,0.3008926702894185,102.36312786458612,2.1874056783502756,1.2220663666984115,101025.41310238262,287.9877069581259,-0.10114574227902196,-0.1349178589895554,-0.13488317908401584,403.66815789473685,0.21664577119378817,0.86,nominal,5473.0293516733855,nan,pitch_program,12.565,0.0,0.0
0.8999999999999999,84.57150109161252,0.001547170266682369,25.092789295468943,102.77472225525405,0.013210209348030152,4.154300238415464,102.85865019348222,17.447293948944157,-0.09933542795140098,6.94392224574582,0.11707467773599478,-0.07857782496046244,1.2182420427716327,0.12011250400389852,4.556538167196593,-0.026654701032776344,6478.012700662202,0.3026633052286017,102.9653497666056,2.1867738749452648,1.2220517368205681,101023.91951029933,287.9868968695794,-0.10114574227902196,-0.1349178589895554,-0.13488317908401584,403.6342105263158,0.2166275518874898,0.86,nominal,5536.027161956981,nan,pitch_program,12.55,0.0,0.0
0.9299999999999999,87.67289678861508,0.001995609117125882,25.215144885365206,103.3798565667521,0.014947961681450444,4.078519663208791,103.46027880228709,17.44079512238753,-0.10170230875689118,6.907230034069271,0.1198323239015872,-0.067812128816747,1.222911793252539,0.0933964496591673,4.57568397399177,-0.028710214541691297,6553.843299177027,0.3044318251422995,103.56685310540892,2.1861562751088677,1.2220373739436576,101022.45318093673,287.9861015582451,-0.10114574227902196,-0.1349178589895554,-0.13488317908401584,403.6002631578947,0.21660933258119142,0.86,nominal,5599.290745513555,nan,pitch_program,12.535000000000002,0.0,0.0
0.96,90.79241973648949,0.0024941501400105367,25.335284901796513,103.98409826248047,0.01661803409615515,4.004667214376919,104.06118549737052,17.434296842410095,-0.10370734471297971,6.870510705432408,0.12249244642698272,-0.0561990072514137,1.2238178987362027,0.09022449417352588,4.593078499358221,-0.030741035929462143,6630.024238609638,0.3061982311918165,104.16763825736484,2.1855526395163984,1.2220232712705033,101021.01342013704,287.9853206481383,-0.10114574227902196,-0.1349178589895554,-0.13488317908401584,403.56631578947366,0.21659111327489305,0.86,nominal,5662.81943524128,nan,pitch_program,12.520000000000001,0.0,0.0
0.99,93.93004338955559,0.0030426426663912784,25.453266293826005,104.58745510220331,0.01828308421269139,3.9327130676497495,104.66136981283506,17.427799109011847,-0.1063030361071001,6.833863649331097,0.12537133190751437,-0.0750738766889752,1.2213919136050797,0.09751600630467563,4.608869433184459,-0.03295190323930055,6706.553875257438,0.3079625220163411,104.76770474020506,2.184962587039864,1.2220094221093158,101019.59954451324,287.9845537690901,-0.10114574227902196,-0.1349178589895554,-0.13488317908401584,403.53236842105264,0.21657289396859472,0.86,nominal,5726.61243944986,nan,pitch_program,12.505,0.0,0.0
1.02,97.08574139914019,0.00364217138015035,25.569145232591584,105.18993365281985,0.019984290458635718,3.8626312921859682,105.26083061498176,17.42130192219279,-0.10890604362154753,6.79737572681762,0.12856367384191764,-0.07413857993289764,1.2160635462602087,0.10794343578624599,4.62318750638251,-0.03546143646592901,6783.430476362575,0.3097246942281488,105.36705138139213,2.1843858103465177,1.2219958198599827,101018.2108800487,287.9838005559881,-0.10114574227902196,-0.1349178589895554,-0.13488317908401584,403.49842105263156,0.21655467466229633,0.86,nominal,5790.668888973135,nan,pitch_program,12.49,0.0,0.0
1.05,100.25948758210183,0.004294512034384213,25.682977212419352,105.79153943205438,0.021744688474462096,3.794399327592274,105.85956619263385,17.41480528195292,-0.11125282858344224,6.761122626722476,0.13205432456292474,-0.06449111292088547,1.2082124961976355,0.11786300606261746,4.636149306689126,-0.038263588460903955,6860.652229783474,0.31148474269087945,105.96567641270232,2.1838220529393966,1.2219824580021739,101016.8467608826,287.98306064811925,-0.10114574227902196,-0.1349178589895554,-0.13488317908401584,403.46447368421053,0.216536455355998,0.86,nominal,5854.987845726485,nan,pitch_program,12.475,0.0,0.0
1.08,103.45125589270184,0.0050017742574022936,25.794817139090455,106.39227702000036,0.02357540743393602,3.7279975557033778,106.45757432459028,17.40830918829224,-0.1141951067188809,6.725170675337693,0.1357857150818234,-0.08347144725814722,1.1981530875381048,0.12587678848686368,4.647860138911487,-0.04122643614313741,6938.217251589687,0.31324266074125356,106.56357754557726,2.183271131288594,1.221969330084973,101015.50652825079,287.9823336885959,-0.10114574227902196,-0.1349178589895554,-0.13488317908401584,403.43052631578945,0.21651823604969964,0.86,nominal,5919.568309034893,nan,pitch_program,12.46,0.0,0.0
1.1099999999999999,106.66102039684328,0.005766248730769037,25.90471940896092,106.9921501380481,0.025482482445558105,3.6634089956820692,107.05485232341961,17.401813641210747,-0.1170541478117318,6.689577783590284,0.13969642721240355,-0.08007585062441767,1.1861660836230534,0.13185885083282223,4.6584135295475235,-0.04434068775857183,7016.123590978036,0.31499844034300906,107.16075202342373,2.1827328895545817,1.2219564297175762,101014.18952953603,287.98161932384176,-0.10114574227902196,-0.1349178589895554,-0.13488317908401584,403.3965789473684,0.21650001674340127,0.86,nominal,5984.409219586478,nan,pitch_program,12.445,0.0,0.0
1.14,109.88875524933142,0.006590261200836254,26.012737978070145,107.59116174960471,0.027467082335573902,3.6006189703075666,107.65139710212569,17.395318640708446,-0.11952666281125597,6.654394261310314,0.1437354069720502,-0.06677485348492089,1.1725055394073718,0.13614186849676696,4.667893482754884,-0.04758001192848906,7094.369237311449,0.31675207228286634,107.7571966882199,2.1822071977475197,1.2219437505611672,101012.89511743795,287.9809172031425,-0.10114574227902196,-0.1349178589895554,-0.13488317908401584,403.3626315789474,0.21648179743710294,0.86,nominal,6049.509465912419,nan,pitch_program,12.43,0.0,0.0
1.17,113.1344346734667,0.007476106165836293,26.118926422824533,108.18931413784257,0.029528165500001306,3.539614825146281,108.24720522322845,17.38882418678533,-0.12260187673984878,6.619663638183146,0.14786582543266028,-0.08659412579682914,1.1573959237859734,0.1392037762932771,4.67637642716429,-0.05082825186592701,7172.952125538123,0.3185035463238579,108.35290803262404,2.1816939598067253,1.2219312863217895,101011.62264924517,287.9802269782516,-0.10114574227902196,-0.1349178589895554,-0.13488317908401584,403.3286842105263,0.21646357813080455,0.86,nominal,6114.86788912426,nan,pitch_program,12.415,0.0,0.0
1.2,116.39803294235227,0.008426097719753037,26.223337993955337,108.78660896285254,0.03166638513055815,3.4803857043600916,108.84227293220061,17.38233027944141,-0.125504117755578,6.585423411366007,0.15206660432938793,-0.08064100632481049,1.1410370890383097,0.14156809727220798,4.683929630180435,-0.05412763508365328,7251.870139964214,0.3202528513171072,108.94788223795305,2.1811930706750973,1.221919030743994,101010.37148618649,287.9795483030393,-0.10114574227902196,-0.1349178589895554,-0.13488317908401584,403.2947368421053,0.21644535882450622,0.86,nominal,6180.483286062247,nan,pitch_program,12.4,0.0,0.0
1.23,119.67952436287099,0.009442529584457555,26.326025662386147,109.38304735062377,0.03388106215681727,3.422922281027074,109.43659622163476,17.375836918676672,-0.12894668516172778,6.551705871120395,0.1563265030382301,-0.09850895155152824,1.123602036367449,0.14355983066396902,4.69061495603029,-0.05740956761876828,7331.121121143385,0.3219999753782218,109.54211523415,2.1807044604222785,1.2219069776054503,101009.14099288032,287.97888083319447,-0.10114574227902196,-0.1349178589895554,-0.13488317908401584,403.26078947368416,0.2164271395182078,0.86,nominal,6246.354415850601,nan,pitch_program,12.385,0.0,0.0
1.26,122.97888326081286,0.010527733913294089,26.42704216054491,109.97862993139573,0.036173477627884476,3.367216605292153,110.03017085224549,17.369344104491127,-0.13212840810563148,6.518538534139259,0.16064260402750585,-0.08968325861189175,1.1052494107432453,0.14545368734682107,4.696486671410406,-0.06073642845065006,7410.70286830266,0.3237449059603591,110.13560272460374,2.180228035035934,1.2218951207120896,101007.9305368386,287.9782242259564,-0.10114574227902196,-0.1349178589895554,-0.13488317908401584,403.22684210526313,0.21640892021190947,0.86,nominal,6312.4800018908745,nan,pitch_program,12.37,0.0,0.0
1.29,126.29608396833827,0.011684043716202923,26.526440016759913,110.57335691751324,0.03854366009696113,3.3132618738334534,110.62299241055678,17.36285183688477,-0.13575214781765563,6.485944800726324,0.16501490168112953,-0.10428705275789352,1.0861163295265506,0.1473451700050156,4.70159518309223,-0.06405120576338783,7490.613145744639,0.3254876300111738,110.72834023951106,2.179763729432096,1.221883453894056,101006.73948805325,287.977578139891,-0.10114574227902196,-0.1349178589895554,-0.13488317908401584,403.1928947368421,0.21639070090561113,0.86,nominal,6378.85873792341,nan,pitch_program,12.355,0.0,0.0
1.3199999999999998,129.63110081221052,0.012913848998063655,26.62427158635854,111.16722812907527,0.04099350939535772,3.2610523199541834,111.21505632153928,17.3563601158576,-0.13901124939104015,6.453944290088606,0.16944644329944317,-0.09199155219212311,1.0663287128895502,0.14933448884050707,4.705984364734306,-0.06742257423713577,7570.849684440251,0.32722813402072853,111.32032315214786,2.1793114419284514,1.2218719710020474,101005.56721862235,287.97694223468864,-0.10114574227902196,-0.1349178589895554,-0.13488317908401584,403.158947368421,0.21637248159931274,0.86,nominal,6445.489289253941,nan,pitch_program,12.34,0.0,0.0
1.3499999999999999,132.9839081041468,0.01421955119069379,26.720589076680664,111.76024306454282,0.04352340642100447,3.210583010737484,111.80635790240837,17.34986894140962,-0.14272259950974542,6.4225534385448135,0.1739396327502412,-0.10691727876196133,1.0459926743237566,0.15140053567155662,4.7096957053976025,-0.07078628733547863,7651.410188221685,0.328966404166635,111.91154672822373,2.1788711052378966,1.2218606659043745,101004.41310244957,287.97631617100154,-0.10114574227902196,-0.1349178589895554,-0.13488317908401584,403.125,0.2163542622930144,0.86,nominal,6512.370298569548,nan,pitch_program,12.325,0.0,0.0
1.38,136.35448013148536,0.015603622090947561,26.815444570221576,112.35240091128546,0.046135696675125744,3.1618497846971017,112.39689236404054,17.343378313540832,-0.14600615636280917,6.391785647517861,0.17849814793568924,-0.09249523856587662,1.0252093357784293,0.153585060066686,4.7127647097723795,-0.07421758507966993,7732.292334165952,0.33070242633033875,112.50200613140147,2.1784425974784547,1.2218495324842364,101003.27651496582,287.97569961029353,-0.10114574227902196,-0.1349178589895554,-0.13488317908401584,403.0910526315789,0.21633604298671602,0.86,nominal,6579.50038604142,nan,pitch_program,12.31,0.0,0.0
1.41,139.74279114992868,0.017068547373549098,26.90889004195835,112.94370061477717,0.0488308427533846,3.1148490578925574,112.98665486536486,17.33688823225123,-0.14980274619139375,6.361651878968014,0.18312396232476746,-0.10942743920636185,1.0040600525993135,0.1558322581399598,4.715225864236681,-0.07764146897379903,7813.493779080219,0.33243618624256954,113.09169647276443,2.178025842277302,1.2218385646376761,101002.15683292043,287.9750922147272,-0.10114574227902196,-0.1349178589895554,-0.13488317908401584,403.0571052631579,0.2163178236804177,0.86,nominal,6646.878155362509,nan,pitch_program,12.295,0.0,0.0
1.44,143.1488153761377,0.018616892298250826,27.000977376192438,113.53414087363379,0.051611497490057626,3.0695778078029257,113.57564050261372,17.33039869754082,-0.1542490869176426,6.33216059664988,0.18781995709889068,-0.13090692956207317,0.9826265142307937,0.15818154786228356,4.717109450919929,-0.08104871471346915,7895.012158509497,0.334167669465996,113.68061280490163,2.177620720861149,1.2218277562716018,101001.05343417874,287.9744936470547,-0.10114574227902196,-0.1349178589895554,-0.13488317908401584,403.02315789473687,0.21629960437411935,0.86,nominal,6714.502192575713,nan,pitch_program,12.28,0.0,0.0
1.47,146.5725269817418,0.02025131682726742,27.091758379028644,114.12372018680294,0.05448081763388641,3.026033427873485,114.16384434549228,17.323909709409595,-0.15823732216601108,6.303318315058475,0.1925899637345292,-0.1154444644479881,0.960974879189832,0.1606557398900205,4.71844130800767,-0.08453320602936248,7976.845091282102,0.3358968614949174,114.26875015581292,2.177227070729349,1.2218171013023138,100999.96569757164,287.97390357053627,-0.10114574227902196,-0.1349178589895554,-0.13488317908401584,402.9892105263158,0.21628138506782096,0.86,nominal,6782.371070178597,nan,pitch_program,12.265,0.0,0.0
1.5,150.01390008891605,0.021974499145238396,27.18128478684784,114.71243690580889,0.05743941059903257,2.984213593973179,114.75126147859783,17.31742126785756,-0.16250059180585855,6.275130037902063,0.19743565777544667,-0.1244145526770712,0.9391562011161909,0.1631803273596719,4.719247697528716,-0.08803659552346058,8058.990184727893,0.33762374786589966,114.85610356654178,2.176844790782393,1.2218065936545017,100998.89300279303,287.9733216488855,-0.10114574227902196,-0.1349178589895554,-0.13488317908401584,402.9552631578947,0.2162631657615226,0.86,nominal,6850.483351919706,nan,pitch_program,12.25,0.0,0.0
1.53,153.47290876531463,0.02378918616050792,27.26960827593205,115.30028921328606,0.06048956717565083,2.9441163028069695,115.33788697760853,17.310933372884715,-0.1672338169169976,6.2475988142361,0.2023591131990868,-0.1398751051893998,0.9172342547905366,0.16577619536308683,4.719551630012482,-0.09154433662686304,8141.445032101999,0.33934831410261496,115.44266807240382,2.176473722226408,1.2217962272601108,100997.83473028376,287.9727475462064,-0.10114574227902196,-0.1349178589895554,-0.13488317908401584,402.9213157894737,0.21624494645522424,0.86,nominal,6918.83759022897,nan,pitch_program,12.235,0.0,0.0
1.56,156.9495270201902,0.0256982106317136,27.356780468105118,115.88727516251889,0.06363414904018935,2.9057397391022723,115.92371593996498,17.30444602449106,-0.17132076202507754,6.220726373861702,0.20736334077865487,-0.11811751728390055,0.895254210992889,0.16846686783663728,4.719372144039569,-0.09515043986861159,8224.20721672566,0.34107054580155655,116.02843873214466,2.1761136518662045,1.2217859960576773,100996.79026116373,287.9721809269573,-0.10114574227902196,-0.1349178589895554,-0.13488317908401584,402.8873684210526,0.21622672714892588,0.86,nominal,6987.432329842388,nan,pitch_program,12.220000000000002,0.0,0.0
1.5899999999999999,160.44372880201604,0.027704409861297085,27.442852932771952,116.47339272752764,0.06687330765278285,2.869082155561182,116.50874352560638,17.297959222676592,-0.17575372942889145,6.194513589864462,0.21244917265556112,-0.12943428005687957,0.8732450210063133,0.17117938601242594,4.718730301525089,-0.09877459919029805,8307.274317338892,0.34279042874010285,116.61341066470494,2.1757644619233565,1.2217758939920729,100995.75897720558,287.97162145593694,-0.10114574227902196,-0.1349178589895554,-0.13488317908401584,402.8534210526316,0.21620850784262752,0.86,nominal,7056.266112670931,nan,pitch_program,12.205000000000002,0.0,0.0
1.6199999999999999,163.955487994805,0.02981069692165426,27.527877192053275,117.05863975963229,0.0702095686785725,2.834141976044119,117.09296491463215,17.291472967441315,-0.18078861612502634,6.168959691474565,0.21761849813681197,-0.14927470018661657,0.8512594916986892,0.17395838734228608,4.7176439592360335,-0.10239700520129796,8390.643903144564,0.34450794876978447,117.19757901290978,2.1754259480745834,1.2217659150139126,100994.74026077405,287.9710687982516,-0.10114574227902196,-0.1349178589895554,-0.13488317908401584,402.8194736842105,0.21619028853632916,0.86,nominal,7125.337473115086,nan,pitch_program,12.19,0.0,0.0
1.65,167.48477841574604,0.032020084492544315,27.61190472143223,117.64301403136785,0.0736462523630019,2.800917645965158,117.6763753427789,17.284987258785225,-0.18510463988233278,6.144063112806402,0.22287468686849432,-0.12507750416192756,0.8293255286315735,0.17684477042515614,4.716126926873068,-0.1061286288995636,8474.313538732904,0.34622309191447787,117.78093897687768,2.175097837498652,1.2217560530794602,100993.73349481625,287.97052261931066,-0.10114574227902196,-0.1349178589895554,-0.13488317908401584,402.78552631578947,0.21617206923003082,0.86,nominal,7194.644942343723,nan,pitch_program,12.175,0.0,0.0
1.68,171.03157381448284,0.03433558645196708,27.694986946843038,118.22651329122651,0.07718339864742559,2.769407513693587,118.2589701471076,17.278502096708323,-0.1898231938294286,6.119821962294447,0.22821866117752296,-0.13825730489996646,0.8074545485561652,0.17975614236011667,4.714196667939859,-0.10987873704147928,8558.280790230816,0.3479358444905216,118.36348585489186,2.174779999470937,1.221746302150975,100992.73806289674,287.9699825848455,-0.10114574227902196,-0.1349178589895554,-0.13488317908401584,402.75157894736844,0.21615384992373246,0.86,nominal,7264.187053869501,nan,pitch_program,12.16,0.0,0.0
1.71,174.59584787035712,0.03676030137472635,27.77717524699569,118.80913519580919,0.08082383075864215,2.739610005088362,118.84074470251213,17.27201748121061,-0.1952174112915217,6.09623279989332,0.23365256557029887,-0.16053438838315806,0.7856958247623262,0.1827429366097294,4.711867293624918,-0.11362629892284525,8642.543217493589,0.3496461929410905,118.9452149870587,2.174472178664184,1.2217366561964234,100991.75334916828,287.9694483608945,-0.10114574227902196,-0.1349178589895554,-0.13488317908401584,402.71763157894736,0.2161356306174341,0.86,nominal,7333.962336359782,nan,pitch_program,12.145,0.0,0.0
1.74,178.17757419118507,0.03929743910930486,27.8585209502814,119.39087736093173,0.08457125781928367,2.71152344285701,119.4216944641628,17.265533412292086,-0.20105557403632365,6.073291768691017,0.23917990439155473,-0.17507556311710304,0.7640629268403117,0.18584996652355557,4.7091512229138806,-0.11739274670249976,8727.098380130094,0.35135412395376553,119.52612179531333,2.1741741138985504,1.2217271091898516,100990.77873840937,287.9689196138232,-0.10114574227902196,-0.1349178589895554,-0.13488317908401584,402.68368421052634,0.21611741131113574,0.86,nominal,7403.969318823002,nan,pitch_program,12.13,0.0,0.0
1.77,181.77672631258585,0.04195030858092457,27.939075330935783,119.97173738002623,0.08842898238732363,2.6851460218127867,120.00181498138004,17.259049889952752,-0.2059275605607149,6.050994824263098,0.24480459553598782,-0.1425993130220708,0.7425646403520044,0.18907973257294086,4.706057845357006,-0.12129679724409513,8811.943839641583,0.353059624496832,120.10620179577838,2.1738854832054146,1.2217176551118205,100989.81361606868,287.9683960103489,-0.10114574227902196,-0.1349178589895554,-0.13488317908401584,402.64973684210526,0.21609919200483738,0.86,nominal,7474.206532506803,nan,pitch_program,12.115,0.0,0.0
1.7999999999999998,185.39327769860074,0.04472220558258314,28.01888960273185,120.5517128671634,0.09239656672195232,2.6604757265355747,120.58110193319698,17.252566914192606,-0.21111125716465215,6.0293375472175335,0.25052719064430584,-0.15271776410431748,0.7212141011744956,0.19232020209971445,4.702601389230449,-0.12523489828121712,8897.077164473147,0.3547626819125587,120.68545063051083,2.1736061166665457,1.2217082879501489,100988.8573683409,287.9678772175822,-0.10114574227902196,-0.1349178589895554,-0.13488317908401584,402.6157894736842,0.216080972698539,0.86,nominal,7544.6725154346495,nan,pitch_program,12.1,0.0,0.0
1.8299999999999998,189.0272017398121,0.04761650982781486,28.098014918380112,121.13080137371246,0.0964768081743905,2.637510521608744,121.15955105134672,17.24608448501165,-0.21700456871141627,6.008314187717984,0.25634944144471267,-0.17609393623036246,0.7000526992370135,0.19562195780244263,4.698792785616217,-0.12917554282616123,8982.495920275227,0.35646328371448216,121.26386399854734,2.1733357018597395,1.221699001699976,100987.90938217283,287.9673629030305,-0.10114574227902196,-0.1349178589895554,-0.13488317908401584,402.58184210526315,0.21606275339224065,0.86,nominal,7615.365803481278,nan,pitch_program,12.085,0.0,0.0
1.8599999999999999,192.6784717530594,0.050636722043098305,28.17650236335073,121.70900044157621,0.10067374050944808,2.616248165687226,121.7371581652623,17.23960260240988,-0.22339982053093177,5.987919106478005,0.2622748306034928,-0.1925357898707515,0.6790760938192626,0.19904298231397294,4.69464154957598,-0.1331380729890442,9068.197676465003,0.35816141771224647,121.84143769838778,2.173073940358519,1.2216897903644865,100986.96904533742,287.9668527346382,-0.10114574227902196,-0.1349178589895554,-0.13488317908401584,402.54789473684207,0.2160445340859423,0.86,nominal,7686.284935978598,nan,pitch_program,12.07,0.0,0.0
1.89,196.34706098158017,0.05378645383889892,28.2544029499163,122.28630761735891,0.10499105986002044,2.596686218852414,122.31391921252937,17.233121266387304,-0.2299916147118269,5.968146553287957,0.26830729594510466,-0.1987843354878429,0.6582886844492044,0.20259483138098383,4.690156563237395,-0.1371504158218835,9154.180007912171,0.35985707203709427,122.41816763668143,2.1728205258684623,1.2216806479556028,100986.03574650426,287.96634638082554,-0.10114574227902196,-0.1349178589895554,-0.13488317908401584,402.51394736842104,0.21602631477964393,0.86,nominal,7757.428457253377,nan,pitch_program,12.055,0.0,0.0
1.92,200.03294259534547,0.05706940633113953,28.331767610972175,122.86272045884306,0.10943174974135365,2.5788220351958304,122.88983024215176,17.226640476943913,-0.2366442317272171,5.948990278625763,0.2744502124205685,-0.20049750921536733,0.637707876015925,0.20625614722815988,4.6853463154135815,-0.14122634152771085,9240.440495783434,0.36155023515019225,122.99404983107414,2.1725751213581037,1.221671568494711,100985.10887531367,287.96584351052866,-0.10114574227902196,-0.1349178589895554,-0.13488317908401584,402.48,0.2160080954733456,0.86,nominal,7828.794917314578,nan,pitch_program,12.040000000000001,0.0,0.0
1.95,203.73608969156297,0.06048935962584275,28.408647192897888,123.4382365405834,0.11399844315677407,2.5626527308571543,123.4648874170832,17.220160234079714,-0.24338443422324443,5.930443863510448,0.28070628260370556,-0.20309372090003044,0.617339547282833,0.21000401061034427,4.68021929099863,-0.1453658219599277,9326.976728407415,0.36324089585111735,123.56908041311192,2.1723374019857036,1.2216625460134958,100984.18782246171,287.9653437932461,-0.10114574227902196,-0.1349178589895554,-0.13488317908401584,402.44605263157894,0.2159898761670472,0.86,nominal,7900.382872450748,nan,pitch_program,12.025,0.0,0.0
1.98,207.4564752950665,0.06405017501101319,28.485092448881137,124.01285345011723,0.11869384617234818,2.5481751994415824,124.0390870085572,17.2136805377947,-0.2502886491896492,5.912500676523874,0.2870779493304636,-0.2082293338356949,0.5971905785167756,0.2138303738670691,4.6747836914051675,-0.1495645078016979,9413.786300922648,0.36492904326254677,124.14325562304909,2.1721070371159814,1.2216535745547177,100983.2719797797,287.96484689908226,-0.10114574227902196,-0.1349178589895554,-0.13488317908401584,402.4121052631579,0.21597165686074887,0.86,nominal,7972.190884822032,nan,pitch_program,12.01,0.0,0.0
2.01,211.19407235875508,0.06775580218382701,28.561154032096947,124.5865687896194,0.12352090576046071,2.5353861071936645,124.61242539529226,17.20720138808888,-0.2574042005633342,5.895153844402263,0.2935677844940818,-0.21493378467577734,0.5772687234410364,0.21774012008875662,4.669047222083816,-0.1538204787519541,9500.866815598398,0.36661466682836497,124.71657180922092,2.1718836785456435,1.2216446481730143,100982.36074031563,287.96435249879136,-0.10114574227902196,-0.1349178589895554,-0.13488317908401584,402.37815789473683,0.2159534375544505,0.86,nominal,8044.217522637503,nan,pitch_program,11.995000000000001,0.0,0.0
2.04,214.94885376420584,0.07161028513948837,28.636882488360268,125.15938018169224,0.12848276518871213,2.5242818754440366,125.18489906643302,17.200722784962245,-0.26473817970322205,5.878396379678767,0.3001786201705848,-0.221865080127665,0.5575775749818294,0.22174204543575526,4.6630171935678275,-0.15813529017564604,9588.215882686305,0.3682977563220207,125.28902543090483,2.171666971461426,1.2216357609357584,100981.45349842194,287.9638602638256,-0.10114574227902196,-0.1349178589895554,-0.13488317908401584,402.3442105263158,0.21593521824815215,0.86,nominal,8116.46136079099,nan,pitch_program,11.98,0.0,0.0
2.07,218.7207923223956,0.07561776521147306,28.71232824864625,125.73128527299228,0.13358266906615648,2.514858676199457,125.75650462258123,17.1942447284148,-0.2722811982276275,5.862221173336454,0.30691348671622615,-0.22847320618625702,0.5381210784699968,0.22584259848907096,4.6567005735678615,-0.16251200799709384,9675.831120983832,0.3699783018491597,125.86061305923397,2.171456550953251,1.2216269069239405,100980.54964984534,287.9633698663838,-0.10114574227902196,-0.1349178589895554,-0.13488317908401584,402.3102631578947,0.2159169989418538,0.86,nominal,8188.920981264235,nan,pitch_program,11.965,0.0,0.0
2.1,222.50986077452527,0.07978248274222233,28.7875416214055,126.30228173765562,0.13882391769164218,2.507112425308219,126.32723877664465,17.187767218446545,-0.28002857659258407,5.846621002289862,0.3137755115709776,-0.23491478286312562,0.5189029644060981,0.23004482702871104,4.650104057421571,-0.16695340186627836,9763.710158380634,0.37165629384987414,126.4313313779817,2.171252043106983,1.2216180802330547,100979.64859181747,287.96288097946086,-0.10114574227902196,-0.1349178589895554,-0.13488317908401584,402.27631578947364,0.2158987796355554,0.86,nominal,8261.594973507252,nan,pitch_program,11.95,0.0,0.0
2.13,226.3160317929193,0.08410877901722033,28.862572784729494,126.87236727980041,0.1442098758332668,2.50103877746654,126.89709835388376,17.18129025505748,-0.28798557356318777,5.831588565670756,0.32076786729341183,-0.2415209219306346,0.4999257304982342,0.23435013020064543,4.643234128443713,-0.17146146818037436,9851.850632292691,0.3733317230987743,127.00117718360545,2.17105306867354,1.2216092749740337,100978.74972314999,287.96239327689926,-0.10114574227902196,-0.1349178589895554,-0.13488317908401584,402.2423684210526,0.21588056032925707,0.86,nominal,8334.481934716992,nan,pitch_program,11.935,0.0,0.0
2.16,230.13927798196832,0.08860109898611165,28.937471778493606,127.44153963496808,0.14974399896304433,2.4966331254703698,127.466080291031,17.1748138382476,-0.29616249192720645,5.81711648808414,0.32789377138800435,-0.24845959068033163,0.4811917315923968,0.23875996978404773,4.636097054899016,-0.17603781982085748,9940.250189954426,0.37500458070240006,127.57014738438593,2.170859241334975,1.2216004852741553,100977.85244432728,287.96190643343976,-0.10114574227902196,-0.1349178589895554,-0.13488317908401584,402.2084210526316,0.2158623410229587,0.86,nominal,8407.580469996345,nan,pitch_program,11.92,0.0,0.0
2.19,233.97957187912377,0.09326399446186648,29.01228849643127,128.00979657184854,0.15542984919182756,2.493890597922184,128.03418163568068,17.168337968016914,-0.304569240500939,5.803197337774504,0.3351565047567841,-0.2557174254486291,0.46270269836046723,0.24327643141458308,4.628698898659971,-0.18068414012945702,10028.906488746823,0.37667485809738827,128.1382389998241,2.1706701682789027,1.2215917052779828,100976.95615760231,287.96142012477316,-0.10114574227902196,-0.1349178589895554,-0.13488317908401584,402.1744736842105,0.21584412171666034,0.86,nominal,8480.889192542763,nan,pitch_program,11.905,0.0,0.0
2.2199999999999998,237.8368859559415,0.09810212737402162,29.087072678163416,128.57713589392503,0.16127109707183793,2.4928060577381985,128.60139954562356,17.161862644365414,-0.3132136250701956,5.789823644016914,0.34255942401912276,-0.2632240507683716,0.4444597781059149,0.2479019899938857,4.621045532049226,-0.18540233277454563,10117.817196510985,0.37834254704843484,128.7054491599686,2.1704854509350913,1.2215829291482898,100976.06026709113,287.9609340275919,-0.10114574227902196,-0.1349178589895554,-0.13488317908401584,402.1405263157895,0.215825902410362,0.86,nominal,8554.406723825867,nan,pitch_program,11.890000000000002,0.0,0.0
2.25,241.71119261916874,0.10312027291847105,29.161873901212648,129.14355544090773,0.16727151814831437,2.4933741016410322,129.16773128800523,17.155387867293104,-0.32210239101828214,5.776987905305083,0.3501059635617427,-0.270943837135111,0.426463844815429,0.2526391703901373,4.613142653129697,-0.19019444095579605,10206.979991829461,0.3800076396457248,129.27177510456247,2.170304684997228,1.221574151067002,100975.16417886881,287.96044781964207,-0.10114574227902196,-0.1349178589895554,-0.13488317908401584,402.1065789473684,0.21580768310406362,0.86,nominal,8628.13169373849,nan,pitch_program,11.875,0.0,0.0
2.28,245.60246421186974,0.10832332267593042,29.236741573008295,129.7090530900338,0.17343499191531245,2.4955890598549484,129.7331742383778,17.148913636799982,-0.3312426053855664,5.764682601310504,0.35779963393726233,-0.27888722758366347,0.4087153690433506,0.2574904369336787,4.604995806188872,-0.19506253529696255,10296.39256428668,0.381670128302058,129.8372141820868,2.1701274613571795,1.2215653652361347,100974.26730106531,287.9599611797754,-0.10114574227902196,-0.1349178589895554,-0.13488317908401584,402.0726315789474,0.21578946379776529,0.86,nominal,8702.062740729589,nan,pitch_program,11.86,0.0,0.0
2.31,249.51067301458193,0.11371628781606433,29.3117249229133,130.27362675707235,0.17976550467112995,2.4994449968334704,130.29772587950205,17.14243995288605,-0.3406421513092782,5.752900201257898,0.3656440221415527,-0.2870811438955413,0.3912145326532654,0.26245826340999245,4.596610395689105,-0.20000867415461285,10386.052614685297,0.38333000574925374,130.40176384855928,2.1699533665587842,1.221556565878727,100973.36904396066,287.95947378800105,-0.10114574227902196,-0.1349178589895554,-0.13488317908401584,402.03868421052636,0.21577124449146692,0.86,nominal,8776.198511900217,nan,pitch_program,11.845,0.0,0.0
2.34,253.43579124649673,0.11930430243858178,29.386872994287568,130.83727439715986,0.1862671540839151,2.5049357124755844,130.86138380001194,17.135966815551306,-0.3503095014051607,5.741633171310448,0.37364279455654,-0.2955449423296431,0.37396126015778003,0.26754522175464446,4.587991696634285,-0.20503492399304568,10475.957855235029,0.3849872650341588,130.9654216661981,2.169781983196742,1.2215477472397713,100972.46882007996,287.9589853255371,-0.10114574227902196,-0.1349178589895554,-0.13488317908401584,402.0047368421053,0.21575302518516856,0.86,nominal,8850.537663076444,nan,pitch_program,11.83,0.0,0.0
2.37,257.3777910666622,0.12509262703990942,29.46223463659921,131.39999400551534,0.19294415337758772,2.512054743721418,131.42414569298612,17.129494224795753,-0.36025338094790327,5.7308739821741,0.3817997007295339,-0.30428673744926893,0.35695521191522045,0.2727540070748675,4.579144864416155,-0.2101433894171652,10566.106009719959,0.38664189951438066,131.52818530199255,2.16947732041161,1.2215389035871413,100971.56604428815,287.9584954748621,-0.10114574227902196,-0.1349178589895554,-0.13488317908401584,401.9707894736842,0.21573480587887017,0.86,nominal,8925.078858864626,nan,pitch_program,11.815,0.0,0.0
2.4,261.33664488709957,0.13108647435750959,29.537855401613516,131.96179401457778,0.19979491058667184,2.5206921671435065,131.98601776913208,17.123022180619387,-0.3705497445325704,5.724344569880578,0.3901749130800655,-0.3153507957747087,0.21587113244516448,0.2791623757741524,4.573849784061311,-0.2153654564167685,10656.496156777821,0.38829392725252143,132.0900608307862,2.1695624313836603,1.2215300295758207,100970.66017097079,287.95800393988947,-0.10114574227902196,-0.1349178589895554,-0.13488317908401584,401.9368421052631,0.2157165865725718,0.86,nominal,8999.821852951058,nan,pitch_program,11.8,0.0,0.0
2.4299999999999997,265.31232240058137,0.13729118399297371,29.61379274238045,132.5225837827272,0.20682365451547094,2.5312446922311636,132.5469169319527,17.116550683022208,-0.381278341203752,5.7192536334913475,0.39880661652598387,-0.32893434321520254,0.16781591106678895,0.28739713591763605,4.569152530371729,-0.22074945926373882,10747.112993693449,0.38994310536055005,132.65096553817565,2.1695726039141734,1.2215211184643229,100969.75051196384,287.9575103471745,-0.10114574227902196,-0.1349178589895554,-0.13488317908401584,401.9028947368421,0.21569836726627348,0.86,nominal,9074.754694680047,nan,pitch_program,11.785,0.0,0.0
2.46,269.30479299736305,0.14371232391854663,29.69010282036358,133.08235322605552,0.21403799751909705,2.5436692661043465,133.10683230317036,17.11007973200422,-0.3924781899875463,5.716572668367521,0.40774993251405267,-0.3436272900966424,0.08736056626077536,0.2972239327591321,4.5660544243770005,-0.22633773064443738,10837.952673175658,0.3915894019387,133.2108884845371,2.1697246501933827,1.221512163662877,100968.83639459523,287.9570143316676,-0.10114574227902196,-0.1349178589895554,-0.13488317908401584,401.86894736842106,0.21568014795997512,0.86,nominal,9149.874849715476,nan,pitch_program,11.77,0.0,0.0
2.4899999999999998,273.3140247938381,0.15035578579293327,29.76684624085795,133.64105988250193,0.22144872914622088,2.558114016479036,133.6657243775659,17.10360932756542,-0.40415919349216495,5.715905168545254,0.41703727100240817,-0.35853227367297125,0.020107998263185142,0.308185774695577,4.564105926920868,-0.23216021612285814,10929.00666914425,0.3932327015314055,133.76979029818966,2.1699579661456223,1.2215031580603937,100967.91709298104,287.9565154994344,-0.10114574227902196,-0.1349178589895554,-0.13488317908401584,401.835,0.21566192865367675,0.86,nominal,9225.175979377618,nan,pitch_program,11.755,0.0,0.0
2.52,277.33998496667436,0.15722779106685747,29.844086254744653,134.1986724278754,0.2290668424641404,2.5746671295567234,134.22356374292312,17.09713946970581,-0.41633105560807787,5.716899638584343,0.4266887934931924,-0.37368420176622535,-0.035440214825688855,0.31987199409046413,4.562928969459404,-0.23823440291276382,11020.267992971454,0.39487291818766407,134.3276416389214,2.1702394873888275,1.2214940942355048,100966.99184956885,287.95601343934413,-0.10114574227902196,-0.1349178589895554,-0.13488317908401584,401.80105263157895,0.2156437093473784,0.86,nominal,9300.653040395364,nan,pitch_program,11.74,0.0,0.0
2.55,281.3826399962178,0.16433487665439478,29.921887667050232,134.75516765144815,0.23690285291791063,2.593380410185936,134.78032851155822,17.090670158425386,-0.42901514292034476,5.719727004005013,0.436720745479708,-0.3894841934709504,-0.09669752159001108,0.3320300599985175,4.56268386879007,-0.24456946603686747,11111.730809830022,0.3965099879763345,134.8844206533931,2.170618593929918,1.2214849645846377,100966.05988821232,287.95550773016413,-0.10114574227902196,-0.1349178589895554,-0.13488317908401584,401.7671052631579,0.21562549004108003,0.86,nominal,9376.301956531855,nan,pitch_program,11.725000000000001,0.0,0.0
2.58,285.4419554716546,0.17168389024580497,30.00031802387008,135.31051584789245,0.24496711971367327,2.6143452273282164,135.33599118076518,17.084201393724154,-0.4422397640142612,5.723990524747836,0.4471426051037628,-0.40618561214894117,-0.14474135894225648,0.34457394588679086,4.562946656784171,-0.25117168225315173,11203.388301879519,0.3981438305894331,135.44009991150622,2.171040318537827,1.221475761182759,100965.12039995583,287.95499793284483,-0.10114574227902196,-0.1349178589895554,-0.13488317908401584,401.73315789473685,0.2156072707347817,0.86,nominal,9452.117873188861,nan,pitch_program,11.71,0.0,0.0
2.61,289.5178964076514,0.17928197912634572,30.079446016163118,135.86469786656,0.2532696293513584,2.6375997431012905,135.89053390240835,17.07773317560211,-0.45603418085211483,5.7297707330163945,0.45796766374570214,-0.42380737880292263,-0.19548210262285817,0.35751294542521594,4.563793601779395,-0.2580476741192941,11295.235172499475,0.39977439395161146,135.9946615839871,2.1715382273456263,1.2214664759706788,100964.17256215516,287.9544836008949,-0.10114574227902196,-0.1349178589895554,-0.13488317908401584,401.6992105263158,0.21558905142848334,0.86,nominal,9528.097201415201,nan,pitch_program,11.695,0.0,0.0
2.6399999999999997,293.61042712807017,0.1871365999368716,30.159342241305538,136.41769068062575,0.2618206936841963,2.6632075047473007,136.44393557400736,17.071265504059255,-0.47042616431839085,5.736841017140473,0.4692086991854532,-0.44230082695756406,-0.23868266834997914,0.3709092255957565,4.564983215057086,-0.2652060688202503,11387.265538219166,0.4014016165072745,136.54808461204408,2.1720836408236734,1.2214571006657065,100963.21552935721,287.9539642754315,-0.10114574227902196,-0.1349178589895554,-0.13488317908401584,401.6652631578947,0.21557083212218495,0.86,nominal,9604.235891052635,nan,pitch_program,11.68,0.0,0.0
2.67,297.71951144004726,0.19525552657136902,30.24007835352372,136.96947706590316,0.27063088781658123,2.691203740606153,136.99618048090926,17.06479837909559,-0.48544397318847743,5.745180511284696,0.48088208947479083,-0.4616698947703583,-0.2812029538197573,0.3848290611216746,4.566491902334406,-0.27265737548846375,11479.474357318028,0.40302545246642035,137.10035329672434,2.1726878731155517,1.2214476268613441,100962.24844347735,287.95343949070207,-0.10114574227902196,-0.1349178589895554,-0.13488317908401584,401.63131578947366,0.21555261281588659,0.86,nominal,9680.530597564515,nan,pitch_program,11.665,0.0,0.0
2.6999999999999997,301.84511261699504,0.2036468677006565,30.32172725963585,137.5200392315937,0.27971137097624893,2.7216302037376336,137.54725260678973,17.058331800711112,-0.5011179471203702,5.754661614854308,0.4930050884866113,-0.48198036153350854,-0.31948657832296384,0.39933106028952114,4.568186686512527,-0.28041357354131186,11571.856497089335,0.40464585518243545,137.65145164406175,2.1733384939574125,1.221438046004329,100961.27043145592,287.95290877281235,-0.10114574227902196,-0.1349178589895554,-0.13488317908401584,401.59736842105264,0.21553439350958825,0.86,nominal,9756.977916468717,nan,pitch_program,11.65,0.0,0.0
2.73,305.987193487207,0.21231908274342334,30.404362721432072,138.0693623403973,0.28907383475889564,2.754515393207445,138.09713876767063,17.051865768905824,-0.5174810191350748,5.765229993878665,0.5055968660369968,-0.5033117184676802,-0.355977425595253,0.4144589251421788,4.570013500811627,-0.2884876032376733,11664.407259236628,0.40626278630659973,138.20136647982483,2.1740371741860143,1.2214283494413012,100960.28061002259,287.95237164231065,-0.10114574227902196,-0.1349178589895554,-0.13488317908401584,401.56342105263155,0.21551617420328986,0.86,nominal,9833.574811590772,nan,pitch_program,11.635,0.0,0.0
2.76,310.1457164546089,0.22128100052188496,30.48805932489529,138.6174322467299,0.29873059261538737,2.789886782107193,138.6458265902753,17.045400283679726,-0.5345682053796785,5.776799626427593,0.5186773563883523,-0.5257301318271278,-0.3896208316438532,0.43024762123906557,4.571887053735287,-0.29689313935785694,11757.122048962465,0.4078762098806627,138.75008543996725,2.1747774605089805,1.2214185284224266,100959.27808606619,287.95182761438815,-0.10114574227902196,-0.1349178589895554,-0.13488317908401584,401.52947368421053,0.21549795489699153,0.86,nominal,9910.31834242883,nan,pitch_program,11.620000000000001,0.0,0.0
2.79,314.32064355315066,0.23054183687453142,30.57289225686148,139.16423661805894,0.30869454508821514,2.8277643988729864,139.1933055046283,17.038935345032815,-0.5524163306827906,5.7893140682568704,0.5322676642539486,-0.5492912513218421,-0.4214044985153173,0.4467275268746835,4.5737547418666695,-0.3056444786463535,11849.996545905888,0.4094860952356358,139.29759795706227,2.175558147517538,1.2214085741276057,100958.26195931071,287.95127620033037,-0.10114574227902196,-0.1349178589895554,-0.13488317908401584,401.49552631578945,0.21547973559069317,0.86,nominal,9987.205802503147,nan,pitch_program,11.605,0.0,0.0
2.82,318.51193647470336,0.2401112133385876,30.658937220563104,139.70976405175628,0.3189792154685389,2.8681654567208366,139.7395659511809,17.032470952965095,-0.5710640963164031,5.802706177272897,0.5463897211900831,-0.5740540447815373,-0.45097370885006355,0.4639296467961927,4.575554416769419,-0.31475655554398163,11943.026575725446,0.41109241467414454,139.84389447201147,2.1763746363756504,1.2213984776764029,100957.23132332883,287.95071690806634,-0.10114574227902196,-0.1349178589895554,-0.13488317908401584,401.4615789473684,0.2154615162843948,0.86,nominal,10064.234612806255,nan,pitch_program,11.59,0.0,0.0
2.85,322.7195566096445,0.2499991758734788,30.746270276523774,140.25400449803703,0.32959875116304016,2.911101865355721,140.2845997504453,17.026007107476563,-0.590552388603397,5.816925735924155,0.5610666230110039,-0.6000865833167432,-0.4788947181264476,0.4818873633285504,4.577243016615254,-0.3242449876673735,12036.208176743403,0.41269514454949874,140.3889668013614,2.177225093405406,1.2213882301467136,100956.18526744806,287.9501492432026,-0.10114574227902196,-0.1349178589895554,-0.13488317908401584,401.4276315789474,0.21544329697809647,0.86,nominal,10141.402374978592,nan,pitch_program,11.575,0.0,0.0
2.88,326.9434650727316,0.26021621493895997,30.834967758023037,140.7969487695701,0.3405679688493723,2.956582716642104,140.8283996597373,17.01954380856722,-0.6109244918477795,5.831916540933794,0.5763225199454715,-0.6274643285207908,-0.5049702879951794,0.5006377196000754,4.578772611383229,-0.3341261633795247,12129.537528852614,0.41429426396958946,140.93280769652918,2.1781055143841312,1.2213778225847036,100955.12287776539,287.9495727095728,-0.10114574227902196,-0.1349178589895554,-0.13488317908401584,401.3936842105263,0.21542507767179808,0.86,nominal,10218.706811925564,nan,pitch_program,11.56,0.0,0.0
