time_s,x_m,y_m,altitude_m,vx_mps,vy_mps,vz_mps,speed_mps,mass_kg,roll_deg,pitch_deg,yaw_deg,p_dps,q_dps,r_dps,alpha_deg,beta_deg,qbar_pa,mach,airspeed_mps,load_factor_g,density_kgpm3,pressure_pa,temperature_k,wind_x_mps,wind_y_mps,wind_z_mps,thrust_n,mass_flow_kgps,propulsion_throttle_actual,propulsion_health,energy_j_per_kg,target_distance_m,guidance_mode,pitch_command_deg,heading_command_deg,roll_command_deg,elevator_command_deg,aileron_command_deg,rudder_command_deg,elevator_deg,aileron_deg,rudder_deg,throttle,elevator_saturated,aileron_saturated,rudder_saturated,elevator_failed,aileron_failed,rudder_failed,elevator_raw_rad,aileron_raw_rad,rudder_raw_rad,elevator_effective_rad,aileron_effective_rad,rudder_effective_rad,sensor_time_s,imu_valid,imu_ax_mps2,imu_ay_mps2,imu_az_mps2,gyro_p_rps,gyro_q_rps,gyro_r_rps,imu_accel_norm_mps2,imu_gyro_norm_rps,gps_valid,gps_latency_s,gps_x_m,gps_y_m,gps_z_m,gps_vx_mps,gps_vy_mps,gps_vz_mps,baro_valid,baro_alt_m,baro_bias_m,pitot_valid,pitot_airspeed_mps,pitot_qbar_pa,pitot_compressibility_factor,mag_valid,mag_heading_deg,mag_x_ut,mag_y_ut,mag_z_ut,radar_valid,radar_agl_m,optical_flow_valid,horizon_valid,horizon_roll_deg,horizon_pitch_deg
0.0,0.0,0.0,1000.0,84.0,0.0,15.0,85.32877591996736,18.0,0.0,9.0,0.0,0.0,0.0,0.0,-1.1246716553978162,0.0,4046.934522364112,0.25362711007788913,85.32877591996736,1.7329231744426616,1.1116425003060326,89874.56291621955,281.65,0.0,0.0,0.0,323.0,0.17335175620624782,0.85,nominal,13447.15,nan,fixed_pitch,18.0,0.0,0.0,-20.05352282957881,-0.0,0.0,-2.6999999999999997,0.0,0.0,0.85,0.0,0.0,0.0,0.0,0.0,0.0,-0.047123889803846894,0.0,0.0,-0.047123889803846894,0.0,0.0,0.0,1.0,17.007343798494418,-0.2892272845464373,-0.6380093276952116,0.001565738031183101,-0.0036571952164712266,-0.0013815102141609857,17.021764050900796,0.004211316053860633,1.0,0.0,-0.806223771082661,-3.036116460697097,998.193930698617,83.98374976179954,0.17024808068988678,14.758299894501135,1.0,999.9769622121428,0.0,1.0,85.36896211336294,4098.066982106759,1.0,1.0,0.4914089296374223,17.192599608587877,-0.01757678299780929,-44.78148816809228,1.0,999.9011865279573,0.0,1.0,-0.26702259647059245,9.19094030623817
0.03,2.5351789957121817,-0.00022542513550626367,1000.4430414013383,84.50596652373939,-0.0075141711835421225,14.768046711275922,85.7866751788444,17.994799447313813,-0.003041183605462435,9.13458162651677,0.019297529388626996,0.0,-4.486073134779234,0.6350942606475132,-0.7781784168338118,-0.024069355214791234,4090.3071457318083,0.25498945119058214,85.7866751788444,1.7667738435164793,1.1115941281793602,89869.73321037232,281.6471202308913,0.0,0.0,0.0,328.7375,0.17643103082306932,0.85,nominal,13490.671571078712,nan,fixed_pitch,18.0,0.0,0.0,-3.4025326723903664,-0.02144034441857761,0.2394953303541666,-3.1215196034342196,0.0,0.14369719821249996,0.85,0.0,0.0,0.0,0.0,0.0,0.0,-0.05448079474547483,0.0,0.0025079892346990345,-0.05448079474547483,0.0,0.0025079892346990345,0.03,1.0,17.359588490629932,-0.23065233389536283,-0.3695736511445488,-0.0030523316384910115,-0.07443396576854167,0.011062999514282192,17.365053922944288,0.07531349113350658,1.0,0.0,-0.806223771082661,-3.036116460697097,998.193930698617,83.98374976179954,0.17024808068988678,14.758299894501135,1.0,999.9769622121428,0.0,1.0,86.11426890842634,4060.059405079099,1.0,1.0,0.4914089296374223,17.192599608587877,-0.01757678299780929,-44.78148816809228,1.0,999.9011865279573,0.0,1.0,-0.26702259647059245,9.19094030623817
0.06,5.085807649858148,-0.0006618034348904869,1000.8793623080462,85.02095513819887,-0.01454594331280744,14.544030223596161,86.25596697818054,17.98950651638912,-0.008997786399227986,9.415318630346738,0.05728285016803691,0.005519973320646495,-9.358050070331986,1.2486443514500836,-0.2919662604132948,-0.0661707123670377,4135.0039897944425,0.2563856493370931,86.25596697818052,1.801713145736328,1.1115464913832878,89864.97697173257,281.6442841449977,0.0,0.0,0.0,334.47499999999997,0.17951030543989083,0.85,nominal,13535.319518048685,nan,fixed_pitch,18.0,0.0,0.0,-1.5453115879020998,-0.05125926313438993,0.44247980906214057,-2.175794794114948,0.0,0.3229667647222843,0.85,0.0,0.0,0.0,0.0,0.0,0.0,-0.03797478300505798,0.0,0.005636833418917731,-0.03797478300505798,0.0,0.005636833418917731,0.06,1.0,17.68834454033151,-0.2436762798220655,-0.022170502022500444,0.0019102861751529115,-0.1632420371439682,0.02048484463807531,17.690036807140437,0.16453340312541329,1.0,0.0,-0.806223771082661,-3.036116460697097,998.193930698617,83.98374976179954,0.17024808068988678,14.758299894501135,1.0,1001.5364589944282,0.0,1.0,85.96125649219006,4066.9949500688294,1.0,1.0,2.1599326913970462,16.83973939673803,0.033482551447482085,-44.898974470253236,1.0,1001.1141530568243,0.0,1.0,0.018561310337777658,9.43040791553686
0.09,7.652125127041632,-0.0012837024473707297,1001.3094477914585,85.54391590611615,-0.02072996708267476,14.336182780410663,86.73689016213085,17.984121207225925,-0.01754004300862231,9.691456375120586,0.11245597713849152,0.020488793607369712,-9.205029038909014,1.8114720926429313,0.17776383891545933,-0.12454844390650209,4181.065627850779,0.25781641608641354,86.73689016213085,1.8342868110831603,1.1114995368889018,89860.28890355512,281.6414885893555,0.0,0.0,0.0,340.2125,0.18258958005671233,0.85,nominal,13581.135353682881,nan,fixed_pitch,18.0,0.0,0.0,-1.4492888389469658,-0.09220825778356717,0.5989037001540019,-1.7398912210141586,-0.05532495467014031,0.48852892598131475,0.85,0.0,0.0,0.0,0.0,0.0,0.0,-0.03036683043324142,-0.0009656026175105616,0.008526438249605613,-0.03036683043324142,-0.0009656026175105616,0.008526438249605613,0.09,1.0,17.88909630823426,-0.3100719966849581,0.33989871117016557,-0.0005577608303369641,-0.16068645251693767,0.030477726783070595,17.895011665329086,0.16355225143508548,1.0,0.0,-0.806223771082661,-3.036116460697097,998.193930698617,83.98374976179954,0.17024808068988678,14.758299894501135,1.0,1001.5364589944282,0.0,1.0,87.1389376564449,4141.760938926554,1.0,1.0,2.1599326913970462,16.83973939673803,0.033482551447482085,-44.898974470253236,1.0,1001.1141530568243,0.0,1.0,0.018561310337777658,9.43040791553686
0.12,10.234344580104333,-0.002058263289307395,1001.7337432425634,86.07398176875667,-0.025818694731222176,14.14318170349493,87.22820984538963,17.978643519824224,-0.028975465996273004,9.878031081120547,0.1830734514777999,0.018860994078967044,-6.220103429330393,2.3171524897820848,0.5469437525153081,-0.19733338956673308,4228.390715364983,0.2592780823902778,87.22820984538961,1.8629137110522003,1.1114532160070345,89855.66414262174,281.6387306689233,0.0,0.0,0.0,345.95,0.18566885467353383,0.85,nominal,13628.032509585348,nan,fixed_pitch,18.0,0.0,0.0,-2.3945314023452124,-0.11978387070878266,0.7088943164601356,-2.1326753298127907,-0.09400030429332572,0.6207481602686072,0.85,0.0,0.0,0.0,0.0,0.0,0.0,-0.03722220638128918,-0.0016406148077950954,0.010834099222384645,-0.03722220638128918,-0.0016406148077950954,0.010834099222384645,0.12,1.0,18.250475315868975,-0.22192906314128846,0.577360576080675,0.00039982406119275335,-0.1095599253468142,0.04173430239196087,18.2609541645288,0.11724030491867138,1.0,0.0,-0.806223771082661,-3.036116460697097,998.193930698617,83.98374976179954,0.17024808068988678,14.758299894501135,1.0,1001.2150058633213,0.0,1.0,86.86282728185218,4233.959774127017,1.0,1.0,-1.5985416252997058,16.50016100177457,-0.07170370114462464,-45.09784589743625,1.0,1001.8050811857751,0.0,1.0,-0.16702994873905536,9.796886057993524
0.15,12.832663724374882,-0.002946993538543719,1002.1525513353615,86.61063814235168,-0.02962434164121079,13.960269759939063,87.72851673656217,17.973073454184018,-0.043124464020596345,9.99454767801789,0.26749016700979805,0.013912329420137974,-3.8856310194264876,2.769240476026768,0.8382253850166007,-0.2827986200599376,4276.858669238646,0.2607664603068809,87.72851673656218,1.8922562965275036,1.1114074956354492,89851.09938213619,281.6360084163201,0.0,0.0,0.0,351.6875,0.18874812929035537,0.85,nominal,13675.905641951556,nan,fixed_pitch,18.0,0.0,0.0,-3.151350196321619,-0.14547823772978322,0.7765177674196765,-2.7438802497180874,-0.12488706435520022,0.7142099245592488,0.85,0.0,0.0,0.0,0.0,0.0,0.0,-0.04788974463802484,-0.002179690466148293,0.012465314733979202,-0.04788974463802484,-0.002179690466148293,0.012465314733979202,0.15,1.0,18.486203215015077,-0.11395648852726963,0.7517754730804426,-0.0004902507477238917,-0.06680034727639458,0.048755215844482634,18.501834010444384,0.08270186100738394,1.0,0.0,-0.806223771082661,-3.036116460697097,998.193930698617,83.98374976179954,0.17024808068988678,14.758299894501135,1.0,1001.2150058633213,0.0,1.0,87.12168466809884,4364.913349428899,1.0,1.0,-1.5985416252997058,16.50016100177457,-0.07170370114462464,-45.09784589743625,1.0,1001.8050811857751,0.0,1.0,-0.16702994873905536,9.796886057993524
0.18,15.4473009164954,-0.0039066605380000605,1002.5660915792672,87.15457307068392,-0.031988899981878066,13.784674796854771,88.23796172667379,17.96741101030531,-0.05961020943112302,10.091148881015064,0.364314950594755,0.013300557417702683,-3.2228887403760558,3.1751536160295983,1.1036928390437244,-0.37946526829037236,4326.499121846635,0.2622819991194537,88.23796172667379,1.9219883003901772,1.1113623517553113,89846.59222233506,281.6333204047347,0.0,0.0,0.0,357.425,0.19182740390717687,0.85,nominal,13724.783706824795,nan,fixed_pitch,18.0,0.0,0.0,-3.3342346770541207,-0.17613580552539523,0.8069714575548969,-3.0980929061197076,-0.15563630905731723,0.7698668443566377,0.85,0.0,0.0,0.0,0.0,0.0,0.0,-0.054071921744468475,-0.002716366028701658,0.013436711235962052,-0.054071921744468475,-0.002716366028701658,0.013436711235962052,0.18,1.0,18.812631882119067,-0.10975512777427206,0.8627474731848777,0.001899975598321893,-0.0584516788835218,0.05891598783107935,18.832724118477454,0.08301386808051084,1.0,0.0,-0.806223771082661,-3.036116460697097,998.193930698617,83.98374976179954,0.17024808068988678,14.758299894501135,1.0,1003.809302407685,0.0,1.0,89.28649864419992,4371.776071489741,1.0,1.0,0.7557975956581994,16.302213065889823,-0.11686595737375588,-45.13275185937805,1.0,1002.7173357321835,0.0,1.0,-0.4199810760528356,9.656235442281568
0.21,18.07847483573198,-0.004889699052529496,1002.9745894155656,87.70579730788596,-0.03276795048431452,13.61659454327778,88.75651864571175,17.961656188188094,-0.07804739535478393,10.187233829005784,0.4724113467271138,0.019737565142801814,-3.2070908998353587,3.5430939719117123,1.3626828252619754,-0.48611610282842793,4377.324849894494,0.2638246218375493,88.75651864571175,1.9520060066641192,1.1113177597039516,89842.14019928858,281.6306651687988,0.0,0.0,0.0,363.16249999999997,0.19490667852399834,0.85,nominal,13774.680558345444,nan,fixed_pitch,18.0,0.0,0.0,-3.290996674989922,-0.2142842023215145,0.8054982641797694,-3.2138351674418364,-0.19082504501583558,0.7912456962505167,0.85,0.0,0.0,0.0,0.0,0.0,0.0,-0.05609200528824331,-0.0033305253307927257,0.013809842591806468,-0.05609200528824331,-0.0033305253307927257,0.013809842591806468,0.21,1.0,19.046152543330518,-0.10865254535575437,1.1049990095830413,-5.860391340065899e-05,-0.053545486830658635,0.062381942952638034,19.07848932412122,0.0822108837131501,1.0,0.0,17.673016084261008,-0.5961172760018516,1002.7705192178205,87.58818634855034,0.16366042281177576,13.31549042216784,1.0,1003.809302407685,0.0,1.0,89.08296305970728,4369.013559127217,1.0,1.0,0.7557975956581994,16.302213065889823,-0.11686595737375588,-45.13275185937805,1.0,1002.7173357321835,0.0,1.0,-0.4199810760528356,9.656235442281568
0.24,20.726399411691368,-0.005844359555542713,1003.3782929003731,88.26415253197953,-0.031822016767107233,13.456782826919403,89.2840783055981,17.955808987832373,-0.09808631042879123,10.27354238115784,0.5908466614779296,0.033200141096469675,-2.882920423411794,3.880655016312133,1.6055080655148546,-0.6017706681071023,4429.340597264154,0.26539400477650565,89.2840783055981,1.9822787434784332,1.1112736923538225,89837.74060309218,281.62804109614757,0.0,0.0,0.0,368.9,0.19798595314081988,0.85,nominal,13825.60305551153,nan,fixed_pitch,18.0,0.0,0.0,-3.361186773320598,-0.25974427160033997,0.7768805353463116,-3.3022461309690936,-0.23217658096653818,0.7826265997079936,0.85,0.0,0.0,0.0,0.0,0.0,0.0,-0.057635067696654566,-0.00405224578388929,0.013659410978592182,-0.057635067696654566,-0.00405224578388929,0.013659410978592182,0.24,1.0,19.38909325905042,-0.1263401888174328,1.286192241414381,-0.0011114120929586661,-0.04914495580662197,0.06794859630916615,19.43211747940351,0.0838658074453542,1.0,0.0,17.673016084261008,-0.5961172760018516,1002.7705192178205,87.58818634855034,0.16366042281177576,13.31549042216784,1.0,1003.5395191494813,0.0,1.0,89.91934045676194,4465.94373968827,1.0,1.0,-0.07546922021414325,16.19151860436154,-0.11961833054918257,-45.116421013929184,1.0,1003.1312681539592,0.0,1.0,0.05043771892487832,9.537253131746622
0.27,23.391290017674937,-0.006714710587713071,1003.7774441836477,88.82968686611893,-0.029011701072345276,13.305042775818945,89.8205893638976,17.94986940923815,-0.1194106600786789,10.339656966172035,0.7188661297761745,0.052677872240195066,-2.2117844887870457,4.194271975490124,1.8219565191401084,-0.7256465554601825,4482.556898006806,0.2669899961814167,89.8205893638976,2.012762022442553,1.111230123225924,89833.39078870905,281.6254466128063,0.0,0.0,0.0,374.6375,0.20106522775764138,0.85,nominal,13877.563209842525,nan,fixed_pitch,18.0,0.0,0.0,-3.5641554644774978,-0.3112729504461981,0.7250864794264174,-3.459391731074136,-0.27963440265433415,0.7481025275390478,0.85,0.0,0.0,0.0,0.0,0.0,0.0,-0.06037777582350991,-0.004880541028165702,0.013056852248047937,-0.06037777582350991,-0.004880541028165702,0.013056852248047937,0.27,1.0,19.66386639913718,-0.05629564009465838,1.3863193881619438,-0.0009726735669745564,-0.038561069743656994,0.07234529176789414,19.712754561658898,0.08198623930041432,1.0,0.0,17.673016084261008,-0.5961172760018516,1002.7705192178205,87.58818634855034,0.16366042281177576,13.31549042216784,1.0,1003.5395191494813,0.0,1.0,89.7919092933611,4493.568860446973,1.0,1.0,-0.07546922021414325,16.19151860436154,-0.11961833054918257,-45.116421013929184,1.0,1003.1312681539592,0.0,1.0,0.05043771892487832,9.537253131746622
0.3,26.073368443957108,-0.00744056818258526,1004.1722599441725,89.40261420940567,-0.02419525316240628,13.1605253508255,90.36607460986573,17.943837452405422,-0.14174816945914542,10.386561443582494,0.855882108792176,0.07699119207235641,-1.573717607146122,4.489124357706894,2.013639976602523,-0.8571189739314974,4536.991883582335,0.2686126645809726,90.36607460986573,2.043427166595397,1.1111870286251253,89829.08838914549,281.62288031036286,0.0,0.0,0.0,380.375,0.20414450237446288,0.85,nominal,13930.57961317943,nan,fixed_pitch,18.0,0.0,0.0,-3.7663479384567644,-0.36755094549449036,0.6531976242939654,-3.6435654555037127,-0.3323843283584279,0.6911595855919984,0.85,0.0,0.0,0.0,0.0,0.0,0.0,-0.06359221371046674,-0.005801200911884526,0.012063010425299933,-0.06359221371046674,-0.005801200911884526,0.012063010425299933,0.3,1.0,19.95375884871397,-0.07543213742787974,1.6599464160669477,0.0009818977150228502,-0.029036738791735885,0.08112606271800774,20.022827080714688,0.08617154039999744,1.0,0.0,17.673016084261008,-0.5961172760018516,1002.7705192178205,87.58818634855034,0.16366042281177576,13.31549042216784,1.0,1003.9949147625036,0.0,1.0,90.34085040775598,4489.343416280459,1.0,1.0,0.9662984920928592,16.000781861782944,-0.23538853787968386,-45.18152727631741,1.0,1004.2214864403153,0.0,1.0,-0.13530781281407944,10.103750363718904
0.32999999999999996,28.77286219885826,-0.007957400000797527,1004.5629357917301,89.98312516337171,-0.01722772727374225,13.022528251918034,90.92056617198119,17.937713117334187,-0.16488115325470473,10.420801852772172,1.001445538455768,0.10510722311102776,-1.1541129414547497,4.769276434105108,2.1876260594928003,-0.9956857815430336,4592.664957398856,0.27026210620842334,90.92056617198119,2.074261730967444,1.1111443871591877,89824.83126741752,281.62034091735376,0.0,0.0,0.0,386.1125,0.20722377699128441,0.85,nominal,13984.671790798773,nan,fixed_pitch,18.0,0.0,0.0,-3.899215196607893,-0.42754105911288,0.5636047165646804,-3.7969553001662213,-0.38947836681109915,0.6146266641756076,0.85,0.0,0.0,0.0,0.0,0.0,0.0,-0.06626937153895016,-0.0067976798661438876,0.010727258960413832,-0.06626937153895016,-0.0067976798661438876,0.010727258960413832,0.32999999999999996,1.0,20.306487885305465,-0.028718596950487445,1.7491968767887598,0.001954876799633763,-0.01944100391809419,0.08727821628336799,20.381706619114013,0.08943858906675273,1.0,0.0,17.673016084261008,-0.5961172760018516,1002.7705192178205,87.58818634855034,0.16366042281177576,13.31549042216784,1.0,1003.9949147625036,0.0,1.0,90.57906983868742,4642.589463203622,1.0,1.0,0.9662984920928592,16.000781861782944,-0.23538853787968386,-45.18152727631741,1.0,1004.2214864403153,0.0,1.0,-0.13530781281407944,10.103750363718904
0.36,31.490001669885437,-0.008196223648133005,1004.9496579827503,90.57131570090593,-0.007960788244515944,12.890739700673777,91.48406670671045,17.93149640402445,-0.1886367824718238,10.446393485958444,1.1552037057683715,0.13631189381318543,-0.8686005145477274,5.037875486626707,2.348190625501459,-1.1409396093315127,4649.592876047248,0.2719383296703389,91.48406670671041,2.105243016579596,1.1111021784596686,89820.61738884111,281.6178272231121,0.0,0.0,0.0,391.84999999999997,0.2103030516081059,0.85,nominal,14039.85679405546,nan,fixed_pitch,18.0,0.0,0.0,-3.9900404219844345,-0.49054548009273363,0.45822184582849385,-3.9128063732571494,-0.45011863478007985,0.5207837731673394,0.85,0.0,0.0,0.0,0.0,0.0,0.0,-0.06829135420635546,-0.007856052201494256,0.00908939153272937,-0.06829135420635546,-0.007856052201494256,0.00908939153272937,0.36,1.0,20.589580639946984,0.042686815968388046,1.924450928982817,0.001654128576876759,-0.016140303024820706,0.08728670854887803,20.67936566897544,0.08878183942889814,1.0,0.0,17.673016084261008,-0.5961172760018516,1002.7705192178205,87.58818634855034,0.16366042281177576,13.31549042216784,1.0,1005.8753477261074,0.0,1.0,91.41154887252773,4607.5354586845315,1.0,1.0,-0.23035923464949848,16.06409304401354,-0.3082451892590495,-45.281498018903925,1.0,1005.0033392443852,0.0,1.0,-0.6321265327741044,10.500186751343806
0.39,34.225018842814315,-0.008083500131238227,1005.3326079119644,91.16723909762925,0.003757450563159244,12.764997640467787,92.0565623058122,17.925187312476208,-0.21286510244683776,10.463708090475631,1.3168688204186323,0.17027042744066065,-0.5957176457405055,5.297318041628092,2.4958655995503487,-1.292545457936762,4707.790977472088,0.2736412943259045,92.05656230581218,2.136337778555935,1.1110603826914958,89816.44477206504,281.6153380485722,0.0,0.0,0.0,397.5875,0.2133823262249274,0.85,nominal,14096.150351161807,nan,fixed_pitch,18.0,0.0,0.0,-4.081129544390361,-0.556175747603872,0.3385734681843516,-4.013800275937077,-0.5137529024743551,0.41145759017754674,0.85,0.0,0.0,0.0,0.0,0.0,0.0,-0.07005403033255891,-0.008966679689854819,0.00718128968091967,-0.07005403033255891,-0.008966679689854819,0.00718128968091967,0.39,1.0,20.93959505474849,0.0030619066294143727,2.0216744833538685,0.005091322432511834,-0.011694985091042321,0.09275112118880008,21.036963139882232,0.09362406059433108,1.0,0.0,17.673016084261008,-0.5961172760018516,1002.7705192178205,87.58818634855034,0.16366042281177576,13.31549042216784,1.0,1005.8753477261074,0.0,1.0,92.29222143084866,4758.152753717119,1.0,1.0,-0.23035923464949848,16.06409304401354,-0.3082451892590495,-45.281498018903925,1.0,1005.0033392443852,0.0,1.0,-0.6321265327741044,10.500186751343806
0.42,36.97814767418777,-0.007541022899191151,1005.7119600581603,91.77096104578182,0.018082574401569226,12.6450715398645,92.6380453836014,17.91878584268946,-0.23742327274297534,10.472490985667823,1.486204662111099,0.20693835733167656,-0.31457191421709235,5.549392361724292,2.6305971961703394,-1.4502225984924153,4767.275484547382,0.2753709783128758,92.6380453836014,2.145702787785397,1.1110189807770239,89812.31151143463,281.61287225962195,0.0,0.0,0.0,399.47763157894735,0.21439674612793488,0.85,nominal,14153.568919351454,nan,fixed_pitch,18.0,0.0,0.0,-4.179939779351854,-0.6242756512218046,0.20582428632999836,-4.113483977985943,-0.5800665517228248,0.28807760786901776,0.85,0.0,0.0,0.0,0.0,0.0,0.0,-0.07179383914388865,-0.01012407120825328,0.005027902758583485,-0.07179383914388865,-0.01012407120825328,0.005027902758583485,0.42,1.0,20.943386413967264,-0.025222335173315888,2.1584785302413745,0.001618901137447322,-0.00616972663526026,0.0960841964372102,21.054336850550605,0.09629568615795343,1.0,0.0,34.718858656250674,-0.6251269865036221,1003.2063251395767,91.84728471010669,0.20724593688453208,12.525896476649642,1.0,1005.1190419535832,0.0,1.0,92.13958164476095,4783.77276223731,1.0,1.0,1.6237941316777276,15.997122935139389,-0.4245332587910311,-45.247482629908276,1.0,1005.8493314745856,0.0,1.0,0.06393195460647698,10.223245679568542
0.44999999999999996,39.7494352710371,-0.00648803681187409,1006.0878410402089,92.37625322831114,0.03509953624390204,12.529366068285245,93.22209183745883,17.91235394030562,-0.26195629104266405,10.475300541301422,1.6618214388190322,0.2463982034723492,-0.1187365669283877,5.755895532538578,2.755445467015173,-1.6125903146998406,4827.398322154705,0.2771082861394468,93.22209183745882,2.144260268994288,1.110977958864242,89808.21622305395,281.61042903323863,0.0,0.0,0.0,399.4440789473684,0.21437873867403534,0.85,nominal,14211.530529612768,nan,fixed_pitch,18.0,0.0,0.0,-4.252242612256064,-0.6932902392125848,0.04562616211356301,-4.196739158548016,-0.6480007642166808,0.11523104314760711,0.85,0.0,0.0,0.0,0.0,0.0,0.0,-0.0732469161640392,-0.011309746891020534,0.0020111611034333943,-0.0732469161640392,-0.011309746891020534,0.0020111611034333943,0.44999999999999996,1.0,20.9710777799738,0.09931922784694916,2.2505755977872948,0.001655990811616125,-0.002161932367299417,0.10278542351134316,21.09172961338369,0.10282149358735804,1.0,0.0,34.718858656250674,-0.6251269865036221,1003.2063251395767,91.84728471010669,0.20724593688453208,12.525896476649642,1.0,1005.1190419535832,0.0,1.0,93.5364088805964,4805.94429401392,1.0,1.0,1.6237941316777276,15.997122935139389,-0.4245332587910311,-45.247482629908276,1.0,1005.8493314745856,0.0,1.0,0.06393195460647698,10.223245679568542
0.48,42.53883545644151,-0.0048449678639274464,1006.4603531380907,92.98000618014711,0.05476896493155478,12.417069929394074,93.80548051436642,17.9059225781454,-0.2861135827250605,10.474157920501433,1.8423816450007064,0.28896371517373026,0.009780541304778645,5.918492622885151,2.8727282876826257,-1.7783943955476353,4887.828732963448,0.2788436429125187,93.8054805143664,2.142920954596097,1.1109373057591327,89804.15778843299,281.6080077046024,0.0,0.0,0.0,399.41052631578947,0.2143607312201358,0.85,nominal,14269.738509367246,nan,fixed_pitch,18.0,0.0,0.0,-4.303184499588323,-0.7632230986467097,-0.13940555470573993,-4.260606363172199,-0.717134164874698,-0.037550915564401106,0.85,0.0,0.0,0.0,0.0,0.0,0.0,-0.07436160916877615,-0.01251635235560335,-0.0006553871137371841,-0.07436160916877615,-0.01251635235560335,-0.0006553871137371841,0.48,1.0,20.829661731753383,0.1353378113979862,2.443530241017484,0.007336808931575439,-0.0016336106106833738,0.10444433966473189,20.972934087085484,0.10471445715338294,1.0,0.0,34.718858656250674,-0.6251269865036221,1003.2063251395767,91.84728471010669,0.20724593688453208,12.525896476649642,1.0,1006.3023356248203,0.0,1.0,93.51724863080646,4873.0581957943095,1.0,1.0,2.3505818462411905,16.001571635843515,-0.6215147508928757,-45.2779093745518,1.0,1006.4051027445737,0.0,1.0,0.1331389213863398,10.547620120696727
0.51,45.3463025662048,-0.002527996853999174,1006.8295961745355,93.58223699210953,0.07723236699760908,12.308101214826435,94.38818994344726,17.899491756208796,-0.3094599914315558,10.469081346300152,2.0261107589928087,0.33487012575850367,0.13791688282271136,6.023106933396088,2.9825696488535693,-1.9458491595834841,4948.5631643682955,0.2805769849036903,94.38818994344726,2.14166287284897,1.1108970105373657,89800.13511605159,281.6056076248655,0.0,0.0,0.0,399.3769736842105,0.21434272376623625,0.85,nominal,14328.190659725147,nan,fixed_pitch,18.0,0.0,0.0,-4.356142511495842,-0.8333685815764167,-0.35262920641197043,-4.317928052166386,-0.7868748148957293,-0.22659789007294268,0.85,0.0,0.0,0.0,0.0,0.0,0.0,-0.0753620613745289,-0.013733556320951397,-0.003954879259845024,-0.0753620613745289,-0.013733556320951397,-0.003954879259845024,0.51,1.0,20.870527305493304,0.09367629689119629,2.5204745905206054,0.008118599548498138,0.007557824377581467,0.10532330571763715,21.02238039374706,0.1059057651652737,1.0,0.0,34.718858656250674,-0.6251269865036221,1003.2063251395767,91.84728471010669,0.20724593688453208,12.525896476649642,1.0,1006.3023356248203,0.0,1.0,94.32397135785892,4939.680122119107,1.0,1.0,2.3505818462411905,16.001571635843515,-0.6215147508928757,-45.2779093745518,1.0,1006.4051027445737,0.0,1.0,0.1331389213863398,10.547620120696727
0.54,48.171791882967355,0.0005456276628596915,1007.1956661437728,94.18297722541858,0.10245415056196219,12.202332307908339,94.9702090639444,17.89306147449581,-0.33165197524061973,10.459895854425058,2.2117655207804567,0.3842597046469277,0.2721311602421166,6.0871858760237565,3.0849238648849044,-2.1138010284285067,5009.599108535303,0.28230827932455144,94.9702090639444,2.140470794132807,1.1108570626938743,89796.14715628972,281.60322817006545,0.0,0.0,0.0,399.3434210526316,0.21432471631233674,0.85,nominal,14386.885684213481,nan,fixed_pitch,18.0,0.0,0.0,-4.413472857790385,-0.904072151968777,-0.5848099675934865,-4.375254935540785,-0.857193217139558,-0.441525136585269,0.85,0.0,0.0,0.0,0.0,0.0,0.0,-0.07636260423931897,-0.014960843964847976,-0.007706067363730617,-0.07636260423931897,-0.014960843964847976,-0.007706067363730617,0.54,1.0,20.797322400751753,0.12249520688647406,2.6309185941189233,0.008227662483076797,0.004243690087060501,0.10698617962656734,20.963429031658958,0.10738596727030296,1.0,0.0,34.718858656250674,-0.6251269865036221,1003.2063251395767,91.84728471010669,0.20724593688453208,12.525896476649642,1.0,1006.6630862344466,0.0,1.0,94.78369634038732,5030.83406792392,1.0,1.0,1.7782841999968402,16.031299986713,-0.6989967494622515,-45.188789197343965,1.0,1007.1666643448774,0.0,1.0,-0.535876376895269,10.522034173995513
0.57,51.01525988262918,0.004457676853433318,1007.5586542410523,94.78226665539427,0.13040163968578755,12.09960324264989,95.55153308844102,17.88663173300644,-0.3524260974542256,10.447135515237289,2.398511853003434,0.4369580256680429,0.38879331108088416,6.123995231323721,3.180469475452251,-2.281491187922228,5070.934697469592,0.28403751202673144,95.55153308844102,2.139341592670823,1.1108174522486727,89792.19291198811,281.60086874743314,0.0,0.0,0.0,399.3098684210526,0.21430670885843717,0.85,nominal,14445.822814388735,nan,fixed_pitch,18.0,0.0,0.0,-4.466606975782363,-0.9753459638434429,-0.8291179287899261,-4.430066159685731,-0.9280848651618888,-0.6740808119080632,0.85,0.0,0.0,0.0,0.0,0.0,0.0,-0.0773192405676969,-0.016198136635002577,-0.011764929592312304,-0.0773192405676969,-0.016198136635002577,-0.011764929592312304,0.57,1.0,20.75304833165867,0.16084156903304045,2.7535505764809676,0.010836399450309578,0.008183405332294225,0.10534840084209562,20.93554216741779,0.10621996627690174,1.0,0.0,34.718858656250674,-0.6251269865036221,1003.2063251395767,91.84728471010669,0.20724593688453208,12.525896476649642,1.0,1006.6630862344466,0.0,1.0,95.16877027754101,5099.772166182493,1.0,1.0,1.7782841999968402,16.031299986713,-0.6989967494622515,-45.188789197343965,1.0,1007.1666643448774,0.0,1.0,-0.535876376895269,10.522034173995513
0.6,53.87666404345783,0.009289097578817594,1007.9186476262563,95.38013869428826,0.16104735751280919,11.999779506800813,96.1321564400012,17.880202531740686,-0.37158831582787033,10.431589871814095,2.585815946236555,0.4925447861470126,0.47938334686370326,6.143279749689845,3.2701207270751347,-2.4484481778557514,5132.567968759007,0.2857646665090971,96.1321564400012,2.1382750932642396,1.1107781696634336,89788.27143011776,281.5985287904293,0.0,0.0,0.0,399.2763157894737,0.21428870140453765,0.85,nominal,14505.001156646456,nan,fixed_pitch,18.0,0.0,0.0,-4.512123454383245,-1.0469403066228649,-1.0806575079094631,-4.4793005365042395,-0.9993981300384743,-0.918026829508903,0.85,0.0,0.0,0.0,0.0,0.0,0.0,-0.07817854254834744,-0.01744278790744582,-0.016022590796574997,-0.07817854254834744,-0.01744278790744582,-0.016022590796574997,0.6,1.0,20.837193239144067,0.19627470317116083,2.8567077361620843,0.004013733168572257,0.008542886448077283,0.10920480020183665,21.033019871962857,0.10961194893777002,1.0,0.0,34.718858656250674,-0.6251269865036221,1003.2063251395767,91.84728471010669,0.20724593688453208,12.525896476649642,1.0,1007.863940777514,0.0,1.0,95.93468411004648,5284.138664946135,1.0,1.0,3.6100586304043643,16.03992637519487,-0.7773564842213623,-45.228992401717974,1.0,1007.7147928502061,0.0,1.0,-0.8641143204773221,10.397709147163162
0.63,56.75596253925984,0.015120184425964344,1008.2757305497147,95.97661652673372,0.19436956157155832,11.902764115280437,96.7120700483149,17.87377387069855,-0.3889996572285541,10.41377152070987,2.7733556019112826,0.5505400863967336,0.5531244179284579,6.151986778225111,3.3544888322176574,-2.6144035621186927,5194.496572147873,0.28748971588344574,96.71207004831491,2.1372671043092666,1.1107392057185634,89784.38178950618,281.59620775142685,0.0,0.0,0.0,399.24276315789473,0.2142706939506381,0.85,nominal,14564.419439510442,nan,fixed_pitch,18.0,0.0,0.0,-4.55296680587088,-1.1185117835304696,-1.3360229516801252,-4.523500298124224,-1.0708663221336716,-1.1688245028116364,0.85,0.0,0.0,0.0,0.0,0.0,0.0,-0.07894997391721278,-0.018690143169954796,-0.020399835952048775,-0.07894997391721278,-0.018690143169954796,-0.020399835952048775,0.63,1.0,20.686309954858178,0.28064682573726474,2.941379105799701,0.009269259729279824,0.010248628172380933,0.1054812926516834,20.896265054628685,0.10638259563864123,1.0,0.0,54.580625276384836,-2.2145160595889113,1009.6673276542292,95.8826573104307,0.17979097275421843,11.843857908936862,1.0,1007.863940777514,0.0,1.0,97.15312799857705,5236.743777805113,1.0,1.0,3.6100586304043643,16.03992637519487,-0.7773564842213623,-45.228992401717974,1.0,1007.7147928502061,0.0,1.0,-0.8641143204773221,10.397709147163162
0.6599999999999999,59.653114094804245,0.02203074420486239,1008.6299847976096,96.57171851814674,0.2303519926299349,11.808474929830268,97.29126353253463,17.86734574988003,-0.4045606926643691,10.393945737751334,2.960954660902125,0.6105547551833262,0.6182509672107515,6.1549277868887,3.433926165446728,-2.779228165715988,5256.717994119718,0.28921262936427905,97.29126353253464,2.136311515004635,1.1107005514645407,89780.5230959778,281.5939050988155,0.0,0.0,0.0,399.20921052631576,0.21425268649673854,0.85,nominal,14624.076220294028,nan,fixed_pitch,18.0,0.0,0.0,-4.591874130599175,-1.1897651706141077,-1.5929313304014445,-4.5645245976091955,-1.142205631221933,-1.4232885993655213,0.85,0.0,0.0,0.0,0.0,0.0,0.0,-0.07966598301654974,-0.019935248999642875,-0.024841072265026822,-0.07966598301654974,-0.019935248999642875,-0.024841072265026822,0.6599999999999999,1.0,20.76120731997695,0.28824100947432973,3.1096399906760808,0.010404594564871441,0.009947144554364715,0.1066135450401968,20.994777282319983,0.10758089634727372,1.0,0.0,54.580625276384836,-2.2145160595889113,1009.6673276542292,95.8826573104307,0.17979097275421843,11.843857908936862,1.0,1008.5702542395732,0.0,1.0,97.13506983963516,5238.4917444273615,1.0,1.0,0.6518233604854848,16.01432625672951,-0.9595330139799577,-45.17441683535004,1.0,1008.864405890457,0.0,1.0,-0.5851329898269424,10.291063637141907
0.69,62.5680779525803,0.03010024138540668,1008.9814897220172,97.16546192586871,0.2689832393514763,11.716830813583185,97.86972702304132,17.860918169285128,-0.41819808275148584,10.372373322680478,3.1485362944698174,0.6723495368174425,0.6749033924496898,6.155339403135653,3.508777687932544,-2.9428855148010395,5319.229751842827,0.29093337768405786,97.86972702304132,2.1354043804171954,1.11066219821858,89776.69448201926,281.5916203168069,0.0,0.0,0.0,399.17565789473684,0.21423467904283902,0.85,nominal,14683.970059964733,nan,fixed_pitch,18.0,0.0,0.0,-4.628751769171633,-1.2605168179109882,-1.8499204156430769,-4.603060900546658,-1.2131923432353662,-1.6792676891320548,0.85,0.0,0.0,0.0,0.0,0.0,0.0,-0.08033856838435444,-0.021174200849442295,-0.029308750197710953,-0.08033856838435444,-0.021174200849442295,-0.029308750197710953,0.69,1.0,20.705133787348114,0.2362458484413936,3.166461271557828,0.009897134771293994,0.010947793687076678,0.1131861119072836,20.947192037052744,0.11414422189486456,1.0,0.0,54.580625276384836,-2.2145160595889113,1009.6673276542292,95.8826573104307,0.17979097275421843,11.843857908936862,1.0,1008.5702542395732,0.0,1.0,97.90813037203296,5378.12113507428,1.0,1.0,0.6518233604854848,16.01432625672951,-0.9595330139799577,-45.17441683535004,1.0,1008.864405890457,0.0,1.0,-0.5851329898269424,10.291063637141907
0.72,65.50081381234287,0.03940791940877497,1009.33032240034,97.75786199208576,0.31025593411227653,11.62775594409494,98.44745069479339,17.854491128913843,-0.4298542978932892,10.349374091110736,3.3360891643442883,0.7358239447362587,0.7211077078365544,6.155334955708973,3.5794417985022116,-3.105398955286973,5382.029343826484,0.2926519317063196,98.44745069479339,2.134544027501761,1.1106241375471848,89772.8951050361,281.58935290439774,0.0,0.0,0.0,399.1421052631579,0.21421667158893948,0.85,nominal,14744.099480319182,nan,fixed_pitch,18.0,0.0,0.0,-4.662732283425622,-1.3306906428485346,-2.1061025393888304,-4.6388637302740365,-1.2836913230032672,-1.93536859928612,0.85,0.0,0.0,0.0,0.0,0.0,0.0,-0.0809634456446281,-0.022404640165689035,-0.03377855429725357,-0.0809634456446281,-0.022404640165689035,-0.03377855429725357,0.72,1.0,20.735204520899998,0.3739242338754665,3.266088264582013,0.013007753296572675,0.01142873980270941,0.11062923712942623,20.994186300218246,0.1119760949807652,1.0,0.0,54.580625276384836,-2.2145160595889113,1009.6673276542292,95.8826573104307,0.17979097275421843,11.843857908936862,1.0,1009.7391144541784,0.0,1.0,98.38677815926869,5309.357091035579,1.0,1.0,4.850370486011977,16.07625219832794,-1.0618965957620925,-45.2080238961144,1.0,1009.2721371993413,0.0,1.0,-0.286585802041765,10.251187239202078
0.75,68.45128172428558,0.050032898383941364,1009.6765579743605,98.34893039809018,0.3541659658388798,11.541185800684143,99.02442382395192,17.848064628766174,-0.4394802239014662,10.325245626770897,3.523643037053659,0.8009769372537521,0.7576007749578546,6.156249131075723,3.646285503937996,-3.266829045460982,5445.114146259733,0.2943682596222417,99.02442382395192,2.133728945593752,1.1105863612291083,89769.1241436539,281.58710237316666,0.0,0.0,0.0,399.10855263157896,0.21419866413503993,0.85,nominal,14804.46287409209,nan,fixed_pitch,18.0,0.0,0.0,-4.693908655876185,-1.4002844221247577,-2.3609782707313998,-4.671890685635326,-1.3536471824761616,-2.190734402153288,0.85,0.0,0.0,0.0,0.0,0.0,0.0,-0.08153987475759178,-0.023625600244553506,-0.038235528354284426,-0.08153987475759178,-0.023625600244553506,-0.038235528354284426,0.75,1.0,20.676214151977387,0.23456540455802588,3.3689458820654563,0.014797617595808233,0.011181618677313336,0.10648583438861098,20.950194484627854,0.10808899577753187,1.0,0.0,54.580625276384836,-2.2145160595889113,1009.6673276542292,95.8826573104307,0.17979097275421843,11.843857908936862,1.0,1009.7391144541784,0.0,1.0,99.24845075956375,5369.669888269766,1.0,1.0,4.850370486011977,16.07625219832794,-1.0618965957620925,-45.2080238961144,1.0,1009.2721371993413,0.0,1.0,-0.286585802041765,10.251187239202078
0.78,71.41944199066269,0.062054253057250985,1010.0202699484867,98.93867554590365,0.40071182244365394,11.457065804205214,99.60063476496586,17.841638668842123,-0.4470302049457445,10.30021942835968,3.7112522552378104,0.8678670575093173,0.7865838355580492,6.15888978969369,3.7096014417908703,-3.427258339494205,5508.481407573525,0.2960823268832873,99.60063476496587,2.132957046419904,1.1105488612227614,89765.38079446348,281.5848682453348,0.0,0.0,0.0,399.075,0.2141806566811404,0.85,nominal,14865.05850308239,nan,fixed_pitch,18.0,0.0,0.0,-4.7229226186508795,-1.4693353647189713,-2.6143059977750425,-4.702509845444658,-1.4230600918218472,-2.4448773595263407,0.85,0.0,0.0,0.0,0.0,0.0,0.0,-0.08207427991045896,-0.024837084056024066,-0.042671159731199795,-0.08207427991045896,-0.024837084056024066,-0.042671159731199795,0.78,1.0,20.644373913579837,0.34518375922640493,3.4460944033570073,0.01943303282168867,0.015153598441063315,0.1077891074294385,20.932866329009457,0.11057018581334147,1.0,0.0,54.580625276384836,-2.2145160595889113,1009.6673276542292,95.8826573104307,0.17979097275421843,11.843857908936862,1.0,1010.68285299481,0.0,1.0,100.06457495866232,5620.212622227998,1.0,1.0,4.415552158691918,16.05640622539651,-1.2037234793647558,-45.213229653221,1.0,1010.0043826127521,0.0,1.0,-0.8472827509961918,9.688859239547773
0.8099999999999999,74.40525509825001,0.07555107522995475,1010.3615303696783,99.52710358624402,0.4498940724234585,11.3753473730572,100.17607139831881,17.835213249141688,-0.4524590753707424,10.274488734664342,3.898985239959193,0.9365821784398657,0.809332969757398,6.163717586534262,3.769638097865389,-3.5867814074545628,5572.1282953426435,0.297794097532617,100.1760713983188,2.1322264185098216,1.1105116296465545,89761.66427005743,281.58265005259705,0.0,0.0,0.0,399.0414473684211,0.21416264922724088,0.85,nominal,14925.88454220034,nan,fixed_pitch,18.0,0.0,0.0,-4.750112821333578,-1.5378956479731856,-2.8660121638023734,-4.731071630978009,-1.4919614255126503,-2.6975582420919606,0.85,0.0,0.0,0.0,0.0,0.0,0.0,-0.08257277710826443,-0.026039639187943876,-0.047081273088815,-0.08257277710826443,-0.026039639187943876,-0.047081273088815,0.8099999999999999,1.0,20.597832429876348,0.3641398655319018,3.4905862848517595,0.018583637023256192,0.012144131963362096,0.11012702203136608,20.894676146399842,0.11234230052679481,1.0,0.0,54.580625276384836,-2.2145160595889113,1009.6673276542292,95.8826573104307,0.17979097275421843,11.843857908936862,1.0,1010.68285299481,0.0,1.0,100.5234519067879,5582.407859629145,1.0,1.0,4.415552158691918,16.05640622539651,-1.2037234793647558,-45.213229653221,1.0,1010.0043826127521,0.0,1.0,-0.8472827509961918,9.688859239547773
0.84,77.4086816627023,0.09060252380140915,1010.7004099686739,100.1142188150765,0.5017149523818137,11.295986633184835,100.75072129202624,17.82878836966487,-0.4557205587264754,10.248237192733182,4.086917898670773,1.0072208808973926,0.8261706746060967,6.170972036140336,3.8266292726544178,-3.745498532714357,5636.051912895211,0.29950353468548313,100.75072129202624,2.1315358085655967,1.1104746587634495,89757.97379748695,281.5804473352036,0.0,0.0,0.0,399.0078947368421,0.2141446417733413,0.85,nominal,14986.93909585107,nan,fixed_pitch,18.0,0.0,0.0,-4.775488914949571,-1.606018455784338,-3.116128043938818,-4.757722001360946,-1.560395643675663,-2.948700123200075,0.85,0.0,0.0,0.0,0.0,0.0,0.0,-0.08303791381832265,-0.02723404161591655,-0.05146452580380374,-0.08303791381832265,-0.02723404161591655,-0.05146452580380374,0.84,1.0,20.640157488613465,0.4219507224433551,3.6571027651407917,0.021521097799455876,0.014581735453766884,0.10666490951520965,20.965890016923616,0.10978701007507788,1.0,0.0,76.41531214938627,-2.1791122346308214,1010.931899171568,100.40319900279408,0.23431352435369873,11.493735467928005,1.0,1011.2025607566742,0.0,1.0,100.9587643922696,5672.635020927511,1.0,1.0,4.715066386699744,16.1418728383661,-1.325159918615798,-45.11984509583484,1.0,1010.4740747469922,0.0,1.0,-0.06220804710882752,10.434692006008174
0.87,80.42968236995394,0.10728786510342309,1011.0369783177588,100.70002357505444,0.5561780434004645,11.218944969497912,101.32457159179656,17.82236403041167,-0.4567663953542514,10.221636453710607,4.275129431541165,1.079884301711645,0.8375013188126569,6.180757454375633,3.880791399280173,-3.9035119106507947,5700.249286000934,0.30121060020309876,101.32457159179656,2.130884317550598,1.110437940963716,89754.30861653962,281.57825964093456,0.0,0.0,0.0,398.9743421052632,0.2141266343194418,0.85,nominal,15048.2201875504,nan,fixed_pitch,18.0,0.0,0.0,-4.7990953871125,-1.6737524667713908,-3.364746197499105,-4.7825460328118785,-1.6284097375330997,-3.1983277677794932,0.85,0.0,0.0,0.0,0.0,0.0,0.0,-0.08347117490076005,-0.028421111491489272,-0.055821350105712764,-0.08347117490076005,-0.028421111491489272,-0.055821350105712764,0.87,1.0,20.50594881459876,0.42007839754687115,3.669752191889331,0.02043216628360518,0.01817544262076404,0.10815608754756058,20.835966111435926,0.1115596674748413,1.0,0.0,76.41531214938627,-2.1791122346308214,1010.931899171568,100.40319900279408,0.23431352435369873,11.493735467928005,1.0,1011.2025607566742,0.0,1.0,101.19618104859518,5695.334093574866,1.0,1.0,4.715066386699744,16.1418728383661,-1.325159918615798,-45.11984509583484,1.0,1010.4740747469922,0.0,1.0,-0.06220804710882752,10.434692006008174
0.8999999999999999,83.46821791899309,0.12568650607990384,1011.3713039850777,101.28451830130507,0.6132880325493582,11.144188910632565,101.89760898183104,17.815940231382086,-0.455545792210581,10.194836475732492,4.463699792482984,1.1546748867322159,0.8440539901062619,6.193099138681215,3.932313965462199,-4.0609234681871405,5764.717357137808,0.3029152545764991,101.89760898183106,2.130271059483372,1.1104014687480688,89750.66797805534,281.576086524097,0.0,0.0,0.0,398.9407894736842,0.21410862686554225,0.85,nominal,15109.72575633233,nan,fixed_pitch,18.0,0.0,0.0,-4.821102064653573,-1.7411418383645838,-3.611992734715963,-4.805679651916895,-1.6960489980319902,-3.446526747941375,0.85,0.0,0.0,0.0,0.0,0.0,0.0,-0.08387493272204484,-0.029601639290809053,-0.06015323950962969,-0.08387493272204484,-0.029601639290809053,-0.06015323950962969,0.8999999999999999,1.0,20.491312120684213,0.3133750165190331,3.777981836879243,0.021562185059653675,0.018634914710130214,0.11073312092760783,20.839031241592483,0.11434164569905753,1.0,0.0,76.41531214938627,-2.1791122346308214,1010.931899171568,100.40319900279408,0.23431352435369873,11.493735467928005,1.0,1010.8183434963516,0.0,1.0,102.77365073493796,5832.901214545911,1.0,1.0,5.84998895276833,16.187959604164757,-1.504471876555366,-45.08509549925024,1.0,1011.5548881204351,0.0,1.0,-1.215243041939337,9.946362389957073
0.9299999999999999,86.52424897270247,0.14587802243875783,1011.7034546596641,101.86770179031271,0.673050545295133,11.071689152877774,102.46981978014088,17.80951697257612,-0.45200503571730194,10.167967424991662,4.6527083278194326,1.2316977221250847,0.846495695220311,6.207978783919011,3.9813620215070973,-4.21783369759562,5829.452994934644,0.30461745721020006,102.4698197801409,2.1296951967141613,1.1103652347140012,89747.05114256118,281.57392754471215,0.0,0.0,0.0,398.90723684210525,0.21409061941164267,0.85,nominal,15171.45366652547,nan,fixed_pitch,18.0,0.0,0.0,-4.841667729481011,-1.80822824288109,-3.858010699672838,-4.827272498455365,-1.76335654494145,-3.693417118980253,0.85,0.0,0.0,0.0,0.0,0.0,0.0,-0.084251798989019,-0.030776377595819665,-0.06446228937572857,-0.084251798989019,-0.030776377595819665,-0.06446228937572857,0.9299999999999999,1.0,20.51247362876123,0.4823569858795037,3.8727524332951604,0.020987288107332698,0.01735516829820328,0.10555371681359547,20.880432324117365,0.10901034474729385,1.0,0.0,76.41531214938627,-2.1791122346308214,1010.931899171568,100.40319900279408,0.23431352435369873,11.493735467928005,1.0,1010.8183434963516,0.0,1.0,102.12835383666221,5914.417918657485,1.0,1.0,5.84998895276833,16.187959604164757,-1.504471876555366,-45.08509549925024,1.0,1011.5548881204351,0.0,1.0,-1.215243041939337,9.946362389957073
0.96,89.59773611553669,0.16794218319774748,1012.0334972530542,102.44957142780771,0.7354720252996549,11.001419779668389,103.04119002617328,17.80309425399377,-0.44608721473103025,10.141146505330672,4.84223312802774,1.3110616741094525,0.8452669531250901,6.22535624847688,4.028083483330653,-4.37434111299396,5894.4530031123195,0.306317166682934,103.04119002617327,2.129156070889198,1.1103292315446782,89743.4573791621,281.5717822678551,0.0,0.0,0.0,398.8736842105263,0.21407261195774313,0.85,nominal,15233.40171684164,nan,fixed_pitch,18.0,0.0,0.0,-4.860878790046092,-1.875052491070248,-4.1029500808733,-4.847436273409801,-1.830374112618729,-3.9391368961160818,0.85,0.0,0.0,0.0,0.0,0.0,0.0,-0.08460372325160508,-0.03194605480846631,-0.06875090852401546,-0.08460372325160508,-0.03194605480846631,-0.06875090852401546,0.96,1.0,20.43529272141636,0.5203835950670379,3.982116143300409,0.0224905623717231,0.018997826316822983,0.10378238806897858,20.826167114347303,0.10787736960948113,1.0,0.0,76.41531214938627,-2.1791122346308214,1010.931899171568,100.40319900279408,0.23431352435369873,11.493735467928005,1.0,1012.2373153397925,0.0,1.0,103.25006269794106,5861.646145178496,1.0,1.0,3.6991411821471725,16.272902036938266,-1.7180844323536406,-45.07401751773539,1.0,1012.170582061726,0.0,1.0,0.03475016579262823,10.274159373686427
0.99,92.68863981435861,0.19195897253166985,1012.3614979915632,103.03012329406383,0.8005596444640792,10.933357950298701,103.6117055057183,17.796672075635037,-0.4377320159825569,10.114480367566541,5.0323507429275836,1.3928796912926542,0.8407290755751805,6.245182413600248,4.0726117307038,-4.530542072078594,5959.714122550352,0.3080143408219191,103.6117055057183,2.128653176193924,1.1102934519988477,89739.88596453311,281.5696502630548,0.0,0.0,0.0,398.84013157894736,0.21405460450384362,0.85,nominal,15295.567643180812,nan,fixed_pitch,18.0,0.0,0.0,-4.878799502078285,-1.9416550847127876,-4.346961861430381,-4.866254210610891,-1.897142695875164,-4.183831875304661,0.85,0.0,0.0,0.0,0.0,0.0,0.0,-0.08493215821419763,-0.03311138642318306,-0.07302164157395517,-0.08493215821419763,-0.03311138642318306,-0.07302164157395517,0.99,1.0,20.46002661070591,0.6449596553978855,4.121337787608873,0.02348045091032496,0.01413656262590792,0.10965665718514175,20.880950338225933,0.11302989181118461,1.0,0.0,76.41531214938627,-2.1791122346308214,1010.931899171568,100.40319900279408,0.23431352435369873,11.493735467928005,1.0,1012.2373153397925,0.0,1.0,103.16267221906922,5983.906204890382,1.0,1.0,3.6991411821471725,16.272902036938266,-1.7180844323536406,-45.07401751773539,1.0,1012.170582061726,0.0,1.0,0.03475016579262823,10.274159373686427
1.02,95.79692038186722,0.2180086096024261,1012.6875225005945,103.60935225028733,0.8683212356918749,10.867483634377184,104.18135176717534,17.79025043749992,-0.42687556316997816,10.088064519630423,5.223136090916412,1.4772686365541918,0.8332641153990941,6.267406195536707,4.1150651698764,-4.686530790803242,6025.233032455909,0.30970893675142613,104.18135176717533,2.128186066008539,1.1102578889016177,89736.33618199828,281.5675311037461,0.0,0.0,0.0,398.8065789473684,0.21403659704994404,0.85,nominal,15357.94912054842,nan,fixed_pitch,18.0,0.0,0.0,-4.895507293626102,-2.0080761246626926,-4.590194893870321,-4.883806060420018,-1.9637027531476812,-4.427649686444058,0.85,0.0,0.0,0.0,0.0,0.0,0.0,-0.08523849578318243,-0.03427307857290448,-0.07727706515334334,-0.08523849578318243,-0.03427307857290448,-0.07727706515334334,1.02,1.0,20.410018336511364,0.4950671475887968,4.173045626635635,0.025591881459550343,0.011508342238897303,0.10904031118596834,20.838144105925906,0.11259296514995987,1.0,0.0,76.41531214938627,-2.1791122346308214,1010.931899171568,100.40319900279408,0.23431352435369873,11.493735467928005,1.0,1012.464878149273,0.0,1.0,104.17174038972456,6067.9745884517415,1.0,1.0,4.942161933990409,16.212715799999234,-1.8393885310871076,-45.1679040142112,1.0,1012.5706899411192,0.0,1.0,-0.7426227083365632,10.148874036872384
1.05,98.92253794364446,0.24617156688693506,1013.0116358766417,104.18725205924102,0.9387652428169655,10.803779201574345,104.75011416162425,17.783829339588422,-0.4134502859373981,10.061984018064086,5.414662485390883,1.5643490102879878,0.8232321527174233,6.291977930568703,4.155548148656722,-4.842399445630123,6091.0063543732285,0.31140091101207995,104.75011416162424,2.127754327527289,1.1102225351365953,89732.80732074523,281.56542436680184,0.0,0.0,0.0,398.7730263157895,0.21401858959604453,0.85,nominal,15420.543767406323,nan,fixed_pitch,18.0,0.0,0.0,-4.911077434742919,-2.074355048155469,-4.832794610666957,-4.900168885013758,-2.0300941301523543,-4.670736640977797,0.85,0.0,0.0,0.0,0.0,0.0,0.0,-0.0855240809472695,-0.03543182669656887,-0.08151973287860285,-0.0855240809472695,-0.03543182669656887,-0.08151973287860285,1.05,1.0,20.384645931046066,0.5574630319157631,4.265187849437847,0.027501102760987148,0.01318569515568146,0.10921027186599234,20.8335398374126,0.11338896194450718,1.0,0.0,97.6024468073268,1.2447749861697581,1013.1147337489055,103.97367966654194,0.8417479698202025,10.807267616636432,1.0,1012.464878149273,0.0,1.0,104.66929725677056,6113.891363388641,1.0,1.0,4.942161933990409,16.212715799999234,-1.8393885310871076,-45.1679040142112,1.0,1012.5706899411192,0.0,1.0,-0.7426227083365632,10.148874036872384
1.08,102.0654524087548,0.27652858731189495,1013.3339027472548,104.76381550367812,1.0119006808319964,10.74222902043636,105.31797788698795,17.77740878190054,-0.3973848096301666,10.036315399261696,5.607001715608801,1.654244731961403,0.8109299853911267,6.3188507368619735,4.194153093661214,-4.998238307633108,6157.030656832801,0.31309021969229006,105.31797788698793,2.1273575988325795,1.1101873836393155,89729.29867516886,281.5633296321428,0.0,0.0,0.0,398.7394736842105,0.21400058214214498,0.85,nominal,15483.349150478407,nan,fixed_pitch,18.0,0.0,0.0,-4.925567498933903,-2.1405303974257968,-5.074902657919249,-4.915408053365845,-2.0963558905164197,-4.913236251142668,0.85,0.0,0.0,0.0,0.0,0.0,0.0,-0.08579005461027914,-0.0365883125830893,-0.08575214951078257,-0.08579005461027914,-0.0365883125830893,-0.08575214951078257,1.08,1.0,20.46708742629071,0.6265915743144153,4.340731652469848,0.028914348924731634,0.01971087012683923,0.11203537767663203,20.931704087225743,0.11737326708430601,1.0,0.0,97.6024468073268,1.2447749861697581,1013.1147337489055,103.97367966654194,0.8417479698202025,10.807267616636432,1.0,1013.884162958832,0.0,1.0,105.30773037409097,6128.431782893653,1.0,1.0,5.774955040753945,16.33913809048129,-2.063030304407144,-45.163816106421216,1.0,1013.2457349234999,0.0,1.0,-0.5417888607606279,10.34810945416759
1.1099999999999999,105.22562344305305,0.30916070034821996,1013.6543873221452,105.33903447660855,1.0877371012108348,10.682819163016035,105.88492801969116,17.770988764436275,-0.3786038538652555,10.011128018065978,5.800224134917497,1.747083074093951,0.7966109114267313,6.347980825675465,4.230961983569335,-5.1541358805675035,6223.302458705654,0.3147768185224882,105.88492801969116,2.1269955612283926,1.1101524273916614,89725.80954431389,281.56124648240603,0.0,0.0,0.0,398.7059210526316,0.21398257468824547,0.85,nominal,15546.362788300303,nan,fixed_pitch,18.0,0.0,0.0,-4.939023534807141,-2.206639693472396,-5.316656926593638,-4.9295773422306235,-2.1625261722900055,-5.15528865641325,0.85,0.0,0.0,0.0,0.0,0.0,0.0,-0.08603735535363569,-0.03774320186701076,-0.0899767609451259,-0.08603735535363569,-0.03774320186701076,-0.0899767609451259,1.1099999999999999,1.0,20.475422421003366,0.6462965821167399,4.390905973410083,0.029775773314498735,0.01132683559976966,0.10983677368781469,20.950911146246394,0.11436350263667534,1.0,0.0,97.6024468073268,1.2447749861697581,1013.1147337489055,103.97367966654194,0.8417479698202025,10.807267616636432,1.0,1013.884162958832,0.0,1.0,106.21228834867178,6238.009576570229,1.0,1.0,5.774955040753945,16.33913809048129,-2.063030304407144,-45.163816106421216,1.0,1013.2457349234999,0.0,1.0,-0.5417888607606279,10.34810945416759
1.14,108.40301044479384,0.3441492371552256,1013.9731534367592,105.91290005802601,1.1662845602335212,10.625537153798518,106.45094954101441,17.764569287195627,-0.3570281292631989,9.986484655003556,5.994398738907827,1.8429947746814228,0.7805091422385317,6.3793272815596715,4.266047055202646,-5.3101790285059725,6289.818232057227,0.3164606629535747,106.45094954101441,2.1266679116395015,1.1101176594170903,89722.33923139785,281.55917450266105,0.0,0.0,0.0,398.6723684210526,0.2139645672343459,0.85,nominal,15609.582154242391,nan,fixed_pitch,18.0,0.0,0.0,-4.951488265966127,-2.2727194402636117,-5.558191790845554,-4.942723896471926,-2.2286421330741693,-5.397030537072632,0.85,0.0,0.0,0.0,0.0,0.0,0.0,-0.08626680601043844,-0.03889714307081387,-0.09419595270259531,-0.08626680601043844,-0.03889714307081387,-0.09419595270259531,1.14,1.0,20.40294036236035,0.7193547688385943,4.519005776935511,0.031024438001659292,0.012800241571557394,0.11330698789076242,20.909779050134905,0.11817290485761281,1.0,0.0,97.6024468073268,1.2447749861697581,1013.1147337489055,103.97367966654194,0.8417479698202025,10.807267616636432,1.0,1013.5898830184559,0.0,1.0,105.74575134978284,6449.61594737773,1.0,1.0,3.5397644518755933,16.31553918344594,-2.2303628962593174,-45.06842528797112,1.0,1013.9559911042983,0.0,1.0,-0.95530932834138,10.285987450992218
1.17,111.59757252255415,0.38157584483666707,1014.290264588095,106.48540259201033,1.2475535893813816,10.570371711198348,107.01602736624922,17.758150350178596,-0.3325742275979599,9.962442187847397,6.189593232342756,1.9421142625837435,0.7628376971620251,6.4128516207854185,4.299471567085612,-5.46645308727873,6356.574405440679,0.31814170824367205,107.01602736624922,2.1263743467687233,1.1100830727767146,89718.88704341954,281.55711328017736,0.0,0.0,0.0,398.6388157894737,0.21394655978044638,0.85,nominal,15673.004679849742,nan,fixed_pitch,18.0,0.0,0.0,-4.962999971867745,-2.338805217828522,-5.79963844287062,-4.954889541709417,-2.2947399839267812,-5.638595280551425,0.85,0.0,0.0,0.0,0.0,0.0,0.0,-0.08647913657546223,-0.040050768196684086,-0.09841205283303575,-0.08647913657546223,-0.040050768196684086,-0.09841205283303575,1.17,1.0,20.377964559243438,0.6976460134538833,4.626504256683718,0.03555520022096575,0.010271899507467269,0.11397815399705306,20.90819674613242,0.11983615385525527,1.0,0.0,97.6024468073268,1.2447749861697581,1013.1147337489055,103.97367966654194,0.8417479698202025,10.807267616636432,1.0,1013.5898830184559,0.0,1.0,107.24838157805416,6379.159444901765,1.0,1.0,3.5397644518755933,16.31553918344594,-2.2303628962593174,-45.06842528797112,1.0,1013.9559911042983,0.0,1.0,-0.95530932834138,10.285987450992218
1.2,114.80926847535648,0.42152249983545975,1014.6057839631202,107.05653176007773,1.3315551666264236,10.517312500839632,107.58014637422009,17.751731953385182,-0.30515450500953456,9.93905245323835,6.385874084319081,2.0445799045935913,0.7437821102428452,6.448517322717504,4.3312907356078325,-5.623041959835596,6423.567367350604,0.3198199095459453,107.58014637422009,2.1261145586781596,1.1100486605661926,89715.45229084814,281.5550624042397,0.0,0.0,0.0,398.60526315789474,0.21392855232654684,0.85,nominal,15736.627758251241,nan,fixed_pitch,18.0,0.0,0.0,-4.973589795192524,-2.404931789782528,-6.041125219391901,-4.966109693799281,-2.3608550674402293,-5.88011324385571,0.85,0.0,0.0,0.0,0.0,0.0,0.0,-0.08667496517200488,-0.04120469408922478,-0.10262733649540638,-0.08667496517200488,-0.04120469408922478,-0.10262733649540638,1.2,1.0,20.31312172381192,0.7769564386866734,4.673215097102418,0.03459160510610917,0.011711721250096658,0.11341252660777089,20.85822415302421,0.11914757551043706,1.0,0.0,97.6024468073268,1.2447749861697581,1013.1147337489055,103.97367966654194,0.8417479698202025,10.807267616636432,1.0,1014.1950054533321,0.0,1.0,107.14968433308034,6415.240457751346,1.0,1.0,7.489031756361478,16.328707697945784,-2.419737449510701,-45.1058971406707,1.0,1014.901057171614,0.0,1.0,0.09684565205573009,10.221817598988423
1.23,118.03805677472626,0.4640715204668868,1014.9197744607384,107.62627664565925,1.4183006877142366,10.466349920604989,108.14329143367745,17.745314096815385,-0.274676958966435,9.916362976478094,6.583306570899817,2.1505342284006446,0.7235048693432552,6.486289421840309,4.3615525113739535,-5.780028197888909,6490.793469418203,0.3214952219871028,108.14329143367746,2.1258882267701504,1.1100144159133132,89712.034287382,281.5530214660052,0.0,0.0,0.0,398.57171052631577,0.21391054487264727,0.85,nominal,15800.448747270046,nan,fixed_pitch,18.0,0.0,0.0,-4.983282878229011,-2.47113318189688,-6.28277787218321,-4.976413604457119,-2.42702193611422,-6.121712020852211,0.85,0.0,0.0,0.0,0.0,0.0,0.0,-0.08685480233881548,-0.04235952380332061,-0.10684403062278684,-0.08685480233881548,-0.04235952380332061,-0.10684403062278684,1.23,1.0,20.263026206564284,0.7687953178369681,4.848663395141303,0.03720662106557192,0.012114075751727548,0.11367472159917276,20.849240130230697,0.1202207378661647,1.0,0.0,97.6024468073268,1.2447749861697581,1013.1147337489055,103.97367966654194,0.8417479698202025,10.807267616636432,1.0,1014.1950054533321,0.0,1.0,107.67971259925314,6489.679711406966,1.0,1.0,7.489031756361478,16.328707697945784,-2.419737449510701,-45.1058971406707,1.0,1014.901057171614,0.0,1.0,0.09684565205573009,10.221817598988423
1.26,121.28389554849655,0.5093055785848628,1015.2322987079376,108.19462579234309,1.507801937265865,10.417474906640479,108.70544742770558,17.738896780469204,-0.24104509954662626,9.894417518423731,6.781954807114026,2.2601241203481437,0.7021515597157068,6.526134176600364,4.390298151168089,-5.937493072188027,6558.249029471689,0.3231676007399765,108.70544742770556,2.1256950056041783,1.1099803319762305,89708.63234977178,281.5509900583984,0.0,0.0,0.0,398.5381578947368,0.21389253741874772,0.85,nominal,15864.464972353026,nan,fixed_pitch,18.0,0.0,0.0,-4.992100197383134,-2.53744273038798,-6.524719787568291,-4.985825560212727,-2.493274412678476,-6.363516680881859,0.85,0.0,0.0,0.0,0.0,0.0,0.0,-0.08701907195580288,-0.043515847656967255,-0.11106431808696973,-0.08701907195580288,-0.043515847656967255,-0.11106431808696973,1.26,1.0,20.28828326802695,0.8142993748730682,4.865183266623961,0.03884078489474238,0.011889502491712424,0.11232282974569692,20.87935654308961,0.11944197303636984,1.0,0.0,120.18101212559662,0.12181850418811724,1014.9772156676744,108.25712587868641,1.6943763546258206,10.300296113729583,1.0,1015.9684665187393,0.0,1.0,109.2613381463269,6550.004746230104,1.0,1.0,5.566776823804536,16.351077393018745,-2.5669137608702446,-45.06280252480594,1.0,1014.8140291332901,0.0,1.0,-0.6707344218608491,10.407859123644092
1.29,124.5467425662698,0.5573077103785334,1015.5434190703905,108.76156725910833,1.600071059789021,10.370678748431828,109.26659927789962,17.73248000434664,-0.20415781562893168,9.873256588172726,6.981881771234369,2.3735010082825827,0.6798520532564233,6.5680188102058565,4.417562741020058,-6.095516633536719,6625.93033466545,0.32483700109539915,109.26659927789963,2.1255345153175247,1.1099464019422922,89705.24579770345,281.54896777604245,0.0,0.0,0.0,398.5046052631579,0.2138745299648482,0.85,nominal,15928.673729505192,nan,fixed_pitch,18.0,0.0,0.0,-5.000058682030275,-2.6038931120150957,-6.76707216525202,-4.9943654333032566,-2.5596456322804477,-6.605649971503956,0.85,0.0,0.0,0.0,0.0,0.0,0.0,-0.08716812085893508,-0.04467424396758587,-0.11529034123701364,-0.08716812085893508,-0.04467424396758587,-0.11529034123701364,1.29,1.0,20.213314126770616,0.817326433797535,4.966944493264461,0.03849219895235398,0.00788647455719737,0.11692026292282795,20.830665569925003,0.12334582985683844,1.0,0.0,120.18101212559662,0.12181850418811724,1014.9772156676744,108.25712587868641,1.6943763546258206,10.300296113729583,1.0,1015.9684665187393,0.0,1.0,109.73077266893065,6546.207968627908,1.0,1.0,5.566776823804536,16.351077393018745,-2.5669137608702446,-45.06280252480594,1.0,1014.8140291332901,0.0,1.0,-0.6707344218608491,10.407859123644092
