time_s,sensor_time_s,imu_valid,imu_ax_mps2,imu_ay_mps2,imu_az_mps2,gyro_p_rps,gyro_q_rps,gyro_r_rps,imu_accel_norm_mps2,imu_gyro_norm_rps,gps_valid,gps_latency_s,gps_x_m,gps_y_m,gps_z_m,gps_vx_mps,gps_vy_mps,gps_vz_mps,baro_valid,baro_alt_m,baro_bias_m,pitot_valid,pitot_airspeed_mps,pitot_qbar_pa,pitot_compressibility_factor,mag_valid,mag_heading_deg,mag_x_ut,mag_y_ut,mag_z_ut,radar_valid,radar_agl_m,optical_flow_valid,horizon_valid,horizon_roll_deg,horizon_pitch_deg
0.0,0.0,1.0,17.007343798494418,-0.2892272845464373,-0.6380093276952116,0.001565738031183101,-0.0036571952164712266,-0.0013815102141609857,17.021764050900796,0.004211316053860633,1.0,0.0,-0.806223771082661,-3.036116460697097,998.193930698617,83.98374976179954,0.17024808068988678,14.758299894501135,1.0,999.9769622121428,0.0,1.0,85.36896211336294,4098.066982106759,1.0,1.0,0.4914089296374223,17.192599608587877,-0.01757678299780929,-44.78148816809228,1.0,999.9011865279573,0.0,1.0,-0.26702259647059245,9.19094030623817
0.03,0.03,1.0,17.359588490629932,-0.23065233389536283,-0.3695736511445488,-0.0030523316384910115,-0.07443396576854167,0.011062999514282192,17.365053922944288,0.07531349113350658,1.0,0.0,-0.806223771082661,-3.036116460697097,998.193930698617,83.98374976179954,0.17024808068988678,14.758299894501135,1.0,999.9769622121428,0.0,1.0,86.11426890842634,4060.059405079099,1.0,1.0,0.4914089296374223,17.192599608587877,-0.01757678299780929,-44.78148816809228,1.0,999.9011865279573,0.0,1.0,-0.26702259647059245,9.19094030623817
0.06,0.06,1.0,17.68834454033151,-0.2436762798220655,-0.022170502022500444,0.0019102861751529115,-0.1632420371439682,0.02048484463807531,17.690036807140437,0.16453340312541329,1.0,0.0,-0.806223771082661,-3.036116460697097,998.193930698617,83.98374976179954,0.17024808068988678,14.758299894501135,1.0,1001.5364589944282,0.0,1.0,85.96125649219006,4066.9949500688294,1.0,1.0,2.1599326913970462,16.83973939673803,0.033482551447482085,-44.898974470253236,1.0,1001.1141530568243,0.0,1.0,0.018561310337777658,9.43040791553686
0.09,0.09,1.0,17.88909630823426,-0.3100719966849581,0.33989871117016557,-0.0005577608303369641,-0.16068645251693767,0.030477726783070595,17.895011665329086,0.16355225143508548,1.0,0.0,-0.806223771082661,-3.036116460697097,998.193930698617,83.98374976179954,0.17024808068988678,14.758299894501135,1.0,1001.5364589944282,0.0,1.0,87.1389376564449,4141.760938926554,1.0,1.0,2.1599326913970462,16.83973939673803,0.033482551447482085,-44.898974470253236,1.0,1001.1141530568243,0.0,1.0,0.018561310337777658,9.43040791553686
0.12,0.12,1.0,18.250475315868975,-0.22192906314128846,0.577360576080675,0.00039982406119275335,-0.1095599253468142,0.04173430239196087,18.2609541645288,0.11724030491867138,1.0,0.0,-0.806223771082661,-3.036116460697097,998.193930698617,83.98374976179954,0.17024808068988678,14.758299894501135,1.0,1001.2150058633213,0.0,1.0,86.86282728185218,4233.959774127017,1.0,1.0,-1.5985416252997058,16.50016100177457,-0.07170370114462464,-45.09784589743625,1.0,1001.8050811857751,0.0,1.0,-0.16702994873905536,9.796886057993524
0.15,0.15,1.0,18.486203215015077,-0.11395648852726963,0.7517754730804426,-0.0004902507477238917,-0.06680034727639458,0.048755215844482634,18.501834010444384,0.08270186100738394,1.0,0.0,-0.806223771082661,-3.036116460697097,998.193930698617,83.98374976179954,0.17024808068988678,14.758299894501135,1.0,1001.2150058633213,0.0,1.0,87.12168466809884,4364.913349428899,1.0,1.0,-1.5985416252997058,16.50016100177457,-0.07170370114462464,-45.09784589743625,1.0,1001.8050811857751,0.0,1.0,-0.16702994873905536,9.796886057993524
0.18,0.18,1.0,18.812631882119067,-0.10975512777427206,0.8627474731848777,0.001899975598321893,-0.0584516788835218,0.05891598783107935,18.832724118477454,0.08301386808051084,1.0,0.0,-0.806223771082661,-3.036116460697097,998.193930698617,83.98374976179954,0.17024808068988678,14.758299894501135,1.0,1003.809302407685,0.0,1.0,89.28649864419992,4371.776071489741,1.0,1.0,0.7557975956581994,16.302213065889823,-0.11686595737375588,-45.13275185937805,1.0,1002.7173357321835,0.0,1.0,-0.4199810760528356,9.656235442281568
0.21,0.21,1.0,19.046152543330518,-0.10865254535575437,1.1049990095830413,-5.860391340065899e-05,-0.053545486830658635,0.062381942952638034,19.07848932412122,0.0822108837131501,1.0,0.0,17.673016084261008,-0.5961172760018516,1002.7705192178205,87.58818634855034,0.16366042281177576,13.31549042216784,1.0,1003.809302407685,0.0,1.0,89.08296305970728,4369.013559127217,1.0,1.0,0.7557975956581994,16.302213065889823,-0.11686595737375588,-45.13275185937805,1.0,1002.7173357321835,0.0,1.0,-0.4199810760528356,9.656235442281568
0.24,0.24,1.0,19.38909325905042,-0.1263401888174328,1.286192241414381,-0.0011114120929586661,-0.04914495580662197,0.06794859630916615,19.43211747940351,0.0838658074453542,1.0,0.0,17.673016084261008,-0.5961172760018516,1002.7705192178205,87.58818634855034,0.16366042281177576,13.31549042216784,1.0,1003.5395191494813,0.0,1.0,89.91934045676194,4465.94373968827,1.0,1.0,-0.07546922021414325,16.19151860436154,-0.11961833054918257,-45.116421013929184,1.0,1003.1312681539592,0.0,1.0,0.05043771892487832,9.537253131746622
0.27,0.27,1.0,19.66386639913718,-0.05629564009465838,1.3863193881619438,-0.0009726735669745564,-0.038561069743656994,0.07234529176789414,19.712754561658898,0.08198623930041432,1.0,0.0,17.673016084261008,-0.5961172760018516,1002.7705192178205,87.58818634855034,0.16366042281177576,13.31549042216784,1.0,1003.5395191494813,0.0,1.0,89.7919092933611,4493.568860446973,1.0,1.0,-0.07546922021414325,16.19151860436154,-0.11961833054918257,-45.116421013929184,1.0,1003.1312681539592,0.0,1.0,0.05043771892487832,9.537253131746622
0.3,0.3,1.0,19.95375884871397,-0.07543213742787974,1.6599464160669477,0.0009818977150228502,-0.029036738791735885,0.08112606271800774,20.022827080714688,0.08617154039999744,1.0,0.0,17.673016084261008,-0.5961172760018516,1002.7705192178205,87.58818634855034,0.16366042281177576,13.31549042216784,1.0,1003.9949147625036,0.0,1.0,90.34085040775598,4489.343416280459,1.0,1.0,0.9662984920928592,16.000781861782944,-0.23538853787968386,-45.18152727631741,1.0,1004.2214864403153,0.0,1.0,-0.13530781281407944,10.103750363718904
0.32999999999999996,0.32999999999999996,1.0,20.306487885305465,-0.028718596950487445,1.7491968767887598,0.001954876799633763,-0.01944100391809419,0.08727821628336799,20.381706619114013,0.08943858906675273,1.0,0.0,17.673016084261008,-0.5961172760018516,1002.7705192178205,87.58818634855034,0.16366042281177576,13.31549042216784,1.0,1003.9949147625036,0.0,1.0,90.57906983868742,4642.589463203622,1.0,1.0,0.9662984920928592,16.000781861782944,-0.23538853787968386,-45.18152727631741,1.0,1004.2214864403153,0.0,1.0,-0.13530781281407944,10.103750363718904
0.36,0.36,1.0,20.589580639946984,0.042686815968388046,1.924450928982817,0.001654128576876759,-0.016140303024820706,0.08728670854887803,20.67936566897544,0.08878183942889814,1.0,0.0,17.673016084261008,-0.5961172760018516,1002.7705192178205,87.58818634855034,0.16366042281177576,13.31549042216784,1.0,1005.8753477261074,0.0,1.0,91.41154887252773,4607.5354586845315,1.0,1.0,-0.23035923464949848,16.06409304401354,-0.3082451892590495,-45.281498018903925,1.0,1005.0033392443852,0.0,1.0,-0.6321265327741044,10.500186751343806
0.39,0.39,1.0,20.93959505474849,0.0030619066294143727,2.0216744833538685,0.005091322432511834,-0.011694985091042321,0.09275112118880008,21.036963139882232,0.09362406059433108,1.0,0.0,17.673016084261008,-0.5961172760018516,1002.7705192178205,87.58818634855034,0.16366042281177576,13.31549042216784,1.0,1005.8753477261074,0.0,1.0,92.29222143084866,4758.152753717119,1.0,1.0,-0.23035923464949848,16.06409304401354,-0.3082451892590495,-45.281498018903925,1.0,1005.0033392443852,0.0,1.0,-0.6321265327741044,10.500186751343806
0.42,0.42,1.0,20.943386413967264,-0.025222335173315888,2.1584785302413745,0.001618901137447322,-0.00616972663526026,0.0960841964372102,21.054336850550605,0.09629568615795343,1.0,0.0,34.718858656250674,-0.6251269865036221,1003.2063251395767,91.84728471010669,0.20724593688453208,12.525896476649642,1.0,1005.1190419535832,0.0,1.0,92.13958164476095,4783.77276223731,1.0,1.0,1.6237941316777276,15.997122935139389,-0.4245332587910311,-45.247482629908276,1.0,1005.8493314745856,0.0,1.0,0.06393195460647698,10.223245679568542
0.44999999999999996,0.44999999999999996,1.0,20.9710777799738,0.09931922784694916,2.2505755977872948,0.001655990811616125,-0.002161932367299417,0.10278542351134316,21.09172961338369,0.10282149358735804,1.0,0.0,34.718858656250674,-0.6251269865036221,1003.2063251395767,91.84728471010669,0.20724593688453208,12.525896476649642,1.0,1005.1190419535832,0.0,1.0,93.5364088805964,4805.94429401392,1.0,1.0,1.6237941316777276,15.997122935139389,-0.4245332587910311,-45.247482629908276,1.0,1005.8493314745856,0.0,1.0,0.06393195460647698,10.223245679568542
0.48,0.48,1.0,20.829661731753383,0.1353378113979862,2.443530241017484,0.007336808931575439,-0.0016336106106833738,0.10444433966473189,20.972934087085484,0.10471445715338294,1.0,0.0,34.718858656250674,-0.6251269865036221,1003.2063251395767,91.84728471010669,0.20724593688453208,12.525896476649642,1.0,1006.3023356248203,0.0,1.0,93.51724863080646,4873.0581957943095,1.0,1.0,2.3505818462411905,16.001571635843515,-0.6215147508928757,-45.2779093745518,1.0,1006.4051027445737,0.0,1.0,0.1331389213863398,10.547620120696727
0.51,0.51,1.0,20.870527305493304,0.09367629689119629,2.5204745905206054,0.008118599548498138,0.007557824377581467,0.10532330571763715,21.02238039374706,0.1059057651652737,1.0,0.0,34.718858656250674,-0.6251269865036221,1003.2063251395767,91.84728471010669,0.20724593688453208,12.525896476649642,1.0,1006.3023356248203,0.0,1.0,94.32397135785892,4939.680122119107,1.0,1.0,2.3505818462411905,16.001571635843515,-0.6215147508928757,-45.2779093745518,1.0,1006.4051027445737,0.0,1.0,0.1331389213863398,10.547620120696727
0.54,0.54,1.0,20.797322400751753,0.12249520688647406,2.6309185941189233,0.008227662483076797,0.004243690087060501,0.10698617962656734,20.963429031658958,0.10738596727030296,1.0,0.0,34.718858656250674,-0.6251269865036221,1003.2063251395767,91.84728471010669,0.20724593688453208,12.525896476649642,1.0,1006.6630862344466,0.0,1.0,94.78369634038732,5030.83406792392,1.0,1.0,1.7782841999968402,16.031299986713,-0.6989967494622515,-45.188789197343965,1.0,1007.1666643448774,0.0,1.0,-0.535876376895269,10.522034173995513
0.57,0.57,1.0,20.75304833165867,0.16084156903304045,2.7535505764809676,0.010836399450309578,0.008183405332294225,0.10534840084209562,20.93554216741779,0.10621996627690174,1.0,0.0,34.718858656250674,-0.6251269865036221,1003.2063251395767,91.84728471010669,0.20724593688453208,12.525896476649642,1.0,1006.6630862344466,0.0,1.0,95.16877027754101,5099.772166182493,1.0,1.0,1.7782841999968402,16.031299986713,-0.6989967494622515,-45.188789197343965,1.0,1007.1666643448774,0.0,1.0,-0.535876376895269,10.522034173995513
0.6,0.6,1.0,20.837193239144067,0.19627470317116083,2.8567077361620843,0.004013733168572257,0.008542886448077283,0.10920480020183665,21.033019871962857,0.10961194893777002,1.0,0.0,34.718858656250674,-0.6251269865036221,1003.2063251395767,91.84728471010669,0.20724593688453208,12.525896476649642,1.0,1007.863940777514,0.0,1.0,95.93468411004648,5284.138664946135,1.0,1.0,3.6100586304043643,16.03992637519487,-0.7773564842213623,-45.228992401717974,1.0,1007.7147928502061,0.0,1.0,-0.8641143204773221,10.397709147163162
0.63,0.63,1.0,20.686309954858178,0.28064682573726474,2.941379105799701,0.009269259729279824,0.010248628172380933,0.1054812926516834,20.896265054628685,0.10638259563864123,1.0,0.0,54.580625276384836,-2.2145160595889113,1009.6673276542292,95.8826573104307,0.17979097275421843,11.843857908936862,1.0,1007.863940777514,0.0,1.0,97.15312799857705,5236.743777805113,1.0,1.0,3.6100586304043643,16.03992637519487,-0.7773564842213623,-45.228992401717974,1.0,1007.7147928502061,0.0,1.0,-0.8641143204773221,10.397709147163162
0.6599999999999999,0.6599999999999999,1.0,20.76120731997695,0.28824100947432973,3.1096399906760808,0.010404594564871441,0.009947144554364715,0.1066135450401968,20.994777282319983,0.10758089634727372,1.0,0.0,54.580625276384836,-2.2145160595889113,1009.6673276542292,95.8826573104307,0.17979097275421843,11.843857908936862,1.0,1008.5702542395732,0.0,1.0,97.13506983963516,5238.4917444273615,1.0,1.0,0.6518233604854848,16.01432625672951,-0.9595330139799577,-45.17441683535004,1.0,1008.864405890457,0.0,1.0,-0.5851329898269424,10.291063637141907
0.69,0.69,1.0,20.705133787348114,0.2362458484413936,3.166461271557828,0.009897134771293994,0.010947793687076678,0.1131861119072836,20.947192037052744,0.11414422189486456,1.0,0.0,54.580625276384836,-2.2145160595889113,1009.6673276542292,95.8826573104307,0.17979097275421843,11.843857908936862,1.0,1008.5702542395732,0.0,1.0,97.90813037203296,5378.12113507428,1.0,1.0,0.6518233604854848,16.01432625672951,-0.9595330139799577,-45.17441683535004,1.0,1008.864405890457,0.0,1.0,-0.5851329898269424,10.291063637141907
0.72,0.72,1.0,20.735204520899998,0.3739242338754665,3.266088264582013,0.013007753296572675,0.01142873980270941,0.11062923712942623,20.994186300218246,0.1119760949807652,1.0,0.0,54.580625276384836,-2.2145160595889113,1009.6673276542292,95.8826573104307,0.17979097275421843,11.843857908936862,1.0,1009.7391144541784,0.0,1.0,98.38677815926869,5309.357091035579,1.0,1.0,4.850370486011977,16.07625219832794,-1.0618965957620925,-45.2080238961144,1.0,1009.2721371993413,0.0,1.0,-0.286585802041765,10.251187239202078
0.75,0.75,1.0,20.676214151977387,0.23456540455802588,3.3689458820654563,0.014797617595808233,0.011181618677313336,0.10648583438861098,20.950194484627854,0.10808899577753187,1.0,0.0,54.580625276384836,-2.2145160595889113,1009.6673276542292,95.8826573104307,0.17979097275421843,11.843857908936862,1.0,1009.7391144541784,0.0,1.0,99.24845075956375,5369.669888269766,1.0,1.0,4.850370486011977,16.07625219832794,-1.0618965957620925,-45.2080238961144,1.0,1009.2721371993413,0.0,1.0,-0.286585802041765,10.251187239202078
0.78,0.78,1.0,20.644373913579837,0.34518375922640493,3.4460944033570073,0.01943303282168867,0.015153598441063315,0.1077891074294385,20.932866329009457,0.11057018581334147,1.0,0.0,54.580625276384836,-2.2145160595889113,1009.6673276542292,95.8826573104307,0.17979097275421843,11.843857908936862,1.0,1010.68285299481,0.0,1.0,100.06457495866232,5620.212622227998,1.0,1.0,4.415552158691918,16.05640622539651,-1.2037234793647558,-45.213229653221,1.0,1010.0043826127521,0.0,1.0,-0.8472827509961918,9.688859239547773
0.8099999999999999,0.8099999999999999,1.0,20.597832429876348,0.3641398655319018,3.4905862848517595,0.018583637023256192,0.012144131963362096,0.11012702203136608,20.894676146399842,0.11234230052679481,1.0,0.0,54.580625276384836,-2.2145160595889113,1009.6673276542292,95.8826573104307,0.17979097275421843,11.843857908936862,1.0,1010.68285299481,0.0,1.0,100.5234519067879,5582.407859629145,1.0,1.0,4.415552158691918,16.05640622539651,-1.2037234793647558,-45.213229653221,1.0,1010.0043826127521,0.0,1.0,-0.8472827509961918,9.688859239547773
0.84,0.84,1.0,20.640157488613465,0.4219507224433551,3.6571027651407917,0.021521097799455876,0.014581735453766884,0.10666490951520965,20.965890016923616,0.10978701007507788,1.0,0.0,76.41531214938627,-2.1791122346308214,1010.931899171568,100.40319900279408,0.23431352435369873,11.493735467928005,1.0,1011.2025607566742,0.0,1.0,100.9587643922696,5672.635020927511,1.0,1.0,4.715066386699744,16.1418728383661,-1.325159918615798,-45.11984509583484,1.0,1010.4740747469922,0.0,1.0,-0.06220804710882752,10.434692006008174
0.87,0.87,1.0,20.50594881459876,0.42007839754687115,3.669752191889331,0.02043216628360518,0.01817544262076404,0.10815608754756058,20.835966111435926,0.1115596674748413,1.0,0.0,76.41531214938627,-2.1791122346308214,1010.931899171568,100.40319900279408,0.23431352435369873,11.493735467928005,1.0,1011.2025607566742,0.0,1.0,101.19618104859518,5695.334093574866,1.0,1.0,4.715066386699744,16.1418728383661,-1.325159918615798,-45.11984509583484,1.0,1010.4740747469922,0.0,1.0,-0.06220804710882752,10.434692006008174
0.8999999999999999,0.8999999999999999,1.0,20.491312120684213,0.3133750165190331,3.777981836879243,0.021562185059653675,0.018634914710130214,0.11073312092760783,20.839031241592483,0.11434164569905753,1.0,0.0,76.41531214938627,-2.1791122346308214,1010.931899171568,100.40319900279408,0.23431352435369873,11.493735467928005,1.0,1010.8183434963516,0.0,1.0,102.77365073493796,5832.901214545911,1.0,1.0,5.84998895276833,16.187959604164757,-1.504471876555366,-45.08509549925024,1.0,1011.5548881204351,0.0,1.0,-1.215243041939337,9.946362389957073
0.9299999999999999,0.9299999999999999,1.0,20.51247362876123,0.4823569858795037,3.8727524332951604,0.020987288107332698,0.01735516829820328,0.10555371681359547,20.880432324117365,0.10901034474729385,1.0,0.0,76.41531214938627,-2.1791122346308214,1010.931899171568,100.40319900279408,0.23431352435369873,11.493735467928005,1.0,1010.8183434963516,0.0,1.0,102.12835383666221,5914.417918657485,1.0,1.0,5.84998895276833,16.187959604164757,-1.504471876555366,-45.08509549925024,1.0,1011.5548881204351,0.0,1.0,-1.215243041939337,9.946362389957073
0.96,0.96,1.0,20.43529272141636,0.5203835950670379,3.982116143300409,0.0224905623717231,0.018997826316822983,0.10378238806897858,20.826167114347303,0.10787736960948113,1.0,0.0,76.41531214938627,-2.1791122346308214,1010.931899171568,100.40319900279408,0.23431352435369873,11.493735467928005,1.0,1012.2373153397925,0.0,1.0,103.25006269794106,5861.646145178496,1.0,1.0,3.6991411821471725,16.272902036938266,-1.7180844323536406,-45.07401751773539,1.0,1012.170582061726,0.0,1.0,0.03475016579262823,10.274159373686427
0.99,0.99,1.0,20.46002661070591,0.6449596553978855,4.121337787608873,0.02348045091032496,0.01413656262590792,0.10965665718514175,20.880950338225933,0.11302989181118461,1.0,0.0,76.41531214938627,-2.1791122346308214,1010.931899171568,100.40319900279408,0.23431352435369873,11.493735467928005,1.0,1012.2373153397925,0.0,1.0,103.16267221906922,5983.906204890382,1.0,1.0,3.6991411821471725,16.272902036938266,-1.7180844323536406,-45.07401751773539,1.0,1012.170582061726,0.0,1.0,0.03475016579262823,10.274159373686427
1.02,1.02,1.0,20.410018336511364,0.4950671475887968,4.173045626635635,0.025591881459550343,0.011508342238897303,0.10904031118596834,20.838144105925906,0.11259296514995987,1.0,0.0,76.41531214938627,-2.1791122346308214,1010.931899171568,100.40319900279408,0.23431352435369873,11.493735467928005,1.0,1012.464878149273,0.0,1.0,104.17174038972456,6067.9745884517415,1.0,1.0,4.942161933990409,16.212715799999234,-1.8393885310871076,-45.1679040142112,1.0,1012.5706899411192,0.0,1.0,-0.7426227083365632,10.148874036872384
1.05,1.05,1.0,20.384645931046066,0.5574630319157631,4.265187849437847,0.027501102760987148,0.01318569515568146,0.10921027186599234,20.8335398374126,0.11338896194450718,1.0,0.0,97.6024468073268,1.2447749861697581,1013.1147337489055,103.97367966654194,0.8417479698202025,10.807267616636432,1.0,1012.464878149273,0.0,1.0,104.66929725677056,6113.891363388641,1.0,1.0,4.942161933990409,16.212715799999234,-1.8393885310871076,-45.1679040142112,1.0,1012.5706899411192,0.0,1.0,-0.7426227083365632,10.148874036872384
1.08,1.08,1.0,20.46708742629071,0.6265915743144153,4.340731652469848,0.028914348924731634,0.01971087012683923,0.11203537767663203,20.931704087225743,0.11737326708430601,1.0,0.0,97.6024468073268,1.2447749861697581,1013.1147337489055,103.97367966654194,0.8417479698202025,10.807267616636432,1.0,1013.884162958832,0.0,1.0,105.30773037409097,6128.431782893653,1.0,1.0,5.774955040753945,16.33913809048129,-2.063030304407144,-45.163816106421216,1.0,1013.2457349234999,0.0,1.0,-0.5417888607606279,10.34810945416759
1.1099999999999999,1.1099999999999999,1.0,20.475422421003366,0.6462965821167399,4.390905973410083,0.029775773314498735,0.01132683559976966,0.10983677368781469,20.950911146246394,0.11436350263667534,1.0,0.0,97.6024468073268,1.2447749861697581,1013.1147337489055,103.97367966654194,0.8417479698202025,10.807267616636432,1.0,1013.884162958832,0.0,1.0,106.21228834867178,6238.009576570229,1.0,1.0,5.774955040753945,16.33913809048129,-2.063030304407144,-45.163816106421216,1.0,1013.2457349234999,0.0,1.0,-0.5417888607606279,10.34810945416759
1.14,1.14,1.0,20.40294036236035,0.7193547688385943,4.519005776935511,0.031024438001659292,0.012800241571557394,0.11330698789076242,20.909779050134905,0.11817290485761281,1.0,0.0,97.6024468073268,1.2447749861697581,1013.1147337489055,103.97367966654194,0.8417479698202025,10.807267616636432,1.0,1013.5898830184559,0.0,1.0,105.74575134978284,6449.61594737773,1.0,1.0,3.5397644518755933,16.31553918344594,-2.2303628962593174,-45.06842528797112,1.0,1013.9559911042983,0.0,1.0,-0.95530932834138,10.285987450992218
1.17,1.17,1.0,20.377964559243438,0.6976460134538833,4.626504256683718,0.03555520022096575,0.010271899507467269,0.11397815399705306,20.90819674613242,0.11983615385525527,1.0,0.0,97.6024468073268,1.2447749861697581,1013.1147337489055,103.97367966654194,0.8417479698202025,10.807267616636432,1.0,1013.5898830184559,0.0,1.0,107.24838157805416,6379.159444901765,1.0,1.0,3.5397644518755933,16.31553918344594,-2.2303628962593174,-45.06842528797112,1.0,1013.9559911042983,0.0,1.0,-0.95530932834138,10.285987450992218
1.2,1.2,1.0,20.31312172381192,0.7769564386866734,4.673215097102418,0.03459160510610917,0.011711721250096658,0.11341252660777089,20.85822415302421,0.11914757551043706,1.0,0.0,97.6024468073268,1.2447749861697581,1013.1147337489055,103.97367966654194,0.8417479698202025,10.807267616636432,1.0,1014.1950054533321,0.0,1.0,107.14968433308034,6415.240457751346,1.0,1.0,7.489031756361478,16.328707697945784,-2.419737449510701,-45.1058971406707,1.0,1014.901057171614,0.0,1.0,0.09684565205573009,10.221817598988423
1.23,1.23,1.0,20.263026206564284,0.7687953178369681,4.848663395141303,0.03720662106557192,0.012114075751727548,0.11367472159917276,20.849240130230697,0.1202207378661647,1.0,0.0,97.6024468073268,1.2447749861697581,1013.1147337489055,103.97367966654194,0.8417479698202025,10.807267616636432,1.0,1014.1950054533321,0.0,1.0,107.67971259925314,6489.679711406966,1.0,1.0,7.489031756361478,16.328707697945784,-2.419737449510701,-45.1058971406707,1.0,1014.901057171614,0.0,1.0,0.09684565205573009,10.221817598988423
1.26,1.26,1.0,20.28828326802695,0.8142993748730682,4.865183266623961,0.03884078489474238,0.011889502491712424,0.11232282974569692,20.87935654308961,0.11944197303636984,1.0,0.0,120.18101212559662,0.12181850418811724,1014.9772156676744,108.25712587868641,1.6943763546258206,10.300296113729583,1.0,1015.9684665187393,0.0,1.0,109.2613381463269,6550.004746230104,1.0,1.0,5.566776823804536,16.351077393018745,-2.5669137608702446,-45.06280252480594,1.0,1014.8140291332901,0.0,1.0,-0.6707344218608491,10.407859123644092
1.29,1.29,1.0,20.213314126770616,0.817326433797535,4.966944493264461,0.03849219895235398,0.00788647455719737,0.11692026292282795,20.830665569925003,0.12334582985683844,1.0,0.0,120.18101212559662,0.12181850418811724,1014.9772156676744,108.25712587868641,1.6943763546258206,10.300296113729583,1.0,1015.9684665187393,0.0,1.0,109.73077266893065,6546.207968627908,1.0,1.0,5.566776823804536,16.351077393018745,-2.5669137608702446,-45.06280252480594,1.0,1014.8140291332901,0.0,1.0,-0.6707344218608491,10.407859123644092
1.3199999999999998,1.3199999999999998,1.0,20.268168067156907,0.8055938386725094,5.055720887246423,0.044550064767326925,0.012114611001849638,0.11478240326936606,20.904734677129145,0.12371932820214687,1.0,0.0,120.18101212559662,0.12181850418811724,1014.9772156676744,108.25712587868641,1.6943763546258206,10.300296113729583,1.0,1015.3813648937632,0.0,1.0,109.92118959553393,6700.450786779792,1.0,1.0,8.043618200882397,16.363107132780264,-2.8790977674217895,-45.040637275277504,1.0,1015.8998186741167,0.0,1.0,-0.28675263108534804,9.936215852574446
1.3499999999999999,1.3499999999999999,1.0,20.205816023412858,0.9317257626814608,5.091751238443931,0.04610609569013317,0.013198765366775446,0.11588124053187347,20.858308769961372,0.1254130829467198,1.0,0.0,120.18101212559662,0.12181850418811724,1014.9772156676744,108.25712587868641,1.6943763546258206,10.300296113729583,1.0,1015.3813648937632,0.0,1.0,109.99820781403112,6859.791609375251,1.0,1.0,8.043618200882397,16.363107132780264,-2.8790977674217895,-45.040637275277504,1.0,1015.8998186741167,0.0,1.0,-0.28675263108534804,9.936215852574446
1.38,1.38,1.0,20.205076674654553,0.8883774451735837,5.186108481287719,0.050187502980761974,0.011412666320656885,0.11804273997736811,20.878938169683032,0.1287754746423215,1.0,0.0,120.18101212559662,0.12181850418811724,1014.9772156676744,108.25712587868641,1.6943763546258206,10.300296113729583,1.0,1015.8803725782021,0.0,1.0,111.40954273412116,6871.944617263316,1.0,1.0,7.1963211725565595,16.410428385927972,-3.044130191362997,-45.06642019605882,1.0,1016.6945333363816,0.0,1.0,0.9211153287131448,10.227244673094816
1.41,1.41,1.0,20.12127000761232,0.9572539225584417,5.226150072186602,0.05104884603076561,0.010053972839046526,0.11576971072563778,20.810922285389196,0.12692396531947364,1.0,0.0,120.18101212559662,0.12181850418811724,1014.9772156676744,108.25712587868641,1.6943763546258206,10.300296113729583,1.0,1015.8803725782021,0.0,1.0,111.80102372264572,7006.656435910517,1.0,1.0,7.1963211725565595,16.410428385927972,-3.044130191362997,-45.06642019605882,1.0,1016.6945333363816,0.0,1.0,0.9211153287131448,10.227244673094816
1.44,1.44,1.0,20.190712463653362,0.9778375211793793,5.334240997642264,0.05014005882454249,0.006487057158304738,0.11806726173403133,20.906342650704858,0.12843669920577977,1.0,0.0,120.18101212559662,0.12181850418811724,1014.9772156676744,108.25712587868641,1.6943763546258206,10.300296113729583,1.0,1016.1656402660196,0.0,1.0,111.53777795806296,6893.221029129417,1.0,1.0,7.066697422591711,16.34109356022964,-3.4152968417707403,-45.0151171870543,1.0,1017.0469908061995,0.0,1.0,-0.3921814799631878,10.099318673589094
1.47,1.47,1.0,20.054688640710758,1.0705195495854232,5.318873896902486,0.05779678194028399,0.010661010534601528,0.11906754122041983,20.775634000266955,0.13278254599362072,1.0,0.0,143.98442724691085,-0.42879799443272304,1016.9359081609534,112.12564731529206,2.1120088620797484,10.479031344571897,1.0,1016.1656402660196,0.0,1.0,112.03042764604332,7125.8044841798155,1.0,1.0,7.066697422591711,16.34109356022964,-3.4152968417707403,-45.0151171870543,1.0,1017.0469908061995,0.0,1.0,-0.3921814799631878,10.099318673589094
1.5,1.5,1.0,20.086559317112968,1.0657668947695453,5.5144906765355985,0.05953200989517386,0.006224155478036775,0.12075717747783178,20.857021160642343,0.13477795155731673,1.0,0.0,143.98442724691085,-0.42879799443272304,1016.9359081609534,112.12564731529206,2.1120088620797484,10.479031344571897,1.0,1016.8143683725,0.0,1.0,113.72206621137558,7081.595611915477,1.0,1.0,9.548156993131407,16.357749969216748,-3.6696548627081063,-45.02746431433356,1.0,1017.551155556632,0.0,1.0,-0.018871335011764023,10.088156693825606
1.53,1.53,1.0,20.05836431203557,1.1562225252678964,5.553220113788555,0.05840178454512416,0.010346400667615573,0.123657429002444,20.844977405467844,0.13714582090725339,1.0,0.0,143.98442724691085,-0.42879799443272304,1016.9359081609534,112.12564731529206,2.1120088620797484,10.479031344571897,1.0,1016.8143683725,0.0,1.0,113.65551059155487,7237.066983161471,1.0,1.0,9.548156993131407,16.357749969216748,-3.6696548627081063,-45.02746431433356,1.0,1017.551155556632,0.0,1.0,-0.018871335011764023,10.088156693825606
1.56,1.56,1.0,20.024692126989464,1.1733835892686049,5.556621365120146,0.066497227065407,0.009763666267472368,0.12413769635322802,20.81444606093538,0.14116436534145974,1.0,0.0,143.98442724691085,-0.42879799443272304,1016.9359081609534,112.12564731529206,2.1120088620797484,10.479031344571897,1.0,1019.4764303427417,0.0,1.0,114.47129242785837,7269.20606137656,1.0,1.0,10.298052586418741,16.310374017347606,-3.9981036832860437,-45.01018538549238,1.0,1017.931782535107,0.0,1.0,0.5425561228032584,9.6311858041147
1.5899999999999999,1.5899999999999999,1.0,20.10291381916391,1.229133546439121,5.65014828894269,0.061276484059132025,0.008754603508676552,0.12394169772516157,20.91798482126697,0.13853878524167343,1.0,0.0,143.98442724691085,-0.42879799443272304,1016.9359081609534,112.12564731529206,2.1120088620797484,10.479031344571897,1.0,1019.4764303427417,0.0,1.0,114.70251749601661,7360.1299373882375,1.0,1.0,10.298052586418741,16.310374017347606,-3.9981036832860437,-45.01018538549238,1.0,1017.931782535107,0.0,1.0,0.5425561228032584,9.6311858041147
1.6199999999999999,1.6199999999999999,1.0,20.019468066791482,1.2584241839707224,5.754273858238657,0.06992170363813631,0.00540584339366211,0.12363279313393341,20.86802340279728,0.14213843716797414,1.0,0.0,143.98442724691085,-0.42879799443272304,1016.9359081609534,112.12564731529206,2.1120088620797484,10.479031344571897,1.0,1018.3883353779879,0.0,1.0,115.23097442974444,7436.41625204976,1.0,1.0,10.098789307554577,16.352242007702188,-4.201882917262851,-44.906914680415866,1.0,1018.7275291824457,0.0,1.0,0.37962978552473753,10.10677187573661
1.65,1.65,1.0,19.99072552467648,1.23383786510137,5.850269744637729,0.07075476558522421,0.007128701026280162,0.12446456982269881,20.865692391227597,0.14334742541284648,1.0,0.0,143.98442724691085,-0.42879799443272304,1016.9359081609534,112.12564731529206,2.1120088620797484,10.479031344571897,1.0,1018.3883353779879,0.0,1.0,116.62065036010618,7414.748054653722,1.0,1.0,10.098789307554577,16.352242007702188,-4.201882917262851,-44.906914680415866,1.0,1018.7275291824457,0.0,1.0,0.37962978552473753,10.10677187573661
1.68,1.68,1.0,19.95782694661529,1.3624802108941112,5.890529151867292,0.07699568430555746,0.004292674754998157,0.13132744125445184,20.85352589959597,0.15229464627712547,1.0,0.0,167.11896435860757,2.586831750165497,1021.0536887868772,116.06654192682704,2.930928236603652,10.068395415580891,1.0,1018.5147158108211,0.0,1.0,117.10531456885715,7505.282721184431,1.0,1.0,9.299136782773056,16.322578344677726,-4.521436145963328,-44.96873477691009,1.0,1019.2214228734019,0.0,1.0,0.6983297685207613,10.019274618923465
1.71,1.71,1.0,19.966688626408104,1.3953281764484369,5.9704505082301,0.07574158417228373,0.006482644271861012,0.12819009223791442,20.886882838163064,0.14903527098525246,1.0,0.0,167.11896435860757,2.586831750165497,1021.0536887868772,116.06654192682704,2.930928236603652,10.068395415580891,1.0,1018.5147158108211,0.0,1.0,117.03520314426365,7680.671658039146,1.0,1.0,9.299136782773056,16.322578344677726,-4.521436145963328,-44.96873477691009,1.0,1019.2214228734019,0.0,1.0,0.6983297685207613,10.019274618923465
1.74,1.74,1.0,19.89678738259453,1.448613309314081,6.0442359800558645,0.08231694991889436,0.006313107919040843,0.12834968908183858,20.8449854221752,0.15260923387184622,1.0,0.0,167.11896435860757,2.586831750165497,1021.0536887868772,116.06654192682704,2.930928236603652,10.068395415580891,1.0,1019.845335463098,0.0,1.0,116.74490041780986,7823.696714763056,1.0,1.0,11.535498727540999,16.375950020762343,-4.859412703831767,-44.831638107829136,1.0,1020.0869191648176,0.0,1.0,1.4332269209064321,9.54354041951715
1.77,1.77,1.0,19.862448257417068,1.4609034624187398,6.013729315463329,0.08514428370455307,0.003870440509740705,0.13199687351553624,20.80423105968448,0.15712321271911842,1.0,0.0,167.11896435860757,2.586831750165497,1021.0536887868772,116.06654192682704,2.930928236603652,10.068395415580891,1.0,1019.845335463098,0.0,1.0,118.1593361890845,7700.641170995174,1.0,1.0,11.535498727540999,16.375950020762343,-4.859412703831767,-44.831638107829136,1.0,1020.0869191648176,0.0,1.0,1.4332269209064321,9.54354041951715
1.7999999999999998,1.7999999999999998,1.0,19.84529014406241,1.4896755472653112,6.10543785429324,0.08819724909271087,0.005507095788859809,0.13294671042112804,20.816605043348872,0.15963680861051013,1.0,0.0,167.11896435860757,2.586831750165497,1021.0536887868772,116.06654192682704,2.930928236603652,10.068395415580891,1.0,1020.2429484263112,0.0,1.0,118.10432288840227,7864.499437042642,1.0,1.0,9.760989603928731,16.303007855015476,-5.213222113572395,-44.83141401475669,1.0,1020.7376661623008,0.0,1.0,0.9375434767716172,10.131137317351655
1.8299999999999998,1.8299999999999998,1.0,19.91047128816247,1.5845435765901652,6.206531835677348,0.0878380815422497,0.005300013563109287,0.13640536905243106,20.915512967415637,0.16232696454724327,1.0,0.0,167.11896435860757,2.586831750165497,1021.0536887868772,116.06654192682704,2.930928236603652,10.068395415580891,1.0,1020.2429484263112,0.0,1.0,119.05804876906443,7909.41069519405,1.0,1.0,9.760989603928731,16.303007855015476,-5.213222113572395,-44.83141401475669,1.0,1020.7376661623008,0.0,1.0,0.9375434767716172,10.131137317351655
1.8599999999999999,1.8599999999999999,1.0,19.80302664052372,1.646796056518446,6.302004939797124,0.09934602486730547,0.006077121965302015,0.13450993256467206,20.84675196855098,0.1673304695112909,1.0,0.0,167.11896435860757,2.586831750165497,1021.0536887868772,116.06654192682704,2.930928236603652,10.068395415580891,1.0,1022.343549857122,0.0,1.0,119.99289258774944,8058.3536701379835,1.0,1.0,9.877960725780106,16.286042214787823,-5.623111180691574,-44.77732591907281,1.0,1021.5867490812799,0.0,1.0,1.4367951357766486,10.211385276355015
1.89,1.89,1.0,19.86899765484074,1.7503064935565091,6.305937421731606,0.10119687010369473,-0.002120124111658751,0.14004651862694273,20.919022142448437,0.17279562733055348,1.0,0.0,192.0757811744842,1.3592587773260274,1021.098666022191,119.90566457722174,4.212441420608587,9.78310723154327,1.0,1022.343549857122,0.0,1.0,120.45322515594069,8018.951873581331,1.0,1.0,9.877960725780106,16.286042214787823,-5.623111180691574,-44.77732591907281,1.0,1021.5867490812799,0.0,1.0,1.4367951357766486,10.211385276355015
1.92,1.92,1.0,19.84426185744025,1.725354859120789,6.390297450356695,0.10186489254272234,0.00030575988299143286,0.13754454051936185,20.919069758490338,0.17115796928138868,1.0,0.0,192.0757811744842,1.3592587773260274,1021.098666022191,119.90566457722174,4.212441420608587,9.78310723154327,1.0,1021.6365487194397,0.0,1.0,120.44378135566978,8052.242416504287,1.0,1.0,10.523987406127034,16.21853990862684,-6.022696523065624,-44.81539755673861,1.0,1022.3604500574584,0.0,1.0,0.8500226096311265,9.296749244612604
1.95,1.95,1.0,19.69391905408168,1.8385976353776494,6.382107532030317,0.11273855216092278,-0.0006319219065527874,0.14237714026732204,20.78369999600494,0.1816084539313569,1.0,0.0,192.0757811744842,1.3592587773260274,1021.098666022191,119.90566457722174,4.212441420608587,9.78310723154327,1.0,1021.6365487194397,0.0,1.0,120.96086580340638,7986.997873718627,1.0,1.0,10.523987406127034,16.21853990862684,-6.022696523065624,-44.81539755673861,1.0,1022.3604500574584,0.0,1.0,0.8500226096311265,9.296749244612604
1.98,1.98,1.0,19.760732733101797,1.8441911238811635,6.409483003703476,0.11547358512077614,0.007452298543183244,0.14213592897543761,20.855912145606258,0.18328204472869816,1.0,0.0,192.0757811744842,1.3592587773260274,1021.098666022191,119.90566457722174,4.212441420608587,9.78310723154327,1.0,1022.2767872608546,0.0,1.0,121.94978451918846,8271.03242237668,1.0,1.0,11.446062897009268,16.16338989740884,-6.5215056645826985,-44.680980238786674,1.0,1022.7581475300707,0.0,1.0,2.039050617721659,10.37024297922692
2.01,2.01,1.0,19.743833579158878,1.8775348556165832,6.516397189501976,0.117821976495659,-3.949547098527385e-05,0.13750282601113073,20.876003781062266,0.18107746095603158,1.0,0.0,192.0757811744842,1.3592587773260274,1021.098666022191,119.90566457722174,4.212441420608587,9.78310723154327,1.0,1022.2767872608546,0.0,1.0,122.84880519549164,8462.430667180048,1.0,1.0,11.446062897009268,16.16338989740884,-6.5215056645826985,-44.680980238786674,1.0,1022.7581475300707,0.0,1.0,2.039050617721659,10.37024297922692
2.04,2.04,1.0,19.757912984386916,2.003612497743394,6.618467594885158,0.12123600727275631,-0.00021354626589857785,0.14638671301105222,20.933076740992078,0.19007178856323648,1.0,0.0,192.0757811744842,1.3592587773260274,1021.098666022191,119.90566457722174,4.212441420608587,9.78310723154327,1.0,1025.0683304493373,0.0,1.0,123.12580374570464,8479.897329351094,1.0,1.0,13.208817709378877,16.05356669486293,-6.933904058294066,-44.72694721213946,1.0,1023.2344905459291,0.0,1.0,2.4467851282603705,10.022858437366695
2.07,2.07,1.0,19.637066393113468,2.0211280793279665,6.557745461137692,0.12886003048243094,-0.002332638862979345,0.14544027328782821,20.801523039760006,0.19432761449170388,1.0,0.0,192.0757811744842,1.3592587773260274,1021.098666022191,119.90566457722174,4.212441420608587,9.78310723154327,1.0,1025.0683304493373,0.0,1.0,123.08177599104461,8482.342445689123,1.0,1.0,13.208817709378877,16.05356669486293,-6.933904058294066,-44.72694721213946,1.0,1023.2344905459291,0.0,1.0,2.4467851282603705,10.022858437366695
2.1,2.1,1.0,19.702102232322208,2.088261117007736,6.653208252311383,0.13126828893162815,-0.0029679951699172384,0.1414984313455059,20.899733178064892,0.19303362077007444,1.0,0.0,218.3579694858833,5.369436386175499,1022.1953056607266,123.55724856608549,5.2892037224065795,9.752351062778194,1.0,1025.5751486287652,0.0,1.0,124.18745274597397,8533.767410900155,1.0,1.0,12.045000365870084,16.06344190520704,-7.396245067638561,-44.65067029624581,1.0,1023.7225092940919,0.0,1.0,2.13446696489658,10.052629498009692
2.13,2.13,1.0,19.70191940810529,2.1684298951446874,6.694291567717156,0.13928446493005936,-0.0012546784187477766,0.1448715988181307,20.920833065804096,0.2009714321313077,1.0,0.0,218.3579694858833,5.369436386175499,1022.1953056607266,123.55724856608549,5.2892037224065795,9.752351062778194,1.0,1025.5751486287652,0.0,1.0,124.49967851664412,8640.84930695215,1.0,1.0,12.045000365870084,16.06344190520704,-7.396245067638561,-44.65067029624581,1.0,1023.7225092940919,0.0,1.0,2.13446696489658,10.052629498009692
2.16,2.16,1.0,19.704527752664024,2.203169445468727,6.790219915085747,0.14207778566318022,-0.003853017153668868,0.1532321308967762,20.957801794467397,0.20900006904139004,1.0,0.0,218.3579694858833,5.369436386175499,1022.1953056607266,123.55724856608549,5.2892037224065795,9.752351062778194,1.0,1022.6347658445235,0.0,1.0,125.12870572223974,8752.697218511576,1.0,1.0,15.011940827914255,15.965146468033398,-7.895748785489252,-44.56160146564862,1.0,1024.2787047346521,0.0,1.0,3.4234786063549403,9.641422418026863
2.19,2.19,1.0,19.63381371144384,2.2579144677349454,6.7185780137369155,0.15033364005320202,-0.001810167186052234,0.15267847326420975,20.87400558412199,0.2142759814705726,1.0,0.0,218.3579694858833,5.369436386175499,1022.1953056607266,123.55724856608549,5.2892037224065795,9.752351062778194,1.0,1022.6347658445235,0.0,1.0,125.93702975666055,8748.47867360033,1.0,1.0,15.011940827914255,15.965146468033398,-7.895748785489252,-44.56160146564862,1.0,1024.2787047346521,0.0,1.0,3.4234786063549403,9.641422418026863
2.2199999999999998,2.2199999999999998,1.0,19.569731800003826,2.2605403205046777,6.729305507144833,0.15177855220140732,-0.005521353468537706,0.15453419520057116,20.817492593326367,0.21667494488003936,1.0,0.0,218.3579694858833,5.369436386175499,1022.1953056607266,123.55724856608549,5.2892037224065795,9.752351062778194,1.0,1024.356873693733,0.0,1.0,126.0994356406066,8640.283053505933,1.0,1.0,12.53799915238578,15.824001508425576,-8.424115219624321,-44.53734791246871,1.0,1024.4860756168534,0.0,1.0,3.7680525563847245,10.214507587344277
2.25,2.25,1.0,19.568552880539247,2.353724958935604,6.764153019076196,0.16253669061117604,-0.004327260608501243,0.15336183096350728,20.837995323117216,0.22351007175446574,1.0,0.0,218.3579694858833,5.369436386175499,1022.1953056607266,123.55724856608549,5.2892037224065795,9.752351062778194,1.0,1024.356873693733,0.0,1.0,127.01926233996446,9064.365617189864,1.0,1.0,12.53799915238578,15.824001508425576,-8.424115219624321,-44.53734791246871,1.0,1024.4860756168534,0.0,1.0,3.7680525563847245,10.214507587344277
2.28,2.28,1.0,19.547535563838128,2.461728040550938,6.911627632907775,0.16938504205221658,-0.0024219576194998665,0.1535023181116824,20.879100749340846,0.22860472439431775,1.0,0.0,218.3579694858833,5.369436386175499,1022.1953056607266,123.55724856608549,5.2892037224065795,9.752351062778194,1.0,1026.9481215851413,0.0,1.0,126.78889432621696,9133.457373307529,1.0,1.0,14.03236273216437,15.727113268229457,-9.107107274143708,-44.41427518487555,1.0,1025.2936329117038,0.0,1.0,3.4487746150905325,9.680903002357566
2.31,2.31,1.0,19.628536742921575,2.582921257041053,6.850870636459771,0.1750957522880106,-0.0032595180869985185,0.15563764420753096,20.949591054858413,0.23429089444947243,1.0,0.0,246.60432438500894,3.7282419586713265,1024.522137623658,127.19502363886753,6.460219274122723,10.009381717182555,1.0,1026.9481215851413,0.0,1.0,127.95120875677567,9036.876222801735,1.0,1.0,14.03236273216437,15.727113268229457,-9.107107274143708,-44.41427518487555,1.0,1025.2936329117038,0.0,1.0,3.4487746150905325,9.680903002357566
2.34,2.34,1.0,19.571812467607696,2.5982694119390017,6.852521639418375,0.17779473027116116,-0.004433076000884472,0.15918791126682869,20.898897100634738,0.23868684372734142,1.0,0.0,246.60432438500894,3.7282419586713265,1024.522137623658,127.19502363886753,6.460219274122723,10.009381717182555,1.0,1027.2029887195395,0.0,1.0,128.24093988538672,9129.797610598365,1.0,1.0,14.564333627115966,15.701977949373875,-9.71908458369069,-44.38596349937978,1.0,1026.134063332373,0.0,1.0,3.253343351046442,9.119036449083973
2.37,2.37,1.0,19.612787746880663,2.673563025581618,6.799055421965733,0.18714641250809902,-0.00568328219154942,0.15940093859219542,20.929322423024377,0.24589578816074342,1.0,0.0,246.60432438500894,3.7282419586713265,1024.522137623658,127.19502363886753,6.460219274122723,10.009381717182555,1.0,1027.2029887195395,0.0,1.0,128.77714612489567,9216.940214119853,1.0,1.0,14.564333627115966,15.701977949373875,-9.71908458369069,-44.38596349937978,1.0,1026.134063332373,0.0,1.0,3.253343351046442,9.119036449083973
2.4,2.4,1.0,19.549314413943975,2.755349159921482,6.853700216687954,0.19652270029258967,-0.006995713948363185,0.16092506432650755,20.898345621329604,0.25410035039808376,1.0,0.0,246.60432438500894,3.7282419586713265,1024.522137623658,127.19502363886753,6.460219274122723,10.009381717182555,1.0,1026.0572682778732,0.0,1.0,129.4270442217873,9367.552260529501,1.0,1.0,14.769671012181874,15.586520868112661,-10.279610746848373,-44.224093486869826,1.0,1026.4945966899302,0.0,1.0,5.039436577221848,9.887584839843012
2.4299999999999997,2.4299999999999997,1.0,19.550730222266637,2.7568228834536335,6.836391785453745,0.20071629007159142,-0.006557195807866896,0.16488788924545675,20.89419482245734,0.2598423405390044,1.0,0.0,246.60432438500894,3.7282419586713265,1024.522137623658,127.19502363886753,6.460219274122723,10.009381717182555,1.0,1026.0572682778732,0.0,1.0,129.5176238469566,9497.572419783024,1.0,1.0,14.769671012181874,15.586520868112661,-10.279610746848373,-44.224093486869826,1.0,1026.4945966899302,0.0,1.0,5.039436577221848,9.887584839843012
2.46,2.46,1.0,19.56994461448827,2.8298819144770557,6.773489785571086,0.21508183255277788,-0.007456864279823739,0.16329096222198533,20.90146233494821,0.2701476223521701,1.0,0.0,246.60432438500894,3.7282419586713265,1024.522137623658,127.19502363886753,6.460219274122723,10.009381717182555,1.0,1026.3584111650162,0.0,1.0,130.02480334953478,9482.957274797202,1.0,1.0,16.236017865062767,15.424913117867813,-11.053923035974478,-44.09358130702667,1.0,1027.5912278932944,0.0,1.0,5.325166940519366,10.318023632345852
2.4899999999999998,2.4899999999999998,1.0,19.562834715926368,2.9548351023878423,6.722902581907799,0.21944056607835727,-0.005377409949112724,0.16433411052032765,20.895764444757216,0.27420572287802086,1.0,0.0,246.60432438500894,3.7282419586713265,1024.522137623658,127.19502363886753,6.460219274122723,10.009381717182555,1.0,1026.3584111650162,0.0,1.0,130.13887702381118,9355.316282647578,1.0,1.0,16.236017865062767,15.424913117867813,-11.053923035974478,-44.09358130702667,1.0,1027.5912278932944,0.0,1.0,5.325166940519366,10.318023632345852
2.52,2.52,1.0,19.567839509634634,2.980094027103115,6.671079759207326,0.23041037631859085,-0.009351773404104138,0.16996790129859166,20.88742704688396,0.2864707396103905,1.0,0.0,272.18015603369776,6.524712943646621,1026.5420166821948,130.59979624466877,7.983857330610327,10.062772512202312,1.0,1028.4369221687098,0.0,1.0,131.17987791959408,9517.889879659511,1.0,1.0,16.394645076936847,15.383332024372182,-11.788996534547108,-43.91562381001781,1.0,1027.4410244872433,0.0,1.0,5.7715001606639555,9.625032429652592
2.55,2.55,1.0,19.484814518921393,3.007931890315336,6.711550304674835,0.23417134763846534,-0.010064647037412895,0.168235142200555,20.826679010003655,0.288514436806971,1.0,0.0,272.18015603369776,6.524712943646621,1026.5420166821948,130.59979624466877,7.983857330610327,10.062772512202312,1.0,1028.4369221687098,0.0,1.0,130.6063156043004,9573.036365114096,1.0,1.0,16.394645076936847,15.383332024372182,-11.788996534547108,-43.91562381001781,1.0,1027.4410244872433,0.0,1.0,5.7715001606639555,9.625032429652592
2.58,2.58,1.0,19.557899039635032,3.1512144900713226,6.601488077455811,0.24571065040332773,-0.014105049528719694,0.17216795351083342,20.881120957548795,0.30035725454855006,1.0,0.0,272.18015603369776,6.524712943646621,1026.5420166821948,130.59979624466877,7.983857330610327,10.062772512202312,1.0,1027.1480714388158,0.0,1.0,132.42288024185265,9676.223821733818,1.0,1.0,18.09266248947341,15.182959971158981,-12.621061068556681,-43.861845575686786,1.0,1028.967678849679,0.0,1.0,7.021677302292283,9.98851066681187
2.61,2.61,1.0,19.52151886830391,3.2184745289933634,6.662036647518325,0.24852788517551674,-0.011863077123555024,0.1754443133638835,20.876566037358774,0.30444629969894327,1.0,0.0,272.18015603369776,6.524712943646621,1026.5420166821948,130.59979624466877,7.983857330610327,10.062772512202312,1.0,1027.1480714388158,0.0,1.0,132.99897230592742,9838.852292211906,1.0,1.0,18.09266248947341,15.182959971158981,-12.621061068556681,-43.861845575686786,1.0,1028.967678849679,0.0,1.0,7.021677302292283,9.98851066681187
2.6399999999999997,2.6399999999999997,1.0,19.553382666410002,3.264429024759674,6.5664047578119975,0.2618550784097545,-0.009996931376655128,0.17461370722447261,20.883221542668473,0.31489358119307875,1.0,0.0,272.18015603369776,6.524712943646621,1026.5420166821948,130.59979624466877,7.983857330610327,10.062772512202312,1.0,1029.101286204137,0.0,1.0,133.61734586162586,9840.038465948888,1.0,1.0,17.939598873778614,14.885452557824184,-13.526601040048957,-43.60129793307741,1.0,1028.6126654023492,0.0,1.0,7.694556948587581,10.433972009338483
2.67,2.67,1.0,19.542091800200687,3.379189755899817,6.476329742928451,0.27350455843520877,-0.012672475266438029,0.17907672038839562,20.862768806488482,0.3271602159482119,1.0,0.0,272.18015603369776,6.524712943646621,1026.5420166821948,130.59979624466877,7.983857330610327,10.062772512202312,1.0,1029.101286204137,0.0,1.0,133.8238836660173,9803.744119750152,1.0,1.0,17.939598873778614,14.885452557824184,-13.526601040048957,-43.60129793307741,1.0,1028.6126654023492,0.0,1.0,7.694556948587581,10.433972009338483
2.6999999999999997,2.6999999999999997,1.0,19.561440493216335,3.471356003188858,6.361004639346532,0.2870968902373267,-0.013190812938657153,0.17921288149647413,20.860552406211756,0.33869732627258153,1.0,0.0,272.18015603369776,6.524712943646621,1026.5420166821948,130.59979624466877,7.983857330610327,10.062772512202312,1.0,1030.0931338323257,0.0,1.0,133.60799819172314,9935.208154757136,1.0,1.0,18.994818188222663,14.759426910907806,-14.35516738987508,-43.3519903368566,1.0,1029.9315581664143,0.0,1.0,8.714771381042562,9.828805342757297
2.73,2.73,1.0,19.516464214636052,3.536296382398256,6.321280703973103,0.29539441254775817,-0.013578560697012508,0.17932280535930112,20.817213004716923,0.34583074588151846,1.0,0.0,300.0243352233957,6.533834917060822,1032.177892344052,134.17399274412426,9.469446448225593,10.2386930993681,1.0,1030.0931338323257,0.0,1.0,134.2957209730476,10004.053101761461,1.0,1.0,18.994818188222663,14.759426910907806,-14.35516738987508,-43.3519903368566,1.0,1029.9315581664143,0.0,1.0,8.714771381042562,9.828805342757297
2.76,2.76,1.0,19.487281048610868,3.5793547912793686,6.117657049039442,0.30637152873468326,-0.014311847252707802,0.18114333491172827,20.736239561672335,0.35620394491632773,1.0,0.0,300.0243352233957,6.533834917060822,1032.177892344052,134.17399274412426,9.469446448225593,10.2386930993681,1.0,1029.568610748156,0.0,1.0,135.49336239017217,10164.748693605043,1.0,1.0,20.567715944836987,14.622175471869934,-15.204968215899656,-43.09854325922153,1.0,1030.116802308827,0.0,1.0,9.789274152257741,10.94548884179698
2.79,2.79,1.0,19.50200607622491,3.7486556956138943,6.12979771274732,0.32241206766928915,-0.01467073435731247,0.1811785598599528,20.783529068004164,0.3701221992508631,1.0,0.0,300.0243352233957,6.533834917060822,1032.177892344052,134.17399274412426,9.469446448225593,10.2386930993681,1.0,1029.568610748156,0.0,1.0,136.15670593299444,10084.737457405874,1.0,1.0,20.567715944836987,14.622175471869934,-15.204968215899656,-43.09854325922153,1.0,1030.116802308827,0.0,1.0,9.789274152257741,10.94548884179698
2.82,2.82,1.0,19.546195664177503,3.834814339365039,5.936374999737566,0.33241339219396565,-0.018675489056120122,0.18591128780278932,20.784612435578882,0.38132721399590147,1.0,0.0,300.0243352233957,6.533834917060822,1032.177892344052,134.17399274412426,9.469446448225593,10.2386930993681,1.0,1030.1695987931207,0.0,1.0,136.11259084968697,10332.858563968734,1.0,1.0,20.303113282820014,14.396748897429946,-16.25652464986497,-42.81350389471817,1.0,1030.5259631884906,0.0,1.0,10.712083122559758,11.21413183482235
2.85,2.85,1.0,19.569021199952214,3.9336933168226023,5.779711423704429,0.34429488175134304,-0.01627871700262955,0.1867889591103231,20.780413806666445,0.3920383622465293,1.0,0.0,300.0243352233957,6.533834917060822,1032.177892344052,134.17399274412426,9.469446448225593,10.2386930993681,1.0,1030.1695987931207,0.0,1.0,137.39047573054475,10536.207981760681,1.0,1.0,20.303113282820014,14.396748897429946,-16.25652464986497,-42.81350389471817,1.0,1030.5259631884906,0.0,1.0,10.712083122559758,11.21413183482235
2.88,2.88,1.0,19.513430859523943,4.055696066037933,5.676757887212083,0.35511700032734717,-0.02090387077867178,0.18709402884915435,20.72313283747227,0.40193187403592756,1.0,0.0,300.0243352233957,6.533834917060822,1032.177892344052,134.17399274412426,9.469446448225593,10.2386930993681,1.0,1031.9211226976481,0.0,1.0,137.90908128462567,10536.56791113177,1.0,1.0,19.48996109426862,14.064779606144256,-17.22798364357966,-42.41423037690595,1.0,1031.6103048616899,0.0,1.0,11.994124494887675,11.245880010020699
2.9099999999999997,2.9099999999999997,1.0,19.650607299515542,4.2347071463250705,5.442557039202506,0.365848914121521,-0.020366177677543444,0.17792116088442655,20.825478121279303,0.4073280602260926,1.0,0.0,300.0243352233957,6.533834917060822,1032.177892344052,134.17399274412426,9.469446448225593,10.2386930993681,1.0,1031.9211226976481,0.0,1.0,137.94417955090188,10518.619453607957,1.0,1.0,19.48996109426862,14.064779606144256,-17.22798364357966,-42.41423037690595,1.0,1031.6103048616899,0.0,1.0,11.994124494887675,11.245880010020699
2.94,2.94,1.0,19.60308305556665,4.278873438120004,5.3634761004144815,0.3842620439654679,-0.024082282975094373,0.15736117018830323,20.76912369510593,0.4159324616675691,1.0,0.0,327.1201256225249,9.41286214697952,1033.7033608115826,137.48452635700275,11.266119191506291,10.190070133310533,1.0,1031.387760138746,0.0,1.0,137.93082339489894,10706.421303540037,1.0,1.0,19.985548094435458,13.8524627463774,-18.367287490778676,-42.19148204971282,1.0,1032.1840927050082,0.0,1.0,12.858097140400274,11.403824018261183
2.9699999999999998,2.9699999999999998,1.0,19.644469809014286,4.454781294093938,5.170253461653292,0.39845127074133874,-0.03131913783677208,0.14283942980619604,20.796196558823464,0.42443775310118864,1.0,0.0,327.1201256225249,9.41286214697952,1033.7033608115826,137.48452635700275,11.266119191506291,10.190070133310533,1.0,1031.387760138746,0.0,1.0,139.24463492405903,10640.933196167143,1.0,1.0,19.985548094435458,13.8524627463774,-18.367287490778676,-42.19148204971282,1.0,1032.1840927050082,0.0,1.0,12.858097140400274,11.403824018261183
3.0,3.0,1.0,19.616792655039742,4.551128238304169,4.936230314352519,0.41852361940468713,-0.03662764083231711,0.11239431254998983,20.7339743423359,0.43489778749279173,1.0,0.0,327.1201256225249,9.41286214697952,1033.7033608115826,137.48452635700275,11.266119191506291,10.190070133310533,1.0,1032.3425963213554,0.0,1.0,139.48687514934036,10734.471649605583,1.0,1.0,20.679486831171086,13.709282326105157,-19.600077860532586,-41.60367296422046,1.0,1032.6697315718181,0.0,1.0,13.567051506451662,11.781253866750424
3.03,3.03,1.0,19.66216144642171,4.64469476501631,4.799934644807019,0.43481355228182283,-0.04665450721065481,0.0832240303935691,20.76567251017267,0.44515807026937776,1.0,0.0,327.1201256225249,9.41286214697952,1033.7033608115826,137.48452635700275,11.266119191506291,10.190070133310533,1.0,1032.3425963213554,0.0,1.0,139.79133114764693,10686.534679626511,1.0,1.0,20.679486831171086,13.709282326105157,-19.600077860532586,-41.60367296422046,1.0,1032.6697315718181,0.0,1.0,13.567051506451662,11.781253866750424
3.06,3.06,1.0,19.696444842189507,4.5927506296231435,4.715016463270287,0.4483239383081033,-0.05036736998210617,0.04819116086425235,20.767153825602275,0.4537109361746161,1.0,0.0,327.1201256225249,9.41286214697952,1033.7033608115826,137.48452635700275,11.266119191506291,10.190070133310533,1.0,1033.4878292691474,0.0,1.0,140.60267712556526,10781.770772176094,1.0,1.0,23.246220108720895,13.433879908839764,-20.599430503409028,-41.19845042474542,1.0,1033.2222380317305,0.0,1.0,15.535079758769665,11.631320080059
3.09,3.09,1.0,19.704953411276502,4.679363583298604,4.493940686029534,0.44878430531478586,-0.061730077839852626,0.013460271667294813,20.745532901683443,0.4532098124713834,1.0,0.0,327.1201256225249,9.41286214697952,1033.7033608115826,137.48452635700275,11.266119191506291,10.190070133310533,1.0,1033.4878292691474,0.0,1.0,141.0894975265481,11101.170796341816,1.0,1.0,23.246220108720895,13.433879908839764,-20.599430503409028,-41.19845042474542,1.0,1033.2222380317305,0.0,1.0,15.535079758769665,11.631320080059
3.12,3.12,1.0,19.64959463571998,4.66336066064599,4.502833592097347,0.4419108824633125,-0.0702682743547883,-0.020927569719405712,20.69127865448378,0.44795180722334854,1.0,0.0,327.1201256225249,9.41286214697952,1033.7033608115826,137.48452635700275,11.266119191506291,10.190070133310533,1.0,1033.8630970885783,0.0,1.0,141.44681368747524,10959.215219111602,1.0,1.0,21.238432146888027,13.24482779503179,-21.714148327629946,-40.591923328579014,1.0,1033.9038587558775,0.0,1.0,17.47000238298631,11.490613925758772
3.15,3.15,1.0,19.69539156224722,4.6445637569128415,4.357545197068612,0.4337073120529326,-0.07629518739197763,-0.05231793853541472,20.699483602900898,0.44346381457786643,1.0,0.0,357.25384335148993,12.109930836941638,1032.621277044576,140.91159504770064,13.493023723469392,10.172632905157306,1.0,1033.8630970885783,0.0,1.0,141.54040057811946,10971.904208793083,1.0,1.0,21.238432146888027,13.24482779503179,-21.714148327629946,-40.591923328579014,1.0,1033.9038587558775,0.0,1.0,17.47000238298631,11.490613925758772
3.1799999999999997,3.1799999999999997,1.0,19.54785911355605,4.578333594472815,4.257947243538857,0.4381418665424685,-0.08559771817872618,-0.07507525009566166,20.52340247508865,0.4526936687779597,1.0,0.0,357.25384335148993,12.109930836941638,1032.621277044576,140.91159504770064,13.493023723469392,10.172632905157306,1.0,1034.2229659157183,0.0,1.0,142.0647604621753,11070.401098660117,1.0,1.0,21.658555044843848,13.201039686378811,-22.786544450944263,-40.19809253226137,1.0,1034.1011343351379,0.0,1.0,18.84213073669038,11.214351547474422
3.21,3.21,1.0,19.706899210666702,4.463191026873062,4.294045038848851,0.4372844133536435,-0.09120943112122032,-0.10008207925493008,20.6572208546406,0.45776985601444625,1.0,0.0,357.25384335148993,12.109930836941638,1032.621277044576,140.91159504770064,13.493023723469392,10.172632905157306,1.0,1034.2229659157183,0.0,1.0,143.16660269813949,11227.846112238589,1.0,1.0,21.658555044843848,13.201039686378811,-22.786544450944263,-40.19809253226137,1.0,1034.1011343351379,0.0,1.0,18.84213073669038,11.214351547474422
3.2399999999999998,3.2399999999999998,1.0,19.636621431939684,4.325758115416831,4.319475464197422,0.43439116955342577,-0.09475042999864383,-0.11454600649903489,20.566160381077722,0.45912320762056663,1.0,0.0,357.25384335148993,12.109930836941638,1032.621277044576,140.91159504770064,13.493023723469392,10.172632905157306,1.0,1034.4273740324702,0.0,1.0,142.8858921277001,11370.683477327675,1.0,1.0,20.455177473138512,13.107012524672427,-23.763652491390918,-39.54048590979366,1.0,1034.9880279859278,0.0,1.0,20.388862432750745,11.319369682565254
3.27,3.27,1.0,19.61126364945281,4.196900311192171,4.301746971132192,0.4316857324763807,-0.0977966380255675,-0.12285676082053233,20.511476327999382,0.45935883327969945,1.0,0.0,357.25384335148993,12.109930836941638,1032.621277044576,140.91159504770064,13.493023723469392,10.172632905157306,1.0,1034.4273740324702,0.0,1.0,143.40488692685838,11380.676657981274,1.0,1.0,20.455177473138512,13.107012524672427,-23.763652491390918,-39.54048590979366,1.0,1034.9880279859278,0.0,1.0,20.388862432750745,11.319369682565254
3.3,3.3,1.0,19.54625699970564,4.1127150772881365,4.357758119551501,0.429642712191638,-0.09893943108643981,-0.12063889136678546,20.44408579110379,0.45709475305816205,1.0,0.0,357.25384335148993,12.109930836941638,1032.621277044576,140.91159504770064,13.493023723469392,10.172632905157306,1.0,1035.8092499605063,0.0,1.0,144.23545156861445,11531.945810846435,1.0,1.0,20.53553528820624,13.07442774321941,-24.65407873375307,-39.018734593367526,1.0,1035.9647303391512,0.0,1.0,21.668653281138187,12.139765375607421
3.33,3.33,1.0,19.514649805583726,4.063738606093492,4.396317384889666,0.43118157785101313,-0.10122309394587624,-0.11559692114871285,20.412328016223597,0.4577404461101583,1.0,0.0,357.25384335148993,12.109930836941638,1032.621277044576,140.91159504770064,13.493023723469392,10.172632905157306,1.0,1035.8092499605063,0.0,1.0,144.44066134848336,11688.050001697502,1.0,1.0,20.53553528820624,13.07442774321941,-24.65407873375307,-39.018734593367526,1.0,1035.9647303391512,0.0,1.0,21.668653281138187,12.139765375607421
3.36,3.36,1.0,19.606552115209098,3.9630514040451175,4.4065280314727495,0.4269731830995893,-0.0968989316494205,-0.0999274079164857,20.482679306420568,0.4490890656583638,1.0,0.0,388.32493171384596,16.563059869641254,1036.4710835165322,144.1417068358886,15.403916807703345,10.14493944356508,1.0,1036.2032932385075,0.0,1.0,145.70958781252267,11622.967185083375,1.0,1.0,20.31471080002215,12.971686362545995,-25.498733326094587,-38.48696450054021,1.0,1036.4091644661864,0.0,1.0,23.71896604771073,11.869607177946536
3.3899999999999997,3.3899999999999997,1.0,19.42715880027455,3.8919833271270936,4.435593328531718,0.429130479299777,-0.08908164699317461,-0.0761448091405347,20.303608581871234,0.44484439982326557,1.0,0.0,388.32493171384596,16.563059869641254,1036.4710835165322,144.1417068358886,15.403916807703345,10.14493944356508,1.0,1036.2032932385075,0.0,1.0,145.43121999450045,11790.219611902301,1.0,1.0,20.31471080002215,12.971686362545995,-25.498733326094587,-38.48696450054021,1.0,1036.4091644661864,0.0,1.0,23.71896604771073,11.869607177946536
3.42,3.42,1.0,19.548694793255546,3.8405404594620984,4.505472388434622,0.4261054464547839,-0.0854449857866456,-0.051562508842674604,20.42548654459836,0.4376361381475045,1.0,0.0,388.32493171384596,16.563059869641254,1036.4710835165322,144.1417068358886,15.403916807703345,10.14493944356508,1.0,1036.8310900397857,0.0,1.0,146.66338524464857,11638.246024352928,1.0,1.0,19.538050600730426,13.026443895379268,-26.51059292468907,-37.902993604054025,1.0,1037.173867546035,0.0,1.0,24.353640215323495,12.969585130063136
