time_s,x_m,y_m,altitude_m,vx_mps,vy_mps,vz_mps,speed_mps,mass_kg,roll_deg,pitch_deg,yaw_deg,p_dps,q_dps,r_dps,alpha_deg,beta_deg,qbar_pa,mach,airspeed_mps,load_factor_g,density_kgpm3,pressure_pa,temperature_k,wind_x_mps,wind_y_mps,wind_z_mps,thrust_n,mass_flow_kgps,propulsion_throttle_actual,propulsion_health,energy_j_per_kg,target_distance_m,guidance_mode,pitch_command_deg,heading_command_deg,roll_command_deg
0.0,0.0,0.0,1000.0,84.0,0.0,15.0,85.32877591996736,18.0,0.0,9.0,0.0,0.0,0.0,0.0,-1.1246716553978162,0.0,4046.934522364112,0.25362711007788913,85.32877591996736,1.7329231744426616,1.1116425003060326,89874.56291621955,281.65,0.0,0.0,0.0,323.0,0.17335175620624782,0.85,nominal,13447.15,nan,fixed_pitch,18.0,0.0,0.0
0.03,2.5351789957121817,-0.00022542513550626367,1000.4430414013383,84.50596652373939,-0.0075141711835421225,14.768046711275922,85.7866751788444,17.994799447313813,-0.003041183605462435,9.13458162651677,0.019297529388626996,0.0,-4.486073134779234,0.6350942606475132,-0.7781784168338118,-0.024069355214791234,4090.3071457318083,0.25498945119058214,85.7866751788444,1.7667738435164793,1.1115941281793602,89869.73321037232,281.6471202308913,0.0,0.0,0.0,328.7375,0.17643103082306932,0.85,nominal,13490.671571078712,nan,fixed_pitch,18.0,0.0,0.0
0.06,5.085807649858148,-0.0006618034348904869,1000.8793623080462,85.02095513819887,-0.01454594331280744,14.544030223596161,86.25596697818054,17.98950651638912,-0.008997786399227986,9.415318630346738,0.05728285016803691,0.005519973320646495,-9.358050070331986,1.2486443514500836,-0.2919662604132948,-0.0661707123670377,4135.0039897944425,0.2563856493370931,86.25596697818052,1.801713145736328,1.1115464913832878,89864.97697173257,281.6442841449977,0.0,0.0,0.0,334.47499999999997,0.17951030543989083,0.85,nominal,13535.319518048685,nan,fixed_pitch,18.0,0.0,0.0
0.09,7.652125127041632,-0.0012837024473707297,1001.3094477914585,85.54391590611615,-0.02072996708267476,14.336182780410663,86.73689016213085,17.984121207225925,-0.01754004300862231,9.691456375120586,0.11245597713849152,0.020488793607369712,-9.205029038909014,1.8114720926429313,0.17776383891545933,-0.12454844390650209,4181.065627850779,0.25781641608641354,86.73689016213085,1.8342868110831603,1.1114995368889018,89860.28890355512,281.6414885893555,0.0,0.0,0.0,340.2125,0.18258958005671233,0.85,nominal,13581.135353682881,nan,fixed_pitch,18.0,0.0,0.0
0.12,10.234344580104333,-0.002058263289307395,1001.7337432425634,86.07398176875667,-0.025818694731222176,14.14318170349493,87.22820984538963,17.978643519824224,-0.028975465996273004,9.878031081120547,0.1830734514777999,0.018860994078967044,-6.220103429330393,2.3171524897820848,0.5469437525153081,-0.19733338956673308,4228.390715364983,0.2592780823902778,87.22820984538961,1.8629137110522003,1.1114532160070345,89855.66414262174,281.6387306689233,0.0,0.0,0.0,345.95,0.18566885467353383,0.85,nominal,13628.032509585348,nan,fixed_pitch,18.0,0.0,0.0
0.15,12.832663724374882,-0.002946993538543719,1002.1525513353615,86.61063814235168,-0.02962434164121079,13.960269759939063,87.72851673656217,17.973073454184018,-0.043124464020596345,9.99454767801789,0.26749016700979805,0.013912329420137974,-3.8856310194264876,2.769240476026768,0.8382253850166007,-0.2827986200599376,4276.858669238646,0.2607664603068809,87.72851673656218,1.8922562965275036,1.1114074956354492,89851.09938213619,281.6360084163201,0.0,0.0,0.0,351.6875,0.18874812929035537,0.85,nominal,13675.905641951556,nan,fixed_pitch,18.0,0.0,0.0
0.18,15.4473009164954,-0.0039066605380000605,1002.5660915792672,87.15457307068392,-0.031988899981878066,13.784674796854771,88.23796172667379,17.96741101030531,-0.05961020943112302,10.091148881015064,0.364314950594755,0.013300557417702683,-3.2228887403760558,3.1751536160295983,1.1036928390437244,-0.37946526829037236,4326.499121846635,0.2622819991194537,88.23796172667379,1.9219883003901772,1.1113623517553113,89846.59222233506,281.6333204047347,0.0,0.0,0.0,357.425,0.19182740390717687,0.85,nominal,13724.783706824795,nan,fixed_pitch,18.0,0.0,0.0
0.21,18.07847483573198,-0.004889699052529496,1002.9745894155656,87.70579730788596,-0.03276795048431452,13.61659454327778,88.75651864571175,17.961656188188094,-0.07804739535478393,10.187233829005784,0.4724113467271138,0.019737565142801814,-3.2070908998353587,3.5430939719117123,1.3626828252619754,-0.48611610282842793,4377.324849894494,0.2638246218375493,88.75651864571175,1.9520060066641192,1.1113177597039516,89842.14019928858,281.6306651687988,0.0,0.0,0.0,363.16249999999997,0.19490667852399834,0.85,nominal,13774.680558345444,nan,fixed_pitch,18.0,0.0,0.0
0.24,20.726399411691368,-0.005844359555542713,1003.3782929003731,88.26415253197953,-0.031822016767107233,13.456782826919403,89.2840783055981,17.955808987832373,-0.09808631042879123,10.27354238115784,0.5908466614779296,0.033200141096469675,-2.882920423411794,3.880655016312133,1.6055080655148546,-0.6017706681071023,4429.340597264154,0.26539400477650565,89.2840783055981,1.9822787434784332,1.1112736923538225,89837.74060309218,281.62804109614757,0.0,0.0,0.0,368.9,0.19798595314081988,0.85,nominal,13825.60305551153,nan,fixed_pitch,18.0,0.0,0.0
0.27,23.391290017674937,-0.006714710587713071,1003.7774441836477,88.82968686611893,-0.029011701072345276,13.305042775818945,89.8205893638976,17.94986940923815,-0.1194106600786789,10.339656966172035,0.7188661297761745,0.052677872240195066,-2.2117844887870457,4.194271975490124,1.8219565191401084,-0.7256465554601825,4482.556898006806,0.2669899961814167,89.8205893638976,2.012762022442553,1.111230123225924,89833.39078870905,281.6254466128063,0.0,0.0,0.0,374.6375,0.20106522775764138,0.85,nominal,13877.563209842525,nan,fixed_pitch,18.0,0.0,0.0
0.3,26.073368443957108,-0.00744056818258526,1004.1722599441725,89.40261420940567,-0.02419525316240628,13.1605253508255,90.36607460986573,17.943837452405422,-0.14174816945914542,10.386561443582494,0.855882108792176,0.07699119207235641,-1.573717607146122,4.489124357706894,2.013639976602523,-0.8571189739314974,4536.991883582335,0.2686126645809726,90.36607460986573,2.043427166595397,1.1111870286251253,89829.08838914549,281.62288031036286,0.0,0.0,0.0,380.375,0.20414450237446288,0.85,nominal,13930.57961317943,nan,fixed_pitch,18.0,0.0,0.0
0.32999999999999996,28.77286219885826,-0.007957400000797527,1004.5629357917301,89.98312516337171,-0.01722772727374225,13.022528251918034,90.92056617198119,17.937713117334187,-0.16488115325470473,10.420801852772172,1.001445538455768,0.10510722311102776,-1.1541129414547497,4.769276434105108,2.1876260594928003,-0.9956857815430336,4592.664957398856,0.27026210620842334,90.92056617198119,2.074261730967444,1.1111443871591877,89824.83126741752,281.62034091735376,0.0,0.0,0.0,386.1125,0.20722377699128441,0.85,nominal,13984.671790798773,nan,fixed_pitch,18.0,0.0,0.0
0.36,31.490001669885437,-0.008196223648133005,1004.9496579827503,90.57131570090593,-0.007960788244515944,12.890739700673777,91.48406670671045,17.93149640402445,-0.1886367824718238,10.446393485958444,1.1552037057683715,0.13631189381318543,-0.8686005145477274,5.037875486626707,2.348190625501459,-1.1409396093315127,4649.592876047248,0.2719383296703389,91.48406670671041,2.105243016579596,1.1111021784596686,89820.61738884111,281.6178272231121,0.0,0.0,0.0,391.84999999999997,0.2103030516081059,0.85,nominal,14039.85679405546,nan,fixed_pitch,18.0,0.0,0.0
0.39,34.225018842814315,-0.008083500131238227,1005.3326079119644,91.16723909762925,0.003757450563159244,12.764997640467787,92.0565623058122,17.925187312476208,-0.21286510244683776,10.463708090475631,1.3168688204186323,0.17027042744066065,-0.5957176457405055,5.297318041628092,2.4958655995503487,-1.292545457936762,4707.790977472088,0.2736412943259045,92.05656230581218,2.136337778555935,1.1110603826914958,89816.44477206504,281.6153380485722,0.0,0.0,0.0,397.5875,0.2133823262249274,0.85,nominal,14096.150351161807,nan,fixed_pitch,18.0,0.0,0.0
0.42,36.97814767418777,-0.007541022899191151,1005.7119600581603,91.77096104578182,0.018082574401569226,12.6450715398645,92.6380453836014,17.91878584268946,-0.23742327274297534,10.472490985667823,1.486204662111099,0.20693835733167656,-0.31457191421709235,5.549392361724292,2.6305971961703394,-1.4502225984924153,4767.275484547382,0.2753709783128758,92.6380453836014,2.145702787785397,1.1110189807770239,89812.31151143463,281.61287225962195,0.0,0.0,0.0,399.47763157894735,0.21439674612793488,0.85,nominal,14153.568919351454,nan,fixed_pitch,18.0,0.0,0.0
0.44999999999999996,39.7494352710371,-0.00648803681187409,1006.0878410402089,92.37625322831114,0.03509953624390204,12.529366068285245,93.22209183745883,17.91235394030562,-0.26195629104266405,10.475300541301422,1.6618214388190322,0.2463982034723492,-0.1187365669283877,5.755895532538578,2.755445467015173,-1.6125903146998406,4827.398322154705,0.2771082861394468,93.22209183745882,2.144260268994288,1.110977958864242,89808.21622305395,281.61042903323863,0.0,0.0,0.0,399.4440789473684,0.21437873867403534,0.85,nominal,14211.530529612768,nan,fixed_pitch,18.0,0.0,0.0
0.48,42.53883545644151,-0.0048449678639274464,1006.4603531380907,92.98000618014711,0.05476896493155478,12.417069929394074,93.80548051436642,17.9059225781454,-0.2861135827250605,10.474157920501433,1.8423816450007064,0.28896371517373026,0.009780541304778645,5.918492622885151,2.8727282876826257,-1.7783943955476353,4887.828732963448,0.2788436429125187,93.8054805143664,2.142920954596097,1.1109373057591327,89804.15778843299,281.6080077046024,0.0,0.0,0.0,399.41052631578947,0.2143607312201358,0.85,nominal,14269.738509367246,nan,fixed_pitch,18.0,0.0,0.0
0.51,45.3463025662048,-0.002527996853999174,1006.8295961745355,93.58223699210953,0.07723236699760908,12.308101214826435,94.38818994344726,17.899491756208796,-0.3094599914315558,10.469081346300152,2.0261107589928087,0.33487012575850367,0.13791688282271136,6.023106933396088,2.9825696488535693,-1.9458491595834841,4948.5631643682955,0.2805769849036903,94.38818994344726,2.14166287284897,1.1108970105373657,89800.13511605159,281.6056076248655,0.0,0.0,0.0,399.3769736842105,0.21434272376623625,0.85,nominal,14328.190659725147,nan,fixed_pitch,18.0,0.0,0.0
0.54,48.171791882967355,0.0005456276628596915,1007.1956661437728,94.18297722541858,0.10245415056196219,12.202332307908339,94.9702090639444,17.89306147449581,-0.33165197524061973,10.459895854425058,2.2117655207804567,0.3842597046469277,0.2721311602421166,6.0871858760237565,3.0849238648849044,-2.1138010284285067,5009.599108535303,0.28230827932455144,94.9702090639444,2.140470794132807,1.1108570626938743,89796.14715628972,281.60322817006545,0.0,0.0,0.0,399.3434210526316,0.21432471631233674,0.85,nominal,14386.885684213481,nan,fixed_pitch,18.0,0.0,0.0
0.57,51.01525988262918,0.004457676853433318,1007.5586542410523,94.78226665539427,0.13040163968578755,12.09960324264989,95.55153308844102,17.88663173300644,-0.3524260974542256,10.447135515237289,2.398511853003434,0.4369580256680429,0.38879331108088416,6.123995231323721,3.180469475452251,-2.281491187922228,5070.934697469592,0.28403751202673144,95.55153308844102,2.139341592670823,1.1108174522486727,89792.19291198811,281.60086874743314,0.0,0.0,0.0,399.3098684210526,0.21430670885843717,0.85,nominal,14445.822814388735,nan,fixed_pitch,18.0,0.0,0.0
0.6,53.87666404345783,0.009289097578817594,1007.9186476262563,95.38013869428826,0.16104735751280919,11.999779506800813,96.1321564400012,17.880202531740686,-0.37158831582787033,10.431589871814095,2.585815946236555,0.4925447861470126,0.47938334686370326,6.143279749689845,3.2701207270751347,-2.4484481778557514,5132.567968759007,0.2857646665090971,96.1321564400012,2.1382750932642396,1.1107781696634336,89788.27143011776,281.5985287904293,0.0,0.0,0.0,399.2763157894737,0.21428870140453765,0.85,nominal,14505.001156646456,nan,fixed_pitch,18.0,0.0,0.0
0.63,56.75596253925984,0.015120184425964344,1008.2757305497147,95.97661652673372,0.19436956157155832,11.902764115280437,96.7120700483149,17.87377387069855,-0.3889996572285541,10.41377152070987,2.7733556019112826,0.5505400863967336,0.5531244179284579,6.151986778225111,3.3544888322176574,-2.6144035621186927,5194.496572147873,0.28748971588344574,96.71207004831491,2.1372671043092666,1.1107392057185634,89784.38178950618,281.59620775142685,0.0,0.0,0.0,399.24276315789473,0.2142706939506381,0.85,nominal,14564.419439510442,nan,fixed_pitch,18.0,0.0,0.0
0.6599999999999999,59.653114094804245,0.02203074420486239,1008.6299847976096,96.57171851814674,0.2303519926299349,11.808474929830268,97.29126353253463,17.86734574988003,-0.4045606926643691,10.393945737751334,2.960954660902125,0.6105547551833262,0.6182509672107515,6.1549277868887,3.433926165446728,-2.779228165715988,5256.717994119718,0.28921262936427905,97.29126353253464,2.136311515004635,1.1107005514645407,89780.5230959778,281.5939050988155,0.0,0.0,0.0,399.20921052631576,0.21425268649673854,0.85,nominal,14624.076220294028,nan,fixed_pitch,18.0,0.0,0.0
0.69,62.5680779525803,0.03010024138540668,1008.9814897220172,97.16546192586871,0.2689832393514763,11.716830813583185,97.86972702304132,17.860918169285128,-0.41819808275148584,10.372373322680478,3.1485362944698174,0.6723495368174425,0.6749033924496898,6.155339403135653,3.508777687932544,-2.9428855148010395,5319.229751842827,0.29093337768405786,97.86972702304132,2.1354043804171954,1.11066219821858,89776.69448201926,281.5916203168069,0.0,0.0,0.0,399.17565789473684,0.21423467904283902,0.85,nominal,14683.970059964733,nan,fixed_pitch,18.0,0.0,0.0
0.72,65.50081381234287,0.03940791940877497,1009.33032240034,97.75786199208576,0.31025593411227653,11.62775594409494,98.44745069479339,17.854491128913843,-0.4298542978932892,10.349374091110736,3.3360891643442883,0.7358239447362587,0.7211077078365544,6.155334955708973,3.5794417985022116,-3.105398955286973,5382.029343826484,0.2926519317063196,98.44745069479339,2.134544027501761,1.1106241375471848,89772.8951050361,281.58935290439774,0.0,0.0,0.0,399.1421052631579,0.21421667158893948,0.85,nominal,14744.099480319182,nan,fixed_pitch,18.0,0.0,0.0
0.75,68.45128172428558,0.050032898383941364,1009.6765579743605,98.34893039809018,0.3541659658388798,11.541185800684143,99.02442382395192,17.848064628766174,-0.4394802239014662,10.325245626770897,3.523643037053659,0.8009769372537521,0.7576007749578546,6.156249131075723,3.646285503937996,-3.266829045460982,5445.114146259733,0.2943682596222417,99.02442382395192,2.133728945593752,1.1105863612291083,89769.1241436539,281.58710237316666,0.0,0.0,0.0,399.10855263157896,0.21419866413503993,0.85,nominal,14804.46287409209,nan,fixed_pitch,18.0,0.0,0.0
0.78,71.41944199066269,0.062054253057250985,1010.0202699484867,98.93867554590365,0.40071182244365394,11.457065804205214,99.60063476496586,17.841638668842123,-0.4470302049457445,10.30021942835968,3.7112522552378104,0.8678670575093173,0.7865838355580492,6.15888978969369,3.7096014417908703,-3.427258339494205,5508.481407573525,0.2960823268832873,99.60063476496587,2.132957046419904,1.1105488612227614,89765.38079446348,281.5848682453348,0.0,0.0,0.0,399.075,0.2141806566811404,0.85,nominal,14865.05850308239,nan,fixed_pitch,18.0,0.0,0.0
0.8099999999999999,74.40525509825001,0.07555107522995475,1010.3615303696783,99.52710358624402,0.4498940724234585,11.3753473730572,100.17607139831881,17.835213249141688,-0.4524590753707424,10.274488734664342,3.898985239959193,0.9365821784398657,0.809332969757398,6.163717586534262,3.769638097865389,-3.5867814074545628,5572.1282953426435,0.297794097532617,100.1760713983188,2.1322264185098216,1.1105116296465545,89761.66427005743,281.58265005259705,0.0,0.0,0.0,399.0414473684211,0.21416264922724088,0.85,nominal,14925.88454220034,nan,fixed_pitch,18.0,0.0,0.0
0.84,77.4086816627023,0.09060252380140915,1010.7004099686739,100.1142188150765,0.5017149523818137,11.295986633184835,100.75072129202624,17.82878836966487,-0.4557205587264754,10.248237192733182,4.086917898670773,1.0072208808973926,0.8261706746060967,6.170972036140336,3.8266292726544178,-3.745498532714357,5636.051912895211,0.29950353468548313,100.75072129202624,2.1315358085655967,1.1104746587634495,89757.97379748695,281.5804473352036,0.0,0.0,0.0,399.0078947368421,0.2141446417733413,0.85,nominal,14986.93909585107,nan,fixed_pitch,18.0,0.0,0.0
0.87,80.42968236995394,0.10728786510342309,1011.0369783177588,100.70002357505444,0.5561780434004645,11.218944969497912,101.32457159179656,17.82236403041167,-0.4567663953542514,10.221636453710607,4.275129431541165,1.079884301711645,0.8375013188126569,6.180757454375633,3.880791399280173,-3.9035119106507947,5700.249286000934,0.30121060020309876,101.32457159179656,2.130884317550598,1.110437940963716,89754.30861653962,281.57825964093456,0.0,0.0,0.0,398.9743421052632,0.2141266343194418,0.85,nominal,15048.2201875504,nan,fixed_pitch,18.0,0.0,0.0
0.8999999999999999,83.46821791899309,0.12568650607990384,1011.3713039850777,101.28451830130507,0.6132880325493582,11.144188910632565,101.89760898183104,17.815940231382086,-0.455545792210581,10.194836475732492,4.463699792482984,1.1546748867322159,0.8440539901062619,6.193099138681215,3.932313965462199,-4.0609234681871405,5764.717357137808,0.3029152545764991,101.89760898183106,2.130271059483372,1.1104014687480688,89750.66797805534,281.576086524097,0.0,0.0,0.0,398.9407894736842,0.21410862686554225,0.85,nominal,15109.72575633233,nan,fixed_pitch,18.0,0.0,0.0
0.9299999999999999,86.52424897270247,0.14587802243875783,1011.7034546596641,101.86770179031271,0.673050545295133,11.071689152877774,102.46981978014088,17.80951697257612,-0.45200503571730194,10.167967424991662,4.6527083278194326,1.2316977221250847,0.846495695220311,6.207978783919011,3.9813620215070973,-4.21783369759562,5829.452994934644,0.30461745721020006,102.4698197801409,2.1296951967141613,1.1103652347140012,89747.05114256118,281.57392754471215,0.0,0.0,0.0,398.90723684210525,0.21409061941164267,0.85,nominal,15171.45366652547,nan,fixed_pitch,18.0,0.0,0.0
0.96,89.59773611553669,0.16794218319774748,1012.0334972530542,102.44957142780771,0.7354720252996549,11.001419779668389,103.04119002617328,17.80309425399377,-0.44608721473103025,10.141146505330672,4.84223312802774,1.3110616741094525,0.8452669531250901,6.22535624847688,4.028083483330653,-4.37434111299396,5894.4530031123195,0.306317166682934,103.04119002617327,2.129156070889198,1.1103292315446782,89743.4573791621,281.5717822678551,0.0,0.0,0.0,398.8736842105263,0.21407261195774313,0.85,nominal,15233.40171684164,nan,fixed_pitch,18.0,0.0,0.0
0.99,92.68863981435861,0.19195897253166985,1012.3614979915632,103.03012329406383,0.8005596444640792,10.933357950298701,103.6117055057183,17.796672075635037,-0.4377320159825569,10.114480367566541,5.0323507429275836,1.3928796912926542,0.8407290755751805,6.245182413600248,4.0726117307038,-4.530542072078594,5959.714122550352,0.3080143408219191,103.6117055057183,2.128653176193924,1.1102934519988477,89739.88596453311,281.5696502630548,0.0,0.0,0.0,398.84013157894736,0.21405460450384362,0.85,nominal,15295.567643180812,nan,fixed_pitch,18.0,0.0,0.0
1.02,95.79692038186722,0.2180086096024261,1012.6875225005945,103.60935225028733,0.8683212356918749,10.867483634377184,104.18135176717534,17.79025043749992,-0.42687556316997816,10.088064519630423,5.223136090916412,1.4772686365541918,0.8332641153990941,6.267406195536707,4.1150651698764,-4.686530790803242,6025.233032455909,0.30970893675142613,104.18135176717533,2.128186066008539,1.1102578889016177,89736.33618199828,281.5675311037461,0.0,0.0,0.0,398.8065789473684,0.21403659704994404,0.85,nominal,15357.94912054842,nan,fixed_pitch,18.0,0.0,0.0
1.05,98.92253794364446,0.24617156688693506,1013.0116358766417,104.18725205924102,0.9387652428169655,10.803779201574345,104.75011416162425,17.783829339588422,-0.4134502859373981,10.061984018064086,5.414662485390883,1.5643490102879878,0.8232321527174233,6.291977930568703,4.155548148656722,-4.842399445630123,6091.0063543732285,0.31140091101207995,104.75011416162424,2.127754327527289,1.1102225351365953,89732.80732074523,281.56542436680184,0.0,0.0,0.0,398.7730263157895,0.21401858959604453,0.85,nominal,15420.543767406323,nan,fixed_pitch,18.0,0.0,0.0
1.08,102.0654524087548,0.27652858731189495,1013.3339027472548,104.76381550367812,1.0119006808319964,10.74222902043636,105.31797788698795,17.77740878190054,-0.3973848096301666,10.036315399261696,5.607001715608801,1.654244731961403,0.8109299853911267,6.3188507368619735,4.194153093661214,-4.998238307633108,6157.030656832801,0.31309021969229006,105.31797788698793,2.1273575988325795,1.1101873836393155,89729.29867516886,281.5633296321428,0.0,0.0,0.0,398.7394736842105,0.21400058214214498,0.85,nominal,15483.349150478407,nan,fixed_pitch,18.0,0.0,0.0
1.1099999999999999,105.22562344305305,0.30916070034821996,1013.6543873221452,105.33903447660855,1.0877371012108348,10.682819163016035,105.88492801969116,17.770988764436275,-0.3786038538652555,10.011128018065978,5.800224134917497,1.747083074093951,0.7966109114267313,6.347980825675465,4.230961983569335,-5.1541358805675035,6223.302458705654,0.3147768185224882,105.88492801969116,2.1269955612283926,1.1101524273916614,89725.80954431389,281.56124648240603,0.0,0.0,0.0,398.7059210526316,0.21398257468824547,0.85,nominal,15546.362788300303,nan,fixed_pitch,18.0,0.0,0.0
1.14,108.40301044479384,0.3441492371552256,1013.9731534367592,105.91290005802601,1.1662845602335212,10.625537153798518,106.45094954101441,17.764569287195627,-0.3570281292631989,9.986484655003556,5.994398738907827,1.8429947746814228,0.7805091422385317,6.3793272815596715,4.266047055202646,-5.3101790285059725,6289.818232057227,0.3164606629535747,106.45094954101441,2.1266679116395015,1.1101176594170903,89722.33923139785,281.55917450266105,0.0,0.0,0.0,398.6723684210526,0.2139645672343459,0.85,nominal,15609.582154242391,nan,fixed_pitch,18.0,0.0,0.0
1.17,111.59757252255415,0.38157584483666707,1014.290264588095,106.48540259201033,1.2475535893813816,10.570371711198348,107.01602736624922,17.758150350178596,-0.3325742275979599,9.962442187847397,6.189593232342756,1.9421142625837435,0.7628376971620251,6.4128516207854185,4.299471567085612,-5.46645308727873,6356.574405440679,0.31814170824367205,107.01602736624922,2.1263743467687233,1.1100830727767146,89718.88704341954,281.55711328017736,0.0,0.0,0.0,398.6388157894737,0.21394655978044638,0.85,nominal,15673.004679849742,nan,fixed_pitch,18.0,0.0,0.0
1.2,114.80926847535648,0.42152249983545975,1014.6057839631202,107.05653176007773,1.3315551666264236,10.517312500839632,107.58014637422009,17.751731953385182,-0.30515450500953456,9.93905245323835,6.385874084319081,2.0445799045935913,0.7437821102428452,6.448517322717504,4.3312907356078325,-5.623041959835596,6423.567367350604,0.3198199095459453,107.58014637422009,2.1261145586781596,1.1100486605661926,89715.45229084814,281.5550624042397,0.0,0.0,0.0,398.60526315789474,0.21392855232654684,0.85,nominal,15736.627758251241,nan,fixed_pitch,18.0,0.0,0.0
1.23,118.03805677472626,0.4640715204668868,1014.9197744607384,107.62627664565925,1.4183006877142366,10.466349920604989,108.14329143367745,17.745314096815385,-0.274676958966435,9.916362976478094,6.583306570899817,2.1505342284006446,0.7235048693432552,6.486289421840309,4.3615525113739535,-5.780028197888909,6490.793469418203,0.3214952219871028,108.14329143367746,2.1258882267701504,1.1100144159133132,89712.034287382,281.5530214660052,0.0,0.0,0.0,398.57171052631577,0.21391054487264727,0.85,nominal,15800.448747270046,nan,fixed_pitch,18.0,0.0,0.0
1.26,121.28389554849655,0.5093055785848628,1015.2322987079376,108.19462579234309,1.507801937265865,10.417474906640479,108.70544742770558,17.738896780469204,-0.24104509954662626,9.894417518423731,6.781954807114026,2.2601241203481437,0.7021515597157068,6.526134176600364,4.390298151168089,-5.937493072188027,6558.249029471689,0.3231676007399765,108.70544742770556,2.1256950056041783,1.1099803319762305,89708.63234977178,281.5509900583984,0.0,0.0,0.0,398.5381578947368,0.21389253741874772,0.85,nominal,15864.464972353026,nan,fixed_pitch,18.0,0.0,0.0
1.29,124.5467425662698,0.5573077103785334,1015.5434190703905,108.76156725910833,1.600071059789021,10.370678748431828,109.26659927789962,17.73248000434664,-0.20415781562893168,9.873256588172726,6.981881771234369,2.3735010082825827,0.6798520532564233,6.5680188102058565,4.417562741020058,-6.095516633536719,6625.93033466545,0.32483700109539915,109.26659927789963,2.1255345153175247,1.1099464019422922,89705.24579770345,281.54896777604245,0.0,0.0,0.0,398.5046052631579,0.2138745299648482,0.85,nominal,15928.673729505192,nan,fixed_pitch,18.0,0.0,0.0
1.3199999999999998,127.8265552264391,0.6081613262955172,1015.8531976578349,109.32708867231008,1.6951205305661246,10.325952914812653,109.82673196801964,17.726063768447695,-0.1639092364626289,9.852917953350142,7.183149323153287,2.490821037518053,0.65672063943841,6.611911315354482,4.443375701342986,-6.254177766518116,6693.833644640821,0.3265033785325077,109.82673196801963,2.1254063347486314,1.1099126190274433,89701.8739537382,281.54695421522405,0.0,0.0,0.0,398.4710526315789,0.21385652251094864,0.85,nominal,15993.07228819882,nan,fixed_pitch,18.0,0.0,0.0
1.3499999999999999,131.1232905446544,0.6619502200873448,1016.1616963246394,109.89117727384348,1.7929631263942531,10.283288893481586,110.3858305665664,17.719648072772365,-0.1201885886918399,9.83343709315786,7.38581821787957,2.6122452472373814,0.6328579864459306,6.657780308767209,4.467761218051998,-6.413554237445016,6761.955194647645,0.3281666887858264,110.38583056656641,2.1253099940023237,1.1098789764761527,89698.516143305,281.5449489738898,0.0,0.0,0.0,398.4375,0.21383851505704912,0.85,nominal,16057.657894197377,nan,fixed_pitch,18.0,0.0,0.0
1.38,134.4369051436453,0.7187585769759866,1016.4689766658637,110.45381996636343,1.8936118962880573,10.24267804081187,110.94388024863434,17.713232917320653,-0.07288004863053438,9.814847590994468,7.589948115027349,2.7379397525899187,0.6083532109649586,6.705594918761052,4.490738598279405,-6.573722737473164,6830.291198665038,0.329826887910183,110.94388024863433,2.1252449663950483,1.1098454675618374,89695.17169474243,281.54295165167184,0.0,0.0,0.0,398.40394736842103,0.21382050760314958,0.85,nominal,16122.42777233195,nan,fixed_pitch,18.0,0.0,0.0
1.41,137.76735524433946,0.7786709809445599,1016.7751000090283,111.01500335647145,1.9970801322857763,10.204111438819396,111.50086631747749,17.706818302092557,-0.02186258956247753,9.797181497808939,7.795597584901537,2.868075933267948,0.58328491157325,6.755324693457071,4.512322583510376,-6.734758921434326,6898.8378525717,0.33148393234475726,111.50086631747747,2.1252106611615873,1.1098120855877447,89691.83993938663,281.5409618499413,0.0,0.0,0.0,398.3703947368421,0.21380250014925004,0.85,nominal,16187.379129277528,nan,fixed_pitch,18.0,0.0,0.0
1.44,141.11459665822233,0.8417724211580531,1017.0801274017939,111.5747137960958,2.1033813404497743,10.167579758854256,112.05677422582139,17.70040422708808,0.03299017610769139,9.780469672271638,8.002824111421367,3.002830626975198,0.5577220017785298,6.806939521960681,4.5325236263807644,-6.896737442731611,6967.591337368071,0.3331377789763569,112.05677422582137,2.1252064167575146,1.109778823888288,89688.52021170422,281.53897917188834,0.0,0.0,0.0,398.33684210526314,0.2137844926953505,0.85,nominal,16252.509156333155,nan,fixed_pitch,18.0,0.0,0.0
1.47,144.47858478089051,0.908148297522705,1017.3841195957397,112.13293742227327,2.2125292121550633,10.13307313152481,112.61158959694568,17.693990692307217,0.09181016002988943,9.764742090211795,8.211684091944777,3.14238632689294,0.5317247971848941,6.860409562841897,4.551348123737335,-7.059731984451968,7036.547822451848,0.33478838520199683,112.61158959694566,2.1252314940583443,1.1097456758308089,89685.2118494679,281.5370032226277,0.0,0.0,0.0,398.30328947368423,0.21376648524145098,0.85,nominal,16317.815032209022,nan,fixed_pitch,18.0,0.0,0.0
1.5,147.85927458676437,0.9778844253965489,1017.6871370263799,112.68966019579503,2.3245375957947974,10.100581021340766,113.16529824573735,17.687577697749973,0.154734966610653,9.750028127151186,8.422232833977759,3.2869313832719174,0.505345977422929,6.915705175834115,4.5687986104345635,-7.2238152867026955,7105.703468970355,0.33643570899137587,113.16529824573735,2.1252850695314143,1.1097126348177455,89681.9141939726,281.5350336093285,0.0,0.0,0.0,398.2697368421052,0.21374847778755138,0.85,nominal,16383.293925843089,nan,fixed_pitch,18.0,0.0,0.0
1.53,151.25662062493797,1.0510670394678086,1017.9892397895245,113.24486793911943,2.439420469041987,10.070092104819578,113.7178861998979,17.681165243416345,0.2219080674429222,9.736356821781918,8.634524548676108,3.4366602094625063,0.4786312888497957,6.972796854672295,4.58487392217434,-7.389059170106476,7175.054433272314,0.33807970894979406,113.7178861998979,2.125366228628859,1.1096796942892013,89678.62659029156,281.53306994136807,0.0,0.0,0.0,398.2361842105263,0.21373047033365186,0.85,nominal,16448.942999268405,nan,fixed_pitch,18.0,0.0,0.0
1.56,154.67057701615238,1.1277827968220653,1018.2904876140643,113.7985463738138,2.55719191180856,10.041594151328809,114.2693397214094,17.674753329306334,0.29347898166269043,9.723757122317089,8.848612341007504,3.591773492704508,0.45162018526071185,7.031655160215917,4.599569329458032,-7.555534555354592,7244.596870472401,0.3397203443818253,114.2693397214094,2.1254739592870595,1.1096468477259018,89675.34838757117,281.53111183050856,0.0,0.0,0.0,398.2026315789473,0.21371246287975232,0.85,nominal,16514.7594105439,nan,fixed_pitch,18.0,0.0,0.0
1.5899999999999999,158.10109745088627,1.2081187792239836,1018.59093983124,114.35068115779663,2.6778660800639424,10.015073905857031,114.81964532837836,17.66834195541994,0.3696034624397165,9.712258116293848,9.064548196431648,3.7524784100549287,0.4243464515000416,7.092250653383372,4.612876643376772,-7.72331147868442,7314.326938144342,0.341357575356096,114.81964532837839,2.125607145405687,1.1096140886525387,89672.07893936438,281.5291588910969,0.0,0.0,0.0,398.1690789473684,0.21369445542585278,0.85,nominal,16580.740316763327,nan,fixed_pitch,18.0,0.0,0.0
1.6199999999999999,161.5481351885666,1.2921624946450785,1018.8906553404235,114.90125792267706,2.8014571807031645,9.990516972781757,115.36878981740387,17.661931121757164,0.45044368981401334,9.701889246724347,9.282382963939448,3.918988849722455,0.3968387326631384,7.154553827698857,4.624784296310649,-7.89245910312032,7384.240800162269,0.3429913627716059,115.36878981740388,2.1257645603595194,1.1095814106414907,89668.81760400189,281.5272107402872,0.0,0.0,0.0,398.13552631578943,0.21367644797195323,0.85,nominal,16646.88287716032,nan,fixed_pitch,18.0,0.0,0.0
1.65,165.01164305791005,1.3800018780754,1019.1896925714186,115.45026231144905,2.92797944767738,9.967907699839623,115.91676028659934,17.655520828318004,0.5361684700850732,9.692680517270015,9.50216633527887,4.091525637903922,0.36912097610464817,7.2185350414980505,4.635277400284279,-8.063045725299117,7454.33463070873,0.34462166842597675,115.91676028659934,2.125944860583083,1.109548807316926,89665.56374500119,281.52526699828576,0.0,0.0,0.0,398.1019736842105,0.21365844051805372,0.85,nominal,16713.18425632597,nan,fixed_pitch,18.0,0.0,0.0
1.68,168.49157345841294,1.4717252916641699,1019.4881094432667,115.99768001676314,3.05744711962566,9.947229061603718,116.46354415938359,17.64911107510246,0.6269534419561217,9.68466268782124,9.723946820189763,4.27031677117125,0.34121282921544904,7.284164449871557,4.644337784352709,-8.235138777681549,7524.604618466372,0.3462484550859692,116.46354415938357,2.1261465792033944,1.1095162723592806,89662.3167315133,281.52332728861876,0.0,0.0,0.0,398.06842105263155,0.21364043306415414,0.85,nominal,16779.641627554156,nan,fixed_pitch,18.0,0.0,0.0
1.71,171.98787836301275,1.5674215242425698,1019.7859633195194,116.54349681999409,3.189874419279998,9.928462541756856,117.00912920915965,17.642701862110535,0.7229812896358496,9.677867461921414,9.947771717457414,4.455597654492226,0.31312999089769444,7.3514119363599875,4.6519440124303015,-8.40880482592653,7595.046971011441,0.3478716865606225,117.00912920915964,2.126368119731224,1.1094837995101303,89659.07593880863,281.5213912384231,0.0,0.0,0.0,398.03486842105264,0.21362242561025463,0.85,nominal,16846.252176330272,nan,fixed_pitch,18.0,0.0,0.0
1.74,175.50050932195205,1.667179790291097,1020.0833109599233,117.08769863130946,3.3252755349509053,9.911588013465924,117.553503584999,17.636293189342226,0.8244419631014761,9.672327667730077,10.17368708157493,4.647611344980287,0.2848845080131426,7.420247044389847,4.658071383198008,-8.584109561178385,7665.657919427448,0.34949132777736464,117.553503584999,2.126607749858378,1.1094513825774437,89655.840748801,281.5194584787605,0.0,0.0,0.0,398.00131578947367,0.21360441815635509,0.85,nominal,16913.01310397932,nan,fixed_pitch,18.0,0.0,0.0
1.77,179.02941746787968,1.7710897284242393,1020.3802084684397,117.63027153092115,3.4636646044380752,9.896583617214064,118.09665583843933,17.629885056797534,0.9315329057287182,9.668077433880823,10.401737684785918,4.84660880147248,0.2564850278726854,7.490638908415864,4.662691913337268,-8.761117786988834,7736.433723156841,0.351107344861414,118.09665583843935,2.126863595401199,1.1094190154412427,89652.61055061215,281.5175286449551,0.0,0.0,0.0,397.96776315789475,0.21358641070245554,0.85,nominal,16979.921631488418,nan,fixed_pitch,18.0,0.0,0.0
1.7999999999999998,182.57455352223022,1.8792413994768058,1020.6767112375038,118.17120181168458,3.6050557017522196,9.883425635469967,118.63857495149917,17.62347746447646,1.044459289497957,9.665152361342644,10.631966974257828,5.052849140042248,0.22793701472579544,7.562556184690255,4.665774305060897,-8.939893400562932,7807.370675108228,0.35271970521877943,118.63857495149915,2.1271336344352787,1.1093866920596664,89649.38474117678,281.5156013769562,0.0,0.0,0.0,397.9342105263158,0.213568403248556,0.85,nominal,17046.975003518506,nan,fixed_pitch,18.0,0.0,0.0
1.8299999999999998,186.13586780292607,1.9917252842892128,1020.9728738884113,118.71047602319557,3.7494628270802313,9.872088363582654,119.17925036600847,17.617070412379,1.1634342579912498,9.66358969240346,10.864417024109338,5.266599895546554,0.19924292960550025,7.635966981549118,4.667283898900476,-9.12049936798274,7878.465107036686,0.35432837762315295,119.17925036600849,2.1274156916901292,1.1093544064754592,89646.16272588939,281.5136763197253,0.0,0.0,0.0,397.9006578947368,0.21355039579465646,0.85,nominal,17114.170492619654,nan,fixed_pitch,18.0,0.0,0.0
1.8599999999999999,189.71331023345155,2.1086322813034784,1021.2687502077007,119.24808101751559,3.896899900475513,9.862543976311178,119.7186720143477,17.61066390050516,1.2886791774006843,9.663428477809973,11.099128481985536,5.4881372892959295,0.17040237598195487,7.710838789095206,4.667182612600839,-9.302997693024256,7949.713395214147,0.35593333230696633,119.71867201434772,2.1277074332872945,1.1093221528228983,89642.94391929562,281.5117531236499,0.0,0.0,0.0,397.8671052631579,0.2135323883407569,0.85,nominal,17181.50540366383,nan,fixed_pitch,18.0,0.0,0.0
1.89,193.30683035335062,2.230053704097763,1021.5643930793832,119.78400399663596,4.047380759809483,9.854762389417763,120.25683035168048,17.604257928854935,1.4204238957754582,9.664709742955091,11.336140509843661,5.717746502928966,0.14141221557694925,7.787138408139098,4.665428866809835,-9.487449379141742,8021.111966406401,0.35753454105686894,120.25683035168049,2.1280063619175458,1.109289925335164,89639.72774582724,281.509831444984,0.0,0.0,0.0,397.8335526315789,0.21351438088685737,0.85,nominal,17248.977078508364,nan,fixed_pitch,18.0,0.0,0.0
1.92,196.91637733020374,2.3560812790051533,1021.8598544128562,120.31823256177091,4.2009191635796705,9.848711115764814,120.79371638975725,17.597852497428327,1.5589070107432639,9.667476653935694,11.575490718576761,5.955721958564878,0.11226665614138646,7.86483187825069,4.661977498170901,-9.673914384149203,8092.657304172431,0.3591319773138511,120.79371638975725,2.1283098125729025,1.109257718352188,89636.51364058504,281.50791094631643,0.0,0.0,0.0,397.8,0.21349637343295785,0.85,nominal,17316.58290090239,nan,fixed_pitch,18.0,0.0,0.0
1.95,200.54189997314015,2.4868071429821876,1022.1551850663172,120.85075476454682,4.357528799234471,9.844355115369396,121.32932173235905,17.591447606225337,1.7043761459512654,9.67177468425048,11.817215096063807,6.202367605308029,0.08295731242159608,7.943884404762911,4.656779660364291,-9.86245156708084,8164.345955501146,0.3607256162782195,121.32932173235903,2.128614948971479,1.1092255263289894,89633.3010501703,281.50599129706893,0.0,0.0,0.0,397.76644736842104,0.21347836597905828,0.85,nominal,17384.320301647746,nan,fixed_pitch,18.0,0.0,0.0
1.98,204.18334674794403,2.6223238419145356,1022.4504347654838,121.38155916012951,4.517223297744934,9.841656638883586,121.86363861244006,17.585043255245964,1.8570882364828574,9.677651782830809,12.061347928192841,6.4579972121691025,0.0534732422489185,8.024260284560095,4.649782713561739,-10.053118626660822,8236.174537799276,0.36231543501959795,121.86363861244006,2.1289187608356013,1.1091933438445212,89630.08943356719,281.5040721740243,0.0,0.0,0.0,397.7328947368421,0.21346035852515877,0.85,nominal,17452.186764024627,nan,fixed_pitch,18.0,0.0,0.0
2.01,207.84066579381314,2.7627243295714496,1022.7456520174034,121.91063486230348,4.680016255230472,9.840575063983248,122.3966599310169,17.578639444490207,2.0173098235191613,9.685158544033392,12.307921712357675,6.7229346674702315,0.02380095917904859,8.1059228304711,4.640930102696676,-10.24597203075754,8308.139746243107,0.36390141259209435,122.3966599310169,2.1292180622097447,1.1091611656110483,89626.87826307831,281.50215326188686,0.0,0.0,0.0,397.69934210526316,0.21344235107125922,0.85,nominal,17520.179829490968,nan,fixed_pitch,18.0,0.0,0.0
2.04,211.51380494182771,2.908101967447306,1023.0408840191283,122.43797160048584,4.845921262528551,9.841066724162728,122.92837929783923,17.572236173958068,2.185317358528841,9.694348380174377,12.556967062878245,6.997514284795774,-0.006075577484932052,8.188834294072265,4.630161224910521,-10.441066936137792,8380.23836150505,0.36548353015473567,122.92837929783923,2.129509491035245,1.1091289864840888,89623.6670253161,281.50023425387565,0.0,0.0,0.0,397.66578947368424,0.2134243436173597,0.85,nominal,17588.2971036629,nan,fixed_pitch,18.0,0.0,0.0
2.07,215.2027117351864,3.0585505257579655,1023.3361765610118,122.96355977862306,5.014951943688643,9.843084729450817,123.45879107386263,17.565833443649545,2.3613975172865187,9.7052776971329,12.808512607739315,7.282081115549735,-0.036174994492341,8.272955786689092,4.6174112864975525,-10.638457097772449,8452.46725786422,0.36706177109723087,123.45879107386261,2.129789510232238,1.1090968014729359,89620.45522225254,281.4983148523534,0.0,0.0,0.0,397.6322368421052,0.2134063361634601,0.85,nominal,17656.536262581874,nan,fixed_pitch,18.0,0.0,0.0
2.1,218.90733345126276,3.2141641858920185,1023.6315739243694,123.48739053587892,5.187122004468433,9.846578778584078,123.98789041552719,17.559431253564643,2.545847524039281,9.718006073498032,13.062584875982147,7.576991268182526,-0.06651855750905641,8.358247198363461,4.6026111496375925,-10.838194766876038,8524.823411707946,0.36863612117107236,123.9878904155272,2.130054410576595,1.1090646057517968,89617.24237233006,281.4963947694916,0.0,0.0,0.0,397.5986842105263,0.2133883287095606,0.85,nominal,17724.895059271807,nan,fixed_pitch,18.0,0.0,0.0
2.13,222.6276171255321,3.3750375446525007,1023.9271187732353,124.00945580897825,5.362445292016075,9.851494962197691,124.51567332082736,17.553029603703358,2.738975486162814,9.732596443689669,13.31920817501731,7.8826122341521065,-0.09713024478950966,8.444667114528965,4.585687169191115,-11.040330576788593,8597.303910428513,0.37020656862592927,124.51567332082736,2.130300315702509,1.1090323946715717,89614.02801163649,281.49447372797397,0.0,0.0,0.0,397.56513157894733,0.21337032125566102,0.85,nominal,17793.371330587048,nan,fixed_pitch,18.0,0.0,0.0
2.16,226.36350957741274,3.541265620663596,1024.222852039934,124.52974839602143,5.540935867036516,9.85777555662363,125.04213667713688,17.54662849406569,2.941100739673975,9.749115285436082,13.5784044570545,8.19932322069006,-0.12803684141194183,8.53217273010782,4.566561019821221,-11.244913415727995,8669.905961716471,0.371773104351225,125.04213667713688,2.130523189609149,1.109000163772303,89610.81169514672,281.4925514617404,0.0,0.0,0.0,397.5315789473684,0.2133523138017615,0.85,nominal,17861.96300434931,nan,fixed_pitch,18.0,0.0,0.0
2.19,230.11495743805858,3.71294386335949,1024.5188128041716,125.04826202152816,5.7226080898631215,9.865358807921552,125.56727831072857,17.54022792465164,3.1525542059956773,9.76763281194339,13.840193173765625,8.527515490453396,-0.15926805402923902,8.620719760710136,4.54514951370705,-11.451990285355325,8742.626903248185,0.373335722022717,125.56727831072855,2.130718847103415,1.1089679087963384,89607.59299803564,281.49062771677285,0.0,0.0,0.0,397.49802631578945,0.21333430634786196,0.85,nominal,17930.66810676801,nan,fixed_pitch,18.0,0.0,0.0
2.2199999999999998,233.88190718013078,3.8901681650191424,1024.8150381653459,125.56499140240628,5.9074767219884246,9.874178705810936,126.09109703790148,17.533827895461204,3.373678760403321,9.788223169045915,14.104591118210578,8.867592708153856,-0.19085664632568056,8.710262350574892,4.52136440912599,-11.66160614400307,8815.464212761104,0.37489441825381786,126.09109703790148,2.1308829676713796,1.1089356257022158,89604.37151706302,281.48870225192525,0.0,0.0,0.0,397.46447368421053,0.21331629889396245,0.85,nominal,17999.48477013493,nan,fixed_pitch,18.0,0.0,0.0
2.25,237.66430514956488,4.073034876361649,1025.1115631077625,126.07993231447037,6.095557044750227,9.884164747225316,126.61359271759697,17.527428406494387,3.6048296126203514,9.81096463757633,14.371612252959398,9.219971294275002,-0.222838595483979,8.800752976850026,4.49511221020385,-11.873803733316874,8888.415518505746,0.37644919275130284,126.61359271759699,2.13101111333875,1.108903310679335,89601.14687203678,281.4867748397995,0.0,0.0,0.0,397.43092105263156,0.21329829144006288,0.85,nominal,18068.411240779504,nan,fixed_pitch,18.0,0.0,0.0
2.28,241.46209759933652,4.2616408262723064,1025.4084203584407,126.59308165905487,6.2868649970219215,9.895241689272718,127.1347663053503,17.521029457751187,3.846374700074726,9.835939841141634,14.641267523240133,9.58508078601321,-0.2552532701351912,8.892142349753737,4.466293958165673,-12.088623386954769,8961.478610057586,0.37800004847494567,127.1347663053503,2.1310987511564603,1.1088709601634261,89597.91870735596,281.4848452676701,0.0,0.0,0.0,397.39736842105265,0.21328028398616336,0.85,nominal,18137.44588726612,nan,fixed_pitch,18.0,0.0,0.0
2.31,245.27523072521183,4.456083346289876,1025.7056402371845,127.10443752917696,6.481417333918995,9.907329291462222,127.65461990838538,17.514631049231603,4.098695094378784,9.863235959436656,14.913564653826528,9.963364205607155,-0.28814363050631486,8.98437930810283,4.434805014468693,-12.306102819873288,9034.651449466053,0.37954699180051,127.65461990838538,2.1311412810327917,1.1088385708528636,89594.6866936375,281.4829133384583,0.0,0.0,0.0,397.3638157894737,0.21326227653226382,0.85,nominal,18206.587208809156,nan,fixed_pitch,18.0,0.0,0.0
2.34,249.10365070344994,4.656460300551103,1026.003250498599,127.6139992746038,6.679231808707557,9.920342047147962,128.1731568416158,17.508233180935637,4.362185421653448,9.89294494716299,15.18850792825431,10.355278436258006,-0.32155645151799084,9.077410709622066,4.400534836256919,-12.526276896607474,9107.932182710423,0.3810900326853876,128.1731568416158,2.131134069727966,1.1088061397258493,89591.45052943025,281.4809788717591,0.0,0.0,0.0,397.33026315789476,0.21324426907836427,0.85,nominal,18275.833843874807,nan,fixed_pitch,18.0,0.0,0.0
2.37,252.94730373040193,4.862870121959666,1026.3012761657267,128.12176756506656,6.880327380285445,9.934188904250341,128.69038168426644,17.501835852863287,4.637254297384958,9.92516375855586,15.466097948816088,10.761294605896252,-0.3555425698980937,9.171181315372104,4.363366744654891,-12.749177376820075,9181.319151424696,0.3826291848360349,128.69038168426644,2.1310724919332333,1.108773664058512,89588.20994302008,281.47904170492274,0.0,0.0,0.0,397.29671052631574,0.2132262616244647,0.85,nominal,18345.184578931716,nan,fixed_pitch,18.0,0.0,0.0
2.4,256.80613606392404,5.075411855423728,1026.5997393549899,128.62774445073777,7.084724448802048,9.948772975443731,129.2063003367741,17.495439065014555,4.924324776579796,9.959994577444785,15.746331375633641,11.181898479108966,-0.3901571564555745,9.265633667542462,4.323177686509323,-12.97483263625498,9254.810904843973,0.3841644658761863,129.2063003367741,2.1309519794739575,1.1087411414439527,89584.96469432917,281.4771016941925,0.0,0.0,0.0,397.2631578947368,0.2132082541705652,0.85,nominal,18414.63835730395,nan,fixed_pitch,18.0,0.0,0.0
2.4299999999999997,260.6800940664925,5.294185209089402,1026.8986590921345,129.13193341894814,7.292445122189144,9.963991238152781,129.72092007756413,17.48904281738944,5.223834820072533,9.997545052690361,16.02920064294001,11.61759085761632,-0.42546001490913415,9.36070795975227,4.279837990299368,-13.203267361079801,9328.4062119147,0.385695897514648,129.72092007756413,2.1307680798067286,1.1087085698122627,89581.71457691245,281.4751587159011,0.0,0.0,0.0,397.22960526315785,0.21319024671666562,0.85,nominal,18484.194288070772,nan,fixed_pitch,18.0,0.0,0.0
2.46,264.5691242498714,5.519290614587146,1027.1980511188808,129.63433944596392,7.503513516591472,9.979734224880083,130.23424961923155,17.48264710998794,5.536237777943994,10.037928538743431,16.314693650521015,12.06888798977882,-0.4615159088245633,9.456341898883716,4.233211117067483,-13.4345022134426,9402.104073499442,0.38722350571126396,130.23424961923152,2.130516525124647,1.1086759474515544,89578.45942005503,281.47321266772724,0.0,0.0,0.0,397.19605263157894,0.2131722392627661,0.85,nominal,18553.851654947128,nan,fixed_pitch,18.0,0.0,0.0
2.4899999999999998,268.4731733211455,5.750829297404494,1027.4979276900187,130.1349690424718,7.717956093911602,9.995885704599905,130.74629916357887,17.47625194281006,5.862002891125262,10.08126434096564,16.602793428065503,12.536321989727952,-0.4983949184721674,9.55247055733758,4.183153407378969,-13.668553465897057,9475.903734593887,0.38874732083942676,130.74629916357887,2.1301933135437308,1.1086432730300297,89575.19909097298,281.47126347001483,0.0,0.0,0.0,397.16249999999997,0.21315423180886656,0.85,nominal,18623.60992506735,nan,fixed_pitch,18.0,0.0,0.0
2.52,272.3921882298823,5.988903358602032,1027.7982973607047,130.63383029122724,7.935802039917925,10.0123223562011,131.25708045487835,17.469857315855794,6.201615812398928,10.127677965226766,16.89347776995346,13.020441266846882,-0.5361728296090508,9.649026214444968,4.129513825498775,-13.905432602169647,9549.804696458934,0.39026737784324805,131.25708045487835,2.1297948040171715,1.1086105456191138,89571.93349712038,281.4693110671554,0.0,0.0,0.0,397.12894736842105,0.213136224354967,0.85,nominal,18693.468757581562,nan,fixed_pitch,18.0,0.0,0.0
2.55,276.32611621613563,6.233615869200204,1028.0991647637622,131.13093287510964,8.157083686605711,10.028913435252132,131.76660683063284,17.463463229125146,6.5555791481655366,10.177301371154977,17.1867188377694,13.52181096648797,-0.574931556498057,9.745938185593351,4.07213370218598,-14.145145881549931,9623.806728554642,0.3917837163872316,131.76660683063284,2.1293178268137734,1.1085777647176744,89568.66258860448,281.46735542903554,0.0,0.0,0.0,397.0953947368421,0.21311821690106747,0.85,nominal,18763.428011959837,nan,fixed_pitch,18.0,0.0,0.0
2.58,280.27490485894344,6.48507097868262,1028.400530376833,131.6262880935947,8.3818369827472,10.045520435698398,132.27489326900766,17.457069682618116,6.924413022522969,10.230273228255554,17.482482727562903,14.041013423007039,-0.6147596017160787,9.843132637420714,4.010846477749451,-14.387693863981644,9697.909880144536,0.3932963809959834,132.27489326900766,2.1287598116018063,1.1085449302773378,89565.38636071036,281.46539655255054,0.0,0.0,0.0,397.06184210526317,0.21310020944716795,0.85,nominal,18833.487755883656,nan,fixed_pitch,18.0,0.0,0.0
2.61,284.2385021249054,6.743374039187064,1028.702390279288,132.119908865397,8.610102016814787,10.061996748493302,132.78195643199214,17.4506766763347,7.3086556654135455,10.286739173930487,17.780728998586415,14.57864862642304,-0.6557525556394458,9.940532387203021,3.9454774472893135,-14.633070892717647,9772.114491418854,0.39480542118115985,132.7819564319921,2.1281189353993337,1.1085120427289321,89562.1048565377,281.4634344631846,0.0,0.0,0.0,397.0282894736842,0.21308220199326838,0.85,nominal,18903.648272586106,nan,fixed_pitch,18.0,0.0,0.0
2.6399999999999997,288.21685641634804,7.008631747088312,1029.0047358988766,132.61180971475497,8.841923596708286,10.078187319616994,133.2878147032267,17.444284210274905,7.708864026831488,10.346852072224173,18.081410159919898,15.135334704281503,-0.6980136389252417,10.038056684293526,3.875843510374061,-14.88126453117506,9846.421203962782,0.396310891552489,133.2878147032267,2.1273942928857488,1.1084791030100227,89558.81816974674,281.4614692166573,0.0,0.0,0.0,396.9947368421052,0.21306419453936884,0.85,nominal,18973.910067483564,nan,fixed_pitch,18.0,0.0,0.0
2.67,292.2099166185037,7.280952303817064,1029.3075537481902,133.10200673852236,9.077351890958395,10.093928310458956,133.79248821929662,17.437892284438725,8.125614419356674,10.410772271877683,18.3844711110393,15.71170842062504,-0.7416542915572294,10.135620971173344,3.801752927770684,-15.132254950389624,9920.830970371739,0.39781285190929605,133.79248821929662,2.126586091813078,1.1084461125935732,89555.52644741604,281.4595009006367,0.0,0.0,0.0,396.9611842105263,0.21304618708546932,0.85,nominal,19044.273873920003,nan,fixed_pitch,18.0,0.0,0.0
2.6999999999999997,296.2176321450306,7.560445597906321,1029.6108251511146,133.59051755089695,9.316443136308592,10.10904676414104,134.2959988931471,17.43150089882616,8.559503191594647,10.478667862003169,18.68984853199838,16.308425694345534,-0.7867948126913948,10.233136621325858,3.7230050882726604,-15.386014263218984,9995.345062788596,0.3993113673085367,134.2959988931471,2.1256958765072116,1.1084130735176814,89552.22989300777,281.45752963651773,0.0,0.0,0.0,396.92763157894734,0.21302817963156975,0.85,nominal,19114.74065782226,nan,fixed_pitch,18.0,0.0,0.0
2.73,300.2399529810982,7.847223410410014,1029.914525959576,134.0773612022536,9.559260416789755,10.123360282046935,134.79837042811647,17.425110053437216,9.011147435463306,10.550714923375105,18.997470218466738,16.926162139643143,-0.8335650559516885,10.330510650756647,3.6393902891543424,-15.642505801185274,10069.96508010851,0.40080650810486407,134.7983704281165,2.124726782701082,1.108379988416371,89548.92876943783,281.45555558126273,0.0,0.0,0.0,396.8940789473684,0.21301017217767024,0.85,nominal,19185.311621039327,nan,fixed_pitch,18.0,0.0,0.0
2.76,304.27682972314295,8.141399645997641,1030.2186262610444,134.5625580681583,9.805874519587592,10.136676715612923,135.29962832091306,17.418719748271887,9.481185730680314,10.62709777297498,19.3072543563979,17.565613631837206,-0.8821051854459553,10.427645399529448,3.5506895343320366,-15.901683329577347,10144.692953565203,0.40229834995775293,135.29962832091306,2.1236838271858587,1.1083468605513886,89545.62340224638,281.4535789293032,0.0,0.0,0.0,396.86052631578946,0.2129921647237707,0.85,nominal,19255.98820311148,nan,fixed_pitch,18.0,0.0,0.0
2.79,308.32821361426954,8.44309059219221,1030.5230900774245,135.04612970421954,10.056364873152294,10.148793879335047,135.79979985167904,17.412329983330174,9.970278930279791,10.708009199017711,19.61910873058403,18.227496902380132,-0.9325664986274201,10.524438179177137,3.456674354944743,-16.163490196154118,10219.530950377824,0.4037869738001628,135.79979985167904,2.122574235991037,1.108313693844928,89542.3141828607,281.45159991449674,0.0,0.0,0.0,396.82697368421054,0.21297415726987115,0.85,nominal,19326.772081185816,nan,fixed_pitch,18.0,0.0,0.0
2.82,312.3940565741291,8.75241520938521,1030.8278750561838,135.5280986619854,10.310820573100058,10.159499291973331,136.2989140590897,17.40594075861208,10.479110991530549,10.793650683215434,19.932929860784395,18.912550167642067,-0.9851123228055368,10.62078088126084,3.3571066577811455,-16.42785840850347,10294.481675100364,0.40527246576263787,136.2989140590897,2.121407814992243,1.108280492913203,89539.00157194253,281.44961881213476,0.0,0.0,0.0,396.7934210526316,0.2129561498159716,0.85,nominal,19397.665167763284,nan,fixed_pitch,18.0,0.0,0.0
2.85,316.47431122194763,9.069495454429992,1031.1329321548067,136.00848826061886,10.569341501492731,10.168569954097736,136.79700169822968,17.3995520741176,11.008389857251379,10.884232606498038,20.248602058486743,19.62153379686173,-1.0399189932492303,10.716559541679665,3.2517386077954438,-16.694707634817515,10369.548068275479,0.4067549170461356,136.79700169822968,2.1208820635485743,1.1082472631007403,89535.68610280703,281.44763594099373,0.0,0.0,0.0,396.75986842105266,0.2129381423620721,0.85,nominal,19468.669605928662,nan,fixed_pitch,18.0,0.0,0.0
2.88,320.5689188354356,9.394485959556985,1031.4382113717347,136.4869204496006,10.833016837566438,10.175973897600961,137.2937877414097,17.39316392984674,11.560104417414239,10.978684209314139,20.559391559962307,20.355231025622455,-1.097176921939175,10.591280154134042,3.1402427632640433,-16.956912779992418,10444.686618815742,0.40823350962118693,137.2937877414097,2.120683334937092,1.1082140098560385,89532.36831912807,281.4456516260837,0.0,0.0,0.0,396.7263157894737,0.21292013490817252,0.85,nominal,19539.74561174025,nan,fixed_pitch,18.0,0.0,0.0
2.9099999999999997,324.6778157105489,9.727559145524566,1031.743657340763,136.9632291704429,11.1024395322527,10.181532300944562,137.789164698672,17.386776325799495,12.137206176473196,11.07696312805516,20.854335256797015,21.117561853538685,-1.2247886258917873,10.117128333374314,3.0243610222989323,-17.20375487557189,10519.878809362119,0.409707923581456,137.78916469867204,2.1205598041180926,1.1081807392114356,89529.04882281515,281.443666227285,0.0,0.0,0.0,396.6927631578948,0.212902127454273,0.85,nominal,19610.875891439675,nan,fixed_pitch,18.0,0.0,0.0
2.94,328.80093973458406,10.068886850992047,1032.049209964245,137.4374674678402,11.3775901822494,10.18508744939844,138.2831986492963,17.380389261975868,12.743666069095406,11.17927325441142,21.121326979573812,21.933252542052777,-1.4491132929816526,9.262200967831,2.90647001244536,-17.423867854476686,10595.132499011592,0.4111783550894734,138.2831986492963,2.1203273493252905,1.1081474577140709,89525.72826712322,281.4416801352324,0.0,0.0,0.0,396.65921052631575,0.21288412000037343,0.85,nominal,19682.066899236233,nan,fixed_pitch,18.0,0.0,0.0
2.9699999999999998,332.9382350069596,10.418627503884625,1032.3548057515393,137.9098424125183,11.65802176308594,10.18652624314725,138.7760765498742,17.374002738375857,13.385166592993745,11.28678481109543,21.348502762517022,22.85875279212736,-1.8120396615570025,8.045454002521335,2.7897881828566726,-17.606731159702978,10670.474290627879,0.41264535971431615,138.7760765498742,2.1200123657714065,1.108114172280042,89522.40734210017,281.439693762615,0.0,0.0,0.0,396.62565789473683,0.2128661125464739,0.85,nominal,19753.341967111606,nan,fixed_pitch,18.0,0.0,0.0
3.0,337.0896546241908,10.776913908615834,1032.6603864794538,138.38065390770686,11.942880157706961,10.186024263820492,139.2680611363892,17.367616754999464,14.066086709144486,11.395600394231067,21.526665813661896,23.86551452777693,-2.1420534027585423,6.517290267109928,2.67268184651215,-17.74341575466081,10745.942887879972,0.41410971838169003,139.26806113638918,2.119198217978291,1.1080808892511,89519.0866804717,281.43770748788353,0.0,0.0,0.0,396.59210526315786,0.21284810509257435,0.85,nominal,19824.735405413252,nan,fixed_pitch,18.0,0.0,0.0
3.03,341.25516642437657,11.143849433660378,1032.9658872666087,138.8503933395246,12.231184168151474,10.183359571830982,139.7595592754397,17.361231311846687,14.789437361339395,11.506420636647913,21.647641172855614,24.912616898026698,-2.5928259863613357,4.748100734146062,2.558879645278561,-17.827141808685635,10821.599894859508,0.41557264056232623,139.7595592754397,2.117981065221335,1.1080476156935823,89515.76698723728,281.43572173276704,0.0,0.0,0.0,396.55855263157895,0.21283009763867483,0.85,nominal,19896.302122795656,nan,fixed_pitch,18.0,0.0,0.0
3.06,345.4347540147376,11.519499291900216,1033.2712465744646,139.31958634536863,12.521661941327919,10.178643595195245,140.25100335703675,17.354846408917528,15.54955511300846,11.617289083826625,21.7065707509259,25.731347920058244,-3.06333094357636,2.824521869354522,2.4516979982880374,-17.8534853457137,10897.511760670408,0.41703541164943486,140.25100335703678,2.116245302405239,1.1080143583091022,89512.44893098835,281.43373689726593,0.0,0.0,0.0,396.525,0.21281209018477526,0.85,nominal,19968.10144154724,nan,fixed_pitch,18.0,0.0,0.0
3.09,349.62841788239024,11.903886808623593,1033.576407006826,139.7887955884206,12.812917224112557,10.172014412042591,140.74284385734148,17.348462046211985,16.32021929891187,11.726796520270955,21.7014738587698,25.65482028500991,-3.5557455500628437,0.8421858500468732,2.3610760573135177,-17.820206971049092,10973.748686227578,0.41849937084945205,140.74284385734148,2.1141004211238856,1.1079811233475247,89509.13313522754,281.4317533544556,0.0,0.0,0.0,396.49144736842106,0.21279408273087574,0.85,nominal,20040.196120299493,nan,fixed_pitch,18.0,0.0,0.0
3.12,353.83617212728234,12.296987791921001,1033.8813289461832,140.25847482973577,13.103366109913624,10.164064645241472,141.235428186722,17.34207822373006,17.0919588670632,11.832630445468295,21.633890593232863,25.26511757207856,-4.012934787680333,-1.0981647725268409,2.2894107916845754,-17.728991300443603,11050.365700847118,0.41996555100242094,141.23542818672198,2.1114847869348483,1.1079479151219305,89505.82003021234,281.42977136184976,0.0,0.0,0.0,396.4578947368421,0.2127760752769762,0.85,nominal,20112.63542205344,nan,fixed_pitch,18.0,0.0,0.0
3.15,358.0580436276623,12.69873043288215,1034.185990647144,140.72905001266545,13.391421365371663,10.155390032032905,141.7290641694742,17.33569494147175,17.87038339498656,11.934187359893148,21.508101496198876,25.08442434103916,-4.461526557623799,-2.8967776117106463,2.2347941877299045,-17.585138896704805,11127.412352778176,0.42143486733703545,141.7290641694742,2.108417105913432,1.1079147359986734,89502.50985196987,281.42779106079354,0.0,0.0,0.0,396.4243421052632,0.21275806782307669,0.85,nominal,20185.463860357286,nan,fixed_pitch,18.0,0.0,0.0
3.1799999999999997,362.2940714653543,13.10899738350399,1034.4903863274992,141.20092792306664,13.675565020727984,10.146522678504644,142.22403118825113,17.32931219943706,18.6599851964303,12.031222123687906,21.33131892149866,25.096987648649026,-4.87827058291554,-4.460282975717979,2.1947448918280195,-17.396640456289703,11204.934362447095,0.4229081505990805,142.2240311882511,2.1049499917940766,1.1078815866054814,89499.20266306514,281.42581248887126,0.0,0.0,0.0,396.3907894736842,0.21274006036917711,0.85,nominal,20258.722670796888,nan,fixed_pitch,18.0,0.0,0.0
3.21,366.5443054248871,13.527630593200174,1034.7945229736542,141.67446531776014,13.954440323206114,10.137888205163955,142.72055670108475,17.322929997625984,19.458189505932122,12.123767695838692,21.113364783205032,25.087051376227176,-5.235733610429835,-5.707680549161663,2.1679631843454974,-17.173562417484355,11282.969838894462,0.4243860772079142,142.72055670108475,2.1011971041864057,1.1078484661795434,89495.89838733418,281.4238356006712,0.0,0.0,0.0,396.35723684210524,0.21272205291527757,0.85,nominal,20332.44636125336,nan,fixed_pitch,18.0,0.0,0.0
3.2399999999999998,370.808802964546,13.954437781733132,1035.098418951992,142.149917988629,14.226906284431948,10.129865944593801,143.21877750719491,17.316548336038526,20.259642653590113,12.212288020830618,20.866128634954364,24.978382072706314,-5.512013476478142,-6.574770545202159,2.153069229382738,-16.927693837081335,11361.542997630486,0.42586905406970943,143.21877750719491,2.0973085173598425,1.1078153727188842,89492.5968249907,281.421860276812,0.0,0.0,0.0,396.32368421052627,0.212704045461378,0.85,nominal,20406.657025543253,nan,fixed_pitch,18.0,0.0,0.0
