time_s,x_m,y_m,altitude_m,vx_mps,vy_mps,vz_mps,speed_mps,mass_kg,roll_deg,pitch_deg,yaw_deg,p_dps,q_dps,r_dps,alpha_deg,beta_deg,qbar_pa,mach,airspeed_mps,load_factor_g,density_kgpm3,pressure_pa,temperature_k,wind_x_mps,wind_y_mps,wind_z_mps,thrust_n,mass_flow_kgps,propulsion_throttle_actual,propulsion_health,energy_j_per_kg,target_distance_m,guidance_mode,pitch_command_deg,heading_command_deg,roll_command_deg,elevator_command_deg,aileron_command_deg,rudder_command_deg,elevator_deg,aileron_deg,rudder_deg,throttle,elevator_saturated,aileron_saturated,rudder_saturated,elevator_failed,aileron_failed,rudder_failed,elevator_raw_rad,aileron_raw_rad,rudder_raw_rad,elevator_effective_rad,aileron_effective_rad,rudder_effective_rad,sensor_time_s,imu_valid,imu_ax_mps2,imu_ay_mps2,imu_az_mps2,gyro_p_rps,gyro_q_rps,gyro_r_rps,imu_accel_norm_mps2,imu_gyro_norm_rps,gps_valid,gps_latency_s,gps_x_m,gps_y_m,gps_z_m,gps_vx_mps,gps_vy_mps,gps_vz_mps,baro_valid,baro_alt_m,baro_bias_m,pitot_valid,pitot_airspeed_mps,pitot_qbar_pa,pitot_compressibility_factor,mag_valid,mag_heading_deg,mag_x_ut,mag_y_ut,mag_z_ut,radar_valid,radar_agl_m,optical_flow_valid,optical_flow_x_radps,optical_flow_y_radps,optical_flow_quality,horizon_valid,horizon_roll_deg,horizon_pitch_deg
0.0,0.0,0.0,20.0,85.0,0.0,8.0,85.37564055396598,18.0,0.0,6.000000000000002,0.0,0.0,0.0,0.0,0.623294571949261,-0.06711018850271284,4455.9528551248095,0.2509446755827931,85.37569911866022,1.746019585183223,1.2226496753673843,101084.96761777384,288.02,0.0,0.1,0.0,326.8,0.17539118863220368,0.86,nominal,3840.633,nan,pitch_program,13.0,0.0,0.0,-20.05352282957881,-0.0,0.0,-2.6999999999999997,0.0,0.0,0.86,0.0,0.0,0.0,0.0,0.0,0.0,-0.047123889803846894,0.0,0.0,-0.047123889803846894,0.0,0.0,0.0,1.0,17.089473733673106,-0.02973773807099401,0.17662175509873101,0.0016677683591043149,0.0011681274632859406,0.0012765720485123657,17.090412285001868,0.00240324973008537,1.0,0.0,-1.885154541229685,1.8645638091475825,21.162662438547994,85.32748210022089,0.18147237523479218,7.846341299741817,1.0,20.771163472887363,0.0,1.0,85.62705682436835,4465.525352623238,1.0,1.0,-0.8198733225718878,19.523475325297145,-0.00615746722134172,-43.81279554351524,1.0,20.39618647858491,1.0,-0.0077448575321814855,4.273240466216326,0.95,1.0,0.17459483210835952,5.697481511065039
0.03,2.565307560933383,1.2217430333078664e-05,20.23295089077774,85.51025203111277,0.00040724767776928884,7.765029692591357,85.86209226845746,17.994738264341034,0.000673747383345809,6.26558332753372,-0.001374797989615718,0.01756243361475289,-8.852793703250093,-0.04551240426293013,1.0768886693990771,-0.06510171809935367,4506.77464880038,0.2523751634672366,85.86215002704955,1.7740898486319636,1.2226223199868234,101082.17454514118,288.0184858192099,0.0,0.1,0.0,332.605,0.1785066900092231,0.86,nominal,3884.5669122115964,nan,pitch_program,12.985,0.0,0.0,-1.4308105904702395,0.0013587238897430202,0.004243543127915629,-1.9384863542821438,0.0,0.0,0.86,0.0,0.0,0.0,0.0,0.0,0.0,-0.03383296938720469,0.0,0.0,-0.03383296938720469,0.0,0.0,0.03,1.0,17.396244479696897,-0.010824585734829957,0.6306755305425477,0.00227870121700718,-0.15518965861156028,0.0009052063149970115,17.40767620315435,0.1552090268563067,1.0,0.0,-1.885154541229685,1.8645638091475825,21.162662438547994,85.32748210022089,0.18147237523479218,7.846341299741817,1.0,20.771163472887363,0.0,1.0,85.44847029073749,4493.7730199296575,1.0,1.0,-0.8198733225718878,19.523475325297145,-0.00615746722134172,-43.81279554351524,1.0,20.39618647858491,1.0,-0.0077448575321814855,4.273240466216326,0.95,1.0,0.17459483210835952,5.697481511065039
0.06,5.146108485643129,3.6098940456659304e-05,20.459341098330725,86.02669749032488,0.0007960503374526879,7.54634025176613,86.35704912119792,17.98938306364076,0.002022397038704582,6.6413094453780985,-0.004102114835030761,0.0347369605127723,-12.524250932173562,-0.09004031867784736,1.6281022265907827,-0.06179039098797758,4558.784275214783,0.25383063942811723,86.35710609851932,1.8027335809866907,1.222595735474737,101079.46019473652,288.0170142828608,0.0,0.1,0.0,338.40999999999997,0.18162219138624247,0.86,nominal,3929.40756384244,nan,pitch_program,12.97,0.0,0.0,-0.2979445928879962,0.002955588389132634,0.008995733151851095,-0.9541612974456553,0.0,0.0,0.86,0.0,0.0,0.0,0.0,0.0,0.0,-0.016653256235527644,0.0,0.0,-0.016653256235527644,0.0,0.0,0.06,1.0,17.696717319912494,-0.03570763160243733,1.2207057427105361,-0.0028398648926588497,-0.22005837361407174,-0.0019183912123168978,17.738804961048867,0.22008505822777347,1.0,0.0,-1.885154541229685,1.8645638091475825,21.162662438547994,85.32748210022089,0.18147237523479218,7.846341299741817,1.0,20.525977459933507,0.0,1.0,85.93813942811762,4525.848482105851,1.0,1.0,0.07255170390840952,19.002286686270214,-0.02669568348319556,-44.038046454028205,1.0,20.444327340560704,1.0,-0.00015373853231190118,4.219010590605877,0.9488516472541731,1.0,-0.15704850560760625,6.462321820446059
0.09,7.742556495506167,7.044875175500658e-05,20.679790744388068,86.5482669954346,0.0011449937099449092,7.348321535244821,86.85965893675491,17.983934397899173,0.004034226049090082,6.946403417269074,-0.008125001204004946,0.05119766459307923,-10.169830117465175,-0.1326175712102903,2.0933801338739415,-0.05725980756043096,4611.906428476029,0.2553086003763345,86.8597151826475,1.832470918597925,1.222569848974904,101076.81712659281,288.01558136016143,0.0,0.1,0.0,344.215,0.18473769276326188,0.86,nominal,3975.099645208147,nan,pitch_program,12.955,0.0,0.0,-0.7108983428571624,0.004765027467839829,0.014140197489579858,-0.8082035246925595,0.0,0.0,0.86,0.0,0.0,0.0,0.0,0.0,0.0,-0.014105812532108455,0.0,0.0,-0.014105812532108455,0.0,0.0,0.09,1.0,17.957940428509474,0.0012252447863613878,1.5605997232287971,0.0012947148234358492,-0.17918802523489563,0.0002302469716934383,18.025623357633478,0.17919285054857403,1.0,0.0,-1.885154541229685,1.8645638091475825,21.162662438547994,85.32748210022089,0.18147237523479218,7.846341299741817,1.0,20.525977459933507,0.0,1.0,87.23021278455133,4643.909589223222,1.0,1.0,0.07255170390840952,19.002286686270214,-0.02669568348319556,-44.038046454028205,1.0,20.444327340560704,1.0,-0.00015373853231190118,4.219010590605877,0.9488516472541731,1.0,-0.15704850560760625,6.462321820446059
0.12,10.354825623753607,0.00011340546015014869,20.894771506192217,87.07563760824799,0.0014318902798380706,7.166025393471604,87.37000965361696,17.978392267116273,0.006671241456401917,7.124625311412224,-0.013353436636079954,0.06655373705121903,-5.940750728924169,-0.1724141255374663,2.4199768720219916,-0.05161251876624575,4666.164420700599,0.2568093061018343,87.37006524259361,1.8626365447288498,1.2225446050676148,101074.23968121482,288.01418398520974,0.0,0.1,0.0,350.02,0.1878531941402813,0.86,nominal,4021.6670044277603,nan,pitch_program,12.94,0.0,0.0,-1.6634506215152252,0.006729960188598225,0.01955093787274041,-1.3213517827861587,0.0,0.0,0.86,0.0,0.0,0.0,0.0,0.0,0.0,-0.023061939186715404,0.0,0.0,-0.023061939186715404,0.0,0.0,0.12,1.0,18.214865518183515,-0.00299604400459051,1.7695960271916231,0.0029427786051623994,-0.10300931738526926,-0.005846867070300608,18.3006230746727,0.10321707837676818,1.0,0.0,-1.885154541229685,1.8645638091475825,21.162662438547994,85.32748210022089,0.18147237523479218,7.846341299741817,1.0,20.835346681954185,0.0,1.0,87.26237162972305,4712.481319603171,1.0,1.0,-1.9084752659941988,18.642792801078777,-0.005346825721254721,-44.165488539707596,1.0,20.159663522315693,1.0,-0.014859500969159799,4.180330718582392,0.9477630712345194,1.0,0.29002847610455845,7.731365210676751
0.15,12.983126430944463,0.00016245742434168705,21.104565812647063,87.61002690636187,0.0016350654730512787,6.993143548494902,87.8886845611922,17.972756671292064,0.009873459458741815,7.219372562589989,-0.019676020393481933,0.08042845031695302,-3.15827258370329,-0.20864791048899706,2.6556206237368767,-0.044969185585634744,4721.635302381637,0.2583344718667645,87.88873959093765,1.8931430126239395,1.2225199705592633,101071.72446854903,288.01282032221775,0.0,0.1,0.0,355.825,0.1909686955173007,0.86,nominal,4069.1755272749674,nan,pitch_program,12.925,0.0,0.0,-2.3010375620298347,0.008792740814444137,0.02512415191829672,-1.9091632503323641,0.0,0.0,0.86,0.0,0.0,0.0,0.0,0.0,0.0,-0.03332118467637648,0.0,0.0,-0.03332118467637648,0.0,0.0,0.15,1.0,18.513385269299427,-0.02621626102149286,1.911822295917065,0.001270697069886745,-0.05525539516420091,-0.005270510274117776,18.611856057712796,0.05552073166255103,1.0,0.0,-1.885154541229685,1.8645638091475825,21.162662438547994,85.32748210022089,0.18147237523479218,7.846341299741817,1.0,20.835346681954185,0.0,1.0,87.53695698738231,4739.466990604879,1.0,1.0,-1.9084752659941988,18.642792801078777,-0.005346825721254721,-44.165488539707596,1.0,20.159663522315693,1.0,-0.014859500969159799,4.180330718582392,0.9477630712345194,1.0,0.29002847610455845,7.731365210676751
0.18,15.627690810564658,0.0002144786875310444,21.309365893708843,88.15214598733982,0.0017340421063119114,6.8266693687260505,88.4160859790235,17.967027610426545,0.013569251781081726,7.289096585793309,-0.02696444091322019,0.09251555456864033,-2.3241836490020606,-0.24052728499616127,2.860834133834663,-0.03747200937900598,4778.378317962665,0.2598852807582241,88.41614056857297,1.92410225893718,1.2224959228501335,101069.26918026996,288.0114891216909,0.0,0.1,0.0,361.63,0.19408419689432013,0.86,nominal,4117.675622966578,nan,pitch_program,12.91,0.0,0.0,-2.465491550871256,0.010908891993928105,0.030760853236216024,-2.242960230655699,0.0,0.0,0.86,0.0,0.0,0.0,0.0,0.0,0.0,-0.0391470410162334,0.0,0.0,-0.0391470410162334,0.0,0.0,0.18,1.0,18.722394612909042,-0.0394862548724631,2.0707792046463376,0.0017544490442044035,-0.04313343641179798,-0.0050849871008564205,18.836606534092205,0.043467557119709475,1.0,0.0,-1.885154541229685,1.8645638091475825,21.162662438547994,85.32748210022089,0.18147237523479218,7.846341299741817,1.0,20.083473084539204,0.0,1.0,88.02655074059074,4842.673686401586,1.0,1.0,-0.5698595405691523,18.545491410000448,0.030471585242994256,-44.29886642887155,1.0,21.362999715066046,1.0,0.004994877307153537,4.13763839023931,0.9467265852657278,1.0,-0.4904907094068782,6.931354623295589
0.21,18.288753385172207,0.00026577215816503587,21.509365120757067,88.70208582025165,0.0017097823544663824,6.666640901607466,88.95225760315267,17.961205084519715,0.017679328380583472,7.358391035034792,-0.035068320768503795,0.10256763624115615,-2.309888233165226,-0.2672956964326553,3.060248507772063,-0.029284641627254467,4836.415017019124,0.26146186175714653,88.95231189092928,1.9554552694002552,1.2224724392085011,101066.87149463763,288.01018912671503,0.0,0.1,0.0,367.435,0.19719969827133954,0.86,nominal,4167.1868818102885,nan,pitch_program,12.895,0.0,0.0,-2.4251884076906087,0.013037892599040712,0.036339041003482085,-2.3522971368766443,0.0,0.0,0.86,0.0,0.0,0.0,0.0,0.0,0.0,-0.04105533002373317,0.0,0.0,-0.04105533002373317,0.0,0.0,0.21,1.0,19.015787344356955,0.06704767279429792,2.2444958615773136,0.0006056725969679421,-0.03860514971965566,-0.0036295362311282624,19.14790916494203,0.03878012322601387,1.0,0.0,18.157912599135038,-0.8504498991595428,22.53059065308789,88.7830469173057,-0.10525661213600906,6.726218403256376,1.0,20.083473084539204,0.0,1.0,88.8054534760994,4832.936832853133,1.0,1.0,-0.5698595405691523,18.545491410000448,0.030471585242994256,-44.29886642887155,1.0,21.362999715066046,1.0,0.004994877307153537,4.13763839023931,0.9467265852657278,1.0,-0.4904907094068782,6.931354623295589
0.24,20.966545392107886,0.00031212426954509446,21.70478022622484,89.25973356452263,0.0015450703793352862,6.513836848925791,89.49709553326987,17.955289093571576,0.022114910524347393,7.421470511135987,-0.043812036108617045,0.11036512627827874,-2.1027496634552136,-0.2883061105402308,3.247635197473654,-0.020587540478739105,4895.751183363066,0.2630639100748558,89.49714967459666,1.9870190524657336,1.2224494941616335,101064.52881011732,288.0089189285295,0.0,0.1,0.0,373.24,0.20031519964835895,0.86,nominal,4217.716237451125,nan,pitch_program,12.88,0.0,0.0,-2.4365304616027625,0.01513285558980894,0.04171762940594331,-2.402837131712315,0.0,0.0,0.86,0.0,0.0,0.0,0.0,0.0,0.0,-0.041937419337556556,0.0,0.0,-0.041937419337556556,0.0,0.0,0.24,1.0,19.31687331290316,-0.054611530591074556,2.458852186336108,0.0023277086114828877,-0.036655933544943495,-0.003874514799095614,19.4728151811769,0.036933555966894065,1.0,0.0,18.157912599135038,-0.8504498991595428,22.53059065308789,88.7830469173057,-0.10525661213600906,6.726218403256376,1.0,22.188630904696254,0.0,1.0,89.45011371559363,4890.347735950609,1.0,1.0,-1.0312195712747925,18.472835570777075,-0.009810739939885491,-44.36638002768543,1.0,21.601088782067702,1.0,0.012428329528247142,4.124483872043538,0.9457380494344378,1.0,-0.5707998721591017,7.378205456818954
0.27,23.6612985275742,0.00034887841714299826,21.895828155436785,89.82510451554381,0.0012251382532634605,6.368264307064815,90.0505646457254,17.949279637582126,0.02677665610195274,7.466420495631576,-0.05300027622140289,0.11571174466711538,-1.4984623312569703,-0.30305413231738515,3.4111463781830027,-0.011572343977736273,4956.40017029701,0.2646913230781371,90.0506188095691,2.018632526223421,1.2224270622138187,101062.23852289171,288.0076771169896,0.0,0.1,0.0,379.045,0.20343070102537836,0.86,nominal,4269.276819687499,nan,pitch_program,12.865,0.0,0.0,-2.5572767147013558,0.01714140559833937,0.04676208964709645,-2.4955008815057393,0.0,0.0,0.86,0.0,0.0,0.0,0.0,0.0,0.0,-0.04355470686869602,0.0,0.0,-0.04355470686869602,0.0,0.0,0.27,1.0,19.52925613387237,-0.025673177443361943,2.614903523537878,0.003926808945294895,-0.024041092047176218,-0.0073798512699962075,19.703558680904383,0.025453018290193252,1.0,0.0,18.157912599135038,-0.8504498991595428,22.53059065308789,88.7830469173057,-0.10525661213600906,6.726218403256376,1.0,22.188630904696254,0.0,1.0,90.12018263085521,4960.867636087214,1.0,1.0,-1.0312195712747925,18.472835570777075,-0.009810739939885491,-44.36638002768543,1.0,21.601088782067702,1.0,0.012428329528247142,4.124483872043538,0.9457380494344378,1.0,-0.5707998721591017,7.378205456818954
0.3,26.373249916816157,0.00037102551003694826,22.082702545802515,90.3983796413985,0.0007382364297983325,6.229146345524354,90.61274362102365,17.943176716551363,0.03155727742452501,7.490203264720214,-0.06242771019518289,0.11845441174057728,-0.7929174887974965,-0.31117127528325883,3.5483144052244966,-0.00243771985935939,5018.388123743167,0.2663443325721522,90.61279798616793,2.0502515766989493,1.2224051206079383,101059.99830881118,288.00646243345227,0.0,0.1,0.0,384.84999999999997,0.20654620240239774,0.86,nominal,4321.891988185476,nan,pitch_program,12.850000000000001,0.0,0.0,-2.7151677037776163,0.019012749302869104,0.0513594622120709,-2.6273009748688656,0.0,0.0,0.86,0.0,0.0,0.0,0.0,0.0,0.0,-0.0458550524523185,0.0,0.0,-0.0458550524523185,0.0,0.0,0.3,1.0,19.911431467228365,-0.022571941612602814,2.7470792885465936,0.0014190454790100706,-0.016096134262632285,-0.004311277835185155,20.100051173672213,0.01672382566413387,1.0,0.0,18.157912599135038,-0.8504498991595428,22.53059065308789,88.7830469173057,-0.10525661213600906,6.726218403256376,1.0,22.08906486475692,0.0,1.0,90.3890153313851,5032.533585208769,1.0,1.0,-0.0945279324596598,18.3127784385106,-0.004311562202237029,-44.36223126508485,1.0,21.919691926314098,1.0,-9.044496522002052e-05,4.089272152168069,0.9447932436354937,1.0,0.5241848764287984,8.084579017020879
0.32999999999999996,29.1026432606648,0.0003733045844697108,22.265570200270464,90.97977812828813,7.596914775875136e-05,6.095588482264997,91.18374979799542,17.93698033047929,0.03634587380426802,7.497964241414369,-0.07188557839581895,0.11850217015415664,-0.2588843964625265,-0.31241605842532433,3.6649184410634796,0.006613747028763336,5081.746000783726,0.2680232839093718,91.18380454899652,2.081914007330099,1.2223836497392548,101057.8061656325,288.0052737936982,0.0,0.1,0.0,390.655,0.20966170377941715,0.86,nominal,4375.588767616197,nan,pitch_program,12.835,0.0,0.0,-2.839138714904474,0.02070204979775017,0.05541292479459693,-2.7544036188902306,0.0,0.0,0.86,0.0,0.0,0.0,0.0,0.0,0.0,-0.048073412078481606,0.0,0.0,-0.048073412078481606,0.0,0.0,0.32999999999999996,1.0,20.15334341147287,-0.05554358074480622,2.9172547963626205,0.0012347402441805306,-0.004025501587197732,-0.004475940634596503,20.363465110265974,0.006145184379948466,1.0,0.0,18.157912599135038,-0.8504498991595428,22.53059065308789,88.7830469173057,-0.10525661213600906,6.726218403256376,1.0,22.08906486475692,0.0,1.0,90.8780781117256,5071.86442665378,1.0,1.0,-0.0945279324596598,18.3127784385106,-0.004311562202237029,-44.36223126508485,1.0,21.919691926314098,1.0,-9.044496522002052e-05,4.089272152168069,0.9447932436354937,1.0,0.5241848764287984,8.084579017020879
0.36,31.849726928193512,0.00035030934801465847,22.444580864596862,91.56945558429047,-0.0007665078818350778,5.967022144213274,91.76366682876403,17.930690479365907,0.041031388974796516,7.495945362282755,-0.08116401298069542,0.11583084508618939,0.067088900726935,-0.30668272696847815,3.767614675256721,0.015379085386427233,5146.5015956730285,0.2697284233686646,91.76372215185032,2.113650953748763,1.2223626320071923,101055.66029577957,288.0041102243801,0.0,0.1,0.0,396.46,0.21277720515643656,0.86,nominal,4430.391423866004,nan,pitch_program,12.82,0.0,0.0,-2.9165625185489885,0.022170178092050005,0.058831377678239344,-2.8516989586854855,0.0,0.035298826606943605,0.86,0.0,0.0,0.0,0.0,0.0,0.0,-0.049771536104755466,0.0,0.0006160807463817441,-0.049771536104755466,0.0,0.0006160807463817441,0.36,1.0,20.545266081075233,0.04007007804602873,2.9851586274421766,0.00030998224794939115,0.0006584193445093272,-0.0051053491155229735,20.76103889462971,0.005156955944996918,1.0,0.0,18.157912599135038,-0.8504498991595428,22.53059065308789,88.7830469173057,-0.10525661213600906,6.726218403256376,1.0,23.007612139778512,0.0,1.0,91.37885129627351,5124.018945167179,1.0,1.0,0.16587168171021666,18.423393653636786,0.060014266411724235,-44.38706562815286,1.0,22.242643292756256,1.0,0.002921971683680663,4.084084314081269,0.9438885478385078,1.0,-0.08419726633505283,7.2820089743280425
0.39,34.6147518571284,0.0002994974534643731,22.619876507937704,92.16749763116285,-0.0016937298183428455,5.843188111361401,92.3525336401979,17.924307163211214,0.04558357510373075,7.487247613208968,-0.0906578695527111,0.1104789910137779,0.2896877285071557,-0.3139796196842479,3.8597160558097596,0.02431677358026194,5212.678169456823,0.2714598654272968,92.3525896145303,2.1454505715761796,1.2223420507255314,101053.55899507117,288.00297080269837,0.0,0.1,0.0,402.265,0.21589270653345596,0.86,nominal,4486.32044683851,nan,pitch_program,12.805,0.0,0.0,-2.9718811589805574,0.02354122816788226,0.06339325607081596,-2.923808278862529,0.0,0.05215548428526702,0.86,0.0,0.0,0.0,0.0,0.0,0.0,-0.05103008116321965,0.0,0.0009102849237500709,-0.05103008116321965,0.0,0.0009102849237500709,0.39,1.0,20.816506538243793,-0.041125259364819304,3.1232305039541814,-0.0022719881578309254,0.00516747199045094,-0.0033396643018875614,21.04954167017739,0.006558815030988532,1.0,0.0,18.157912599135038,-0.8504498991595428,22.53059065308789,88.7830469173057,-0.10525661213600906,6.726218403256376,1.0,23.007612139778512,0.0,1.0,91.52971145291347,5179.744051925329,1.0,1.0,0.16587168171021666,18.423393653636786,0.060014266411724235,-44.38706562815286,1.0,22.242643292756256,1.0,0.002921971683680663,4.084084314081269,0.9438885478385078,1.0,-0.08419726633505283,7.2820089743280425
0.42,37.39797075165294,0.0002166162895563706,22.79159407376223,92.77396315081808,-0.0027627054636000844,5.723918860817547,92.95037113141139,17.91783038201521,0.04992805799549918,7.472325865478432,-0.10044619630474186,0.1023424533347675,0.49712178418894887,-0.32391567820689193,3.941828425945844,0.03347913956954716,5280.297358965533,0.2732176720517127,92.95042789577789,2.1553891105376692,1.2223218897993295,101051.50061973216,288.0018546385205,0.0,0.1,0.0,404.1773684210526,0.21691906078826353,0.86,nominal,4543.394932757018,nan,pitch_program,12.79,0.0,0.0,-3.0268945976632224,0.02471562511802672,0.0682896071201211,-2.985660070142945,0.0,0.06183595798617946,0.86,0.0,0.0,0.0,0.0,0.0,0.0,-0.05210959856931924,0.0,0.0010792410629837138,-0.05210959856931924,0.0,0.0010792410629837138,0.42,1.0,20.860926030050965,-0.03079568847786556,3.260600385699508,0.0017418616824782785,0.009877362963189853,-0.00464838297012301,21.114229753436675,0.01105458481646463,1.0,0.0,38.98501014610119,0.8563864018476706,23.120144016026433,92.79423042218515,-0.017061487380795045,5.712281756615636,1.0,23.190533469797728,0.0,1.0,93.14012921598116,5282.395476567857,1.0,1.0,0.9146667270925823,18.379201985810564,0.021697593264773326,-44.301351553979124,1.0,22.725565356007635,1.0,0.00991746618482512,4.05904964033756,0.9430210148155944,1.0,0.4531559203580561,7.101408867183547
0.44999999999999996,40.19944436906745,9.689560092385064e-05,22.959838726240353,93.38245391381707,-0.003990689621083999,5.608155082604063,93.55070346246633,17.911322810191564,0.053969696069330296,7.451212025874188,-0.11047820916302419,0.0912944857427634,0.7034937460440075,-0.3322066232327979,4.014440797270573,0.04281143502712012,5348.638256347103,0.27498280850280576,93.55076117520498,2.154413941399158,1.2223021368658518,101049.48390706952,288.0007610482794,0.0,0.1,0.0,404.14342105263154,0.21690084148196515,0.86,nominal,4601.026161605841,nan,pitch_program,12.775,0.0,0.0,-3.085113386240341,0.025625457080630108,0.07315288213718582,-3.0453320598013827,0.0,0.06862611247678328,0.86,0.0,0.0,0.0,0.0,0.0,0.0,-0.05315107126007498,0.0,0.0011977516155638288,-0.05315107126007498,0.0,0.0011977516155638288,0.44999999999999996,1.0,20.891103134040677,0.030520125420806184,3.3735192082753973,0.004866772663203135,0.01433586687623613,-0.005148593642352645,21.161752136431968,0.015990952809089885,1.0,0.0,38.98501014610119,0.8563864018476706,23.120144016026433,92.79423042218515,-0.017061487380795045,5.712281756615636,1.0,23.190533469797728,0.0,1.0,93.13124688325165,5385.300316178974,1.0,1.0,0.9146667270925823,18.379201985810564,0.021697593264773326,-44.301351553979124,1.0,22.725565356007635,1.0,0.00991746618482512,4.05904964033756,0.9430210148155944,1.0,0.4531559203580561,7.101408867183547
0.48,43.0191385773606,-6.466563893170297e-05,23.124695461901826,93.98980694310501,-0.005385374661851787,5.495224522049092,94.1503124304542,17.904815784947104,0.05760276461428244,7.424656448971525,-0.12064701179734454,0.0772231777551128,0.8848582405241326,-0.33696968136001726,4.078655389100565,0.05221139411656505,5417.33599204459,0.27674581530806025,94.1503712569795,2.153471654399884,1.2222827819310524,101047.50783625379,287.9996894794976,0.0,0.1,0.0,404.1094736842105,0.2168826221756668,0.86,nominal,4658.91646012753,nan,pitch_program,12.76,0.0,0.0,-3.140133526256564,0.026216081856602607,0.07778855197974857,-3.1022129396744913,0.0,0.07412357617856245,0.86,0.0,0.0,0.0,0.0,0.0,0.0,-0.0541438298952921,0.0,0.001293700457668751,-0.0541438298952921,0.0,0.001293700457668751,0.48,1.0,20.8457994325466,0.0063057451361703066,3.4526815305142877,0.0004218428413890786,0.015680938273530728,-0.003017794703679202,21.129798945932645,0.015974256207869783,1.0,0.0,38.98501014610119,0.8563864018476706,23.120144016026433,92.79423042218515,-0.017061487380795045,5.712281756615636,1.0,24.52028671551351,0.0,1.0,94.00244895782063,5360.218467440849,1.0,1.0,-0.46220753901938616,18.392068669204956,-0.01149280801529265,-44.30542553468423,1.0,23.276937139462284,1.0,-0.000118953486946018,4.076263178944754,0.9421882613452455,1.0,0.6943489557050705,7.7738965666695075
0.51,45.85702111978061,-0.0002732605510725359,23.286242584929738,94.59608474733366,-0.006953163738027764,5.38490410093045,94.7492294957982,17.898309306281835,0.06071595057573168,7.39387392397707,-0.1308187962584579,0.06004912402778704,1.0257364798444144,-0.3372877363714359,4.135881845822523,0.06155283670799386,5486.3926286980395,0.27850678498510045,94.74928960514787,2.15256405958978,1.2222638157873698,101045.57146677698,287.9986394231979,0.0,0.1,0.0,404.0755263157895,0.21686440286936848,0.86,nominal,4717.068275869219,nan,pitch_program,12.745,0.0,0.0,-3.187406983330673,0.026439225970596707,0.08206865299149345,-3.1533293658682005,0.0,0.07889062226632106,0.86,0.0,0.0,0.0,0.0,0.0,0.0,-0.05503597983422499,0.0,0.0013769011074944533,-0.05503597983422499,0.0,0.0013769011074944533,0.51,1.0,20.793693017570448,0.060268785964632525,3.6137481074133855,0.0017542069738391845,0.018845915390820565,-0.007813617230305166,21.1054608340911,0.020476776681078376,1.0,0.0,38.98501014610119,0.8563864018476706,23.120144016026433,92.79423042218515,-0.017061487380795045,5.712281756615636,1.0,24.52028671551351,0.0,1.0,93.75889772315307,5481.953459040537,1.0,1.0,-0.46220753901938616,18.392068669204956,-0.01149280801529265,-44.30542553468423,1.0,23.276937139462284,1.0,-0.000118953486946018,4.076263178944754,0.9421882613452455,1.0,0.6943489557050705,7.7738965666695075
0.54,48.71306120985846,-0.0005341505237281214,23.444553390324668,95.20133633592829,-0.00869633242185285,5.277026846497655,95.34747782774012,17.891803374195753,0.06319526039542954,7.359916785326638,-0.140844783680866,0.03973387202828186,1.131545604436387,-0.33265720018013534,4.187327946641011,0.0706972988223263,5555.80935728961,0.28026578565890997,95.34753938816606,2.151690697379313,1.2222452298160513,101043.67391826863,287.9976104029629,0.0,0.1,0.0,404.0415789473684,0.2168461835630701,0.86,nominal,4775.483293560925,nan,pitch_program,12.73,0.0,0.0,-3.2277001447034794,0.026250524171225285,0.08589077560571437,-3.197951833169368,0.0,0.08309071426995704,0.86,0.0,0.0,0.0,0.0,0.0,0.0,-0.055814788808993876,0.0,0.0014502065418445869,-0.055814788808993876,0.0,0.0014502065418445869,0.54,1.0,20.806726318467017,-0.02232933791578454,3.685772124262351,0.003278237988043326,0.021281960317127056,-0.006592335799951964,21.130671424327936,0.0225194931236329,1.0,0.0,38.98501014610119,0.8563864018476706,23.120144016026433,92.79423042218515,-0.017061487380795045,5.712281756615636,1.0,23.621649397471078,0.0,1.0,95.00189419994665,5539.600565522558,1.0,1.0,0.46023326796382047,18.45533725642992,0.0010306857684990699,-44.24088387467479,1.0,23.638423942282465,1.0,-0.012133087445190642,4.0448998813824275,0.9413886165241884,1.0,0.06961182258845525,7.239757325489788
0.57,51.58722920039643,-0.0008525645608991208,23.599697428926977,95.80559968459892,-0.010613801239033313,5.171467953410247,95.94507347629447,17.885297988688862,0.06492618120565066,7.3234397120212575,-0.15056703089906878,0.016285089176518965,1.2155423565371164,-0.3227773408800722,4.233774104674601,0.07949944752146523,5625.586603657858,0.2820228645127286,95.94513665179593,2.150846368501208,1.2222270158385802,101041.81435532548,287.996601966712,0.0,0.1,0.0,404.0076315789474,0.21682796425677175,0.86,nominal,4834.162534977159,nan,pitch_program,12.715,0.0,0.0,-3.263961697385279,0.025609031439008053,0.08916414555946903,-3.2375577516989145,0.0,0.08673477304366423,0.86,0.0,0.0,0.0,0.0,0.0,0.0,-0.0565060424906111,0.0,0.0015138073655819643,-0.0565060424906111,0.0,0.0015138073655819643,0.57,1.0,20.782819099104948,-0.0003425662961444812,3.733483102376721,0.003690580321505291,0.023903958804348185,-0.010446134745135505,21.11550297528348,0.026346562598240107,1.0,0.0,38.98501014610119,0.8563864018476706,23.120144016026433,92.79423042218515,-0.017061487380795045,5.712281756615636,1.0,23.621649397471078,0.0,1.0,96.33236475533903,5656.778903627215,1.0,1.0,0.46023326796382047,18.45533725642992,0.0010306857684990699,-44.24088387467479,1.0,23.638423942282465,1.0,-0.012133087445190642,4.0448998813824275,0.9413886165241884,1.0,0.06961182258845525,7.239757325489788
0.6,54.47949640956869,-0.0012336047989705058,23.751741059067815,96.40890697240869,-0.012701341269046167,5.068121004694611,96.54202895867088,17.878793149761158,0.06579568136555553,7.28486098426973,-0.15982230575067932,-0.010239425837189096,1.285607723460011,-0.3074724746558607,4.275749875142054,0.08781049885935417,5695.724425402086,0.2837780583321746,96.54209390584556,2.1500251425989743,1.2222091660518746,101039.99198089416,287.99561368311606,0.0,0.1,0.0,403.9736842105263,0.21680974495047337,0.86,nominal,4893.106689185332,nan,pitch_program,12.7,0.0,0.0,-3.2979286553866856,0.02447765541112603,0.09180610135297701,-3.273780293911577,0.0,0.0897775700292519,0.86,0.0,0.0,0.0,0.0,0.0,0.0,-0.05713824511566469,0.0,0.0015669141914502274,-0.05713824511566469,0.0,0.0015669141914502274,0.6,1.0,20.7754001464107,0.022641183687434747,3.8721135393197312,-0.002367560512400367,0.026977627906409347,-0.004864234889715275,21.13317361704256,0.027514696641956226,1.0,0.0,38.98501014610119,0.8563864018476706,23.120144016026433,92.79423042218515,-0.017061487380795045,5.712281756615636,1.0,23.954336113012708,0.0,1.0,96.59583377640837,5723.3864812432175,1.0,1.0,-2.248235237323836,18.545306483470057,-0.03588590429361938,-44.31729151962355,1.0,23.32942376633926,1.0,-0.004479388690993974,4.04858641983794,0.9406206473523304,1.0,0.03459645373814544,7.2299721451048375
0.63,57.38983502282471,-0.0016821525452519002,23.900747705808296,97.01128710853403,-0.014951591542713147,4.966888224682758,97.13835508511045,17.872288857412645,0.06569423924580932,7.244568020795991,-0.16844527490784042,-0.03972829291782705,1.3427707824729114,-0.28666593481954206,4.313745819443393,0.09548095679861003,5766.22271561839,0.28553139887289264,97.13842195011874,2.149223736764507,1.2221916729978104,101038.20603315847,287.9946451399122,0.0,0.1,0.0,403.9397368421053,0.21679152564417503,0.86,nominal,4952.316281809666,nan,pitch_program,12.685,0.0,0.0,-3.329642271804613,0.0228239135364724,0.09374159988033859,-3.3072974806473985,0.0,0.09215598793990391,0.86,0.0,0.0,0.0,0.0,0.0,0.0,-0.057723230380210544,0.0,0.0016084254149795094,-0.057723230380210544,0.0,0.0016084254149795094,0.63,1.0,20.745528876867315,0.031606455289958146,3.965304921828645,0.000304172646166975,0.02145079958790546,-0.0031913311964703295,21.121117642587716,0.021689027612245,1.0,0.0,57.711935396241934,-1.4422069163680675,24.37104450968227,97.22217022389223,0.09610657949712878,4.933244389018733,1.0,23.954336113012708,0.0,1.0,97.3563451803356,5766.583384820717,1.0,1.0,-2.248235237323836,18.545306483470057,-0.03588590429361938,-44.31729151962355,1.0,23.32942376633926,1.0,-0.004479388690993974,4.04858641983794,0.9406206473523304,1.0,0.03459645373814544,7.2299721451048375
0.6599999999999999,60.318217985330406,-0.0022027735674041587,24.0467782075158,97.61276541685642,-0.017354034071741953,4.867683390250181,97.73406067014947,17.86578511164332,0.06451791033255128,7.202967364943153,-0.1762713519658683,-0.07201390961483733,1.3863936174836382,-0.26037418385926203,4.348262088564398,0.10236319930791299,5837.081161991044,0.28728291201279393,97.73412958574538,2.148441277833447,1.2221745295225004,101036.4557813808,287.99369594165114,0.0,0.1,0.0,403.9057894736842,0.21677330633787664,0.86,nominal,5011.791645046964,nan,pitch_program,12.67,0.0,0.0,-3.3587162951559484,0.02062072042761937,0.09490350664705849,-3.3381487693525287,0.0,0.09380449916419666,0.86,0.0,0.0,0.0,0.0,0.0,0.0,-0.058261686946598404,0.0,0.0016371973635995005,-0.058261686946598404,0.0,0.0016371973635995005,0.6599999999999999,1.0,20.645705192323746,0.0007303985256888572,3.979475920405796,-0.00014271306621837436,0.020541685499856185,-0.002161843678083953,21.025731188781883,0.020655623405812347,1.0,0.0,57.711935396241934,-1.4422069163680675,24.37104450968227,97.22217022389223,0.09610657949712878,4.933244389018733,1.0,23.98777556465233,0.0,1.0,98.39666861182258,5693.52313293833,1.0,1.0,-1.8466069750751435,18.656846497843468,0.030626768972726044,-44.23766893274592,1.0,24.08744935118215,1.0,-0.006034829291821462,4.042629429584103,0.9398830544812105,1.0,0.007971182950401123,7.656921992812383
0.69,63.26461887329523,-0.0027996229396124893,24.18989127520974,98.21336293216065,-0.019894979073611013,4.770435589797974,98.32915188269911,17.859281912453184,0.062170409900170566,7.160429992154732,-0.1831394547200038,-0.10687084923561523,1.417660506828208,-0.2287081474541562,4.379751881113551,0.10831409878420092,5908.299161167174,0.2890326158430474,98.32922296533583,2.1476773747759994,1.2221577287223322,101034.74052039206,287.9927657067111,0.0,0.1,0.0,403.8718421052631,0.21675508703157828,0.86,nominal,5071.53285225949,nan,pitch_program,12.655,0.0,0.0,-3.385239940385165,0.017847142744417815,0.09523351166009343,-3.3664034719721103,0.0,0.09466190666173473,0.86,0.0,0.0,0.0,0.0,0.0,0.0,-0.058754824536481974,0.0,0.001652161947462825,-0.058754824536481974,0.0,0.001652161947462825,0.69,1.0,20.6813647147033,0.013635572780900048,4.143723225823895,-0.002108672311804087,0.025449357863269545,-0.0019005668575322048,21.092403242960536,0.025607195647928307,1.0,0.0,57.711935396241934,-1.4422069163680675,24.37104450968227,97.22217022389223,0.09610657949712878,4.933244389018733,1.0,23.98777556465233,0.0,1.0,97.57621033849242,5917.297739804966,1.0,1.0,-1.8466069750751435,18.656846497843468,0.030626768972726044,-44.23766893274592,1.0,24.08744935118215,1.0,-0.006034829291821462,4.042629429584103,0.9398830544812105,1.0,0.007971182950401123,7.656921992812383
0.72,66.22901177435925,-0.0034763504219251884,24.330143915106703,98.81309670213406,-0.02255758274375664,4.675087996565488,98.9236323457922,17.852779259842237,0.05856520045577341,7.117250168184507,-0.18889487041246106,-0.14401529396278534,1.4391261694109638,-0.1918763831441033,4.408581436834502,0.11319771526220859,5979.875820969128,0.29078052096267926,98.92370569283186,2.1469310994699127,1.2221412638943423,101033.05956552416,287.9918540645518,0.0,0.1,0.0,403.8378947368421,0.21673686772527995,0.86,nominal,5131.539724067814,nan,pitch_program,12.64,0.0,0.0,-3.4096880515559285,0.014489137752204135,0.0946836207531685,-3.3923742197224014,0.0,0.094674935116595,0.86,0.0,0.0,0.0,0.0,0.0,0.0,-0.05920809959392946,0.0,0.0016523893368965842,-0.05920809959392946,0.0,0.0016523893368965842,0.72,1.0,20.619474303937896,-0.03000245315846945,4.227748136310064,-4.737864535417531e-06,0.025240467141039672,-0.00549179083128434,21.048455407036972,0.025831007926130998,1.0,0.0,57.711935396241934,-1.4422069163680675,24.37104450968227,97.22217022389223,0.09610657949712878,4.933244389018733,1.0,23.586953300649768,0.0,1.0,98.8037104878922,5962.383018368799,1.0,1.0,0.09859969644114894,18.618327470350152,0.029684848807597527,-44.199350028703655,1.0,24.907832289186384,1.0,-0.006151974162970293,4.059343730473924,0.9391746402122333,1.0,-0.3859656272780915,6.769372040685728
0.75,69.2113711957922,-0.004236007775535788,24.467591733447456,99.41198071443162,-0.025321911787019986,4.581593944691778,99.51750375607186,17.84627715381048,0.0536275682722908,7.073656652880103,-0.19339227439689982,-0.18310546182303794,1.4529709008944252,-0.15018802833617667,4.435043902646263,0.11688804903982901,6051.810026340215,0.29252663230072207,99.51757944314228,2.14620131379246,1.2221251285004044,101031.41224895317,287.99096065373254,0.0,0.1,0.0,403.80394736842106,0.21671864841898159,0.86,nominal,5191.811885392701,nan,pitch_program,12.625,0.0,0.0,-3.432478653919443,0.010540261922816308,0.09321783253852009,-3.4164368802406266,0.0,0.09380067356975005,0.86,0.0,0.0,0.0,0.0,0.0,0.0,-0.059628072246762136,0.0,0.0016371305943805614,-0.059628072246762136,0.0,0.0016371305943805614,0.75,1.0,20.571663999358023,-0.011886764035673006,4.221506291462322,-0.002005465096261353,0.029102200196370623,-0.0012691184301947395,21.00034800584262,0.029198811758559918,1.0,0.0,57.711935396241934,-1.4422069163680675,24.37104450968227,97.22217022389223,0.09610657949712878,4.933244389018733,1.0,23.586953300649768,0.0,1.0,99.93818989085825,6035.295317438244,1.0,1.0,0.09859969644114894,18.618327470350152,0.029684848807597527,-44.199350028703655,1.0,24.907832289186384,1.0,-0.006151974162970293,4.059343730473924,0.9391746402122333,1.0,-0.3859656272780915,6.769372040685728
0.78,72.21167199451135,-0.005080959691586144,24.60228915721204,100.01002662397178,-0.028165063868345188,4.489914125486152,100.11076639129584,17.83977559435791,0.04729665414745958,7.029842615197502,-0.1964988297590909,-0.22374309330119127,1.4603769186533082,-0.10405479116394542,4.459391164143555,0.1192718257833811,6124.100494351357,0.29427095060911473,100.11084446984444,2.145487265559558,1.222109316141296,101029.79791705101,287.9900851204781,0.0,0.1,0.0,403.77,0.21670042911268322,0.86,nominal,5252.348812689877,nan,pitch_program,12.61,0.0,0.0,-3.453800295937791,0.006002305410256062,0.09081365613132886,-3.438854929658925,0.0,0.09200846310669734,0.86,0.0,0.0,0.0,0.0,0.0,0.0,-0.060019341020986244,0.0,0.0016058506209115993,-0.060019341020986244,0.0,0.0016058506209115993,0.78,1.0,20.577082170892226,-0.09153400053597574,4.327596837219778,-0.0031213582832266148,0.02475152928043148,-0.00206996428238407,21.027429313314062,0.02503329445723575,1.0,0.0,57.711935396241934,-1.4422069163680675,24.37104450968227,97.22217022389223,0.09610657949712878,4.933244389018733,1.0,23.55136624006698,0.0,1.0,100.15193851280021,6211.421729090712,1.0,1.0,-0.1732986227747709,18.75879207756728,0.06634020346697425,-44.22375095867935,1.0,24.40959100953001,1.0,0.017050575295085454,4.059347479136522,0.9384942771069699,1.0,-0.31682324360669106,6.509944527086384
0.8099999999999999,75.22988931596377,-0.0060128001379581575,24.734289629517107,100.60724404841424,-0.031061348212400457,4.400015743502179,100.70341929829196,17.83327458148453,0.039527392204693375,6.985980278436203,-0.1980972846908416,-0.26547612305906737,1.46203747817421,-0.053991559206920774,4.481849206576982,0.12025127698276951,6196.7457921171235,0.2960134730164182,100.70349979338974,2.1447886732662003,1.2220938205337406,101028.215928041,287.9892271174081,0.0,0.1,0.0,403.73605263157896,0.21668220980638486,0.86,nominal,5313.149850579105,nan,pitch_program,12.595,0.0,0.0,-3.473731108679457,0.0008858173670066664,0.0874634060547934,-3.459780637071244,0.0,0.08928142887555497,0.86,0.0,0.0,0.0,0.0,0.0,0.0,-0.060384563513640195,0.0,0.001558254894763573,-0.060384563513640195,0.0,0.001558254894763573,0.8099999999999999,1.0,20.613598645193377,-0.044696265757405707,4.478292720361666,-0.0035062692449928014,0.02496587003156846,0.0018257648103549965,21.09449104744021,0.025276906606511034,1.0,0.0,57.711935396241934,-1.4422069163680675,24.37104450968227,97.22217022389223,0.09610657949712878,4.933244389018733,1.0,23.55136624006698,0.0,1.0,99.88387133212568,6148.054771483079,1.0,1.0,-0.1732986227747709,18.75879207756728,0.06634020346697425,-44.22375095867935,1.0,24.40959100953001,1.0,0.017050575295085454,4.059347479136522,0.9384942771069699,1.0,-0.31682324360669106,6.509944527086384
0.84,78.26599853697222,-0.00703227597463482,24.86364579768878,101.20364070028164,-0.033982527889222076,4.311872272389024,101.2954603538446,17.82677411519034,0.030292311017523752,6.942219299094576,-0.19808901788191272,-0.3078026292629026,1.458699282931261,-0.0006152463247844627,4.502616830609643,0.11974686602965932,6269.744339816018,0.29775419320817315,101.29554326229206,2.14410543940284,1.2220786354883153,101026.6656497418,287.988386302315,0.0,0.1,0.0,403.7021052631579,0.2166639905000865,0.86,nominal,5374.214216210556,nan,pitch_program,12.58,0.0,0.0,-3.49237528036727,-0.0047894931224884,0.08317534268659549,-3.4793374230488596,0.0,0.08561777716217928,0.86,0.0,0.0,0.0,0.0,0.0,0.0,-0.06072589382005744,0.0,0.0014943121097188354,-0.06072589382005744,0.0,0.0014943121097188354,0.84,1.0,20.50230670087105,0.025481544495843465,4.460085660206871,-0.004106047659916434,0.02925572659792919,-6.944032988333816e-05,20.98183961100825,0.029542545389957535,1.0,0.0,77.86002166121574,0.10337756947905281,24.96854697423239,101.21261604714032,-0.016939508913358464,4.25965356338606,1.0,26.00996121519002,0.0,1.0,101.05417170246197,6287.9835427559865,1.0,1.0,-0.45056580968491683,18.706746727360642,0.10210269931984547,-44.15386447121064,1.0,24.692009871911583,1.0,-0.028252939538060882,4.064691046966667,0.937840885505778,1.0,0.5899347207181148,7.38147238173165
0.87,81.31997521478135,-0.00813921971542078,24.990409680449435,101.7992225936378,-0.03689812469286531,4.225462758688517,101.88688638713859,17.82027419547534,0.019583153589780477,6.8986838448164045,-0.19639699013065448,-0.35017609999261035,1.4512061171367512,0.05535838880459806,4.5218632967265995,0.11769990214485034,6343.094421665537,0.299493101788309,101.88697167592441,2.1434374440072004,1.222063754889806,101025.14645756128,287.98756233707707,0.0,0.1,0.0,403.66815789473685,0.21664577119378817,0.86,nominal,5435.541009925622,nan,pitch_program,12.565,0.0,0.0,-3.509875548927439,-0.010994491956479037,0.07797466185153043,-3.4976602985760072,0.0,0.08103190797578996,0.86,0.0,0.0,0.0,0.0,0.0,0.0,-0.06104568832643926,0.0,0.0014142735933505885,-0.06104568832643926,0.0,0.0014142735933505885,0.87,1.0,20.466759289731606,-0.029608783177338716,4.570434320909759,-0.006874516954122697,0.024932848475770458,0.002389987793476698,20.970884158413686,0.025973408673511014,1.0,0.0,77.86002166121574,0.10337756947905281,24.96854697423239,101.21261604714032,-0.016939508913358464,4.25965356338606,1.0,26.00996121519002,0.0,1.0,101.64823442320282,6281.788133667391,1.0,1.0,-0.45056580968491683,18.706746727360642,0.10210269931984547,-44.15386447121064,1.0,24.692009871911583,1.0,-0.028252939538060882,4.064691046966667,0.937840885505778,1.0,0.5899347207181148,7.38147238173165
0.8999999999999999,84.3917950443276,-0.009332493323446218,25.114632804062186,102.39399431820821,-0.03977578693418131,4.14077078709168,102.47769336427179,17.813774822339525,0.0074122713765770705,6.855475694686792,-0.19296854227987717,-0.392012031062686,1.4402984355617752,0.11312008268093197,4.539732144506908,0.11407498242438567,6416.794205232827,0.3012301868230642,102.47778096943308,2.142784561902661,1.2220491726812084,101023.65773286286,287.98675488677355,0.0,0.1,0.0,403.6342105263158,0.2166275518874898,0.86,nominal,5497.129232418813,nan,pitch_program,12.55,0.0,0.0,-3.5263612930117247,-0.017690508706872606,0.0719042601555052,-3.5148808952374377,0.0,0.07555531928361911,0.86,0.0,0.0,0.0,0.0,0.0,0.0,-0.061346244437339166,0.0,0.0013186890888947167,-0.061346244437339166,0.0,0.0013186890888947167,0.8999999999999999,1.0,20.498412038008198,-0.03682460139276203,4.596650627800881,-0.006394479296981844,0.02508896971286635,0.005800596801673887,21.007509350831892,0.02653286056926851,1.0,0.0,77.86002166121574,0.10337756947905281,24.96854697423239,101.21261604714032,-0.016939508913358464,4.25965356338606,1.0,25.100720645162017,0.0,1.0,101.94712129770323,6550.901572241654,1.0,1.0,-2.210682930870917,18.936351429214014,0.03981260549025284,-44.077807214583345,1.0,25.25489631483548,1.0,-0.01162975730716261,4.066644492740768,0.9372134179898446,1.0,0.19548690920054942,6.636226065315828
0.9299999999999999,87.48143382258402,-0.010609944894502335,25.236366312579282,102.9879592752141,-0.04258171903520386,4.057783617236561,103.06787655113627,17.8072759957829,-0.0061862545319202435,6.8126799438115935,-0.1877779660298783,-0.4326958573566433,1.4265269425279528,0.17177464194466968,4.5563474733356415,0.10886220166195322,6490.841758847788,0.3029654343213891,103.06796637706633,2.1421467467044124,1.222034882850777,101022.1988616426,287.9859636189682,0.0,0.1,0.0,403.6002631578947,0.21660933258119142,0.86,nominal,5558.9778000793885,nan,pitch_program,12.535000000000002,0.0,0.0,-3.5419236450822713,-0.024829398933643422,0.06502520906585553,-3.531106545144338,0.0,0.06923725315296096,0.86,0.0,0.0,0.0,0.0,0.0,0.0,-0.06162943545149049,0.0,0.0012084180325559939,-0.06162943545149049,0.0,0.0012084180325559939,0.9299999999999999,1.0,20.441497540116995,-0.05963111046944641,4.656753723956425,-0.008344143821814833,0.026040506279649007,0.0015231141726340781,20.96529829975064,0.027387087837198915,1.0,0.0,77.86002166121574,0.10337756947905281,24.96854697423239,101.21261604714032,-0.016939508913358464,4.25965356338606,1.0,25.100720645162017,0.0,1.0,102.95401428320741,6453.155290666625,1.0,1.0,-2.210682930870917,18.936351429214014,0.03981260549025284,-44.077807214583345,1.0,25.25489631483548,1.0,-0.01162975730716261,4.066644492740768,0.9372134179898446,1.0,0.19548690920054942,6.636226065315828
0.96,90.58886741770033,-0.011968379998121097,25.35566106192695,103.58111983721018,-0.04528117012062544,3.976491644922229,103.65743062085323,17.800777715805463,-0.02115581146522052,6.770368658662979,-0.1808287746390104,-0.47159219581674844,1.4103213238206016,0.23035083341283452,4.571817949167592,0.1020790675094888,6565.235062718305,0.3046988285524522,103.6575225400985,2.1415240405915754,1.2220208794209642,101020.76923339977,287.98518820309744,0.0,0.1,0.0,403.56631578947366,0.21659111327489305,0.86,nominal,5621.085555011447,nan,pitch_program,12.520000000000001,0.0,0.0,-3.55663052918203,-0.03235379556836654,0.05741690830607264,-3.546420935566953,0.0,0.06214504624482798,0.86,0.0,0.0,0.0,0.0,0.0,0.0,-0.06189672198730101,0.0,0.0010846356707763863,-0.06189672198730101,0.0,0.0010846356707763863,0.96,1.0,20.41489947626551,0.0155984509924167,4.800951183074997,-0.002420105034779513,0.02421516258885466,0.00228581342945227,20.97182624856425,0.02444291207320224,1.0,0.0,77.86002166121574,0.10337756947905281,24.96854697423239,101.21261604714032,-0.016939508913358464,4.25965356338606,1.0,25.073235147378274,0.0,1.0,103.15863220882892,6579.632825902192,1.0,1.0,0.14023476000280344,18.971119516205157,0.10953057168156156,-44.125385727796285,1.0,25.504808940865168,1.0,-0.0027388536649695892,4.063590850283505,0.9366108473451826,1.0,-0.30644707857897474,6.5530591202667825
0.99,93.71407174174323,-0.01340354931934969,25.47256770212076,104.17347746809675,-0.0478389773742864,3.896888006460403,104.24634973225064,17.794279982407215,-0.037416816279469876,6.728602173649618,-0.17215560400075353,-0.5080553428469305,1.3920693090612217,0.2878136502407163,4.586238335986579,0.09377205660547017,6639.9720168383565,0.30643035227810395,104.24644358583264,2.1409169498226235,1.2220071564387593,101019.3682401501,287.9844283099362,0.0,0.1,0.0,403.53236842105264,0.21657289396859472,0.86,nominal,5683.4512723053585,nan,pitch_program,12.505,0.0,0.0,-3.5705455983583847,-0.04019756038821153,0.049176898644973537,-3.560895733241812,0.0,0.024858018497931192,0.86,0.0,0.0,0.0,0.0,0.0,0.0,-0.06214935486528731,0.0,0.00043385426831055456,-0.06214935486528731,0.0,0.00043385426831055456,0.99,1.0,20.488538447815586,-0.0025524462600793156,4.8656394602750055,-0.010273297202952232,0.024622119666038587,0.008616766094199757,21.058363222244616,0.02803637048890353,1.0,0.0,77.86002166121574,0.10337756947905281,24.96854697423239,101.21261604714032,-0.016939508913358464,4.25965356338606,1.0,25.073235147378274,0.0,1.0,103.55932821213295,6596.207350358932,1.0,1.0,0.14023476000280344,18.971119516205157,0.10953057168156156,-44.125385727796285,1.0,25.504808940865168,1.0,-0.0027388536649695892,4.063590850283505,0.9366108473451826,1.0,-0.30644707857897474,6.5530591202667825
1.02,96.85702271720672,-0.014913301732992615,25.587136749300292,104.76503251544995,-0.050325080454764165,3.8189682393177273,104.8346273374877,17.787782795588157,-0.05494303855540752,6.687429515738009,-0.16117197432227687,-0.5414409330927804,1.3721284869650874,0.36472071198461475,4.599690691852599,0.08331326120810874,6715.050427373476,0.30815998648342924,104.83472303586257,2.1403247353690458,1.2219937079672185,101017.99527556064,287.98368361112955,0.0,0.1,0.0,403.49842105263156,0.21655467466229633,0.86,nominal,5746.073639097488,nan,pitch_program,12.49,0.0,0.0,-3.5837352698979994,-0.048440433954266025,0.03840255007276105,-3.5745994552355245,0.0,0.009943207399172479,0.86,0.0,0.0,0.0,0.0,0.0,0.0,-0.06238852993385556,0.0,0.00017354170732422186,-0.06238852993385556,0.0,0.00017354170732422186,1.02,1.0,20.371867012348062,-0.02915742598678528,4.955144756540262,-0.010718655717798169,0.02486394907367606,0.007339742736935427,20.96585975538694,0.02805311689241394,1.0,0.0,77.86002166121574,0.10337756947905281,24.96854697423239,101.21261604714032,-0.016939508913358464,4.25965356338606,1.0,25.416547334247348,0.0,1.0,105.00637424150287,6836.067160163648,1.0,1.0,0.04599057636792471,18.981391038572635,0.0820372213053995,-44.067882719834394,1.0,25.64602708508223,1.0,-0.005864862997753183,4.1113425382151405,0.9360321581267492,1.0,-0.2899614088399547,6.3422203405275654
1.05,100.01769627572935,-0.016491645390600947,25.69941864030807,105.35578528408752,-0.052611455253611036,3.742729700259297,105.42225707316827,17.781286155348287,-0.07361505835876046,6.646891072416833,-0.14784786276205078,-0.5708356957129386,1.3507857657473672,0.4426492455671663,4.612246928375358,0.07073173189397264,6790.4680818845645,0.30988771214300653,105.42235440689147,2.1397477100394173,1.2219805280790503,101016.64973429474,287.98295377883795,0.0,0.1,0.0,403.46447368421053,0.216536455355998,0.86,nominal,5808.951347009566,nan,pitch_program,12.475,0.0,0.0,-3.5962485419274492,-0.05688530343118416,0.026565138199438405,-3.5875889072506792,0.0,0.003977282959668991,0.86,0.0,0.0,0.0,0.0,0.0,0.0,-0.06261523863954982,0.0,6.941668292968874e-05,-0.06261523863954982,0.0,6.941668292968874e-05,1.05,1.0,20.40483740749579,0.0005843037197668863,4.995903427957576,-0.010924910428388541,0.02509641478769738,0.007509500513551864,21.00753295913703,0.02838267607234216,1.0,0.0,100.94486413618174,-0.5308129588506314,25.16123563749093,105.46656723772995,-0.15674425491219296,3.7293270938390277,1.0,25.416547334247348,0.0,1.0,105.06450255375492,6692.722661800069,1.0,1.0,0.04599057636792471,18.981391038572635,0.0820372213053995,-44.067882719834394,1.0,25.64602708508223,1.0,-0.005864862997753183,4.1113425382151405,0.9360321581267492,1.0,-0.2899614088399547,6.3422203405275654
1.08,103.19606833529731,-0.018130114818171405,25.80946378063323,105.94573531893201,-0.05461564758568195,3.6681713441719794,106.00923212696317,17.774790061687607,-0.09325471364141326,6.607019934231847,-0.13242259636390874,-0.595317014259358,1.3282928535164467,0.512674985875157,4.623969865153153,0.05629469651058333,6866.222697703165,0.31161350904996205,106.00933081232934,2.1391861194523596,1.2219676108509792,101015.33101143606,287.98223848542585,0.0,0.1,0.0,403.43052631578945,0.21651823604969964,0.86,nominal,5872.083026058527,nan,pitch_program,12.46,0.0,0.0,-3.6081272912157307,-0.0653719085789216,0.014483446744449598,-3.59991193762971,-0.03922314514735296,0.0015909131838675967,0.86,0.0,0.0,0.0,0.0,0.0,0.0,-0.06283031609348719,-0.0006845730258089455,2.77666731718755e-05,-0.06283031609348719,-0.0006845730258089455,2.77666731718755e-05,1.08,1.0,20.317161352004725,-0.04114904303923939,5.137691392006922,-0.01033013227833999,0.023332949147757562,0.010531205091394864,20.956731889458325,0.02760515222738073,1.0,0.0,100.94486413618174,-0.5308129588506314,25.16123563749093,105.46656723772995,-0.15674425491219296,3.7293270938390277,1.0,26.227277698931445,0.0,1.0,105.82544513045939,6857.7872305813025,1.0,1.0,0.5940225359779547,19.072686610310885,0.10058374837679744,-43.99705661625323,1.0,25.754105361064006,1.0,-0.012442665885671403,4.104179259027233,0.9354763405484169,1.0,-0.9015009792981012,6.679076706659134
1.1099999999999999,106.39211478199203,-0.019818474267806738,25.917322584711325,106.53488155649099,-0.05627864832117782,3.5952934692698766,106.5955453603573,17.768294514606115,-0.1147198790133335,6.567842554668637,-0.11528216933435667,-0.6499609582755765,1.3048804668540568,0.5699447428012665,4.634912970909312,0.0404860277630451,6942.311933615409,0.3133373561121868,106.59564506302148,2.1386401345329413,1.221954950358998,101014.03850200378,287.98153740319935,0.0,0.1,0.0,403.3965789473684,0.21650001674340127,0.86,nominal,5935.467256861356,nan,pitch_program,12.445,0.0,0.0,-3.6194115963900018,-0.07592723327452165,0.0027107057082820032,-3.6116117328858848,-0.061245598023654174,0.0006363652735470387,0.86,0.0,0.0,0.0,0.0,0.0,0.0,-0.06303451604251666,-0.0010689373378656973,1.11066692687502e-05,-0.06303451604251666,-0.0010689373378656973,1.11066692687502e-05,1.1099999999999999,1.0,20.351998697146737,-0.06469321119270574,5.186262566626153,-0.01229749060216956,0.02344859973198548,0.012771756387366624,21.002508316632674,0.02939698735788343,1.0,0.0,100.94486413618174,-0.5308129588506314,25.16123563749093,105.46656723772995,-0.15674425491219296,3.7293270938390277,1.0,26.227277698931445,0.0,1.0,107.1155347685657,6984.8090352351355,1.0,1.0,0.5940225359779547,19.072686610310885,0.10058374837679744,-43.99705661625323,1.0,25.754105361064006,1.0,-0.012442665885671403,4.104179259027233,0.9354763405484169,1.0,-0.9015009792981012,6.679076706659134
1.14,109.60581145541781,-0.02154511824618796,26.02304550737128,107.12322244752588,-0.05755479927937409,3.52409742199851,107.18118940717521,17.761799514103814,-0.13837899752441393,6.529379984633192,-0.09689803309907759,-0.7187492915930919,1.2807379391497884,0.6116365806907957,4.645123736174472,0.023828254329319065,7018.733400380358,0.31505923161245886,107.18128975570606,2.138109900559854,1.221942540674673,101012.771600575,287.98085020420206,0.0,0.1,0.0,403.3626315789474,0.21648179743710294,0.86,nominal,5999.102580593247,nan,pitch_program,12.43,0.0,0.0,-3.6301342615544634,-0.08786451331865613,-0.008327189392422673,-3.6227252500870315,-0.07721694720065535,0.0002545461094188155,0.86,0.0,0.0,0.0,0.0,0.0,0.0,-0.0632284835091537,-0.0013476899669900544,4.44266770750008e-06,-0.0632284835091537,-0.0013476899669900544,4.44266770750008e-06,1.14,1.0,20.301079124015853,-0.0026524103606568195,5.206242834871093,-0.011331500235903272,0.018955458824317938,0.01262320755237556,20.958024360384726,0.02543732858904488,1.0,0.0,100.94486413618174,-0.5308129588506314,25.16123563749093,105.46656723772995,-0.15674425491219296,3.7293270938390277,1.0,26.74204639442182,0.0,1.0,106.95758800852786,6956.482303371567,1.0,1.0,-0.8567736684791978,19.145394081253873,0.2123233342488331,-44.0651155829101,1.0,26.07742939443089,1.0,-0.0017461694855031486,4.113374850213464,0.9349423862315718,1.0,-0.34110483945553105,6.824178059474949
1.17,112.83713413629734,-0.02329741728598893,26.126683069777282,107.71075602931782,-0.058409967993365654,3.4545854135334086,107.76615673072406,17.7553050601807,-0.16442162732972793,6.491648670546362,-0.07779238580062045,-0.7958775280628931,1.256034158482897,0.6360691319474644,4.654643768266311,0.006873745719797551,7095.484667238284,0.3167791133704325,107.7662573280922,2.1375955285784203,1.221930375862089,101011.52970097255,287.9801765600464,0.0,0.1,0.0,403.3286842105263,0.21646357813080455,0.86,nominal,6062.987504781724,nan,pitch_program,12.415,0.0,0.0,-3.640324008668979,-0.10095195257426512,-0.01827559075966367,-3.6332845052362006,-0.09145795042482122,0.0001018184437675262,0.86,0.0,0.0,0.0,0.0,0.0,0.0,-0.06341277727806485,-0.0015962423620388768,1.7770670830000322e-06,-0.06341277727806485,-0.0015962423620388768,1.7770670830000322e-06,1.17,1.0,20.21151164742884,-0.029627979182786788,5.2331147481456,-0.014754155364104975,0.024152626074653828,0.010011000457502861,20.878016449331604,0.030020902334378926,1.0,0.0,100.94486413618174,-0.5308129588506314,25.16123563749093,105.46656723772995,-0.15674425491219296,3.7293270938390277,1.0,26.74204639442182,0.0,1.0,107.83378596643915,7015.656296617484,1.0,1.0,-0.8567736684791978,19.145394081253873,0.2123233342488331,-44.0651155829101,1.0,26.07742939443089,1.0,-0.0017461694855031486,4.113374850213464,0.9349423862315718,1.0,-0.34110483945553105,6.824178059474949
1.2,116.08605853624273,-0.025062053426009093,26.228285879952004,108.29747999817995,-0.05882120466733871,3.386760339157337,108.35043968293435,17.748811152836776,-0.19298624474316503,6.454661106143395,-0.05851315976743266,-0.8797040859302112,1.2309212943010819,0.6423862785223761,4.663509138351463,-0.009809714950263613,7172.563269115052,0.3184969789147047,108.3505401173715,2.137097084051837,1.221918449975431,101010.3121960178,287.97951614178027,0.0,0.1,0.0,403.2947368421053,0.21644535882450622,0.86,nominal,6127.120509467229,nan,pitch_program,12.4,0.0,0.0,-3.650006334038666,-0.11515288134917678,-0.026835742319521242,-3.64331760251768,-0.10567490897943456,4.0727377507010486e-05,0.86,0.0,0.0,0.0,0.0,0.0,0.0,-0.06358788785979956,-0.0018443750984364537,7.108268332000129e-07,-0.06358788785979956,-0.0018443750984364537,7.108268332000129e-07,1.2,1.0,20.184539825534166,0.0632960872071485,5.429995567187272,-0.015478496482035937,0.021030969765773608,0.010194192596770733,20.90226079214648,0.028032251164209727,1.0,0.0,100.94486413618174,-0.5308129588506314,25.16123563749093,105.46656723772995,-0.15674425491219296,3.7293270938390277,1.0,26.91623877464621,0.0,1.0,107.75203907000348,7200.934630775389,1.0,1.0,2.004913314260827,19.183383502896586,0.25812405084475115,-43.99951814854521,1.0,26.473166592959725,1.0,-0.003160557892062299,4.119047490070447,0.9344292853001199,1.0,-0.3106904980611116,6.056186675253182
1.23,119.35256028971179,-0.026825356497968578,26.32790464814559,108.88339178230169,-0.0587767690653161,3.3206256064528623,108.93403056503975,17.74231779207204,-0.22421754553630585,6.418426480876507,-0.03961234916565766,-0.9704156186626326,1.2055335837049674,0.6304490413005062,4.671750900596948,-0.025655830122898623,7249.966714334824,0.32021280566045235,108.93413042063001,2.1366145810263832,1.22190675705717,101009.11847734534,287.978868619787,0.0,0.1,0.0,403.26078947368416,0.2164271395182078,0.86,nominal,6191.500053690244,nan,pitch_program,12.385,0.0,0.0,-3.659203175499047,-0.13052830892629913,-0.0337649749551277,-3.6528489463065,-0.1205869489475533,1.6290951002804194e-05,0.86,0.0,0.0,0.0,0.0,0.0,0.0,-0.06375424119105398,-0.002104639294069116,2.843307332800052e-07,-0.06375424119105398,-0.002104639294069116,2.843307332800052e-07,1.23,1.0,20.232753713984483,0.005439790828301387,5.427651754039125,-0.016677961457458066,0.021883688198255626,0.013579187549583392,20.948120584081074,0.030682968272996176,1.0,0.0,100.94486413618174,-0.5308129588506314,25.16123563749093,105.46656723772995,-0.15674425491219296,3.7293270938390277,1.0,26.91623877464621,0.0,1.0,109.26987409592142,7292.354502223777,1.0,1.0,2.004913314260827,19.183383502896586,0.25812405084475115,-43.99951814854521,1.0,26.473166592959725,1.0,-0.003160557892062299,4.119047490070447,0.9344292853001199,1.0,-0.3106904980611116,6.056186675253182
1.26,122.63661494806699,-0.028573638139063374,26.425590197600908,109.46848861183987,-0.05827605470315983,3.2561849818438824,109.51692168653689,17.735824977886494,-0.2582969479036325,6.382951276975511,-0.02162546941681347,-1.0691403300400404,1.179987543156428,0.6007993127675912,4.679395650724507,-0.040117641856367806,7327.692492353662,0.3219265710817513,109.5170205534555,2.1361479802017445,1.2218952911367942,101007.94793527301,287.97823366371557,0.0,0.1,0.0,403.22684210526313,0.21640892021190947,0.86,nominal,6256.124581958829,nan,pitch_program,12.37,0.0,0.0,-3.667933007535026,-0.147202935711788,-0.03888231550855292,-3.6618993830436155,-0.13655654100609413,6.516380401121678e-06,0.86,0.0,0.0,0.0,0.0,0.0,0.0,-0.0639122011108601,-0.0023833612556909923,1.1373229331200208e-07,-0.0639122011108601,-0.0023833612556909923,1.1373229331200208e-07,1.26,1.0,20.22301976437103,0.02205481629438434,5.491790759615369,-0.020088260908618153,0.021195760949479673,0.01032046083924328,20.95544751496517,0.030972736729171314,1.0,0.0,120.32751319768185,-1.017252840125636,28.3420772957578,109.51413885521883,-0.1619250375503089,3.2203985904766697,1.0,25.699759691410016,0.0,1.0,110.11648884897393,7438.119394679801,1.0,1.0,0.9412843260222801,19.283576717846046,0.23045860943531898,-43.92066591971112,1.0,26.799329306248985,1.0,-0.00018983849821578146,4.130614996293435,0.9339360245059978,1.0,-0.42023019042207965,6.253333592790331
