time_s,sensor_time_s,imu_valid,imu_ax_mps2,imu_ay_mps2,imu_az_mps2,gyro_p_rps,gyro_q_rps,gyro_r_rps,imu_accel_norm_mps2,imu_gyro_norm_rps,gps_valid,gps_latency_s,gps_x_m,gps_y_m,gps_z_m,gps_vx_mps,gps_vy_mps,gps_vz_mps,baro_valid,baro_alt_m,baro_bias_m,pitot_valid,pitot_airspeed_mps,pitot_qbar_pa,pitot_compressibility_factor,mag_valid,mag_heading_deg,mag_x_ut,mag_y_ut,mag_z_ut,radar_valid,radar_agl_m,optical_flow_valid,optical_flow_x_radps,optical_flow_y_radps,optical_flow_quality,horizon_valid,horizon_roll_deg,horizon_pitch_deg
0.0,0.0,1.0,17.089473733673106,-0.02973773807099401,0.17662175509873101,0.0016677683591043149,0.0011681274632859406,0.0012765720485123657,17.090412285001868,0.00240324973008537,1.0,0.0,-1.885154541229685,1.8645638091475825,21.162662438547994,85.32748210022089,0.18147237523479218,7.846341299741817,1.0,20.771163472887363,0.0,1.0,85.62705682436835,4465.525352623238,1.0,1.0,-0.8198733225718878,19.523475325297145,-0.00615746722134172,-43.81279554351524,1.0,20.39618647858491,1.0,-0.0077448575321814855,4.273240466216326,0.95,1.0,0.17459483210835952,5.697481511065039
0.03,0.03,1.0,17.396244479696897,-0.010824585734829957,0.6306755305425477,0.00227870121700718,-0.15518965861156028,0.0009052063149970115,17.40767620315435,0.1552090268563067,1.0,0.0,-1.885154541229685,1.8645638091475825,21.162662438547994,85.32748210022089,0.18147237523479218,7.846341299741817,1.0,20.771163472887363,0.0,1.0,85.44847029073749,4493.7730199296575,1.0,1.0,-0.8198733225718878,19.523475325297145,-0.00615746722134172,-43.81279554351524,1.0,20.39618647858491,1.0,-0.0077448575321814855,4.273240466216326,0.95,1.0,0.17459483210835952,5.697481511065039
0.06,0.06,1.0,17.696717319912494,-0.03570763160243733,1.2207057427105361,-0.0028398648926588497,-0.22005837361407174,-0.0019183912123168978,17.738804961048867,0.22008505822777347,1.0,0.0,-1.885154541229685,1.8645638091475825,21.162662438547994,85.32748210022089,0.18147237523479218,7.846341299741817,1.0,20.525977459933507,0.0,1.0,85.93813942811762,4525.848482105851,1.0,1.0,0.07255170390840952,19.002286686270214,-0.02669568348319556,-44.038046454028205,1.0,20.444327340560704,1.0,-0.00015373853231190118,4.219010590605877,0.9488516472541731,1.0,-0.15704850560760625,6.462321820446059
0.09,0.09,1.0,17.957940428509474,0.0012252447863613878,1.5605997232287971,0.0012947148234358492,-0.17918802523489563,0.0002302469716934383,18.025623357633478,0.17919285054857403,1.0,0.0,-1.885154541229685,1.8645638091475825,21.162662438547994,85.32748210022089,0.18147237523479218,7.846341299741817,1.0,20.525977459933507,0.0,1.0,87.23021278455133,4643.909589223222,1.0,1.0,0.07255170390840952,19.002286686270214,-0.02669568348319556,-44.038046454028205,1.0,20.444327340560704,1.0,-0.00015373853231190118,4.219010590605877,0.9488516472541731,1.0,-0.15704850560760625,6.462321820446059
0.12,0.12,1.0,18.214865518183515,-0.00299604400459051,1.7695960271916231,0.0029427786051623994,-0.10300931738526926,-0.005846867070300608,18.3006230746727,0.10321707837676818,1.0,0.0,-1.885154541229685,1.8645638091475825,21.162662438547994,85.32748210022089,0.18147237523479218,7.846341299741817,1.0,20.835346681954185,0.0,1.0,87.26237162972305,4712.481319603171,1.0,1.0,-1.9084752659941988,18.642792801078777,-0.005346825721254721,-44.165488539707596,1.0,20.159663522315693,1.0,-0.014859500969159799,4.180330718582392,0.9477630712345194,1.0,0.29002847610455845,7.731365210676751
0.15,0.15,1.0,18.513385269299427,-0.02621626102149286,1.911822295917065,0.001270697069886745,-0.05525539516420091,-0.005270510274117776,18.611856057712796,0.05552073166255103,1.0,0.0,-1.885154541229685,1.8645638091475825,21.162662438547994,85.32748210022089,0.18147237523479218,7.846341299741817,1.0,20.835346681954185,0.0,1.0,87.53695698738231,4739.466990604879,1.0,1.0,-1.9084752659941988,18.642792801078777,-0.005346825721254721,-44.165488539707596,1.0,20.159663522315693,1.0,-0.014859500969159799,4.180330718582392,0.9477630712345194,1.0,0.29002847610455845,7.731365210676751
0.18,0.18,1.0,18.722394612909042,-0.0394862548724631,2.0707792046463376,0.0017544490442044035,-0.04313343641179798,-0.0050849871008564205,18.836606534092205,0.043467557119709475,1.0,0.0,-1.885154541229685,1.8645638091475825,21.162662438547994,85.32748210022089,0.18147237523479218,7.846341299741817,1.0,20.083473084539204,0.0,1.0,88.02655074059074,4842.673686401586,1.0,1.0,-0.5698595405691523,18.545491410000448,0.030471585242994256,-44.29886642887155,1.0,21.362999715066046,1.0,0.004994877307153537,4.13763839023931,0.9467265852657278,1.0,-0.4904907094068782,6.931354623295589
0.21,0.21,1.0,19.015787344356955,0.06704767279429792,2.2444958615773136,0.0006056725969679421,-0.03860514971965566,-0.0036295362311282624,19.14790916494203,0.03878012322601387,1.0,0.0,18.157912599135038,-0.8504498991595428,22.53059065308789,88.7830469173057,-0.10525661213600906,6.726218403256376,1.0,20.083473084539204,0.0,1.0,88.8054534760994,4832.936832853133,1.0,1.0,-0.5698595405691523,18.545491410000448,0.030471585242994256,-44.29886642887155,1.0,21.362999715066046,1.0,0.004994877307153537,4.13763839023931,0.9467265852657278,1.0,-0.4904907094068782,6.931354623295589
0.24,0.24,1.0,19.31687331290316,-0.054611530591074556,2.458852186336108,0.0023277086114828877,-0.036655933544943495,-0.003874514799095614,19.4728151811769,0.036933555966894065,1.0,0.0,18.157912599135038,-0.8504498991595428,22.53059065308789,88.7830469173057,-0.10525661213600906,6.726218403256376,1.0,22.188630904696254,0.0,1.0,89.45011371559363,4890.347735950609,1.0,1.0,-1.0312195712747925,18.472835570777075,-0.009810739939885491,-44.36638002768543,1.0,21.601088782067702,1.0,0.012428329528247142,4.124483872043538,0.9457380494344378,1.0,-0.5707998721591017,7.378205456818954
0.27,0.27,1.0,19.52925613387237,-0.025673177443361943,2.614903523537878,0.003926808945294895,-0.024041092047176218,-0.0073798512699962075,19.703558680904383,0.025453018290193252,1.0,0.0,18.157912599135038,-0.8504498991595428,22.53059065308789,88.7830469173057,-0.10525661213600906,6.726218403256376,1.0,22.188630904696254,0.0,1.0,90.12018263085521,4960.867636087214,1.0,1.0,-1.0312195712747925,18.472835570777075,-0.009810739939885491,-44.36638002768543,1.0,21.601088782067702,1.0,0.012428329528247142,4.124483872043538,0.9457380494344378,1.0,-0.5707998721591017,7.378205456818954
0.3,0.3,1.0,19.911431467228365,-0.022571941612602814,2.7470792885465936,0.0014190454790100706,-0.016096134262632285,-0.004311277835185155,20.100051173672213,0.01672382566413387,1.0,0.0,18.157912599135038,-0.8504498991595428,22.53059065308789,88.7830469173057,-0.10525661213600906,6.726218403256376,1.0,22.08906486475692,0.0,1.0,90.3890153313851,5032.533585208769,1.0,1.0,-0.0945279324596598,18.3127784385106,-0.004311562202237029,-44.36223126508485,1.0,21.919691926314098,1.0,-9.044496522002052e-05,4.089272152168069,0.9447932436354937,1.0,0.5241848764287984,8.084579017020879
0.32999999999999996,0.32999999999999996,1.0,20.15334341147287,-0.05554358074480622,2.9172547963626205,0.0012347402441805306,-0.004025501587197732,-0.004475940634596503,20.363465110265974,0.006145184379948466,1.0,0.0,18.157912599135038,-0.8504498991595428,22.53059065308789,88.7830469173057,-0.10525661213600906,6.726218403256376,1.0,22.08906486475692,0.0,1.0,90.8780781117256,5071.86442665378,1.0,1.0,-0.0945279324596598,18.3127784385106,-0.004311562202237029,-44.36223126508485,1.0,21.919691926314098,1.0,-9.044496522002052e-05,4.089272152168069,0.9447932436354937,1.0,0.5241848764287984,8.084579017020879
0.36,0.36,1.0,20.545266081075233,0.04007007804602873,2.9851586274421766,0.00030998224794939115,0.0006584193445093272,-0.0051053491155229735,20.76103889462971,0.005156955944996918,1.0,0.0,18.157912599135038,-0.8504498991595428,22.53059065308789,88.7830469173057,-0.10525661213600906,6.726218403256376,1.0,23.007612139778512,0.0,1.0,91.37885129627351,5124.018945167179,1.0,1.0,0.16587168171021666,18.423393653636786,0.060014266411724235,-44.38706562815286,1.0,22.242643292756256,1.0,0.002921971683680663,4.084084314081269,0.9438885478385078,1.0,-0.08419726633505283,7.2820089743280425
0.39,0.39,1.0,20.816506538243793,-0.041125259364819304,3.1232305039541814,-0.0022719881578309254,0.00516747199045094,-0.0033396643018875614,21.04954167017739,0.006558815030988532,1.0,0.0,18.157912599135038,-0.8504498991595428,22.53059065308789,88.7830469173057,-0.10525661213600906,6.726218403256376,1.0,23.007612139778512,0.0,1.0,91.52971145291347,5179.744051925329,1.0,1.0,0.16587168171021666,18.423393653636786,0.060014266411724235,-44.38706562815286,1.0,22.242643292756256,1.0,0.002921971683680663,4.084084314081269,0.9438885478385078,1.0,-0.08419726633505283,7.2820089743280425
0.42,0.42,1.0,20.860926030050965,-0.03079568847786556,3.260600385699508,0.0017418616824782785,0.009877362963189853,-0.00464838297012301,21.114229753436675,0.01105458481646463,1.0,0.0,38.98501014610119,0.8563864018476706,23.120144016026433,92.79423042218515,-0.017061487380795045,5.712281756615636,1.0,23.190533469797728,0.0,1.0,93.14012921598116,5282.395476567857,1.0,1.0,0.9146667270925823,18.379201985810564,0.021697593264773326,-44.301351553979124,1.0,22.725565356007635,1.0,0.00991746618482512,4.05904964033756,0.9430210148155944,1.0,0.4531559203580561,7.101408867183547
0.44999999999999996,0.44999999999999996,1.0,20.891103134040677,0.030520125420806184,3.3735192082753973,0.004866772663203135,0.01433586687623613,-0.005148593642352645,21.161752136431968,0.015990952809089885,1.0,0.0,38.98501014610119,0.8563864018476706,23.120144016026433,92.79423042218515,-0.017061487380795045,5.712281756615636,1.0,23.190533469797728,0.0,1.0,93.13124688325165,5385.300316178974,1.0,1.0,0.9146667270925823,18.379201985810564,0.021697593264773326,-44.301351553979124,1.0,22.725565356007635,1.0,0.00991746618482512,4.05904964033756,0.9430210148155944,1.0,0.4531559203580561,7.101408867183547
0.48,0.48,1.0,20.8457994325466,0.0063057451361703066,3.4526815305142877,0.0004218428413890786,0.015680938273530728,-0.003017794703679202,21.129798945932645,0.015974256207869783,1.0,0.0,38.98501014610119,0.8563864018476706,23.120144016026433,92.79423042218515,-0.017061487380795045,5.712281756615636,1.0,24.52028671551351,0.0,1.0,94.00244895782063,5360.218467440849,1.0,1.0,-0.46220753901938616,18.392068669204956,-0.01149280801529265,-44.30542553468423,1.0,23.276937139462284,1.0,-0.000118953486946018,4.076263178944754,0.9421882613452455,1.0,0.6943489557050705,7.7738965666695075
0.51,0.51,1.0,20.793693017570448,0.060268785964632525,3.6137481074133855,0.0017542069738391845,0.018845915390820565,-0.007813617230305166,21.1054608340911,0.020476776681078376,1.0,0.0,38.98501014610119,0.8563864018476706,23.120144016026433,92.79423042218515,-0.017061487380795045,5.712281756615636,1.0,24.52028671551351,0.0,1.0,93.75889772315307,5481.953459040537,1.0,1.0,-0.46220753901938616,18.392068669204956,-0.01149280801529265,-44.30542553468423,1.0,23.276937139462284,1.0,-0.000118953486946018,4.076263178944754,0.9421882613452455,1.0,0.6943489557050705,7.7738965666695075
0.54,0.54,1.0,20.806726318467017,-0.02232933791578454,3.685772124262351,0.003278237988043326,0.021281960317127056,-0.006592335799951964,21.130671424327936,0.0225194931236329,1.0,0.0,38.98501014610119,0.8563864018476706,23.120144016026433,92.79423042218515,-0.017061487380795045,5.712281756615636,1.0,23.621649397471078,0.0,1.0,95.00189419994665,5539.600565522558,1.0,1.0,0.46023326796382047,18.45533725642992,0.0010306857684990699,-44.24088387467479,1.0,23.638423942282465,1.0,-0.012133087445190642,4.0448998813824275,0.9413886165241884,1.0,0.06961182258845525,7.239757325489788
0.57,0.57,1.0,20.782819099104948,-0.0003425662961444812,3.733483102376721,0.003690580321505291,0.023903958804348185,-0.010446134745135505,21.11550297528348,0.026346562598240107,1.0,0.0,38.98501014610119,0.8563864018476706,23.120144016026433,92.79423042218515,-0.017061487380795045,5.712281756615636,1.0,23.621649397471078,0.0,1.0,96.33236475533903,5656.778903627215,1.0,1.0,0.46023326796382047,18.45533725642992,0.0010306857684990699,-44.24088387467479,1.0,23.638423942282465,1.0,-0.012133087445190642,4.0448998813824275,0.9413886165241884,1.0,0.06961182258845525,7.239757325489788
0.6,0.6,1.0,20.7754001464107,0.022641183687434747,3.8721135393197312,-0.002367560512400367,0.026977627906409347,-0.004864234889715275,21.13317361704256,0.027514696641956226,1.0,0.0,38.98501014610119,0.8563864018476706,23.120144016026433,92.79423042218515,-0.017061487380795045,5.712281756615636,1.0,23.954336113012708,0.0,1.0,96.59583377640837,5723.3864812432175,1.0,1.0,-2.248235237323836,18.545306483470057,-0.03588590429361938,-44.31729151962355,1.0,23.32942376633926,1.0,-0.004479388690993974,4.04858641983794,0.9406206473523304,1.0,0.03459645373814544,7.2299721451048375
0.63,0.63,1.0,20.745528876867315,0.031606455289958146,3.965304921828645,0.000304172646166975,0.02145079958790546,-0.0031913311964703295,21.121117642587716,0.021689027612245,1.0,0.0,57.711935396241934,-1.4422069163680675,24.37104450968227,97.22217022389223,0.09610657949712878,4.933244389018733,1.0,23.954336113012708,0.0,1.0,97.3563451803356,5766.583384820717,1.0,1.0,-2.248235237323836,18.545306483470057,-0.03588590429361938,-44.31729151962355,1.0,23.32942376633926,1.0,-0.004479388690993974,4.04858641983794,0.9406206473523304,1.0,0.03459645373814544,7.2299721451048375
0.6599999999999999,0.6599999999999999,1.0,20.645705192323746,0.0007303985256888572,3.979475920405796,-0.00014271306621837436,0.020541685499856185,-0.002161843678083953,21.025731188781883,0.020655623405812347,1.0,0.0,57.711935396241934,-1.4422069163680675,24.37104450968227,97.22217022389223,0.09610657949712878,4.933244389018733,1.0,23.98777556465233,0.0,1.0,98.39666861182258,5693.52313293833,1.0,1.0,-1.8466069750751435,18.656846497843468,0.030626768972726044,-44.23766893274592,1.0,24.08744935118215,1.0,-0.006034829291821462,4.042629429584103,0.9398830544812105,1.0,0.007971182950401123,7.656921992812383
0.69,0.69,1.0,20.6813647147033,0.013635572780900048,4.143723225823895,-0.002108672311804087,0.025449357863269545,-0.0019005668575322048,21.092403242960536,0.025607195647928307,1.0,0.0,57.711935396241934,-1.4422069163680675,24.37104450968227,97.22217022389223,0.09610657949712878,4.933244389018733,1.0,23.98777556465233,0.0,1.0,97.57621033849242,5917.297739804966,1.0,1.0,-1.8466069750751435,18.656846497843468,0.030626768972726044,-44.23766893274592,1.0,24.08744935118215,1.0,-0.006034829291821462,4.042629429584103,0.9398830544812105,1.0,0.007971182950401123,7.656921992812383
0.72,0.72,1.0,20.619474303937896,-0.03000245315846945,4.227748136310064,-4.737864535417531e-06,0.025240467141039672,-0.00549179083128434,21.048455407036972,0.025831007926130998,1.0,0.0,57.711935396241934,-1.4422069163680675,24.37104450968227,97.22217022389223,0.09610657949712878,4.933244389018733,1.0,23.586953300649768,0.0,1.0,98.8037104878922,5962.383018368799,1.0,1.0,0.09859969644114894,18.618327470350152,0.029684848807597527,-44.199350028703655,1.0,24.907832289186384,1.0,-0.006151974162970293,4.059343730473924,0.9391746402122333,1.0,-0.3859656272780915,6.769372040685728
0.75,0.75,1.0,20.571663999358023,-0.011886764035673006,4.221506291462322,-0.002005465096261353,0.029102200196370623,-0.0012691184301947395,21.00034800584262,0.029198811758559918,1.0,0.0,57.711935396241934,-1.4422069163680675,24.37104450968227,97.22217022389223,0.09610657949712878,4.933244389018733,1.0,23.586953300649768,0.0,1.0,99.93818989085825,6035.295317438244,1.0,1.0,0.09859969644114894,18.618327470350152,0.029684848807597527,-44.199350028703655,1.0,24.907832289186384,1.0,-0.006151974162970293,4.059343730473924,0.9391746402122333,1.0,-0.3859656272780915,6.769372040685728
0.78,0.78,1.0,20.577082170892226,-0.09153400053597574,4.327596837219778,-0.0031213582832266148,0.02475152928043148,-0.00206996428238407,21.027429313314062,0.02503329445723575,1.0,0.0,57.711935396241934,-1.4422069163680675,24.37104450968227,97.22217022389223,0.09610657949712878,4.933244389018733,1.0,23.55136624006698,0.0,1.0,100.15193851280021,6211.421729090712,1.0,1.0,-0.1732986227747709,18.75879207756728,0.06634020346697425,-44.22375095867935,1.0,24.40959100953001,1.0,0.017050575295085454,4.059347479136522,0.9384942771069699,1.0,-0.31682324360669106,6.509944527086384
0.8099999999999999,0.8099999999999999,1.0,20.613598645193377,-0.044696265757405707,4.478292720361666,-0.0035062692449928014,0.02496587003156846,0.0018257648103549965,21.09449104744021,0.025276906606511034,1.0,0.0,57.711935396241934,-1.4422069163680675,24.37104450968227,97.22217022389223,0.09610657949712878,4.933244389018733,1.0,23.55136624006698,0.0,1.0,99.88387133212568,6148.054771483079,1.0,1.0,-0.1732986227747709,18.75879207756728,0.06634020346697425,-44.22375095867935,1.0,24.40959100953001,1.0,0.017050575295085454,4.059347479136522,0.9384942771069699,1.0,-0.31682324360669106,6.509944527086384
0.84,0.84,1.0,20.50230670087105,0.025481544495843465,4.460085660206871,-0.004106047659916434,0.02925572659792919,-6.944032988333816e-05,20.98183961100825,0.029542545389957535,1.0,0.0,77.86002166121574,0.10337756947905281,24.96854697423239,101.21261604714032,-0.016939508913358464,4.25965356338606,1.0,26.00996121519002,0.0,1.0,101.05417170246197,6287.9835427559865,1.0,1.0,-0.45056580968491683,18.706746727360642,0.10210269931984547,-44.15386447121064,1.0,24.692009871911583,1.0,-0.028252939538060882,4.064691046966667,0.937840885505778,1.0,0.5899347207181148,7.38147238173165
0.87,0.87,1.0,20.466759289731606,-0.029608783177338716,4.570434320909759,-0.006874516954122697,0.024932848475770458,0.002389987793476698,20.970884158413686,0.025973408673511014,1.0,0.0,77.86002166121574,0.10337756947905281,24.96854697423239,101.21261604714032,-0.016939508913358464,4.25965356338606,1.0,26.00996121519002,0.0,1.0,101.64823442320282,6281.788133667391,1.0,1.0,-0.45056580968491683,18.706746727360642,0.10210269931984547,-44.15386447121064,1.0,24.692009871911583,1.0,-0.028252939538060882,4.064691046966667,0.937840885505778,1.0,0.5899347207181148,7.38147238173165
0.8999999999999999,0.8999999999999999,1.0,20.498412038008198,-0.03682460139276203,4.596650627800881,-0.006394479296981844,0.02508896971286635,0.005800596801673887,21.007509350831892,0.02653286056926851,1.0,0.0,77.86002166121574,0.10337756947905281,24.96854697423239,101.21261604714032,-0.016939508913358464,4.25965356338606,1.0,25.100720645162017,0.0,1.0,101.94712129770323,6550.901572241654,1.0,1.0,-2.210682930870917,18.936351429214014,0.03981260549025284,-44.077807214583345,1.0,25.25489631483548,1.0,-0.01162975730716261,4.066644492740768,0.9372134179898446,1.0,0.19548690920054942,6.636226065315828
0.9299999999999999,0.9299999999999999,1.0,20.441497540116995,-0.05963111046944641,4.656753723956425,-0.008344143821814833,0.026040506279649007,0.0015231141726340781,20.96529829975064,0.027387087837198915,1.0,0.0,77.86002166121574,0.10337756947905281,24.96854697423239,101.21261604714032,-0.016939508913358464,4.25965356338606,1.0,25.100720645162017,0.0,1.0,102.95401428320741,6453.155290666625,1.0,1.0,-2.210682930870917,18.936351429214014,0.03981260549025284,-44.077807214583345,1.0,25.25489631483548,1.0,-0.01162975730716261,4.066644492740768,0.9372134179898446,1.0,0.19548690920054942,6.636226065315828
0.96,0.96,1.0,20.41489947626551,0.0155984509924167,4.800951183074997,-0.002420105034779513,0.02421516258885466,0.00228581342945227,20.97182624856425,0.02444291207320224,1.0,0.0,77.86002166121574,0.10337756947905281,24.96854697423239,101.21261604714032,-0.016939508913358464,4.25965356338606,1.0,25.073235147378274,0.0,1.0,103.15863220882892,6579.632825902192,1.0,1.0,0.14023476000280344,18.971119516205157,0.10953057168156156,-44.125385727796285,1.0,25.504808940865168,1.0,-0.0027388536649695892,4.063590850283505,0.9366108473451826,1.0,-0.30644707857897474,6.5530591202667825
0.99,0.99,1.0,20.488538447815586,-0.0025524462600793156,4.8656394602750055,-0.010273297202952232,0.024622119666038587,0.008616766094199757,21.058363222244616,0.02803637048890353,1.0,0.0,77.86002166121574,0.10337756947905281,24.96854697423239,101.21261604714032,-0.016939508913358464,4.25965356338606,1.0,25.073235147378274,0.0,1.0,103.55932821213295,6596.207350358932,1.0,1.0,0.14023476000280344,18.971119516205157,0.10953057168156156,-44.125385727796285,1.0,25.504808940865168,1.0,-0.0027388536649695892,4.063590850283505,0.9366108473451826,1.0,-0.30644707857897474,6.5530591202667825
1.02,1.02,1.0,20.371867012348062,-0.02915742598678528,4.955144756540262,-0.010718655717798169,0.02486394907367606,0.007339742736935427,20.96585975538694,0.02805311689241394,1.0,0.0,77.86002166121574,0.10337756947905281,24.96854697423239,101.21261604714032,-0.016939508913358464,4.25965356338606,1.0,25.416547334247348,0.0,1.0,105.00637424150287,6836.067160163648,1.0,1.0,0.04599057636792471,18.981391038572635,0.0820372213053995,-44.067882719834394,1.0,25.64602708508223,1.0,-0.005864862997753183,4.1113425382151405,0.9360321581267492,1.0,-0.2899614088399547,6.3422203405275654
1.05,1.05,1.0,20.40483740749579,0.0005843037197668863,4.995903427957576,-0.010924910428388541,0.02509641478769738,0.007509500513551864,21.00753295913703,0.02838267607234216,1.0,0.0,100.94486413618174,-0.5308129588506314,25.16123563749093,105.46656723772995,-0.15674425491219296,3.7293270938390277,1.0,25.416547334247348,0.0,1.0,105.06450255375492,6692.722661800069,1.0,1.0,0.04599057636792471,18.981391038572635,0.0820372213053995,-44.067882719834394,1.0,25.64602708508223,1.0,-0.005864862997753183,4.1113425382151405,0.9360321581267492,1.0,-0.2899614088399547,6.3422203405275654
1.08,1.08,1.0,20.317161352004725,-0.04114904303923939,5.137691392006922,-0.01033013227833999,0.023332949147757562,0.010531205091394864,20.956731889458325,0.02760515222738073,1.0,0.0,100.94486413618174,-0.5308129588506314,25.16123563749093,105.46656723772995,-0.15674425491219296,3.7293270938390277,1.0,26.227277698931445,0.0,1.0,105.82544513045939,6857.7872305813025,1.0,1.0,0.5940225359779547,19.072686610310885,0.10058374837679744,-43.99705661625323,1.0,25.754105361064006,1.0,-0.012442665885671403,4.104179259027233,0.9354763405484169,1.0,-0.9015009792981012,6.679076706659134
1.1099999999999999,1.1099999999999999,1.0,20.351998697146737,-0.06469321119270574,5.186262566626153,-0.01229749060216956,0.02344859973198548,0.012771756387366624,21.002508316632674,0.02939698735788343,1.0,0.0,100.94486413618174,-0.5308129588506314,25.16123563749093,105.46656723772995,-0.15674425491219296,3.7293270938390277,1.0,26.227277698931445,0.0,1.0,107.1155347685657,6984.8090352351355,1.0,1.0,0.5940225359779547,19.072686610310885,0.10058374837679744,-43.99705661625323,1.0,25.754105361064006,1.0,-0.012442665885671403,4.104179259027233,0.9354763405484169,1.0,-0.9015009792981012,6.679076706659134
1.14,1.14,1.0,20.301079124015853,-0.0026524103606568195,5.206242834871093,-0.011331500235903272,0.018955458824317938,0.01262320755237556,20.958024360384726,0.02543732858904488,1.0,0.0,100.94486413618174,-0.5308129588506314,25.16123563749093,105.46656723772995,-0.15674425491219296,3.7293270938390277,1.0,26.74204639442182,0.0,1.0,106.95758800852786,6956.482303371567,1.0,1.0,-0.8567736684791978,19.145394081253873,0.2123233342488331,-44.0651155829101,1.0,26.07742939443089,1.0,-0.0017461694855031486,4.113374850213464,0.9349423862315718,1.0,-0.34110483945553105,6.824178059474949
1.17,1.17,1.0,20.21151164742884,-0.029627979182786788,5.2331147481456,-0.014754155364104975,0.024152626074653828,0.010011000457502861,20.878016449331604,0.030020902334378926,1.0,0.0,100.94486413618174,-0.5308129588506314,25.16123563749093,105.46656723772995,-0.15674425491219296,3.7293270938390277,1.0,26.74204639442182,0.0,1.0,107.83378596643915,7015.656296617484,1.0,1.0,-0.8567736684791978,19.145394081253873,0.2123233342488331,-44.0651155829101,1.0,26.07742939443089,1.0,-0.0017461694855031486,4.113374850213464,0.9349423862315718,1.0,-0.34110483945553105,6.824178059474949
1.2,1.2,1.0,20.184539825534166,0.0632960872071485,5.429995567187272,-0.015478496482035937,0.021030969765773608,0.010194192596770733,20.90226079214648,0.028032251164209727,1.0,0.0,100.94486413618174,-0.5308129588506314,25.16123563749093,105.46656723772995,-0.15674425491219296,3.7293270938390277,1.0,26.91623877464621,0.0,1.0,107.75203907000348,7200.934630775389,1.0,1.0,2.004913314260827,19.183383502896586,0.25812405084475115,-43.99951814854521,1.0,26.473166592959725,1.0,-0.003160557892062299,4.119047490070447,0.9344292853001199,1.0,-0.3106904980611116,6.056186675253182
1.23,1.23,1.0,20.232753713984483,0.005439790828301387,5.427651754039125,-0.016677961457458066,0.021883688198255626,0.013579187549583392,20.948120584081074,0.030682968272996176,1.0,0.0,100.94486413618174,-0.5308129588506314,25.16123563749093,105.46656723772995,-0.15674425491219296,3.7293270938390277,1.0,26.91623877464621,0.0,1.0,109.26987409592142,7292.354502223777,1.0,1.0,2.004913314260827,19.183383502896586,0.25812405084475115,-43.99951814854521,1.0,26.473166592959725,1.0,-0.003160557892062299,4.119047490070447,0.9344292853001199,1.0,-0.3106904980611116,6.056186675253182
1.26,1.26,1.0,20.22301976437103,0.02205481629438434,5.491790759615369,-0.020088260908618153,0.021195760949479673,0.01032046083924328,20.95544751496517,0.030972736729171314,1.0,0.0,120.32751319768185,-1.017252840125636,28.3420772957578,109.51413885521883,-0.1619250375503089,3.2203985904766697,1.0,25.699759691410016,0.0,1.0,110.11648884897393,7438.119394679801,1.0,1.0,0.9412843260222801,19.283576717846046,0.23045860943531898,-43.92066591971112,1.0,26.799329306248985,1.0,-0.00018983849821578146,4.130614996293435,0.9339360245059978,1.0,-0.42023019042207965,6.253333592790331
1.29,1.29,1.0,20.2121691605025,-0.030743157867042088,5.575058881339792,-0.023943042607265295,0.01900189274376396,0.009312173639250784,20.966974241528742,0.03195399497756717,1.0,0.0,120.32751319768185,-1.017252840125636,28.3420772957578,109.51413885521883,-0.1619250375503089,3.2203985904766697,1.0,25.699759691410016,0.0,1.0,110.01498699056972,7335.118150919336,1.0,1.0,0.9412843260222801,19.283576717846046,0.23045860943531898,-43.92066591971112,1.0,26.799329306248985,1.0,-0.00018983849821578146,4.130614996293435,0.9339360245059978,1.0,-0.42023019042207965,6.253333592790331
1.3199999999999998,1.3199999999999998,1.0,20.09257871257052,0.058288298541235406,5.644140474942651,-0.02325526903605587,0.021908990946579426,0.008845896432175256,20.870348309203532,0.03315209353759441,1.0,0.0,120.32751319768185,-1.017252840125636,28.3420772957578,109.51413885521883,-0.1619250375503089,3.2203985904766697,1.0,26.462074397257766,0.0,1.0,111.209197944079,7373.289403312407,1.0,1.0,1.7023939367858107,19.251402266970032,0.22306540014998885,-43.88604168297728,1.0,26.612512392145845,1.0,0.013970881280787212,4.137245405657147,0.9334615861620473,1.0,-1.0579243318801825,6.4322873509490766
1.3499999999999999,1.3499999999999999,1.0,20.13553630202516,-0.05766017159978325,5.730753601307232,-0.02771015268845726,0.02090081645824733,0.007459134692877151,20.935249788441926,0.03550120252900515,1.0,0.0,120.32751319768185,-1.017252840125636,28.3420772957578,109.51413885521883,-0.1619250375503089,3.2203985904766697,1.0,26.462074397257766,0.0,1.0,110.49432238280285,7544.470103775465,1.0,1.0,1.7023939367858107,19.251402266970032,0.22306540014998885,-43.88604168297728,1.0,26.612512392145845,1.0,0.013970881280787212,4.137245405657147,0.9334615861620473,1.0,-1.0579243318801825,6.4322873509490766
1.38,1.38,1.0,20.064330286124818,0.043689809078732975,5.782318784793563,-0.02706535868431105,0.018951996314989526,0.008084838669601746,20.88095948846938,0.03401582604240673,1.0,0.0,120.32751319768185,-1.017252840125636,28.3420772957578,109.51413885521883,-0.1619250375503089,3.2203985904766697,1.0,26.640006668737644,0.0,1.0,111.80010850187338,7753.573900322707,1.0,1.0,0.04064429683732576,19.31398357070791,0.28136260537140484,-43.9296165968866,1.0,26.976017622396768,1.0,0.0007928171705897721,4.166994685937121,0.9330049477280056,1.0,-0.494471043959999,6.827571752779292
1.41,1.41,1.0,20.13030507453279,-0.04801528485128995,5.7888211281132795,-0.034571444044572665,0.014953568518848562,0.0037187507261813805,20.946167618794387,0.037850007420585696,1.0,0.0,120.32751319768185,-1.017252840125636,28.3420772957578,109.51413885521883,-0.1619250375503089,3.2203985904766697,1.0,26.640006668737644,0.0,1.0,112.43140051684955,7650.613678619377,1.0,1.0,0.04064429683732576,19.31398357070791,0.28136260537140484,-43.9296165968866,1.0,26.976017622396768,1.0,0.0007928171705897721,4.166994685937121,0.9330049477280056,1.0,-0.494471043959999,6.827571752779292
1.44,1.44,1.0,20.136248352377752,0.055503434237693355,5.872136096232271,-0.03458242185782039,0.017453904215343232,0.004507749993322365,20.97506998015792,0.03899874977371618,1.0,0.0,120.32751319768185,-1.017252840125636,28.3420772957578,109.51413885521883,-0.1619250375503089,3.2203985904766697,1.0,27.28775842727738,0.0,1.0,113.36070601875142,7685.310161765657,1.0,1.0,1.4747028554240256,19.37657582323384,0.4389296326650858,-43.889692635710276,1.0,26.7823528007787,1.0,0.00806002327311381,4.186715508312893,0.9325650819137739,1.0,-0.8438990805116585,5.8032630657389745
1.47,1.47,1.0,19.99791263891503,0.01134168421198603,5.9983084730818215,-0.038025735267265284,0.01778678270917515,0.0009040865827670073,20.87813073734628,0.04198980298011285,1.0,0.0,145.76883548275407,-1.2783664867720392,26.851913268780116,113.8158831255298,-0.16558745019210186,3.215684823236299,1.0,27.28775842727738,0.0,1.0,113.37710291040779,7936.142850144255,1.0,1.0,1.4747028554240256,19.37657582323384,0.4389296326650858,-43.889692635710276,1.0,26.7823528007787,1.0,0.00806002327311381,4.186715508312893,0.9325650819137739,1.0,-0.8438990805116585,5.8032630657389745
1.5,1.5,1.0,20.030533728622437,-0.035610930629411564,6.021942998706003,-0.04247444010919424,0.017669505451316937,0.0012540295780446187,20.91619819832289,0.04602023550207298,1.0,0.0,145.76883548275407,-1.2783664867720392,26.851913268780116,113.8158831255298,-0.16558745019210186,3.215684823236299,1.0,27.045632496757754,0.0,1.0,114.40117658664639,8055.561539282342,1.0,1.0,-1.156822921493999,19.468351230627995,0.5348868103650537,-43.837412839480514,1.0,27.136205746734433,1.0,0.001515363950290596,4.186610504572628,0.9321409571964504,1.0,-0.33317344659183973,6.206488321999349
1.53,1.53,1.0,19.99655939222338,0.014518816861498349,6.163364236297046,-0.04472918035268393,0.014464363425737441,-0.0006087629129030418,20.9248573957393,0.047013699882256274,1.0,0.0,145.76883548275407,-1.2783664867720392,26.851913268780116,113.8158831255298,-0.16558745019210186,3.215684823236299,1.0,27.045632496757754,0.0,1.0,114.84029509439652,7947.925566324098,1.0,1.0,-1.156822921493999,19.468351230627995,0.5348868103650537,-43.837412839480514,1.0,27.136205746734433,1.0,0.001515363950290596,4.186610504572628,0.9321409571964504,1.0,-0.33317344659183973,6.206488321999349
1.56,1.56,1.0,19.99205099993461,0.07537375418176687,6.162618231055364,-0.05292703183745488,0.01718465101170755,-0.004167749569975254,20.920460029562967,0.055802805180341725,1.0,0.0,145.76883548275407,-1.2783664867720392,26.851913268780116,113.8158831255298,-0.16558745019210186,3.215684823236299,1.0,27.276027383769637,0.0,1.0,115.144792846448,8029.677397234831,1.0,1.0,0.8271764066791849,19.438170053482153,0.5590743145497525,-43.83572583554284,1.0,27.398037461724044,1.0,0.0008179202970408782,4.2051789321829665,0.9317315386804692,1.0,-0.9885675993105344,5.207571196647009
1.5899999999999999,1.5899999999999999,1.0,19.897003501872508,-0.021155972447365282,6.262915974248031,-0.061471025214234955,0.013002891399943293,-0.0016936144124593102,20.859417835337307,0.06285404088382797,1.0,0.0,145.76883548275407,-1.2783664867720392,26.851913268780116,113.8158831255298,-0.16558745019210186,3.215684823236299,1.0,27.276027383769637,0.0,1.0,115.82381900993855,8162.932391619073,1.0,1.0,0.8271764066791849,19.438170053482153,0.5590743145497525,-43.83572583554284,1.0,27.398037461724044,1.0,0.0008179202970408782,4.2051789321829665,0.9317315386804692,1.0,-0.9885675993105344,5.207571196647009
1.6199999999999999,1.6199999999999999,1.0,19.967553387030264,-0.04218070134217338,6.344760162590456,-0.07105439955691986,0.012937090646519201,-0.004411022712952604,20.951394917672292,0.07235712219377477,1.0,0.0,145.76883548275407,-1.2783664867720392,26.851913268780116,113.8158831255298,-0.16558745019210186,3.215684823236299,1.0,27.989946117891915,0.0,1.0,116.88595148748213,8337.12045747744,1.0,1.0,0.29234516333496074,19.492268795691704,0.9046476671611535,-43.90328257917647,1.0,27.2761911420492,1.0,-0.002171032681551434,4.220990910447097,0.9313357892709635,1.0,-0.827352410662124,5.478694138679344
1.65,1.65,1.0,19.824864256860064,-0.04045863497137699,6.354993334330255,-0.08110103188992725,0.01854214362599895,-0.004311620085698179,20.818569114697905,0.08330533315233525,1.0,0.0,145.76883548275407,-1.2783664867720392,26.851913268780116,113.8158831255298,-0.16558745019210186,3.215684823236299,1.0,27.989946117891915,0.0,1.0,117.43849710688181,8277.065807906218,1.0,1.0,0.29234516333496074,19.492268795691704,0.9046476671611535,-43.90328257917647,1.0,27.2761911420492,1.0,-0.002171032681551434,4.220990910447097,0.9313357892709635,1.0,-0.827352410662124,5.478694138679344
1.68,1.68,1.0,19.925921049816825,-0.01590657579124259,6.558420126125677,-0.09159715667785366,0.014048729187275956,-0.0007083191286002457,20.977498832164358,0.09267096427270319,1.0,0.0,169.35912113811676,0.058971334257642546,25.79981366271099,117.39674541482697,-0.1388445408130083,2.5365430158342925,1.0,28.21484926085015,0.0,1.0,118.03891355395491,8431.000161595579,1.0,1.0,0.22425319308934674,19.536034043238462,0.9941012546915935,-43.81011446854472,1.0,27.79739201425995,1.0,-0.012256750175009674,4.233473264125171,0.9309526711705849,1.0,-1.2757727494354938,5.7738447501239465
1.71,1.71,1.0,19.7315958218464,-0.04906559337964792,6.5408429369317425,-0.10492114912388208,0.011563982031508848,-0.0010071854405596997,20.78751806817663,0.10556129800458422,1.0,0.0,169.35912113811676,0.058971334257642546,25.79981366271099,117.39674541482697,-0.1388445408130083,2.5365430158342925,1.0,28.21484926085015,0.0,1.0,118.17681594582243,8650.93559481475,1.0,1.0,0.22425319308934674,19.536034043238462,0.9941012546915935,-43.81011446854472,1.0,27.79739201425995,1.0,-0.012256750175009674,4.233473264125171,0.9309526711705849,1.0,-1.2757727494354938,5.7738447501239465
1.74,1.74,1.0,19.76092353048602,0.02831522411754265,6.549581409312766,-0.11993874625019624,0.016244170992356387,-0.001723685030032235,20.81806708527111,0.12104605335730954,1.0,0.0,169.35912113811676,0.058971334257642546,25.79981366271099,117.39674541482697,-0.1388445408130083,2.5365430158342925,1.0,27.737214952072705,0.0,1.0,118.71184927274656,8519.26407663098,1.0,1.0,0.3651577571455836,19.546569615063486,1.3650645122652192,-43.77691531126732,1.0,28.09791557387371,1.0,-0.005836409423727509,4.266494749155341,0.930581147750602,1.0,-1.8465962000157303,5.89716645613525
1.77,1.77,1.0,19.77002284967236,-0.035707442691085785,6.739474887129371,-0.1414362077216418,0.011163833710799724,-0.0007114521000183009,20.887211404404326,0.14187789891978392,1.0,0.0,169.35912113811676,0.058971334257642546,25.79981366271099,117.39674541482697,-0.1388445408130083,2.5365430158342925,1.0,27.737214952072705,0.0,1.0,119.59684187986261,8763.943544807664,1.0,1.0,0.3651577571455836,19.546569615063486,1.3650645122652192,-43.77691531126732,1.0,28.09791557387371,1.0,-0.005836409423727509,4.266494749155341,0.930581147750602,1.0,-1.8465962000157303,5.89716645613525
1.7999999999999998,1.7999999999999998,1.0,19.766821435663253,-0.074371271579801,6.769187241342072,-0.16035105659056734,0.009934078345587079,0.005302772039295434,20.893890414754765,0.16074596932299212,1.0,0.0,169.35912113811676,0.058971334257642546,25.79981366271099,117.39674541482697,-0.1388445408130083,2.5365430158342925,1.0,28.242894282884876,0.0,1.0,119.71241000910946,8594.31973537729,1.0,1.0,-2.2382220297036386,19.563974234187494,1.7560895986483667,-43.74529526385831,1.0,27.928110991076302,1.0,-0.03770608628013264,4.283827121974835,0.9302201859047122,1.0,-2.522899262265935,5.776760516666537
1.8299999999999998,1.8299999999999998,1.0,19.714576664692803,-0.028216536360389052,6.851565897344255,-0.18339859102559397,0.013964291558858768,0.0077632756093270975,20.871254981112777,0.18409321844408139,1.0,0.0,169.35912113811676,0.058971334257642546,25.79981366271099,117.39674541482697,-0.1388445408130083,2.5365430158342925,1.0,28.242894282884876,0.0,1.0,120.07358286846569,8916.72722435688,1.0,1.0,-2.2382220297036386,19.563974234187494,1.7560895986483667,-43.74529526385831,1.0,27.928110991076302,1.0,-0.03770608628013264,4.283827121974835,0.9302201859047122,1.0,-2.522899262265935,5.776760516666537
1.8599999999999999,1.8599999999999999,1.0,19.72108148635541,-0.09030351016127744,6.8799605011040965,-0.2129500725447334,0.008772127354514244,0.01108545527207836,20.886911361236972,0.21341876893497505,1.0,0.0,169.35912113811676,0.058971334257642546,25.79981366271099,117.39674541482697,-0.1388445408130083,2.5365430158342925,1.0,28.316869703255666,0.0,1.0,120.88000719751155,8966.732788336005,1.0,1.0,-0.3396409515621211,19.63747344970469,2.268155967445914,-43.71551499659876,1.0,27.935885960713815,1.0,-0.012359576920794278,4.297498633475173,0.9298687591214935,1.0,-2.898660963058654,6.250424074605909
1.89,1.89,1.0,19.668608393011507,-0.09509222931988065,6.977796980356801,-0.2442485067871536,0.01112383690723254,0.015182882002008652,20.86990295494438,0.24497263667842548,1.0,0.0,195.88559794535203,0.5352359095107724,28.41676096954592,121.72424638279372,0.00341002529034758,2.0814493617797187,1.0,28.316869703255666,0.0,1.0,121.71043547386152,8942.87393313561,1.0,1.0,-0.3396409515621211,19.63747344970469,2.268155967445914,-43.71551499659876,1.0,27.935885960713815,1.0,-0.012359576920794278,4.297498633475173,0.9298687591214935,1.0,-2.898660963058654,6.250424074605909
1.92,1.92,1.0,19.702426946086938,-0.09848900509108446,7.020116661590122,-0.27908512761946136,0.00630131427600979,0.021553284098557435,20.91595959052206,0.2799870694789479,1.0,0.0,195.88559794535203,0.5352359095107724,28.41676096954592,121.72424638279372,0.00341002529034758,2.0814493617797187,1.0,27.32208886956053,0.0,1.0,122.28295239465874,9098.527382373537,1.0,1.0,0.1316314096491362,19.649118129801955,2.9759180709689836,-43.76501920797079,1.0,27.964644503104942,1.0,-0.033049567751475745,4.331625083657764,0.9295258490547997,1.0,-3.8235833407464592,6.584506277907103
1.95,1.95,1.0,19.666103703714544,-0.13985340561185258,7.104111425808651,-0.3208651430540194,0.01164557152724171,0.027756220537913854,20.91037046564745,0.3222739008077163,1.0,0.0,195.88559794535203,0.5352359095107724,28.41676096954592,121.72424638279372,0.00341002529034758,2.0814493617797187,1.0,27.32208886956053,0.0,1.0,122.44241343001637,9267.561536156058,1.0,1.0,0.1316314096491362,19.649118129801955,2.9759180709689836,-43.76501920797079,1.0,27.964644503104942,1.0,-0.033049567751475745,4.331625083657764,0.9295258490547997,1.0,-3.8235833407464592,6.584506277907103
1.98,1.98,1.0,19.648103453661662,-0.09716584016970468,7.149730710444903,-0.3718007029391175,0.011981213739027408,0.035072558187261134,20.90875557650828,0.37364340824706244,1.0,0.0,195.88559794535203,0.5352359095107724,28.41676096954592,121.72424638279372,0.00341002529034758,2.0814493617797187,1.0,29.059866044836557,0.0,1.0,123.41001663996728,9367.544301235972,1.0,1.0,0.43840507947855184,19.66203356473818,3.7486083203959444,-43.586115346033594,1.0,28.24626146520398,1.0,-0.0188466099754547,4.348403184336633,0.9291904503687903,1.0,-4.522938694118016,5.071976848466207
2.01,2.01,1.0,19.563668247840965,-0.12218958286245794,7.268495221779275,-0.42523194958973154,0.007845914420813999,0.04360925864352416,20.870626928647088,0.4275342521534625,1.0,0.0,195.88559794535203,0.5352359095107724,28.41676096954592,121.72424638279372,0.00341002529034758,2.0814493617797187,1.0,29.059866044836557,0.0,1.0,124.0107875839281,9391.411944485957,1.0,1.0,0.43840507947855184,19.66203356473818,3.7486083203959444,-43.586115346033594,1.0,28.24626146520398,1.0,-0.0188466099754547,4.348403184336633,0.9291904503687903,1.0,-4.522938694118016,5.071976848466207
2.04,2.04,1.0,19.53185195053244,-0.1311140962412358,7.308597165259634,-0.48858608193482067,0.003426823779674712,0.0516968547012406,20.85488010149644,0.4913254190123257,1.0,0.0,195.88559794535203,0.5352359095107724,28.41676096954592,121.72424638279372,0.00341002529034758,2.0814493617797187,1.0,27.376268438043414,0.0,1.0,124.33272201862705,9546.76701505124,1.0,1.0,0.8885507703926191,19.72869891941693,4.939757094047335,-43.461329527205635,1.0,28.23090811961864,1.0,-0.025132392886898197,4.361941675397039,0.9288615731896714,1.0,-6.443941611010962,5.866608837006894
2.07,2.07,1.0,19.468042967394865,-0.1268940829518072,7.382591753417076,-0.5642421736711807,0.0016693534127909364,0.06225288610597993,20.821226190746852,0.5676684235700623,1.0,0.0,195.88559794535203,0.5352359095107724,28.41676096954592,121.72424638279372,0.00341002529034758,2.0814493617797187,1.0,27.376268438043414,0.0,1.0,125.44950132468806,9623.237222016718,1.0,1.0,0.8885507703926191,19.72869891941693,4.939757094047335,-43.461329527205635,1.0,28.23090811961864,1.0,-0.025132392886898197,4.361941675397039,0.9288615731896714,1.0,-6.443941611010962,5.866608837006894
2.1,2.1,1.0,19.50120551791092,-0.15333053153271417,7.444899264762882,-0.6526772621163834,0.0001515397600387173,0.07798508889339704,20.874555132173867,0.6573197894006754,1.0,0.0,220.6815575145424,-0.939702597372642,27.78964639798172,125.40338953050335,-0.006700517394148564,2.0542323699310057,1.0,28.97417734952051,0.0,1.0,125.81510912901118,9781.73481765948,1.0,1.0,0.4758546782863521,19.686886405943497,6.393430479469609,-43.30780100187583,1.0,28.411822902453803,1.0,-0.004836282919867218,4.368567116672245,0.9285382457542736,1.0,-8.765414305393406,6.269946407005315
2.13,2.13,1.0,19.43559427484434,-0.20345673085219443,7.558887652764161,-0.7521798041201506,-0.003519982020496207,0.09110010053482812,20.854747708970294,0.7576846813266773,1.0,0.0,220.6815575145424,-0.939702597372642,27.78964639798172,125.40338953050335,-0.006700517394148564,2.0542323699310057,1.0,28.97417734952051,0.0,1.0,125.6038996981562,9742.227683468178,1.0,1.0,0.4758546782863521,19.686886405943497,6.393430479469609,-43.30780100187583,1.0,28.411822902453803,1.0,-0.004836282919867218,4.368567116672245,0.9285382457542736,1.0,-8.765414305393406,6.269946407005315
2.16,2.16,1.0,19.40651425936393,-0.17344554856085423,7.606234400085431,-0.8654388859507074,-0.003914311456588623,0.10391150125393091,20.844607955206403,0.8716635745760094,1.0,0.0,220.6815575145424,-0.939702597372642,27.78964639798172,125.40338953050335,-0.006700517394148564,2.0542323699310057,1.0,29.00169635593761,0.0,1.0,126.14940779970897,9762.958924488408,1.0,1.0,-0.2427455160256079,19.80278280478314,8.403092705106824,-42.893004151074926,1.0,28.55496955454796,1.0,-0.0038683173409957547,4.391515550414983,0.9282195179267223,1.0,-11.1266034163063,5.568874390616186
2.19,2.19,1.0,19.372673931845114,-0.25174707481904385,7.75966580278297,-0.9935754580117601,-0.009266661621540757,0.1186727082779631,20.870464422962673,1.000680405259798,1.0,0.0,220.6815575145424,-0.939702597372642,27.78964639798172,125.40338953050335,-0.006700517394148564,2.0542323699310057,1.0,29.00169635593761,0.0,1.0,126.55016299373082,9631.028412778456,1.0,1.0,-0.2427455160256079,19.80278280478314,8.403092705106824,-42.893004151074926,1.0,28.55496955454796,1.0,-0.0038683173409957547,4.391515550414983,0.9282195179267223,1.0,-11.1266034163063,5.568874390616186
2.2199999999999998,2.2199999999999998,1.0,19.329129494698652,-0.2314428276809029,7.851149613141944,-1.148256042710484,-0.01751093473807157,0.1384594117614181,20.86406870802656,1.156706350445894,1.0,0.0,220.6815575145424,-0.939702597372642,27.78964639798172,125.40338953050335,-0.006700517394148564,2.0542323699310057,1.0,28.88873848444138,0.0,1.0,127.83232033802646,10029.946213981742,1.0,1.0,2.4842359709338573,19.804268524912697,10.961122318629982,-42.31097269769217,1.0,29.03032722116415,1.0,0.004223000944074428,4.408636735029126,0.9279044710661263,1.0,-14.748142899743726,5.742236039825344
2.25,2.25,1.0,19.294349926703493,-0.2496317942692807,8.03810101993883,-1.324732000521144,-0.0261875614663356,0.16087179415149086,20.90323714484278,1.334721092863159,1.0,0.0,220.6815575145424,-0.939702597372642,27.78964639798172,125.40338953050335,-0.006700517394148564,2.0542323699310057,1.0,28.88873848444138,0.0,1.0,128.75850883065678,10166.45954369901,1.0,1.0,2.4842359709338573,19.804268524912697,10.961122318629982,-42.31097269769217,1.0,29.03032722116415,1.0,0.004223000944074428,4.408636735029126,0.9279044710661263,1.0,-14.748142899743726,5.742236039825344
2.28,2.28,1.0,19.354933242421136,-0.2141366740756476,8.20406337630082,-1.5308770219240158,-0.034766215321917385,0.18404168214244276,21.022986258286984,1.542291958984606,1.0,0.0,220.6815575145424,-0.939702597372642,27.78964639798172,125.40338953050335,-0.006700517394148564,2.0542323699310057,1.0,29.5938275533917,0.0,1.0,129.53597748379593,10142.450783505203,1.0,1.0,2.72528820507054,19.872228713886848,14.339848294652636,-41.19669203912989,1.0,28.527226110398463,1.0,0.0006366038133963255,4.42864648728891,0.9275922476924455,1.0,-20.85891743365059,5.572688268436971
2.31,2.31,1.0,19.326889754927247,-0.24792851254641088,8.40359975116562,-1.7706169026767768,-0.049309914409032984,0.20682198778859137,21.076304821392103,1.783337045635668,1.0,0.0,248.80616771391277,0.4476738270795174,29.39924741369045,129.30973495981556,0.867877284448882,1.9362848143738909,1.0,29.5938275533917,0.0,1.0,129.78908399692918,10218.990054220323,1.0,1.0,2.72528820507054,19.872228713886848,14.339848294652636,-41.19669203912989,1.0,28.527226110398463,1.0,0.0006366038133963255,4.42864648728891,0.9275922476924455,1.0,-20.85891743365059,5.572688268436971
2.34,2.34,1.0,19.192357453700534,-0.2756990576684525,8.574522141705579,-2.047838005635825,-0.06468365368234891,0.23594464255706904,21.022488543453008,2.062400142244854,1.0,0.0,248.80616771391277,0.4476738270795174,29.39924741369045,129.30973495981556,0.867877284448882,1.9362848143738909,1.0,29.165474351740787,0.0,1.0,129.93260494282572,10137.174271136295,1.0,1.0,3.639348590357863,19.95392038216062,18.66320678477659,-39.38719573911166,1.0,29.238827145598552,1.0,0.015039238664603681,4.445178207570797,0.9272821394319675,1.0,-26.58573258029682,5.1102184050844635
2.37,2.37,1.0,19.067932491047166,-0.2867836297648461,8.97949936599053,-2.3540332772838264,-0.08862076224729491,0.26569606346907493,21.07841794815867,2.3706371945542166,1.0,0.0,248.80616771391277,0.4476738270795174,29.39924741369045,129.30973495981556,0.867877284448882,1.9362848143738909,1.0,29.165474351740787,0.0,1.0,130.7736512180408,10382.068624576406,1.0,1.0,3.639348590357863,19.95392038216062,18.66320678477659,-39.38719573911166,1.0,29.238827145598552,1.0,0.015039238664603681,4.445178207570797,0.9272821394319675,1.0,-26.58573258029682,5.1102184050844635
2.4,2.4,1.0,19.037948582042013,-0.41738515025206874,9.458222767710632,-2.6763789865820082,-0.12449055010710514,0.3098296212824432,21.262071265513296,2.697127503680115,1.0,0.0,248.80616771391277,0.4476738270795174,29.39924741369045,129.30973495981556,0.867877284448882,1.9362848143738909,1.0,30.436691646680913,0.0,1.0,130.48025183636855,10536.896158004483,1.0,1.0,2.5662275353694723,20.137344589421776,24.07789061483261,-36.372091294298784,1.0,29.03125272488352,1.0,0.0239703616647501,4.461127200739921,0.9269738332831241,1.0,-35.05137388836087,5.551651308709257
2.4299999999999997,2.4299999999999997,1.0,18.93380785384177,-0.4335078754193113,9.878873270229779,-2.9985287409874384,-0.16079725437451856,0.34596495690250545,21.360457532869262,3.0227011296101782,1.0,0.0,248.80616771391277,0.4476738270795174,29.39924741369045,129.30973495981556,0.867877284448882,1.9362848143738909,1.0,30.436691646680913,0.0,1.0,131.899305945742,10609.04011384278,1.0,1.0,2.5662275353694723,20.137344589421776,24.07789061483261,-36.372091294298784,1.0,29.03125272488352,1.0,0.0239703616647501,4.461127200739921,0.9269738332831241,1.0,-35.05137388836087,5.551651308709257
2.46,2.46,1.0,18.753737556395738,-0.5602158396489502,10.644494773605848,-3.3262518716361114,-0.2238439735664539,0.39310259288293575,21.57131852962363,3.3568716517907027,1.0,0.0,248.80616771391277,0.4476738270795174,29.39924741369045,129.30973495981556,0.867877284448882,1.9362848143738909,1.0,28.782045757080695,0.0,1.0,132.04299129269063,10636.217233917369,1.0,1.0,7.293258451132789,20.354918504122537,30.034165866613936,-31.3137340900944,1.0,29.07580314408863,1.0,0.015429944360725326,4.4791952484916715,0.9266679864926068,1.0,-45.76624832699979,4.754862650162373
2.4899999999999998,2.4899999999999998,1.0,18.699924104492073,-0.6939411928569055,11.551249641229525,-3.655086898095993,-0.3070105054440256,0.4508138182683172,21.990909125520766,3.695557979768095,1.0,0.0,248.80616771391277,0.4476738270795174,29.39924741369045,129.30973495981556,0.867877284448882,1.9362848143738909,1.0,28.782045757080695,0.0,1.0,132.5439916052131,10671.163801767476,1.0,1.0,7.293258451132789,20.354918504122537,30.034165866613936,-31.3137340900944,1.0,29.07580314408863,1.0,0.015429944360725326,4.4791952484916715,0.9266679864926068,1.0,-45.76624832699979,4.754862650162373
2.52,2.52,1.0,18.464685599521047,-0.8947039712746424,12.75834416634968,-3.9784704828096875,-0.41249942044492466,0.5157635716268647,22.461532791695305,4.032913985727026,1.0,0.0,273.89058018491295,0.5172239240921402,29.487963046933455,133.19314896928972,1.9391233613212744,2.059444075211337,1.0,29.706807894536855,0.0,1.0,133.01613318659042,10730.951159123826,1.0,1.0,6.577300694705388,20.702261549690274,35.912143798220676,-24.194835296021118,1.0,29.585491419266823,1.0,0.03393189732597396,4.476683264622149,0.9263672832539894,1.0,-59.66899551803078,4.084873204619713
2.55,2.55,1.0,18.129165357031773,-1.1753255430626626,14.444539905076395,-4.308872507250923,-0.5635127579205389,0.5864557459654537,23.209755701948286,4.384958295589362,1.0,0.0,273.89058018491295,0.5172239240921402,29.487963046933455,133.19314896928972,1.9391233613212744,2.059444075211337,1.0,29.706807894536855,0.0,1.0,133.37524959062233,11106.122859254798,1.0,1.0,6.577300694705388,20.702261549690274,35.912143798220676,-24.194835296021118,1.0,29.585491419266823,1.0,0.03393189732597396,4.476683264622149,0.9263672832539894,1.0,-59.66899551803078,4.084873204619713
2.58,2.58,1.0,17.79757372568881,-1.480718204016914,16.490412798799806,-4.642185149123249,-0.7738133308523716,0.6681846633782486,24.308020717365206,4.75343462920436,1.0,0.0,273.89058018491295,0.5172239240921402,29.487963046933455,133.19314896928972,1.9391233613212744,2.059444075211337,1.0,29.407890842018904,0.0,1.0,134.72240393248907,10813.456453254292,1.0,1.0,9.693299983999472,21.382079559192512,40.37344783092245,-14.81540172284039,1.0,29.80963254458808,1.0,0.0012660281658585736,4.480274170512611,0.9260789033040703,1.0,-75.74133403747761,3.69992257289955
2.61,2.61,1.0,16.891310049382852,-2.013402670168464,18.58096215983755,-4.970669275698108,-1.0918941947331717,0.7656276770170581,25.19171094391841,5.1464523431851275,1.0,0.0,273.89058018491295,0.5172239240921402,29.487963046933455,133.19314896928972,1.9391233613212744,2.059444075211337,1.0,29.407890842018904,0.0,1.0,135.40260487905945,11117.49107245219,1.0,1.0,9.693299983999472,21.382079559192512,40.37344783092245,-14.81540172284039,1.0,29.80963254458808,1.0,0.0012660281658585736,4.480274170512611,0.9260789033040703,1.0,-75.74133403747761,3.69992257289955
2.6399999999999997,2.6399999999999997,1.0,15.017987268952483,-2.8822690553595214,20.985528182444284,-5.305185114342133,-1.630088743819705,0.8710743808639523,25.96612812134426,5.617913223534391,1.0,0.0,273.89058018491295,0.5172239240921402,29.487963046933455,133.19314896928972,1.9391233613212744,2.059444075211337,1.0,29.31265518003382,0.0,1.0,134.72235111492563,10984.26540397719,1.0,1.0,14.472902512552484,22.77854807881853,42.11430514142998,-3.8216093307273424,1.0,29.8101102916254,1.0,-0.049892255906149735,4.417293759516628,0.9258213174699663,0.0,-75.74133403747761,3.69992257289955
2.67,2.67,1.0,12.69457635976855,-3.830696982573036,24.60859356997784,-5.653815594147756,-2.202361114590465,0.9917438865227035,27.953700753543234,6.148136399604652,1.0,0.0,273.89058018491295,0.5172239240921402,29.487963046933455,133.19314896928972,1.9391233613212744,2.059444075211337,1.0,29.31265518003382,0.0,1.0,135.18327266482902,11084.140636231092,1.0,1.0,14.472902512552484,22.77854807881853,42.11430514142998,-3.8216093307273424,1.0,29.8101102916254,1.0,-0.049892255906149735,4.417293759516628,0.9258213174699663,0.0,-75.74133403747761,3.69992257289955
2.6999999999999997,2.6999999999999997,1.0,10.377337240584302,-5.178749691629463,27.43439061025011,-6.011783204962097,-2.7826211624019717,1.0891208519438866,29.785136641102547,6.713471685130624,1.0,0.0,273.89058018491295,0.5172239240921402,29.487963046933455,133.19314896928972,1.9391233613212744,2.059444075211337,1.0,29.873228250649543,0.0,1.0,134.9698421302207,11284.979155609717,1.0,1.0,20.71692735550128,25.52953909781606,40.09169745819566,6.947556203797314,1.0,30.015425246877538,1.0,-0.2581202937531829,4.2588021471444835,0.9256373299927281,0.0,-75.74133403747761,3.69992257289955
2.73,2.73,1.0,10.409405533572487,-6.970291420782639,25.865399329625795,-6.389285324256475,-3.3600599516239007,1.160462033357406,28.739512322480564,7.311610080148557,1.0,0.0,303.63082585885786,0.5528795954260536,29.204730935682942,135.31002390986333,6.24103736151285,0.6651970716291984,1.0,29.873228250649543,0.0,1.0,136.2226114116758,11251.205083558578,1.0,1.0,20.71692735550128,25.52953909781606,40.09169745819566,6.947556203797314,1.0,30.015425246877538,1.0,-0.2581202937531829,4.2588021471444835,0.9256373299927281,0.0,-75.74133403747761,3.69992257289955
2.76,2.76,1.0,10.458523930193392,-9.550349462224409,24.367136578745566,-6.791622745274449,-3.933794573341945,1.219003699554016,28.184166524775538,7.942723039292642,1.0,0.0,303.63082585885786,0.5528795954260536,29.204730935682942,135.31002390986333,6.24103736151285,0.6651970716291984,1.0,29.34750362493418,0.0,1.0,135.39636579304434,11178.887001734227,1.0,1.0,28.790936928673446,30.715388155660907,33.48199744981899,15.510517528264526,1.0,29.408144893904105,1.0,-0.7136246411558742,3.8835661577606233,0.9255994338694742,0.0,-75.74133403747761,3.69992257289955
2.79,2.79,1.0,10.392340519675336,-13.285318594727379,23.022264734111975,-7.244937087789687,-4.505873315570362,1.2795653781003462,28.539886214346243,8.627241465198052,1.0,0.0,303.63082585885786,0.5528795954260536,29.204730935682942,135.31002390986333,6.24103736151285,0.6651970716291984,1.0,29.34750362493418,0.0,1.0,134.40537143860755,11387.159611239153,1.0,1.0,28.790936928673446,30.715388155660907,33.48199744981899,15.510517528264526,1.0,29.408144893904105,1.0,-0.7136246411558742,3.8835661577606233,0.9255994338694742,0.0,-75.74133403747761,3.69992257289955
2.82,2.82,1.0,11.499545533716793,-17.802872388230753,23.527196559752767,-7.752243969881906,-5.0831741300107165,1.3646855542167602,31.665608958535714,9.370075371440109,1.0,0.0,303.63082585885786,0.5528795954260536,29.204730935682942,135.31002390986333,6.24103736151285,0.6651970716291984,1.0,29.6223306937698,0.0,1.0,134.46362999396223,11060.530279561734,1.0,1.0,37.40084750502934,38.00635949870427,22.90069202284632,18.37311068381186,1.0,29.5317447531749,1.0,-1.543608408407876,3.303413585865867,0.925761001225859,0.0,-75.74133403747761,3.69992257289955
2.85,2.85,1.0,12.91155206332873,-22.985139974157022,23.619209673161336,-8.326779407794032,-5.656449982462669,1.5001367328403699,35.39621310112704,10.177479645147006,1.0,0.0,303.63082585885786,0.5528795954260536,29.204730935682942,135.31002390986333,6.24103736151285,0.6651970716291984,1.0,29.6223306937698,0.0,1.0,135.3990703848268,11218.504863747892,1.0,1.0,37.40084750502934,38.00635949870427,22.90069202284632,18.37311068381186,1.0,29.5317447531749,1.0,-1.543608408407876,3.303413585865867,0.925761001225859,0.0,-75.74133403747761,3.69992257289955
2.88,2.88,1.0,14.13152414996854,-25.5005751619853,23.03222257529433,-8.90242679535208,-6.235251247584825,1.6913382176096985,37.15457690717395,10.99964480942262,1.0,0.0,303.63082585885786,0.5528795954260536,29.204730935682942,135.31002390986333,6.24103736151285,0.6651970716291984,1.0,29.534418277974872,0.0,1.0,133.7808580299415,10946.551467402365,1.0,1.0,32.35409134838395,45.18799673574479,10.773341408561473,12.025944534589058,1.0,29.40731795810272,1.0,-2.636283696874469,2.5890629730653134,0.9261815510892184,0.0,-75.74133403747761,3.69992257289955
2.9099999999999997,2.9099999999999997,1.0,15.276917375497582,-26.62445601092236,21.733620456430167,-9.075855719150498,-6.809998491494795,1.7418277993967204,37.61111698048171,11.479599321045548,1.0,0.0,303.63082585885786,0.5528795954260536,29.204730935682942,135.31002390986333,6.24103736151285,0.6651970716291984,1.0,29.534418277974872,0.0,1.0,133.56051591086992,10733.57509495917,1.0,1.0,32.35409134838395,45.18799673574479,10.773341408561473,12.025944534589058,1.0,29.40731795810272,1.0,-2.636283696874469,2.5890629730653134,0.9261815510892184,0.0,-75.74133403747761,3.69992257289955
2.94,2.94,1.0,16.344352850857966,-27.437156863212934,19.925939902564846,-9.078357925934169,-7.312781340412896,1.597664090374901,37.64277524108083,11.766302907444471,1.0,0.0,334.3483137456651,4.195348454131165,29.592872152394126,132.57774007949726,10.570590130459879,-5.659865846981143,1.0,29.196084221560536,0.0,1.0,133.08738656284388,10915.823374016834,1.0,1.0,-9.66562036999229,47.67602082255115,3.770471637117946,-4.227209707400167,1.0,29.87963936510294,1.0,-3.6187453001265735,2.0286518425776268,0.9269363173562033,0.0,-75.74133403747761,3.69992257289955
2.9699999999999998,2.9699999999999998,1.0,16.946202277533235,-27.661926273987998,18.17616929136925,-9.075203967436407,-7.705252372491361,1.2960103138712007,37.18506510586118,11.975386586996587,1.0,0.0,334.3483137456651,4.195348454131165,29.592872152394126,132.57774007949726,10.570590130459879,-5.659865846981143,1.0,29.196084221560536,0.0,1.0,131.94568194378164,10647.230873489456,1.0,1.0,-9.66562036999229,47.67602082255115,3.770471637117946,-4.227209707400167,1.0,29.87963936510294,1.0,-3.6187453001265735,2.0286518425776268,0.9269363173562033,0.0,-75.74133403747761,3.69992257289955
3.0,3.0,1.0,18.82222409269797,-23.995706294848294,23.564701497003064,-9.076684681923483,-7.537358642250232,0.8651131790685551,38.54043586970989,11.829894375249797,1.0,0.0,334.3483137456651,4.195348454131165,29.592872152394126,132.57774007949726,10.570590130459879,-5.659865846981143,1.0,29.27194953796032,0.0,1.0,131.67425624258843,10715.842947972831,1.0,1.0,-52.24995079055069,41.8058195529011,8.157732840864284,-22.189930579600503,1.0,28.405415241284576,1.0,-4.181262090858307,1.7792956350638465,0.9280215412263866,1.0,33.371140575949,-51.41993118423318
3.03,3.03,1.0,21.461854857215574,-16.829082934811698,-13.87926283782514,-9.077131592213572,-7.0262996174288705,0.3893284766214374,30.601685954541654,11.485416009834,1.0,0.0,334.3483137456651,4.195348454131165,29.592872152394126,132.57774007949726,10.570590130459879,-5.659865846981143,1.0,29.27194953796032,0.0,1.0,131.3639377750644,10660.884552754342,1.0,1.0,-52.24995079055069,41.8058195529011,8.157732840864284,-22.189930579600503,1.0,28.405415241284576,1.0,-4.181262090858307,1.7792956350638465,0.9280215412263866,1.0,33.371140575949,-51.41993118423318
