time_s,x_m,y_m,altitude_m,vx_mps,vy_mps,vz_mps,speed_mps,mass_kg,roll_deg,pitch_deg,yaw_deg,p_dps,q_dps,r_dps,alpha_deg,beta_deg,qbar_pa,mach,airspeed_mps,load_factor_g,density_kgpm3,pressure_pa,temperature_k,wind_x_mps,wind_y_mps,wind_z_mps,thrust_n,mass_flow_kgps,propulsion_throttle_actual,propulsion_health,energy_j_per_kg,target_distance_m,guidance_mode,pitch_command_deg,heading_command_deg,roll_command_deg
0.0,0.0,0.0,20.0,85.0,0.0,8.0,85.37564055396598,18.0,0.0,6.000000000000002,0.0,0.0,0.0,0.0,0.623294571949261,-0.06711018850271284,4455.9528551248095,0.2509446755827931,85.37569911866022,1.746019585183223,1.2226496753673843,101084.96761777384,288.02,0.0,0.1,0.0,326.8,0.17539118863220368,0.86,nominal,3840.633,nan,pitch_program,13.0,0.0,0.0
0.03,2.565307560933383,1.2217430333078664e-05,20.23295089077774,85.51025203111277,0.00040724767776928884,7.765029692591357,85.86209226845746,17.994738264341034,0.000673747383345809,6.26558332753372,-0.001374797989615718,0.01756243361475289,-8.852793703250093,-0.04551240426293013,1.0768886693990771,-0.06510171809935367,4506.77464880038,0.2523751634672366,85.86215002704955,1.7740898486319636,1.2226223199868234,101082.17454514118,288.0184858192099,0.0,0.1,0.0,332.605,0.1785066900092231,0.86,nominal,3884.5669122115964,nan,pitch_program,12.985,0.0,0.0
0.06,5.146108485643129,3.6098940456659304e-05,20.459341098330725,86.02669749032488,0.0007960503374526879,7.54634025176613,86.35704912119792,17.98938306364076,0.002022397038704582,6.6413094453780985,-0.004102114835030761,0.0347369605127723,-12.524250932173562,-0.09004031867784736,1.6281022265907827,-0.06179039098797758,4558.784275214783,0.25383063942811723,86.35710609851932,1.8027335809866907,1.222595735474737,101079.46019473652,288.0170142828608,0.0,0.1,0.0,338.40999999999997,0.18162219138624247,0.86,nominal,3929.40756384244,nan,pitch_program,12.97,0.0,0.0
0.09,7.742556495506167,7.044875175500658e-05,20.679790744388068,86.5482669954346,0.0011449937099449092,7.348321535244821,86.85965893675491,17.983934397899173,0.004034226049090082,6.946403417269074,-0.008125001204004946,0.05119766459307923,-10.169830117465175,-0.1326175712102903,2.0933801338739415,-0.05725980756043096,4611.906428476029,0.2553086003763345,86.8597151826475,1.832470918597925,1.222569848974904,101076.81712659281,288.01558136016143,0.0,0.1,0.0,344.215,0.18473769276326188,0.86,nominal,3975.099645208147,nan,pitch_program,12.955,0.0,0.0
0.12,10.354825623753607,0.00011340546015014869,20.894771506192217,87.07563760824799,0.0014318902798380706,7.166025393471604,87.37000965361696,17.978392267116273,0.006671241456401917,7.124625311412224,-0.013353436636079954,0.06655373705121903,-5.940750728924169,-0.1724141255374663,2.4199768720219916,-0.05161251876624575,4666.164420700599,0.2568093061018343,87.37006524259361,1.8626365447288498,1.2225446050676148,101074.23968121482,288.01418398520974,0.0,0.1,0.0,350.02,0.1878531941402813,0.86,nominal,4021.6670044277603,nan,pitch_program,12.94,0.0,0.0
0.15,12.983126430944463,0.00016245742434168705,21.104565812647063,87.61002690636187,0.0016350654730512787,6.993143548494902,87.8886845611922,17.972756671292064,0.009873459458741815,7.219372562589989,-0.019676020393481933,0.08042845031695302,-3.15827258370329,-0.20864791048899706,2.6556206237368767,-0.044969185585634744,4721.635302381637,0.2583344718667645,87.88873959093765,1.8931430126239395,1.2225199705592633,101071.72446854903,288.01282032221775,0.0,0.1,0.0,355.825,0.1909686955173007,0.86,nominal,4069.1755272749674,nan,pitch_program,12.925,0.0,0.0
0.18,15.627690810564658,0.0002144786875310444,21.309365893708843,88.15214598733982,0.0017340421063119114,6.8266693687260505,88.4160859790235,17.967027610426545,0.013569251781081726,7.289096585793309,-0.02696444091322019,0.09251555456864033,-2.3241836490020606,-0.24052728499616127,2.860834133834663,-0.03747200937900598,4778.378317962665,0.2598852807582241,88.41614056857297,1.92410225893718,1.2224959228501335,101069.26918026996,288.0114891216909,0.0,0.1,0.0,361.63,0.19408419689432013,0.86,nominal,4117.675622966578,nan,pitch_program,12.91,0.0,0.0
0.21,18.288753385172207,0.00026577215816503587,21.509365120757067,88.70208582025165,0.0017097823544663824,6.666640901607466,88.95225760315267,17.961205084519715,0.017679328380583472,7.358391035034792,-0.035068320768503795,0.10256763624115615,-2.309888233165226,-0.2672956964326553,3.060248507772063,-0.029284641627254467,4836.415017019124,0.26146186175714653,88.95231189092928,1.9554552694002552,1.2224724392085011,101066.87149463763,288.01018912671503,0.0,0.1,0.0,367.435,0.19719969827133954,0.86,nominal,4167.1868818102885,nan,pitch_program,12.895,0.0,0.0
0.24,20.966545392107886,0.00031212426954509446,21.70478022622484,89.25973356452263,0.0015450703793352862,6.513836848925791,89.49709553326987,17.955289093571576,0.022114910524347393,7.421470511135987,-0.043812036108617045,0.11036512627827874,-2.1027496634552136,-0.2883061105402308,3.247635197473654,-0.020587540478739105,4895.751183363066,0.2630639100748558,89.49714967459666,1.9870190524657336,1.2224494941616335,101064.52881011732,288.0089189285295,0.0,0.1,0.0,373.24,0.20031519964835895,0.86,nominal,4217.716237451125,nan,pitch_program,12.88,0.0,0.0
0.27,23.6612985275742,0.00034887841714299826,21.895828155436785,89.82510451554381,0.0012251382532634605,6.368264307064815,90.0505646457254,17.949279637582126,0.02677665610195274,7.466420495631576,-0.05300027622140289,0.11571174466711538,-1.4984623312569703,-0.30305413231738515,3.4111463781830027,-0.011572343977736273,4956.40017029701,0.2646913230781371,90.0506188095691,2.018632526223421,1.2224270622138187,101062.23852289171,288.0076771169896,0.0,0.1,0.0,379.045,0.20343070102537836,0.86,nominal,4269.276819687499,nan,pitch_program,12.865,0.0,0.0
0.3,26.373249916816157,0.00037102551003694826,22.082702545802515,90.3983796413985,0.0007382364297983325,6.229146345524354,90.61274362102365,17.943176716551363,0.03155727742452501,7.490203264720214,-0.06242771019518289,0.11845441174057728,-0.7929174887974965,-0.31117127528325883,3.5483144052244966,-0.00243771985935939,5018.388123743167,0.2663443325721522,90.61279798616793,2.0502515766989493,1.2224051206079383,101059.99830881118,288.00646243345227,0.0,0.1,0.0,384.84999999999997,0.20654620240239774,0.86,nominal,4321.891988185476,nan,pitch_program,12.850000000000001,0.0,0.0
0.32999999999999996,29.1026432606648,0.0003733045844697108,22.265570200270464,90.97977812828813,7.596914775875136e-05,6.095588482264997,91.18374979799542,17.93698033047929,0.03634587380426802,7.497964241414369,-0.07188557839581895,0.11850217015415664,-0.2588843964625265,-0.31241605842532433,3.6649184410634796,0.006613747028763336,5081.746000783726,0.2680232839093718,91.18380454899652,2.081914007330099,1.2223836497392548,101057.8061656325,288.0052737936982,0.0,0.1,0.0,390.655,0.20966170377941715,0.86,nominal,4375.588767616197,nan,pitch_program,12.835,0.0,0.0
0.36,31.849726928193512,0.00035030934801465847,22.444580864596862,91.56945558429047,-0.0007665078818350778,5.967022144213274,91.76366682876403,17.930690479365907,0.041031388974796516,7.495945362282755,-0.08116401298069542,0.11583084508618939,0.067088900726935,-0.30668272696847815,3.767614675256721,0.015379085386427233,5146.5015956730285,0.2697284233686646,91.76372215185032,2.113650953748763,1.2223626320071923,101055.66029577957,288.0041102243801,0.0,0.1,0.0,396.46,0.21277720515643656,0.86,nominal,4430.391423866004,nan,pitch_program,12.82,0.0,0.0
0.39,34.6147518571284,0.0002994974534643731,22.619876507937704,92.16749763116285,-0.0016937298183428455,5.843188111361401,92.3525336401979,17.924307163211214,0.04558357510373075,7.487247613208968,-0.0906578695527111,0.1104789910137779,0.2896877285071557,-0.3139796196842479,3.8597160558097596,0.02431677358026194,5212.678169456823,0.2714598654272968,92.3525896145303,2.1454505715761796,1.2223420507255314,101053.55899507117,288.00297080269837,0.0,0.1,0.0,402.265,0.21589270653345596,0.86,nominal,4486.32044683851,nan,pitch_program,12.805,0.0,0.0
0.42,37.39797075165294,0.0002166162895563706,22.79159407376223,92.77396315081808,-0.0027627054636000844,5.723918860817547,92.95037113141139,17.91783038201521,0.04992805799549918,7.472325865478432,-0.10044619630474186,0.1023424533347675,0.49712178418894887,-0.32391567820689193,3.941828425945844,0.03347913956954716,5280.297358965533,0.2732176720517127,92.95042789577789,2.1553891105376692,1.2223218897993295,101051.50061973216,288.0018546385205,0.0,0.1,0.0,404.1773684210526,0.21691906078826353,0.86,nominal,4543.394932757018,nan,pitch_program,12.79,0.0,0.0
0.44999999999999996,40.19944436906745,9.689560092385064e-05,22.959838726240353,93.38245391381707,-0.003990689621083999,5.608155082604063,93.55070346246633,17.911322810191564,0.053969696069330296,7.451212025874188,-0.11047820916302419,0.0912944857427634,0.7034937460440075,-0.3322066232327979,4.014440797270573,0.04281143502712012,5348.638256347103,0.27498280850280576,93.55076117520498,2.154413941399158,1.2223021368658518,101049.48390706952,288.0007610482794,0.0,0.1,0.0,404.14342105263154,0.21690084148196515,0.86,nominal,4601.026161605841,nan,pitch_program,12.775,0.0,0.0
0.48,43.0191385773606,-6.466563893170297e-05,23.124695461901826,93.98980694310501,-0.005385374661851787,5.495224522049092,94.1503124304542,17.904815784947104,0.05760276461428244,7.424656448971525,-0.12064701179734454,0.0772231777551128,0.8848582405241326,-0.33696968136001726,4.078655389100565,0.05221139411656505,5417.33599204459,0.27674581530806025,94.1503712569795,2.153471654399884,1.2222827819310524,101047.50783625379,287.9996894794976,0.0,0.1,0.0,404.1094736842105,0.2168826221756668,0.86,nominal,4658.91646012753,nan,pitch_program,12.76,0.0,0.0
0.51,45.85702111978061,-0.0002732605510725359,23.286242584929738,94.59608474733366,-0.006953163738027764,5.38490410093045,94.7492294957982,17.898309306281835,0.06071595057573168,7.39387392397707,-0.1308187962584579,0.06004912402778704,1.0257364798444144,-0.3372877363714359,4.135881845822523,0.06155283670799386,5486.3926286980395,0.27850678498510045,94.74928960514787,2.15256405958978,1.2222638157873698,101045.57146677698,287.9986394231979,0.0,0.1,0.0,404.0755263157895,0.21686440286936848,0.86,nominal,4717.068275869219,nan,pitch_program,12.745,0.0,0.0
0.54,48.71306120985846,-0.0005341505237281214,23.444553390324668,95.20133633592829,-0.00869633242185285,5.277026846497655,95.34747782774012,17.891803374195753,0.06319526039542954,7.359916785326638,-0.140844783680866,0.03973387202828186,1.131545604436387,-0.33265720018013534,4.187327946641011,0.0706972988223263,5555.80935728961,0.28026578565890997,95.34753938816606,2.151690697379313,1.2222452298160513,101043.67391826863,287.9976104029629,0.0,0.1,0.0,404.0415789473684,0.2168461835630701,0.86,nominal,4775.483293560925,nan,pitch_program,12.73,0.0,0.0
0.57,51.58722920039643,-0.0008525645608991208,23.599697428926977,95.80559968459892,-0.010613801239033313,5.171467953410247,95.94507347629447,17.885297988688862,0.06492618120565066,7.3234397120212575,-0.15056703089906878,0.016285089176518965,1.2155423565371164,-0.3227773408800722,4.233774104674601,0.07949944752146523,5625.586603657858,0.2820228645127286,95.94513665179593,2.150846368501208,1.2222270158385802,101041.81435532548,287.996601966712,0.0,0.1,0.0,404.0076315789474,0.21682796425677175,0.86,nominal,4834.162534977159,nan,pitch_program,12.715,0.0,0.0
0.6,54.47949640956869,-0.0012336047989705058,23.751741059067815,96.40890697240869,-0.012701341269046167,5.068121004694611,96.54202895867088,17.878793149761158,0.06579568136555553,7.28486098426973,-0.15982230575067932,-0.010239425837189096,1.285607723460011,-0.3074724746558607,4.275749875142054,0.08781049885935417,5695.724425402086,0.2837780583321746,96.54209390584556,2.1500251425989743,1.2222091660518746,101039.99198089416,287.99561368311606,0.0,0.1,0.0,403.9736842105263,0.21680974495047337,0.86,nominal,4893.106689185332,nan,pitch_program,12.7,0.0,0.0
0.63,57.38983502282471,-0.0016821525452519002,23.900747705808296,97.01128710853403,-0.014951591542713147,4.966888224682758,97.13835508511045,17.872288857412645,0.06569423924580932,7.244568020795991,-0.16844527490784042,-0.03972829291782705,1.3427707824729114,-0.28666593481954206,4.313745819443393,0.09548095679861003,5766.22271561839,0.28553139887289264,97.13842195011874,2.149223736764507,1.2221916729978104,101038.20603315847,287.9946451399122,0.0,0.1,0.0,403.9397368421053,0.21679152564417503,0.86,nominal,4952.316281809666,nan,pitch_program,12.685,0.0,0.0
0.6599999999999999,60.318217985330406,-0.0022027735674041587,24.0467782075158,97.61276541685642,-0.017354034071741953,4.867683390250181,97.73406067014947,17.86578511164332,0.06451791033255128,7.202967364943153,-0.1762713519658683,-0.07201390961483733,1.3863936174836382,-0.26037418385926203,4.348262088564398,0.10236319930791299,5837.081161991044,0.28728291201279393,97.73412958574538,2.148441277833447,1.2221745295225004,101036.4557813808,287.99369594165114,0.0,0.1,0.0,403.9057894736842,0.21677330633787664,0.86,nominal,5011.791645046964,nan,pitch_program,12.67,0.0,0.0
0.69,63.26461887329523,-0.0027996229396124893,24.18989127520974,98.21336293216065,-0.019894979073611013,4.770435589797974,98.32915188269911,17.859281912453184,0.062170409900170566,7.160429992154732,-0.1831394547200038,-0.10687084923561523,1.417660506828208,-0.2287081474541562,4.379751881113551,0.10831409878420092,5908.299161167174,0.2890326158430474,98.32922296533583,2.1476773747759994,1.2221577287223322,101034.74052039206,287.9927657067111,0.0,0.1,0.0,403.8718421052631,0.21675508703157828,0.86,nominal,5071.53285225949,nan,pitch_program,12.655,0.0,0.0
0.72,66.22901177435925,-0.0034763504219251884,24.330143915106703,98.81309670213406,-0.02255758274375664,4.675087996565488,98.9236323457922,17.852779259842237,0.05856520045577341,7.117250168184507,-0.18889487041246106,-0.14401529396278534,1.4391261694109638,-0.1918763831441033,4.408581436834502,0.11319771526220859,5979.875820969128,0.29078052096267926,98.92370569283186,2.1469310994699127,1.2221412638943423,101033.05956552416,287.9918540645518,0.0,0.1,0.0,403.8378947368421,0.21673686772527995,0.86,nominal,5131.539724067814,nan,pitch_program,12.64,0.0,0.0
0.75,69.2113711957922,-0.004236007775535788,24.467591733447456,99.41198071443162,-0.025321911787019986,4.581593944691778,99.51750375607186,17.84627715381048,0.0536275682722908,7.073656652880103,-0.19339227439689982,-0.18310546182303794,1.4529709008944252,-0.15018802833617667,4.435043902646263,0.11688804903982901,6051.810026340215,0.29252663230072207,99.51757944314228,2.14620131379246,1.2221251285004044,101031.41224895317,287.99096065373254,0.0,0.1,0.0,403.80394736842106,0.21671864841898159,0.86,nominal,5191.811885392701,nan,pitch_program,12.625,0.0,0.0
0.78,72.21167199451135,-0.005080959691586144,24.60228915721204,100.01002662397178,-0.028165063868345188,4.489914125486152,100.11076639129584,17.83977559435791,0.04729665414745958,7.029842615197502,-0.1964988297590909,-0.22374309330119127,1.4603769186533082,-0.10405479116394542,4.459391164143555,0.1192718257833811,6124.100494351357,0.29427095060911473,100.11084446984444,2.145487265559558,1.222109316141296,101029.79791705101,287.9900851204781,0.0,0.1,0.0,403.77,0.21670042911268322,0.86,nominal,5252.348812689877,nan,pitch_program,12.61,0.0,0.0
0.8099999999999999,75.22988931596377,-0.0060128001379581575,24.734289629517107,100.60724404841424,-0.031061348212400457,4.400015743502179,100.70341929829196,17.83327458148453,0.039527392204693375,6.985980278436203,-0.1980972846908416,-0.26547612305906737,1.46203747817421,-0.053991559206920774,4.481849206576982,0.12025127698276951,6196.7457921171235,0.2960134730164182,100.70349979338974,2.1447886732662003,1.2220938205337406,101028.215928041,287.9892271174081,0.0,0.1,0.0,403.73605263157896,0.21668220980638486,0.86,nominal,5313.149850579105,nan,pitch_program,12.595,0.0,0.0
0.84,78.26599853697222,-0.00703227597463482,24.86364579768878,101.20364070028164,-0.033982527889222076,4.311872272389024,101.2954603538446,17.82677411519034,0.030292311017523752,6.942219299094576,-0.19808901788191272,-0.3078026292629026,1.458699282931261,-0.0006152463247844627,4.502616830609643,0.11974686602965932,6269.744339816018,0.29775419320817315,101.29554326229206,2.14410543940284,1.2220786354883153,101026.6656497418,287.988386302315,0.0,0.1,0.0,403.7021052631579,0.2166639905000865,0.86,nominal,5374.214216210556,nan,pitch_program,12.58,0.0,0.0
0.87,81.31997521478135,-0.00813921971542078,24.990409680449435,101.7992225936378,-0.03689812469286531,4.225462758688517,101.88688638713859,17.82027419547534,0.019583153589780477,6.8986838448164045,-0.19639699013065448,-0.35017609999261035,1.4512061171367512,0.05535838880459806,4.5218632967265995,0.11769990214485034,6343.094421665537,0.299493101788309,101.88697167592441,2.1434374440072004,1.222063754889806,101025.14645756128,287.98756233707707,0.0,0.1,0.0,403.66815789473685,0.21664577119378817,0.86,nominal,5435.541009925622,nan,pitch_program,12.565,0.0,0.0
0.8999999999999999,84.3917950443276,-0.009332493323446218,25.114632804062186,102.39399431820821,-0.03977578693418131,4.14077078709168,102.47769336427179,17.813774822339525,0.0074122713765770705,6.855475694686792,-0.19296854227987717,-0.392012031062686,1.4402984355617752,0.11312008268093197,4.539732144506908,0.11407498242438567,6416.794205232827,0.3012301868230642,102.47778096943308,2.142784561902661,1.2220491726812084,101023.65773286286,287.98675488677355,0.0,0.1,0.0,403.6342105263158,0.2166275518874898,0.86,nominal,5497.129232418813,nan,pitch_program,12.55,0.0,0.0
0.9299999999999999,87.48143382258402,-0.010609944894502335,25.236366312579282,102.9879592752141,-0.04258171903520386,4.057783617236561,103.06787655113627,17.8072759957829,-0.0061862545319202435,6.8126799438115935,-0.1877779660298783,-0.4326958573566433,1.4265269425279528,0.17177464194466968,4.5563474733356415,0.10886220166195322,6490.841758847788,0.3029654343213891,103.06796637706633,2.1421467467044124,1.222034882850777,101022.1988616426,287.9859636189682,0.0,0.1,0.0,403.6002631578947,0.21660933258119142,0.86,nominal,5558.9778000793885,nan,pitch_program,12.535000000000002,0.0,0.0
0.96,90.58886741770033,-0.011968379998121097,25.35566106192695,103.58111983721018,-0.04528117012062544,3.976491644922229,103.65743062085323,17.800777715805463,-0.02115581146522052,6.770368658662979,-0.1808287746390104,-0.47159219581674844,1.4103213238206016,0.23035083341283452,4.571817949167592,0.1020790675094888,6565.235062718305,0.3046988285524522,103.6575225400985,2.1415240405915754,1.2220208794209642,101020.76923339977,287.98518820309744,0.0,0.1,0.0,403.56631578947366,0.21659111327489305,0.86,nominal,5621.085555011447,nan,pitch_program,12.520000000000001,0.0,0.0
0.99,93.71407174174323,-0.01340354931934969,25.47256770212076,104.17347746809675,-0.0478389773742864,3.896888006460403,104.24634973225064,17.794279982407215,-0.037416816279469876,6.728602173649618,-0.17215560400075353,-0.5080553428469305,1.3920693090612217,0.2878136502407163,4.586238335986579,0.09377205660547017,6639.9720168383565,0.30643035227810395,104.24644358583264,2.1409169498226235,1.2220071564387593,101019.3682401501,287.9844283099362,0.0,0.1,0.0,403.53236842105264,0.21657289396859472,0.86,nominal,5683.4512723053585,nan,pitch_program,12.505,0.0,0.0
1.02,96.85702271720672,-0.014913301732992615,25.587136749300292,104.76503251544995,-0.050325080454764165,3.8189682393177273,104.8346273374877,17.787782795588157,-0.05494303855540752,6.687429515738009,-0.16117197432227687,-0.5414409330927804,1.3721284869650874,0.36472071198461475,4.599690691852599,0.08331326120810874,6715.050427373476,0.30815998648342924,104.83472303586257,2.1403247353690458,1.2219937079672185,101017.99527556064,287.98368361112955,0.0,0.1,0.0,403.49842105263156,0.21655467466229633,0.86,nominal,5746.073639097488,nan,pitch_program,12.49,0.0,0.0
1.05,100.01769627572935,-0.016491645390600947,25.69941864030807,105.35578528408752,-0.052611455253611036,3.742729700259297,105.42225707316827,17.781286155348287,-0.07361505835876046,6.646891072416833,-0.14784786276205078,-0.5708356957129386,1.3507857657473672,0.4426492455671663,4.612246928375358,0.07073173189397264,6790.4680818845645,0.30988771214300653,105.42235440689147,2.1397477100394173,1.2219805280790503,101016.64973429474,287.98295377883795,0.0,0.1,0.0,403.46447368421053,0.216536455355998,0.86,nominal,5808.951347009566,nan,pitch_program,12.475,0.0,0.0
1.08,103.19606833529731,-0.018130114818171405,25.80946378063323,105.94573531893201,-0.05461564758568195,3.6681713441719794,106.00923212696317,17.774790061687607,-0.09325471364141326,6.607019934231847,-0.13242259636390874,-0.595317014259358,1.3282928535164467,0.512674985875157,4.623969865153153,0.05629469651058333,6866.222697703165,0.31161350904996205,106.00933081232934,2.1391861194523596,1.2219676108509792,101015.33101143606,287.98223848542585,0.0,0.1,0.0,403.43052631578945,0.21651823604969964,0.86,nominal,5872.083026058527,nan,pitch_program,12.46,0.0,0.0
1.1099999999999999,106.39211478199203,-0.019818474267806738,25.917322584711325,106.53488155649099,-0.05627864832117782,3.5952934692698766,106.5955453603573,17.768294514606115,-0.1147198790133335,6.567842554668637,-0.11528216933435667,-0.6499609582755765,1.3048804668540568,0.5699447428012665,4.634912970909312,0.0404860277630451,6942.311933615409,0.3133373561121868,106.59564506302148,2.1386401345329413,1.221954950358998,101014.03850200378,287.98153740319935,0.0,0.1,0.0,403.3965789473684,0.21650001674340127,0.86,nominal,5935.467256861356,nan,pitch_program,12.445,0.0,0.0
1.14,109.60581145541781,-0.02154511824618796,26.02304550737128,107.12322244752588,-0.05755479927937409,3.52409742199851,107.18118940717521,17.761799514103814,-0.13837899752441393,6.529379984633192,-0.09689803309907759,-0.7187492915930919,1.2807379391497884,0.6116365806907957,4.645123736174472,0.023828254329319065,7018.733400380358,0.31505923161245886,107.18128975570606,2.138109900559854,1.221942540674673,101012.771600575,287.98085020420206,0.0,0.1,0.0,403.3626315789474,0.21648179743710294,0.86,nominal,5999.102580593247,nan,pitch_program,12.43,0.0,0.0
1.17,112.83713413629734,-0.02329741728598893,26.126683069777282,107.71075602931782,-0.058409967993365654,3.4545854135334086,107.76615673072406,17.7553050601807,-0.16442162732972793,6.491648670546362,-0.07779238580062045,-0.7958775280628931,1.256034158482897,0.6360691319474644,4.654643768266311,0.006873745719797551,7095.484667238284,0.3167791133704325,107.7662573280922,2.1375955285784203,1.221930375862089,101011.52970097255,287.9801765600464,0.0,0.1,0.0,403.3286842105263,0.21646357813080455,0.86,nominal,6062.987504781724,nan,pitch_program,12.415,0.0,0.0
1.2,116.08605853624273,-0.025062053426009093,26.228285879952004,108.29747999817995,-0.05882120466733871,3.386760339157337,108.35043968293435,17.748811152836776,-0.19298624474316503,6.454661106143395,-0.05851315976743266,-0.8797040859302112,1.2309212943010819,0.6423862785223761,4.663509138351463,-0.009809714950263613,7172.563269115052,0.3184969789147047,108.3505401173715,2.137097084051837,1.221918449975431,101010.3121960178,287.97951614178027,0.0,0.1,0.0,403.2947368421053,0.21644535882450622,0.86,nominal,6127.120509467229,nan,pitch_program,12.4,0.0,0.0
1.23,119.35256028971179,-0.026825356497968578,26.32790464814559,108.88339178230169,-0.0587767690653161,3.3206256064528623,108.93403056503975,17.74231779207204,-0.22421754553630585,6.418426480876507,-0.03961234916565766,-0.9704156186626326,1.2055335837049674,0.6304490413005062,4.671750900596948,-0.025655830122898623,7249.966714334824,0.32021280566045235,108.93413042063001,2.1366145810263832,1.22190675705717,101009.11847734534,287.978868619787,0.0,0.1,0.0,403.26078947368416,0.2164271395182078,0.86,nominal,6191.500053690244,nan,pitch_program,12.385,0.0,0.0
1.26,122.63661494806699,-0.028573638139063374,26.425590197600908,109.46848861183987,-0.05827605470315983,3.2561849818438824,109.51692168653689,17.735824977886494,-0.2582969479036325,6.382951276975511,-0.02162546941681347,-1.0691403300400404,1.179987543156428,0.6007993127675912,4.679395650724507,-0.040117641856367806,7327.692492353662,0.3219265710817513,109.5170205534555,2.1361479802017445,1.2218952911367942,101007.94793527301,287.97823366371557,0.0,0.1,0.0,403.22684210526313,0.21640892021190947,0.86,nominal,6256.124581958829,nan,pitch_program,12.37,0.0,0.0
1.29,125.93819797557755,-0.030293514295913572,26.521393471305657,110.05276758368528,-0.05732920522833992,3.1934424568250006,110.09910541957856,17.729332710280136,-0.295463273442287,6.348239752611568,-0.005051641448391448,-1.177625002566425,1.1543841115232174,0.5546398660741249,4.686466031755281,-0.05268539095286905,7405.738081096262,0.3236382528696733,110.09920290371099,2.1356971887652025,1.2218840462300047,101006.79995871964,287.9776109424365,0.0,0.1,0.0,403.1928947368421,0.21639070090561113,0.86,nominal,6320.992530381116,nan,pitch_program,12.355,0.0,0.0
1.3199999999999998,129.25728474715663,-0.03197220433597638,26.615365535181052,110.63622571930294,-0.055956334668760356,3.13240212917981,110.68057424689677,17.72284098925297,-0.33603017206217467,6.314294327402333,0.009665507153193816,-1.2981313760773792,1.1288101404745758,0.4938077748142724,4.692981192138402,-0.06290362526279263,7484.100953603779,0.32534782907036053,110.6806699785006,2.135262063035499,1.2218730163383345,101005.67393516586,287.9770001240213,0.0,0.1,0.0,403.158947368421,0.21637248159931274,0.86,nominal,6386.102332236998,nan,pitch_program,12.34,0.0,0.0
1.3499999999999999,132.5938505475766,-0.033597793910995565,26.707557578060165,111.21886001399916,-0.054186319167306034,3.0730680959703913,111.26132080149506,17.71634981480499,-0.3804028152458394,6.281115911029076,0.022155652207627295,-1.433418164235575,1.1033384609584487,0.42073207448378364,4.698957228007881,-0.07038687442045811,7562.7785837163265,0.3270552781978539,111.26141444255072,2.1348424150001697,1.2218621954491473,101004.56925065379,287.97640087574257,0.0,0.1,0.0,403.125,0.2163542622930144,0.86,nominal,6451.452422769483,nan,pitch_program,12.325,0.0,0.0
1.38,135.94787057185547,-0.035159448686651544,26.798020908797778,111.80066747596234,-0.05205515918853256,3.0154443579203862,111.84133789653097,17.7098591869362,-0.42909483042300667,6.248704185375044,0.032137726875700406,-1.5867572814023516,1.0780275640871806,0.3383725393476975,4.704407609243271,-0.07483325360341928,7641.768450532363,0.32876057931706776,111.84142914643863,2.1344380215586485,1.221851577535965,101003.48528982015,287.9758128640928,0.0,0.1,0.0,403.0910526315789,0.21633604298671602,0.86,nominal,6517.041242988269,nan,pitch_program,12.31,0.0,0.0
1.41,139.3193199264845,-0.03664756665994566,26.886806950836398,112.38164515430041,-0.04960393244313725,2.9595347346206995,112.42061854474309,17.703369105646598,-0.4827458759542051,6.217057832196385,0.03943344681305409,-1.761965131141437,1.0529214968421037,0.250139411303836,4.709343571493405,-0.07603541031287775,7721.068041509504,0.3304637120951038,112.42070714405386,2.1340486342132414,1.2218411565590974,101002.42143596034,287.97523575481955,0.0,0.1,0.0,403.0571052631579,0.2163178236804177,0.86,nominal,6582.867242375736,nan,pitch_program,12.295,0.0,0.0
1.44,142.70817363118294,-0.038053857893022375,26.973967234490445,112.96179015661521,-0.04687637443589051,2.9053427884681913,112.99915596808745,17.696879570936186,-0.54214007303056,6.186174707075294,0.043977880667950345,-1.963442629094806,1.0280496186404142,0.1597956301446529,4.7137744692131145,-0.07388829738572457,7800.674854250707,0.33216465682298574,112.9992417000001,2.1336739875243564,1.2218309264665437,101001.37707112041,287.9746692129758,0.0,0.1,0.0,403.02315789473687,0.21629960437411935,0.86,nominal,6648.928880530192,nan,pitch_program,12.28,0.0,0.0
1.47,146.1144066209151,-0.03937134201660558,27.05955338713475,113.54109965773829,-0.043916137452773535,2.852871754810127,113.5769435993282,17.690390582804962,-0.6082254890484968,6.156051968860599,0.04582662261549916,-2.196222899376499,1.003425822735134,0.07134429656838773,4.71770809979548,-0.06839334559897921,7880.586397175418,0.33386339441310453,113.57702628873707,2.1333138053057814,1.2218208811951363,101000.3515762133,287.9741129029836,0.0,0.1,0.0,402.9892105263158,0.21628138506782096,0.86,nominal,6715.224627906435,nan,pitch_program,12.265,0.0,0.0
1.5,149.5379937479736,-0.04059425572660176,27.14361712141984,114.11957090194969,-0.04076379033320592,2.8021244761697583,114.15397507801326,17.68390214125293,-0.6821349180702451,6.126686169524331,0.045159233918252856,-2.466027928938208,0.9790472064751637,-0.011094979783848685,4.7211510133891315,-0.05965871974304904,7960.800189382462,0.3355599063796994,114.15405458795468,2.132967803772245,1.221811014671916,100999.34433115934,287.97356648871073,0.0,0.1,0.0,402.9552631578947,0.2162631657615226,0.86,nominal,6781.752965899609,nan,pitch_program,12.25,0.0,0.0
1.53,152.97890978401483,-0.041717864635889855,27.22621022157707,114.69720120137512,-0.03745363030960315,2.7531033385742747,114.7302442435996,17.677414246280083,-0.7652082936466489,6.098073302445803,0.04227875331592331,-2.779336691446955,0.9548922328525346,-0.08341644699917308,4.724108826691175,-0.04789547039275497,8041.313760073331,0.33725417481070097,114.73032046901152,2.1326356913057913,1.2218013208157357,100998.35471504953,287.97302963355975,0.0,0.1,0.0,402.9213157894737,0.21624494645522424,0.86,nominal,6848.512386567439,nan,pitch_program,12.235,0.0,0.0
1.56,156.43712942201117,-0.04273817615911138,27.307384527812342,115.27398793321144,-0.0340103841073842,2.7058102078424144,115.30574512839014,17.670926897886428,-0.8590171845115763,6.070208804917791,0.03760722669642877,-3.143468062457806,0.9309182595853939,-0.14166030160003767,4.726586567900623,-0.03340953594232031,8122.124647906306,0.33894618233896323,115.30581798716875,2.1323171654691433,1.2217917935390805,100997.38210633124,287.9725020005692,0.0,0.1,0.0,402.8873684210526,0.21622672714892588,0.86,nominal,6915.5013922863045,nan,pitch_program,12.220000000000002,0.0,0.0
1.5899999999999999,159.91262727814535,-0.04365155249612426,27.387191918723104,115.84992853780602,-0.03044587790042954,2.6602463636920937,115.88047195227408,17.66444009607196,-0.9653919596179609,6.043087509836319,0.03167736989691458,-3.566682515022181,0.9070582782586509,-0.18214109166505332,4.728589088943944,-0.016589700907938817,8203.23040057268,0.3406359121189437,115.88054137368084,2.1320119089858487,1.2217824267501307,100996.42588301862,287.9719832525283,0.0,0.1,0.0,402.8534210526316,0.21620850784262752,0.86,nominal,6982.718495570636,nan,pitch_program,12.205000000000002,0.0,0.0
1.6199999999999999,163.40537789369765,-0.044454225121057706,27.46568429161461,116.42502051840965,-0.02675575416444817,2.6164124297169487,116.4544191200354,17.657953840836683,-1.0864523640846626,6.016703538558458,0.02512064892617226,-4.058307218816939,0.8832168091153367,-0.20156678876831494,4.7301215848859,0.00210822867072174,8284.628574722368,0.34232334781126766,116.45448503057192,2.131719587280236,1.2217732143550633,100995.48542292733,287.9714730521045,0.0,0.1,0.0,402.8194736842105,0.21619028853632916,0.86,nominal,7050.162219150796,nan,pitch_program,12.19,0.0,0.0
1.65,166.91535573695117,-0.04514171434923672,27.542913540533522,116.9992614417844,-0.022916307605967225,2.5743082972970663,117.02758122036748,17.651468132180593,-1.2246424216816998,5.99105012314217,0.018652233180124832,-4.628889814216239,0.8592649662524863,-0.1971428606195389,4.731190259228413,0.02218062001952439,8366.31673613742,0.34400847357281084,117.02764352729326,2.1314398507818844,1.2217641502606216,100994.56010393673,287.9709710619865,0.0,0.1,0.0,402.78552631578947,0.21617206923003082,0.86,nominal,7117.831096217126,nan,pitch_program,12.175,0.0,0.0
1.68,170.44253520506044,-0.04570815940695584,27.618931531766044,117.57264893697592,-0.018881501923970756,2.533933041084071,117.59995302390728,17.64498297010369,-1.3827707731094754,5.966119343624438,0.013053442776314818,-5.290386822124194,0.8350347075104311,-0.16665587236347582,4.731803168733333,0.04309802372095335,8448.292459783803,0.3456912740445374,117.6000115966218,2.131172345531529,1.2217552283769904,100993.64930428316,287.9704769450435,0.0,0.1,0.0,402.75157894736844,0.21615384992373246,0.86,nominal,7185.723670518592,nan,pitch_program,12.16,0.0,0.0
1.71,173.98689062569065,-0.04614556582915444,27.693790076446057,118.14518068767337,-0.014580214073286631,2.4952848226670934,118.17152947580844,17.63849835460598,-1.564057773798215,5.941901764437872,0.009152464248083978,-6.056393402683569,0.8103122675351477,-0.10853156642358947,4.731971272001486,0.06432931865857819,8530.553329095672,0.3473717343240138,118.17158412535002,2.130916735549193,1.2217464426210025,100992.75240288705,287.9699903645031,0.0,0.1,0.0,402.71763157894736,0.2161356306174341,0.86,nominal,7253.838495779112,nan,pitch_program,12.145,0.0,0.0
1.74,177.54839625804846,-0.04644297781854658,27.767540899759208,118.7168544119272,-0.009913732979738021,2.458360777105047,118.74230567685314,17.632014285687454,-1.7721909122925885,5.918385952668473,0.007804242955674688,-6.942422015139886,0.7848307371881171,-0.021863014233102183,4.731709692025703,0.08536720922102312,8613.096933599096,0.3490498399049981,118.74235613378163,2.130672739848862,1.2217377869197457,100991.86877972118,287.96951098415155,0.0,0.1,0.0,402.68368421052634,0.21611741131113574,0.86,nominal,7322.174133692238,nan,pitch_program,12.13,0.0,0.0
1.77,181.1270262927033,-0.04658558328348129,27.840235605972765,119.28766782182834,-0.004753515497823584,2.4231568737852527,119.31227684610559,17.62553076334812,-2.0113903734662735,5.895557859517311,0.009870569651767813,-7.96623848660001,0.7582616425445707,0.09359471661008918,4.73103918570296,0.10575421982473901,8695.920863800797,0.3507255765635139,119.31232273702847,2.1304401859543374,1.2217292552146657,100990.99781622904,287.96903846856117,0.0,0.1,0.0,402.64973684210526,0.21609919200483738,0.86,nominal,7390.729149606184,nan,pitch_program,12.115,0.0,0.0
1.7999999999999998,184.72275484936114,-0.04655375850787385,27.911925638115097,119.8576185552614,0.0010608258535812288,2.38966773807776,119.88143825781496,17.619047787587974,-2.2864868640015787,5.873400044950091,0.01620145753386894,-9.148265106043729,0.7302051563480766,0.23746590481752697,4.729987795127789,0.1251082949440009,8779.022702182549,0.3523989301688778,119.88147908078683,2.130219080419873,1.2217208414662886,100990.1388958071,287.9685724833522,0.0,0.1,0.0,402.6157894736842,0.216080972698539,0.86,nominal,7459.502104940172,nan,pitch_program,12.1,0.0,0.0
1.8299999999999998,188.3355559715248,-0.04632205768675235,27.98266223050495,120.42670407212219,0.007723360704050003,2.3578864129951103,120.44978514576678,17.612565358407018,-2.6030141464265157,5.851890723291223,0.027618950940033936,-10.512061667529133,0.7001782263757369,0.4088328758372411,4.728592638818956,0.1431471161428408,8862.400009171148,0.35406988639951703,120.4498202447361,2.1300096953542584,1.2217125396597923,100989.2914043732,287.9681126955017,0.0,0.1,0.0,402.58184210526315,0.21606275339224065,0.86,nominal,7528.491545393472,nan,pitch_program,12.085,0.0,0.0
1.8599999999999999,191.96540361677708,-0.04585814979576883,28.05249635140262,120.99492150840976,0.015463596366117462,2.3278040299222997,121.01731256952773,17.60608347580525,-2.96731909999577,5.83100260311459,0.0449045153794719,-12.084896949199273,0.6675993970756483,0.6063521317576684,4.726901788580664,0.15971029458301916,8946.050303097625,0.35573843034699604,121.01734110792346,2.1298148904620913,1.2217043438117263,100988.45473105236,287.96765877371587,0.0,0.1,0.0,402.54789473684207,0.2160445340859423,0.86,nominal,7597.6959841198695,nan,pitch_program,12.07,0.0,0.0
1.89,195.61227161593018,-0.0451273551908849,28.12147892326483,121.56226663843636,0.024359820162797557,2.299419062073755,121.58401454014489,17.59960213978267,-3.3868110105402978,5.810636953790962,0.06995929283493096,-13.898425000326684,0.6317683816095218,0.8672052603336273,4.724980764078632,0.17352979218413597,9029.970952383474,0.3574045443998635,121.58403562858953,2.1296312105762736,1.221696247944162,100987.62826553795,287.9672103869988,0.0,0.1,0.0,402.51394736842104,0.21602631477964393,0.86,nominal,7667.113797131917,nan,pitch_program,12.055,0.0,0.0
1.92,199.27613368511,-0.044084393724513865,28.189660378080088,122.12873563932793,0.03476538221236775,2.2727151605086022,122.14988543463089,17.59312135033928,-3.8699650182147267,5.790758146881553,0.1044643264225883,-15.98898133951033,0.588888168415221,1.1839293820766557,4.72301029230837,0.1837784582559806,9114.15933135045,0.35906821136520717,122.1498979066991,2.1294658329803697,1.2216882461368712,100986.811403418,287.96676720754243,0.0,0.1,0.0,402.48,0.2160080954733456,0.86,nominal,7736.743388793426,nan,pitch_program,12.040000000000001,0.0,0.0
1.95,202.95696333831106,-0.0426725617920847,28.257090780690316,122.69432177336813,0.04706106441430552,2.2476800870076126,122.71491708811978,17.58664110747508,-4.426511156832612,5.771290806815406,0.1500749325344089,-18.398539879733587,0.5377988282725604,1.555617053730195,4.721204187632205,0.18976969151005466,9198.612415753045,0.36072940652963115,122.71491948304912,2.1293253541945147,1.2216803325128536,100986.00354469774,287.9663289099255,0.0,0.1,0.0,402.44605263157894,0.2159898761670472,0.86,nominal,7806.582837276512,nan,pitch_program,12.025,0.0,0.0
1.98,206.6547337880473,-0.040822179368852594,28.323819852483854,123.25901499120846,0.06167941410773698,2.2243023931179526,123.27909839907618,17.58016141119007,-5.067641761406115,5.752095506705159,0.20849747268293684,-21.175733596497054,0.47730684371800663,1.9839157412795627,4.71981356325456,0.19090936863941843,9283.326711636553,0.36238809644184017,123.27908892511448,2.129216292748176,1.2216725012355436,100985.20409351426,287.96589517095885,0.0,0.1,0.0,402.4121052631579,0.21597165686074887,0.86,nominal,7876.629839000913,nan,pitch_program,12.01,0.0,0.0
2.01,210.36941782909156,-0.03844861788791409,28.389896889590425,123.82280136814194,0.07911871603128359,2.2025679035523082,123.84241480121145,17.573682261484247,-5.806250368794796,5.7330007398344955,0.28152778400542106,-24.37704065780107,0.4041397239170239,2.471588575595243,4.719193290962216,0.18668958551707185,9368.298163801248,0.36404423732910196,123.8423912884926,2.1291502557398156,1.2216647465184123,100984.41245911663,287.9654656702176,0.0,0.1,0.0,402.37815789473683,0.2159534375544505,0.86,nominal,7946.881634229961,nan,pitch_program,11.995000000000001,0.0,0.0
2.04,214.1009876629519,-0.0354499916062455,28.4553707241314,124.38566112867794,0.0999542093889529,2.1824611513658043,124.40484645679804,17.567203658357613,-6.657210593016659,5.713790675549575,0.37107498771138403,-28.06817294356937,0.3141640323713682,3.0220675149037763,4.719830127495116,0.17669920576253018,9453.52186812019,0.36569776976264834,124.40480630223907,2.1291448560638426,1.221657062629513,100983.6280563298,287.96504009029314,0.0,0.1,0.0,402.3442105263158,0.21593521824815215,0.86,nominal,8017.3347722815515,nan,pitch_program,11.98,0.0,0.0
2.07,217.84941464702604,-0.03170451201347744,28.52028971460264,124.94756613580459,0.12484931975893537,2.1639663490413796,124.96636595889987,17.56072560181017,-7.637703471572012,5.694170082207157,0.47918352962166266,-32.325707977392625,0.20279042933580999,3.6394178383587734,4.72235916401321,0.16064150175842085,9538.991701491896,0.3673486118801598,124.96630606331348,2.1292237416211877,1.2216494438925982,100982.85030566838,287.96461811685504,0.0,0.1,0.0,402.3102631578947,0.2159169989418538,0.86,nominal,8087.984809616553,nan,pitch_program,11.965,0.0,0.0
2.1,221.61466895895526,-0.02706746496471158,28.58470169829056,125.5084770643076,0.15456823495886188,2.1470661229305628,125.5269357519625,17.554248091841913,-8.767602827385783,5.673744108930002,0.6080633866927064,-37.239011196839755,0.06398649657516821,4.328489613587846,4.727610729969938,0.1383559031748262,9624.699899139434,0.3689966517775889,125.5268524485113,2.12941940666048,1.2216418846927073,100982.07863390716,287.9641994389611,0.0,0.1,0.0,402.27631578947364,0.2158987796355554,0.86,nominal,8158.825964548201,nan,pitch_program,11.95,0.0,0.0
2.13,225.3967191463561,-0.021367732401615346,28.64865390524996,126.06833958002761,0.18999108543654122,2.1317402319800642,126.08650466046849,17.547771128452847,-10.069929136657784,5.651995510486397,0.7601318611417749,-42.91250391994915,-0.11030809717567219,5.095170742606377,4.736673892508755,0.10984419177061051,9710.636483818,0.3706417372734237,126.08639363260913,2.129777025554788,1.221634379486255,100981.31247511065,287.96378374961586,0.0,0.1,0.0,402.2423684210526,0.21588056032925707,0.86,nominal,8229.850650567092,nan,pitch_program,11.935,0.0,0.0
2.16,229.1955315215307,-0.01440374480101668,28.712192829311093,126.62707917248693,0.23213292001995553,2.1179641353709937,126.64500320789033,17.54129471164297,-11.571384070031637,5.628243260256114,0.9380690906309957,-49.468341802834885,-0.33047787767580405,5.946719042534847,4.750966698882993,0.07530315463612738,9796.788493456565,0.3722836621086314,126.64485939406521,2.1303584733581244,1.2216269228161654,100980.55127217801,287.9633707466094,0.0,0.1,0.0,402.2084210526316,0.2158623410229587,0.86,nominal,8301.048844572839,nan,pitch_program,11.92,0.0,0.0
2.19,233.0110693558433,-0.005938712288686476,28.775364000127876,127.18459447708554,0.2821677504110068,2.1057056938927454,127.202337586262,17.53481884141228,-13.302980327297822,5.60158822614721,1.1448929345793808,-57.049580790979185,-0.6100773184713228,6.892171297949178,4.772328316107033,0.035167512662798044,9883.13897979399,0.3739221481686969,127.20215506766887,2.1312481794764015,1.2216195093386226,100979.79447957371,287.96296013399916,0.0,0.1,0.0,402.1744736842105,0.21584412171666034,0.86,nominal,8372.407267076534,nan,pitch_program,11.905,0.0,0.0
2.2199999999999998,236.84329181230225,0.004305072273716612,28.83821157354949,127.7407485486321,0.3414594854134363,2.094919114053782,127.75838180111495,17.52834351776078,-15.300784050793634,5.570844707738289,1.3840605621816804,-65.82392398954588,-0.9671627548200156,7.94283068773293,4.803144509970659,-0.009830236152473878,9969.66569748072,0.3755568223264101,127.75815366755414,2.132561956845952,1.2216121338711314,100979.04156823359,287.9625516247719,0.0,0.1,0.0,402.1405263157895,0.215825902410362,0.86,nominal,8443.908307747479,nan,pitch_program,11.890000000000002,0.0,0.0
2.25,240.69215252973655,0.016653141743106486,28.90077762202048,128.2953572478102,0.41160231564632915,2.085534949032996,128.31296724740304,17.521868740688472,-17.606790152512154,5.534445820651633,1.6596053978169594,-75.98816339459833,-1.4259981703457187,9.112838582404077,4.846512279061204,-0.05857239412545123,10056.339358427113,0.3771871857111916,128.31268543433262,2.134459595721687,1.2216047914757961,100978.29203406595,287.9621449454568,0.0,0.1,0.0,402.1065789473684,0.21580768310406362,0.86,nominal,8515.52859278355,nan,pitch_program,11.875,0.0,0.0
2.28,244.55759774014984,0.03148736024793585,28.963100923021777,128.84817368044298,0.49447395016097895,2.077443366709917,128.8658687791879,17.51539451019535,-20.269954753875638,5.490310980151508,1.976323188347713,-87.77345623227104,-2.019540474888004,10.419839263048706,4.906458305167442,-0.10942432200883118,10143.121291979784,0.37881257264167695,128.86552386664496,2.137163340015209,1.2215974776014888,100977.54541246445,287.96173984400036,0.0,0.1,0.0,402.0726315789474,0.21578946379776529,0.86,nominal,8587.237061774189,nan,pitch_program,11.86,0.0,0.0
2.31,248.4395637539212,0.049256549422287334,29.02521490869596,129.3988671257118,0.5923063058117161,2.070466189139453,129.4167858912355,17.508920826281418,-23.34741361793471,5.435659946895668,2.34002963312101,-101.4516095170331,-2.793223231775175,11.885741007290525,4.988235271285662,-0.16003186267200328,10229.96027649798,0.38043209514810566,129.41636685194314,2.1409859103975273,1.221590188324454,100976.80130286924,287.96133610309346,0.0,0.1,0.0,402.03868421052636,0.21577124449146692,0.86,nominal,8658.99235899331,nan,pitch_program,11.845,0.0,0.0
2.34,252.33797357510147,0.07048994567192796,29.087144227213034,129.94699403934234,0.7077798749880209,2.06431061723577,129.96531687545237,17.502447688946674,-26.905920962448494,5.3667447812576095,2.757925357104453,-117.34259149637758,-3.810675629950738,13.537564500497838,5.098728300701599,-0.2070056506749497,10316.788181183512,0.3820445667865647,129.9648107549184,2.1463736305360337,1.2215829207518352,100976.05940995958,287.9609335625231,0.0,0.1,0.0,402.0047368421053,0.21575302518516856,0.86,nominal,8730.73923820417,nan,pitch_program,11.83,0.0,0.0
2.37,256.2527322982554,0.09581444230350267,29.14889901071177,130.49195743846454,0.8441498877191571,2.058492783291186,130.5109226758199,17.49597509819112,-30.997945625678625,5.278557435384393,3.2391518149535186,-134.9689226195947,-5.1625784427299815,15.408341851992231,5.247014277147592,-0.24773152339476623,10403.513865114848,0.38364839609247936,130.51031418135616,2.1539780397556454,1.2215756736943089,100975.3196123172,287.96053215643036,0.0,0.1,0.0,401.9707894736842,0.21573480587887017,0.86,nominal,8802.403519330315,nan,pitch_program,11.815,0.0,0.0
2.4,260.1837207523888,0.12597467106431237,29.210466686750372,131.0329484711133,1.0053409586936566,2.0522558679533964,131.05287501472148,17.489503054014754,-35.64470138735216,5.164427329456925,3.7954935834948063,-153.2863674900143,-6.97174643313848,17.535806532495787,5.445113739428608,-0.2816130186618399,10490.01442852837,0.38524143386185516,131.0521460390194,2.1647670891018356,1.2215684486269895,100974.58206051633,287.9601319665361,0.0,0.1,0.0,401.9368421052631,0.2157165865725718,0.86,nominal,8873.884847945723,nan,pitch_program,11.8,0.0,0.0
2.4299999999999997,264.1307865986795,0.16185585709260694,29.27180119180643,131.56886154302327,1.196039534276486,2.044483501868511,131.5901810587864,17.483031556417576,-40.854879409355654,5.0153226696967375,4.442202692622448,-171.87594178932923,-9.3995945494891,19.959694270886125,5.709098278302778,-0.30794319598732206,10576.122504253211,0.3868207514614804,131.58931014021366,2.179999594686299,1.2215612509551732,100973.84730633181,287.95973329225325,0.0,0.1,0.0,401.9028947368421,0.21569836726627348,0.86,nominal,8945.046184699724,nan,pitch_program,11.785,0.0,0.0
2.46,268.0937321054874,0.2045092928698069,29.33280540295724,132.09818356026238,1.4217811925733326,2.033473705027125,132.12148416131788,17.476560605399587,-46.63250558314493,4.822079508832427,5.202757745727162,-190.57167002935643,-12.827211546088721,22.730091641589436,6.065540710650744,-0.32440421563296273,10661.609424383296,0.38838234879277855,132.12044588462018,2.2025841552097383,1.2215540920758934,100973.11651318384,287.95933676488073,0.0,0.1,0.0,401.86894736842106,0.21568014795997512,0.86,nominal,9015.699844599594,nan,pitch_program,11.77,0.0,0.0
2.4899999999999998,272.07229183767726,0.2552007027785768,29.39332034984238,132.61865773966164,1.6897136636256636,2.0171648961712814,132.64476042103172,17.470090200960787,-52.979455501685244,4.566632670820394,6.105307656110323,-209.31190435153044,-17.435048381965483,25.89452198270766,6.544761952060729,-0.32520379354589335,10746.134872137758,0.38992026055602796,132.64352424607912,2.236117950316242,1.2215469906437686,100972.39158535408,287.958943417726,0.0,0.1,0.0,401.835,0.21566192865367675,0.86,nominal,9085.566238585234,nan,pitch_program,11.755,0.0,0.0
2.52,276.0661044363309,0.31546366810055465,29.45308669840424,133.12708662178704,2.0087655107325952,1.9922116187286105,133.15714490186284,17.463620343101177,-59.89665379951333,4.221743719703652,7.18710305573989,-228.08084525551487,-23.647385162707852,29.509565724799387,7.187548826756298,-0.2993294062369163,10829.216656728999,0.3914260448794954,133.15567387578176,2.286159160041771,1.2215399770906947,100971.67562935856,287.95855493646036,0.0,0.1,0.0,401.80105263157895,0.2156437093473784,0.86,nominal,9154.248731878753,nan,pitch_program,11.74,0.0,0.0
2.55,280.0746704451916,0.3871658280943939,29.511683351348257,133.61886696202333,2.390071999794643,1.9532217648006496,133.65451405635943,17.457151031820754,-67.38447100504779,3.7482983744355054,8.502970832614306,-246.88846078537318,-32.268913280071274,33.63958751871913,8.055186535521488,-0.22738659310510856,10910.160215993737,0.39288755458476776,133.65276320840368,2.362143140964517,1.2215331008307637,100970.9736894294,287.95817405821623,0.0,0.1,0.0,401.7671052631579,0.21562549004108003,0.86,nominal,9221.17531335829,nan,pitch_program,11.725000000000001,0.0,0.0
2.58,284.0972826033936,0.4726000847664507,29.568438678371887,134.08707194006527,2.847808555735226,1.8918442341210646,134.1306525356398,17.45068226711952,-75.44198410438385,3.0852521224726326,10.135422621672435,-265.7680608519677,-44.55224287107105,38.3564109538523,9.240309612994412,-0.07618758180646508,10987.918851058927,0.39428648564128166,134.12856663636347,2.4797523634237226,1.2215264406768607,100970.29381084433,287.9578051485906,0.0,0.1,0.0,401.73315789473685,0.2156072707347817,0.86,nominal,9285.483303983523,nan,pitch_program,11.71,0.0,0.0
2.61,288.13290828372726,0.5746045698759685,29.622291279342726,134.52085601112233,3.400149503650592,1.7950866990279113,134.57579297507152,17.444214048997477,-84.06426804364209,2.1305651490210162,12.212554371978149,-284.7845542668214,-62.584761986385764,43.74282498439319,10.887548021081399,0.21034955500158167,11060.848832766458,0.3955940818106922,134.57330353739772,2.5706274921823518,1.2215201211792623,100969.64870777549,287.9574551066842,0.0,0.1,0.0,401.6992105263158,0.21558905142848334,0.86,nominal,9345.81747020922,nan,pitch_program,11.695,0.0,0.0
2.6399999999999997,292.17977737688426,0.695872523184726,29.671473012013447,134.8956364385665,4.042265110291917,1.6393910890240966,134.96614479390956,17.437746377454623,-93.23659741724771,0.7049142515770853,15.036956887333284,-304.05407669529706,-93.29301958374306,49.88556172668605,13.341992646504417,0.7374691274883323,11124.979678157028,0.3967404097830614,134.96318678628077,2.647589608423694,1.221514349820794,100969.05956019346,287.9571354254219,0.0,0.1,0.0,401.6652631578947,0.21557083212218495,0.86,nominal,9398.907871078542,nan,pitch_program,11.68,0.0,0.0
2.67,296.23478012067386,0.838974946101456,29.713601903763678,135.16675812632025,4.770080763890996,1.4042963916743676,135.2581909579929,17.431279252490956,-102.90303867429773,-1.5039362192959191,18.535094725638604,-323.8004559103785,-126.29301958374306,56.73439984280489,16.606791022009787,1.6612446552614695,11173.045277685122,0.3975975403676371,135.25470123095943,2.8433206199253465,1.2215094061128937,100968.55490074972,287.9568615876255,0.0,0.1,0.0,401.63131578947366,0.21555261281588659,0.86,nominal,9438.78000472398,nan,pitch_program,11.665,0.0,0.0
2.6999999999999997,300.2934597966776,1.0068335865456326,29.745068002908777,135.2893225334583,5.595288014805888,1.0488699715032521,135.40904019949278,17.42481267410648,-112.98883958616815,-4.742325986884644,22.49160778906996,-344.3123994703186,-159.29301958374305,62.365607693733565,20.562136360504876,3.215119458441116,11197.847710104223,0.39803934122335105,135.40494492500966,3.043601934428366,1.2215057136639416,100968.17797158561,287.9566570579811,0.0,0.1,0.0,401.59736842105264,0.21553439350958825,0.86,nominal,9459.503555004652,nan,pitch_program,11.65,0.0,0.0
2.73,304.3508708041614,1.2008114109428898,29.761561010960875,135.2470335827919,6.465927479908575,0.5497669350699932,135.40262388448448,17.41834664230119,-123.43098304861432,-9.204902592965816,26.63892215924044,-365.9897887960861,-192.29301958374302,66.51042915155377,25.055543668335787,5.637619713026929,11196.66236848281,0.39801866296292704,135.39788539451857,2.9330733713360084,1.2215037782641096,100967.98040399418,287.9565498534287,0.0,0.1,0.0,401.56342105263155,0.21551617420328986,0.86,nominal,9458.796489689723,nan,pitch_program,11.635,0.0,0.0
2.76,308.40523245414596,1.4188687238752804,29.76022645221033,135.14538833281875,7.268577097746357,-0.04448529168492388,135.3407188528103,17.411881157075094,-134.22708568673957,-15.03774758725175,30.65461484780021,-389.3653271283361,-225.29301958374302,69.75546025624706,29.91082918928612,9.139542587832512,11186.329327879306,0.3978349297455267,135.33538511481726,2.875239399517499,1.2215039348700683,100967.99639048765,287.9565585280606,0.0,0.1,0.0,401.52947368421053,0.21549795489699153,0.86,nominal,9450.403214535288,nan,pitch_program,11.620000000000001,0.0,0.0
2.79,312.4542787311926,1.6590631821835264,29.738855434071365,134.96820923488704,8.0064819436082,-0.7123672712987967,135.2073545496501,17.405416218428183,-145.51815394455468,-22.32536646810912,34.12553842522269,-415.1360508337796,-258.293019583743,73.19774909290176,34.84321442044533,13.870171494346124,11164.225293470263,0.3974411733338443,135.2014697698441,2.9128284527950568,1.221506442688912,100968.25239121821,287.9566974396785,0.0,0.1,0.0,401.49552631578945,0.21547973559069317,0.86,nominal,9432.15290879993,nan,pitch_program,11.605,0.0,0.0
2.82,316.49512846479826,1.9198297135870128,29.6955995096564,134.6949911201895,8.692217713449548,-1.4418641471654716,134.98286651966174,17.398951826360463,-157.73765744928193,-31.052744897940368,36.44262107837711,-444.0968133485978,-291.293019583743,78.12501399335665,35.0,19.901228958793926,11127.142855681283,0.39677954752524025,134.97646391249896,3.232140984376705,1.2215115186417402,100968.77055008899,287.9569786031872,0.0,0.1,0.0,401.4615789473684,0.2154615162843948,0.86,nominal,9401.401477863781,nan,pitch_program,11.59,0.0,0.0
2.85,320.52394005555885,2.2001104421877464,29.626545377863078,134.29371969202032,9.342690953357783,-2.301804393110795,134.63798619421274,17.39248798087193,-171.93225242770387,-41.01308110114596,36.518039234851095,-477.0956582769915,-324.29301958374293,85.7653194360645,35.0,27.212987877676674,11070.344536711636,0.39576395339119463,134.63108403426884,3.609970986366811,1.2215196219701718,100969.59774785342,287.95742745504384,0.0,0.1,0.0,401.4276315789474,0.21544329697809647,0.86,nominal,9354.230824446331,nan,pitch_program,11.575,0.0,0.0
2.88,324.53621408711274,2.4973789046244392,29.527379564312632,133.74246771846327,9.90894874788976,-3.3055271183482278,134.14977244200838,17.38602468196259,169.61283529572466,-51.55140160362528,32.05236843365529,-510.0956582769915,-357.29301958374293,97.02839880387388,35.0,29.999999999999996,10990.232571995584,0.39432703538521496,134.1424230304979,3.793254718211767,1.2215312589005476,100970.78566231954,287.9580720328319,0.0,0.1,0.0,401.3936842105263,0.21542507767179808,0.86,nominal,9287.645399925683,nan,pitch_program,11.56,0.0,0.0
2.9099999999999997,328.52889821255474,2.804685566474358,29.394162313416782,133.08947084806573,10.243555394997294,-4.440575029861648,133.55694060715956,17.379561929632434,143.04138251764016,-61.00866114956992,18.810308097574882,-520.0,-390.29301958374293,99.77906699749654,35.0,29.999999999999996,10893.39951171849,0.3925829155399146,133.54930802241302,3.8394907867854506,1.2215468918395227,100972.38149923389,287.95893794496277,0.0,0.1,0.0,401.3597368421053,0.21540685836549975,0.86,nominal,9206.986454023043,nan,pitch_program,11.545,0.0,0.0
2.94,332.50065685105267,3.112668659047188,29.225473057518663,132.39195461659776,10.266103085761003,-5.622975196603993,132.90839089324788,17.37309972388147,103.66125968708886,-65.68065531715526,-7.787047691155419,-520.0,-418.9346407463635,91.53724291111199,35.0,29.999999999999996,10788.020147076837,0.3906755289860712,132.90070409601006,3.8339911135032634,1.2215666876098303,100974.40229191388,287.9600344251261,0.0,0.1,0.0,401.3257894736842,0.21538863905920136,0.86,nominal,9118.924170275703,nan,pitch_program,11.53,0.0,0.0
2.9699999999999998,336.451386235581,3.4117924943079236,29.02297100306078,131.69097948427913,9.970794508691183,-6.750068481929437,132.24028979541035,17.366638064709694,62.10222202743741,-61.76143936441202,-36.70836777703897,-520.0,-441.6847937617089,74.34281395646347,34.84332829336335,29.999999999999996,10680.066081840265,0.38871122980957734,132.23278748582885,3.798729030559062,1.221590451653456,100976.82818420515,287.9613506884801,0.0,0.1,0.0,401.29184210526313,0.215370419752903,0.86,nominal,9028.36524117422,nan,pitch_program,11.515,0.0,0.0
3.0,340.3821634559472,3.693152395340474,28.791383509445364,131.0259073455386,9.378663367751686,-7.719583120513795,131.58776419501092,17.360176952117108,33.502668920261875,-52.01596892202764,-52.25747617098979,-520.0,-431.6785774765027,49.324066348129215,17.8472944526798,29.999999999999996,10575.222503399513,0.3867932694120906,131.58067469491198,3.9274682712277555,1.2216176293682894,100979.60256608042,287.9628560071886,0.0,0.1,0.0,401.2578947368421,0.21535220044660466,0.86,nominal,8940.0168640138,nan,pitch_program,11.5,0.0,0.0
3.03,344.2986181617314,3.944494256088926,28.541204855863104,130.54849019280584,8.378062024948392,-8.339288452741958,131.08258445275268,17.35371638610371,13.612308123976955,-40.800895932645616,-58.28116372290708,-520.0,-402.8178686852997,22.441663579692943,-6.379107659112106,29.999999999999996,10494.545228154797,0.385309323712235,131.07623100474035,3.126424068118675,1.2216469893495585,100982.59973649339,287.96448216843686,0.0,0.1,0.0,401.223947368421,0.21533398114030627,0.86,nominal,8871.21558000627,nan,pitch_program,11.485,0.0,0.0
3.06,348.2073592659795,4.185919851218871,28.257632344305534,130.29137014160392,8.047519837664831,-9.452417051918959,130.88144214149483,17.3472563666695,-2.7846030270017783,-27.964944011559385,-59.85113451716802,-520.0,-435.81786868529963,-2.7569373412435123,-23.791478573809005,29.999999999999996,10462.685079162307,0.3847175318683044,130.8753314917289,3.7250273181784705,1.2216802689551711,100985.99705644551,287.966325389762,0.0,0.1,0.0,401.19,0.21531576183400794,0.86,nominal,8842.08865874801,nan,pitch_program,11.47,0.0,0.0
3.09,352.1029510965939,4.412684647584187,27.938907949912174,129.85306102048054,7.558826545510545,-10.624146479778666,130.50603742186624,17.34079689381448,-17.7365237013157,-14.12994330038804,-58.323283652042925,-520.0,-468.8178686852997,-35.75693734124351,-32.2170636564852,29.999999999999996,10403.123942175473,0.3836136716817378,130.50028367114172,3.3864551774003977,1.2217176747560485,100989.81562145367,287.96839709832557,0.0,0.1,0.0,401.156052631579,0.21529754252770958,0.86,nominal,8789.89999342578,nan,pitch_program,11.455,0.0,0.0
3.12,355.98685044070663,4.6162558160935605,27.59656975078339,129.4633114704238,6.785705616979123,-11.411273304292703,130.1422758984702,17.33433796753865,-32.68931950840164,0.162122078352915,-53.82189811516847,-520.0,-501.8178686852997,-68.7569373412435,-34.503209982521895,29.999999999999996,10345.64075282711,0.3825445932043792,130.13710014792144,3.2301705895713555,1.22175785287168,100993.91722835675,287.97062229661987,0.0,0.1,0.0,401.1221052631579,0.21527932322141122,0.86,nominal,8739.135888763287,nan,pitch_program,11.44,0.0,0.0
3.15,359.8615216991804,4.79322978671732,27.240909032576084,129.15570861579172,5.899132354125319,-11.855357273576864,129.8327629170039,17.32787958784201,-49.15110844493207,13.759663572097105,-45.99204193511962,-520.0,-520.0,-101.7569373412435,-33.168288257555126,29.999999999999996,10296.946096143442,0.38163520336860024,129.82825771068525,3.194786170753711,1.221799595639538,100998.1785972847,287.9729340912882,0.0,0.1,0.0,401.08815789473687,0.21526110391511288,0.86,nominal,8695.415223895781,nan,pitch_program,11.425,0.0,0.0
3.1799999999999997,363.7295707671706,4.943305808641787,26.881687892749152,128.93496893300755,5.002534064148913,-11.974037994231043,129.5863771648312,17.321421754724557,-68.59897572356465,25.147922808521955,-34.24737852411102,-520.0,-520.0,-134.75693734124349,-29.97820566709293,29.999999999999996,10258.362632614655,0.38091140736833934,129.58255530700515,3.2078408782224406,1.2218417573902713,101002.48277339234,287.9752690286971,0.0,0.1,0.0,401.0542105263158,0.2152428846088145,0.86,nominal,8659.933877926369,nan,pitch_program,11.410000000000002,0.0,0.0
