time_s,x_m,y_m,altitude_m,vx_mps,vy_mps,vz_mps,speed_mps,mass_kg,roll_deg,pitch_deg,yaw_deg,p_dps,q_dps,r_dps,alpha_deg,beta_deg,qbar_pa,mach,airspeed_mps,load_factor_g,density_kgpm3,pressure_pa,temperature_k,wind_x_mps,wind_y_mps,wind_z_mps,thrust_n,mass_flow_kgps,propulsion_throttle_actual,propulsion_health,energy_j_per_kg,target_distance_m,guidance_mode,pitch_command_deg,heading_command_deg,roll_command_deg,elevator_command_deg,aileron_command_deg,rudder_command_deg,elevator_deg,aileron_deg,rudder_deg,throttle,elevator_saturated,aileron_saturated,rudder_saturated,elevator_failed,aileron_failed,rudder_failed,elevator_raw_rad,aileron_raw_rad,rudder_raw_rad,elevator_effective_rad,aileron_effective_rad,rudder_effective_rad,sensor_time_s,imu_valid,imu_ax_mps2,imu_ay_mps2,imu_az_mps2,gyro_p_rps,gyro_q_rps,gyro_r_rps,imu_accel_norm_mps2,imu_gyro_norm_rps,gps_valid,gps_latency_s,gps_x_m,gps_y_m,gps_z_m,gps_vx_mps,gps_vy_mps,gps_vz_mps,baro_valid,baro_alt_m,baro_bias_m,pitot_valid,pitot_airspeed_mps,pitot_qbar_pa,pitot_compressibility_factor,mag_valid,mag_heading_deg,mag_x_ut,mag_y_ut,mag_z_ut,radar_valid,radar_agl_m,optical_flow_valid,optical_flow_x_radps,optical_flow_y_radps,optical_flow_quality,horizon_valid,horizon_roll_deg,horizon_pitch_deg
0.0,0.0,0.0,20.0,85.0,0.0,8.0,85.37564055396598,18.01840612980101,0.0,6.000000000000002,0.0,0.0,0.0,0.0,0.623294571949261,0.0,4455.946741876431,0.2509445034436674,85.37564055396597,1.7442355250325887,1.2226496753673843,101084.96761777384,288.02,0.0,0.0,0.0,326.8,0.17539118863220368,0.86,nominal,3840.633,nan,pitch_program,13.0,0.0,0.0,-20.05352282957881,-0.0,0.0,-2.6999999999999997,0.0,0.0,0.86,0.0,0.0,0.0,0.0,0.0,0.0,-0.047123889803846894,0.0,0.0,-0.047123889803846894,0.0,0.0,0.0,1.0,17.09193139522532,-0.009661837054554626,0.16054112424417594,-0.0011846461623943778,0.0013181441023463838,0.0014804783948871505,17.09268807481017,0.0023092653988560762,1.0,0.0,1.69062741851169,-1.0004827618806238,20.718048150427723,85.13084268154867,0.27725161253670577,8.076939739570042,1.0,19.911179626100555,0.0,1.0,85.6461399244302,4459.199975021921,1.0,1.0,0.536223259439391,19.56634421878517,0.01051648236020856,-43.84999618812795,1.0,20.107562645592367,1.0,-0.004597107947264304,4.260987275395636,0.95,1.0,0.45149697114415227,6.28521300696935
0.03,2.565291924701109,0.0,20.23294907555394,85.50973082337029,0.0,7.76496918513128,85.86156772346567,18.013144394142046,0.0,6.265582975204377,0.0,0.0,-8.852781691043555,0.0,1.076897697062698,0.0,4506.713521321092,0.25237345189344096,85.86156772346567,1.7722779351951998,1.2226223201999833,101082.17456690547,288.0184858310089,0.0,0.0,0.0,332.605,0.1785066900092231,0.86,nominal,3884.521856017422,nan,pitch_program,12.985,0.0,0.0,-1.430813724064029,-0.0,0.0,-1.9384882344384171,0.0,0.0,0.86,0.0,0.0,0.0,0.0,0.0,0.0,-0.03383300220212211,0.0,0.0,-0.03383300220212211,0.0,0.0,0.03,1.0,17.398711919184628,0.05753195452303725,0.6819936340645605,-0.000321663341559394,-0.1557830931609727,-0.0026074445027711576,17.41216820759187,0.15580524493399006,1.0,0.0,1.69062741851169,-1.0004827618806238,20.718048150427723,85.13084268154867,0.27725161253670577,8.076939739570042,1.0,19.911179626100555,0.0,1.0,86.29285230577052,4417.01701443229,1.0,1.0,0.536223259439391,19.56634421878517,0.01051648236020856,-43.84999618812795,1.0,20.107562645592367,1.0,-0.004597107947264304,4.260987275395636,0.95,1.0,0.45149697114415227,6.28521300696935
0.06,5.146061394150594,0.0,20.459335152508718,86.02564898164952,0.0,7.546202565159321,86.35599258805607,18.00778919344177,0.0,6.6413065372118085,0.0,0.0,-12.52416361425763,0.0,1.628131310695352,0.0,4558.66671433108,0.25382736645434206,86.35599258805608,1.8008932389896144,1.2225957361729365,101079.46026602437,288.01701432150867,0.0,0.0,0.0,338.40999999999997,0.18162219138624247,0.86,nominal,3929.316267007547,nan,pitch_program,12.97,0.0,0.0,-0.29796752205867416,-0.0,0.0,-0.9541758070105714,0.0,0.0,0.86,0.0,0.0,0.0,0.0,0.0,0.0,-0.016653509475208463,0.0,0.0,-0.016653509475208463,0.0,0.0,0.06,1.0,17.571536128943603,0.025446497799760374,1.0978368942476384,-0.0004956844866855269,-0.2201926263096705,-0.0008876895020184011,17.60581651901984,0.22019497355051623,1.0,0.0,1.69062741851169,-1.0004827618806238,20.718048150427723,85.13084268154867,0.27725161253670577,8.076939739570042,1.0,19.738865034254903,0.0,1.0,86.87704813542295,4559.158950257569,1.0,1.0,-1.0681719167476154,18.97787222576958,0.025985837493484466,-44.02002352673193,1.0,20.439356174421686,1.0,-0.001966200493011985,4.226322731476376,0.9488516621187282,1.0,0.3067786163094261,7.077274670175526
0.09,7.74246198077018,0.0,20.67977771139081,86.54668622065284,0.0,7.34808529606971,86.8580638357456,18.002340527700184,0.0,6.946399106541867,0.0,0.0,-10.169776340702374,0.0,2.093446172297416,0.0,4611.731075971943,0.2553037464998666,86.8580638357456,1.830601016613368,1.222569850505303,101076.81728284952,288.0155814448759,0.0,0.0,0.0,344.215,0.18473769276326188,0.86,nominal,3974.960968740639,nan,pitch_program,12.955,0.0,0.0,-0.710912449414645,-0.0,0.0,-0.8082177924530156,0.0,0.0,0.86,0.0,0.0,0.0,0.0,0.0,0.0,-0.0141060615515053,0.0,0.0,-0.0141060615515053,0.0,0.0,0.09,1.0,17.820478557479927,-0.010262679455118573,1.5665855043427408,0.00022426910296249,-0.17764883090156425,-0.001808129926732801,17.88920768180101,0.17765817389344926,1.0,0.0,1.69062741851169,-1.0004827618806238,20.718048150427723,85.13084268154867,0.27725161253670577,8.076939739570042,1.0,19.738865034254903,0.0,1.0,86.77099274802045,4689.89680455346,1.0,1.0,-1.0681719167476154,18.97787222576958,0.025985837493484466,-44.02002352673193,1.0,20.439356174421686,1.0,-0.001966200493011985,4.226322731476376,0.9488516621187282,1.0,0.3067786163094261,7.077274670175526
0.12,10.35466754680735,0.0,20.89474794634162,87.07351886790569,0.0,7.165674498360435,87.36786926013465,17.996798396917285,0.0,7.124620538905501,0.0,0.0,-5.940719202087215,0.0,2.4200923570951667,0.0,4665.929872971435,0.2568028513201554,87.36786926013465,1.860736689496921,1.2225446078340851,101074.23996367541,288.01418413834875,0.0,0.0,0.0,350.02,0.1878531941402813,0.86,nominal,4021.4797694759814,nan,pitch_program,12.94,0.0,0.0,-1.6634571496878792,-0.0,0.0,-1.3213614067939339,0.0,0.0,0.86,0.0,0.0,0.0,0.0,0.0,0.0,-0.023062107157338314,0.0,0.0,-0.023062107157338314,0.0,0.0,0.12,1.0,18.175068778493525,0.03826482366028904,1.804679833910366,0.003632593288705603,-0.10348378359239287,0.0026263514782552317,18.264486267142107,0.1035808231415723,1.0,0.0,1.69062741851169,-1.0004827618806238,20.718048150427723,85.13084268154867,0.27725161253670577,8.076939739570042,1.0,20.91478228782778,0.0,1.0,87.76201311449122,4637.760328816584,1.0,1.0,-0.8117565960866809,18.70070526931364,-0.004303695944464039,-44.263319410944256,1.0,20.957896897100245,1.0,0.005039761602942089,4.1622079415319195,0.9477631301341459,1.0,-0.22365598916713353,6.934088971447926
0.15,12.982888442743059,0.0,21.10452800574428,87.60736319785694,0.0,6.9926686467553285,87.88599149628189,17.991162801093076,0.0,7.2193625956224245,0.0,0.0,-3.1580692768136602,0.0,2.6557873217307266,0.0,4721.340053080432,0.2583263941850178,87.8859914962819,1.8912128804261736,1.2225199749985993,101071.72492180944,288.01282056796265,0.0,0.0,0.0,355.825,0.1909686955173007,0.86,nominal,4068.9384702097987,nan,pitch_program,12.925,0.0,0.0,-2.301086444091736,-0.0,0.0,-1.9091964291726151,0.0,0.0,0.86,0.0,0.0,0.0,0.0,0.0,0.0,-0.03332176375638085,0.0,0.0,-0.03332176375638085,0.0,0.0,0.15,1.0,18.399336964698048,-0.015001310694163253,1.9280517313190801,0.0013558446973328598,-0.0556261023939109,-0.002698691069447571,18.50008673651205,0.055708029186729104,1.0,0.0,1.69062741851169,-1.0004827618806238,20.718048150427723,85.13084268154867,0.27725161253670577,8.076939739570042,1.0,20.91478228782778,0.0,1.0,88.45163825590367,4756.446590965045,1.0,1.0,-0.8117565960866809,18.70070526931364,-0.004303695944464039,-44.263319410944256,1.0,20.957896897100245,1.0,0.005039761602942089,4.1622079415319195,0.9477631301341459,1.0,-0.22365598916713353,6.934088971447926
0.18,15.62735633115415,0.0,21.30930992846044,88.14892961370302,0.0,6.826064090538659,88.41283245666158,17.985433740227556,0.0,7.289072716732276,0.0,0.0,-2.323670990303702,0.0,2.861047365782847,0.0,4778.0207819069465,0.25987555692162506,88.41283245666155,1.922141375149086,1.2224959294215463,101069.26985121435,288.011489485465,0.0,0.0,0.0,361.63,0.19408419689432013,0.86,nominal,4117.387415714792,nan,pitch_program,12.91,0.0,0.0,-2.465620796032233,-0.0,0.0,-2.243051049288386,0.0,0.0,0.86,0.0,0.0,0.0,0.0,0.0,0.0,-0.03914862610039595,0.0,0.0,-0.03914862610039595,0.0,0.0,0.18,1.0,18.644682353917613,-0.04395796919993218,2.055836483908809,-0.001899657734984098,-0.039260892858056305,-0.0011345426106863091,18.757733765839454,0.03932319410293783,1.0,0.0,1.69062741851169,-1.0004827618806238,20.718048150427723,85.13084268154867,0.27725161253670577,8.076939739570042,1.0,21.70419571837201,0.0,1.0,88.33515060751922,4823.786375814268,1.0,1.0,1.5203080213703033,18.560536770448408,-0.015147402769115479,-44.23276645376845,1.0,21.282326566446528,1.0,0.011750098375205074,4.147740515129702,0.9467267251788489,1.0,-0.11551356021630371,7.842048542238084
0.21,18.28830560439879,0.0,21.509286881178102,88.69830910815467,0.0,6.665898423922036,88.94843585158651,17.979611214320727,0.0,7.358346843569196,0.0,0.0,-2.3091378425278886,0.0,3.060505685152035,0.0,4835.993575243996,0.2614504684951381,88.94843585158651,1.9534632157620626,1.222472448395221,101066.87243260186,288.0101896352723,0.0,0.0,0.0,367.435,0.19719969827133954,0.86,nominal,4166.846168415205,nan,pitch_program,12.895,0.0,0.0,-2.4253825625054217,-0.0,0.0,-2.3524499572186075,0.0,0.0,0.86,0.0,0.0,0.0,0.0,0.0,0.0,-0.041057997241864444,0.0,0.0,-0.041057997241864444,0.0,0.0,0.21,1.0,19.030517806493624,0.05307182285030255,2.3009840275721354,0.003415565051747849,-0.040876227538320785,-0.0011564127705134203,19.16919278678144,0.04103497718877278,1.0,0.0,17.174397865318433,0.7332168394256778,20.309352625192616,88.80993310299473,-0.10731359527186403,6.888144858538226,1.0,21.70419571837201,0.0,1.0,88.44056335016246,4826.014624058919,1.0,1.0,1.5203080213703033,18.560536770448408,-0.015147402769115479,-44.23276645376845,1.0,21.282326566446528,1.0,0.011750098375205074,4.147740515129702,0.9467267251788489,1.0,-0.11551356021630371,7.842048542238084
0.24,20.965967276371366,0.0,21.704675358734846,89.25538906575252,0.0,6.512949251891402,89.49269794366784,17.973695223372587,0.0,7.421404686694326,0.0,0.0,-2.1019283163340745,0.0,3.2479390880941637,0.0,4895.264199843498,0.26305082454522605,89.49269794366784,1.9849956199507162,1.2224495064747676,101064.53006728296,288.0089196101682,0.0,0.0,0.0,373.24,0.20031519964835895,0.86,nominal,4217.3216472250215,nan,pitch_program,12.88,0.0,0.0,-2.436747691808226,-0.0,0.0,-2.4030285979723787,0.0,0.0,0.86,0.0,0.0,0.0,0.0,0.0,0.0,-0.04194076105420114,0.0,0.0,-0.04194076105420114,0.0,0.0,0.24,1.0,19.359988247012772,-0.04615088078125996,2.505999653480626,-0.0010821749791394923,-0.039271887886795635,-0.0005366574244413822,19.52156010905672,0.03929046044614048,1.0,0.0,17.174397865318433,0.7332168394256778,20.309352625192616,88.80993310299473,-0.10731359527186403,6.888144858538226,1.0,22.09613386087174,0.0,1.0,89.41247523754247,4931.271471345621,1.0,1.0,1.998078022549075,18.399924025438082,0.028941062522531938,-44.27700133866324,1.0,21.547376731614452,1.0,-0.007039766846519332,4.10897498580282,0.9457383116031629,1.0,-0.05842185576114896,8.104731158567894
0.27,23.660572820847836,0.0,21.895692069314663,89.82018481588239,0.0,6.367223685993884,90.04558366642281,17.967685767383138,0.0,7.46633392145672,0.0,0.0,-1.4976412354895312,0.0,3.411501558288909,0.0,4955.845980435745,0.26467652256571306,90.0455836664228,2.0165776830298405,1.2224270781922986,101062.24015428056,288.00767800154944,0.0,0.0,0.0,379.045,0.20343070102537836,0.86,nominal,4268.826957544919,nan,pitch_program,12.865,0.0,0.0,-2.5574982563443167,-0.0,0.0,-2.4957103929955413,0.0,0.0,0.86,0.0,0.0,0.0,0.0,0.0,0.0,-0.04355836353401382,0.0,0.0,-0.04355836353401382,0.0,0.0,0.27,1.0,19.574396073711206,-0.015990431710205207,2.69695580221037,0.0013073651574099648,-0.027524911717801626,0.004223097654358798,19.759322051717845,0.02787767067970051,1.0,0.0,17.174397865318433,0.7332168394256778,20.309352625192616,88.80993310299473,-0.10731359527186403,6.888144858538226,1.0,22.09613386087174,0.0,1.0,90.02827640764734,5022.807159593512,1.0,1.0,1.998078022549075,18.399924025438082,0.028941062522531938,-44.27700133866324,1.0,21.547376731614452,1.0,-0.007039766846519332,4.10897498580282,0.9457383116031629,1.0,-0.05842185576114896,8.104731158567894
0.3,26.372359135669893,0.0,22.082530441872155,90.39287716073518,0.0,6.227945751916437,90.60717162390941,17.961582846352375,0.0,7.490094890233844,0.0,0.0,-0.7920323039219993,0.0,3.54872267081602,0.0,5017.765018938314,0.26632779410736546,90.60717162390941,2.048165310973829,1.2224051408151517,101060.00037194132,288.0064635521278,0.0,0.0,0.0,384.84999999999997,0.20654620240239774,0.86,nominal,4321.385422000073,nan,pitch_program,12.850000000000001,0.0,0.0,-2.715410273439125,-0.0,0.0,-2.6275303212616916,0.0,0.0,0.86,0.0,0.0,0.0,0.0,0.0,0.0,-0.045859055302000885,0.0,0.0,-0.045859055302000885,0.0,0.0,0.3,1.0,19.9610323566803,0.021418961511525305,2.729483052051561,0.0008440042852495465,-0.01447105878151626,-0.00027000975640920517,20.14679501180738,0.014498165082525947,1.0,0.0,17.174397865318433,0.7332168394256778,20.309352625192616,88.80993310299473,-0.10731359527186403,6.888144858538226,1.0,20.478297264656216,0.0,1.0,90.68786788172436,5063.767341707437,1.0,1.0,-0.9317448256048663,18.337343257083287,-0.022556346737234723,-44.38088208603988,1.0,22.166171187082448,1.0,0.0012197767910665316,4.079877911658793,0.9447936738953197,1.0,0.04223176827975896,8.116832507711258
0.32999999999999996,29.101569688892763,0.0,22.26535709931905,90.97368510742898,0.0,6.094221914896459,91.17757905742864,17.9553864602803,0.0,7.49783023043643,0.0,0.0,-0.2578446738112447,0.0,3.665378120272724,0.0,5081.052225273534,0.2680049842182304,91.17757905742863,2.0797962346347525,1.2223836747597085,101057.8087201777,288.0052751788544,0.0,0.0,0.0,390.655,0.20966170377941715,0.86,nominal,4375.024025584862,nan,pitch_program,12.835,0.0,0.0,-2.8394276895751585,-0.0,0.0,-2.7546687422497715,0.0,0.0,0.86,0.0,0.0,0.0,0.0,0.0,0.0,-0.048078039354029545,0.0,0.0,-0.048078039354029545,0.0,0.0,0.32999999999999996,1.0,20.19745085637667,0.04095700313404213,2.929130288102079,0.005984539769211666,-0.0027348358241116753,-0.00019692068656961567,20.408784942189314,0.006582766970728924,1.0,0.0,17.174397865318433,0.7332168394256778,20.309352625192616,88.80993310299473,-0.10731359527186403,6.888144858538226,1.0,20.478297264656216,0.0,1.0,90.95558218650868,5069.696235238908,1.0,1.0,-0.9317448256048663,18.337343257083287,-0.022556346737234723,-44.38088208603988,1.0,22.166171187082448,1.0,0.0012197767910665316,4.079877911658793,0.9447936738953197,1.0,0.04223176827975896,8.116832507711258
0.36,31.848452614584623,0.0,22.444321620350046,91.56276418972868,0.0,5.965484034366528,91.75688958235312,17.94909660916692,0.0,7.495781287189683,0.0,0.0,0.06829810823225552,0.0,3.7681232928857162,0.0,5145.735352959655,0.26970833906347014,91.75688958235312,2.111501587085322,1.22236266244499,101055.66340341367,288.0041119094677,0.0,0.0,0.0,396.46,0.21277720515643656,0.86,nominal,4429.766999532278,nan,pitch_program,12.82,0.0,0.0,-2.916905324432183,-0.0,0.0,-2.8520106915592187,0.0,0.0,0.86,0.0,0.0,0.0,0.0,0.0,0.0,-0.04977697686978882,0.0,0.0,-0.04977697686978882,0.0,0.0,0.36,1.0,20.487901310315518,-0.021272921198572183,3.0342662487890713,0.002279898282768594,0.0021934528655469317,-0.0018894412985728166,20.711381516136125,0.0036849911904779046,1.0,0.0,17.174397865318433,0.7332168394256778,20.309352625192616,88.80993310299473,-0.10731359527186403,6.888144858538226,1.0,22.930297627811854,0.0,1.0,91.44374201251715,5151.2010740435735,1.0,1.0,0.2695295900774236,18.400671517294494,0.03224986715806335,-44.361593889303116,1.0,22.353878848282864,1.0,-0.010705898590284608,4.08294873393601,0.9438891959491249,1.0,0.294010427592442,7.805173503280779
0.39,34.61325861176608,0.0,22.619565807399347,92.1601999060486,0.0,5.841472901643428,92.3451420074899,17.942713293012226,0.0,7.487050982046653,0.0,0.0,0.29101017199741497,0.0,3.860272709568599,0.0,5211.837624947377,0.271437973087243,92.3451420074899,2.1432695418536603,1.2223420872043282,101053.56271946365,288.0029728222519,0.0,0.0,0.0,402.265,0.21589270653345596,0.86,nominal,4485.63479121687,nan,pitch_program,12.805,0.0,0.0,-2.9722630805252517,-0.0,0.0,-2.9241621249388383,0.0,0.0,0.86,0.0,0.0,0.0,0.0,0.0,0.0,-0.05103625694229652,0.0,0.0,-0.05103625694229652,0.0,0.0,0.39,1.0,20.742615518464564,0.022061629924572262,3.148558664634144,0.0022195060680429354,0.0031299908084258896,0.0010260904493128225,20.980228953159795,0.003971890136582451,1.0,0.0,17.174397865318433,0.7332168394256778,20.309352625192616,88.80993310299473,-0.10731359527186403,6.888144858538226,1.0,22.930297627811854,0.0,1.0,93.02903090357442,5189.861724252625,1.0,1.0,0.2695295900774236,18.400671517294494,0.03224986715806335,-44.361593889303116,1.0,22.353878848282864,1.0,-0.010705898590284608,4.08294873393601,0.9438891959491249,1.0,0.294010427592442,7.805173503280779
0.42,37.396240147806374,0.0,22.791226440880827,92.76605120134326,0.0,5.722021116049315,92.94235730356075,17.936236511816222,0.0,7.472095652922373,0.0,0.0,0.4985109736397067,0.0,3.9424335090452574,0.0,5279.3806420980145,0.2731939482904001,92.94235730356075,2.1531988418899126,1.2223219329619064,101051.50502650451,288.0018570281342,0.0,0.0,0.0,404.1773684210526,0.21691906078826353,0.86,nominal,4542.646471347841,nan,pitch_program,12.79,0.0,0.0,-3.0273040072869626,-0.0,0.0,-2.9860472543477132,0.0,0.0,0.86,0.0,0.0,0.0,0.0,0.0,0.0,-0.052116356208504154,0.0,0.0,-0.052116356208504154,0.0,0.0,0.42,1.0,20.83989003401405,0.07096470069506991,3.2969930890578563,-0.001368716280149412,0.008647449636981141,0.000989341476205931,21.099199417225247,0.008810820962669292,1.0,0.0,36.45552622645728,-2.1791450494477407,23.155231859791137,92.48002730085682,0.00837115444938616,5.6838760297502695,1.0,22.30630152982978,0.0,1.0,92.9889851880428,5296.350476408499,1.0,1.0,-0.15873729697608352,18.412338492204924,0.027587597927130905,-44.26316021112574,1.0,22.592414256813914,1.0,-0.010964516432769633,4.054175608353941,0.943021933897798,1.0,0.09185947323221498,7.671567592179622
0.44999999999999996,40.19745794230508,0.0,22.959408555769166,93.37392648329025,0.0,5.606070496277901,93.54206633016041,17.929728939992575,0.0,7.450947236920584,0.0,0.0,0.7049472080632331,0.0,4.015094441433049,0.0,5347.644291495754,0.2749572495683255,93.5420663301604,2.1522256213747455,1.2223021873701392,101049.48906338937,288.00076384438745,0.0,0.0,0.0,404.14342105263154,0.21690084148196515,0.86,nominal,4600.213970571499,nan,pitch_program,12.775,0.0,0.0,-3.0855506092182794,-0.0,0.0,-3.045749267270053,0.0,0.0,0.86,0.0,0.0,0.0,0.0,0.0,0.0,-0.05315835290406719,0.0,0.0,-0.05315835290406719,0.0,0.0,0.44999999999999996,1.0,20.8428519816802,-0.0025308593937348888,3.381762301602591,0.0002866724347440576,0.012558600464277866,0.0007097899158355498,21.115416202386825,0.012581908775333899,1.0,0.0,36.45552622645728,-2.1791450494477407,23.155231859791137,92.48002730085682,0.00837115444938616,5.6838760297502695,1.0,22.30630152982978,0.0,1.0,92.94334576790713,5280.994260653128,1.0,1.0,-0.15873729697608352,18.412338492204924,0.027587597927130905,-44.26316021112574,1.0,22.592414256813914,1.0,-0.010964516432769633,4.054175608353941,0.943021933897798,1.0,0.09185947323221498,7.671567592179622
0.48,43.01687792480427,0.0,23.124197041017375,93.98066608330642,0.0,5.492949508273655,94.14105423120344,17.923221914748115,0.0,7.424355397552346,0.0,0.0,0.886394661518908,0.0,4.079356985390452,0.0,5416.264116187145,0.2767184272648974,94.14105423120341,2.151285225483353,1.2222828404475903,101047.51381057556,287.99969271923334,0.0,0.0,0.0,404.1094736842105,0.2168826221756668,0.86,nominal,4658.039952793486,nan,pitch_program,12.76,0.0,0.0,-3.1406052874130723,-0.0,0.0,-3.1026628793558646,0.0,0.0,0.86,0.0,0.0,0.0,0.0,0.0,0.0,-0.054151682824167435,0.0,0.0,-0.054151682824167435,0.0,0.0,0.48,1.0,20.826324772671924,-0.00910854249762346,3.4454348857460886,0.0008111159208016072,0.02011397429550639,-0.0013400088977721003,21.10940330881645,0.020174872858171326,1.0,0.0,36.45552622645728,-2.1791450494477407,23.155231859791137,92.48002730085682,0.00837115444938616,5.6838760297502695,1.0,24.469523354788898,0.0,1.0,94.47055004684123,5495.3468892454375,1.0,1.0,0.7711007157706777,18.43621309007891,0.09265589052709566,-44.363153671797406,1.0,23.304735130222564,1.0,-7.069333768340292e-05,4.062011911820089,0.9421895073974565,1.0,-0.3676081326089581,7.573021422001364
0.51,45.854467900249894,0.0,23.285670099363056,94.58633251485416,0.0,5.382435278189419,94.73935247896966,17.916715436082846,0.0,7.393534552144817,0.0,0.0,1.0273615383577381,0.0,4.136630651746498,0.0,5485.242185722325,0.2784775739215044,94.73935247896968,2.150379455114531,1.2222638829985906,101045.57832876865,287.9986431443541,0.0,0.0,0.0,404.0755263157895,0.21686440286936848,0.86,nominal,4716.126870747146,nan,pitch_program,12.745,0.0,0.0,-3.187917557104331,-0.0,0.0,-3.153815686004944,0.0,0.0,0.86,0.0,0.0,0.0,0.0,0.0,0.0,-0.05504446772182992,0.0,0.0,-0.05504446772182992,0.0,0.0,0.51,1.0,20.781206071190713,0.0620221780098486,3.5956872280388543,0.0009485868963498388,0.017398853480030983,9.367645734380226e-06,21.090076793737396,0.017424695327961964,1.0,0.0,36.45552622645728,-2.1791450494477407,23.155231859791137,92.48002730085682,0.00837115444938616,5.6838760297502695,1.0,24.469523354788898,0.0,1.0,95.21597007322869,5509.507468475858,1.0,1.0,0.7711007157706777,18.43621309007891,0.09265589052709566,-44.363153671797406,1.0,23.304735130222564,1.0,-7.069333768340292e-05,4.062011911820089,0.9421895073974565,1.0,-0.3676081326089581,7.573021422001364
0.54,48.710197144343915,0.0,23.44390092824756,95.19097480313415,0.0,5.274360962816904,95.33698425866538,17.910209503996764,0.0,7.3595372449878935,0.0,0.0,1.133243605146971,0.0,4.188123831510496,0.0,5554.579699012865,0.28023475771192735,95.33698425866537,2.149507856623255,1.2222453064158199,101043.68173876483,287.99761464396636,0.0,0.0,0.0,404.0415789473684,0.2168461835630701,0.86,nominal,4774.476414806504,nan,pitch_program,12.73,0.0,0.0,-3.228248841343161,-0.0,0.0,-3.1984755792078743,0.0,0.0,0.86,0.0,0.0,0.0,0.0,0.0,0.0,-0.05582392990181009,0.0,0.0,-0.05582392990181009,0.0,0.0,0.54,1.0,20.692890851648993,-0.006798117578490514,3.652665533754621,0.0029703646449109012,0.020501902467324144,0.004023907341588521,21.012799516345748,0.021103149082473415,1.0,0.0,36.45552622645728,-2.1791450494477407,23.155231859791137,92.48002730085682,0.00837115444938616,5.6838760297502695,1.0,22.784277621033056,0.0,1.0,95.4565418947163,5554.329871726109,1.0,1.0,0.39750904390493474,18.4921739688063,-0.04124921922428037,-44.349927224268775,1.0,23.78428170409337,1.0,0.00013901196790651704,4.065930271634582,0.9413902476793811,1.0,0.10713613520819604,7.737781053168342
0.57,51.58403607245597,0.0,23.59895898427132,95.79463093706858,0.0,5.168601867458647,95.93396563070596,17.903704118489873,0.0,7.323018518072695,0.0,0.0,1.217290938382935,0.0,4.234617810459862,0.0,5624.2770896488255,0.28199002586203853,95.93396563070597,2.1486652463725133,1.2222271025318108,101041.82320628833,287.9966067666022,0.0,0.0,0.0,404.0076315789474,0.21682796425677175,0.86,nominal,4833.08961193984,nan,pitch_program,12.715,0.0,0.0,-3.2645463486240294,-0.0,0.0,-3.238118040857567,0.0,0.0,0.86,0.0,0.0,0.0,0.0,0.0,0.0,-0.056515821381192814,0.0,0.0,-0.056515821381192814,0.0,0.0,0.57,1.0,20.754694133639685,-0.02624420120003187,3.7204187162265114,0.0012460301353090255,0.021893011630446067,-0.00042080677667980844,21.085528989406043,0.021932478831455524,1.0,0.0,36.45552622645728,-2.1791450494477407,23.155231859791137,92.48002730085682,0.00837115444938616,5.6838760297502695,1.0,22.784277621033056,0.0,1.0,96.07586261911904,5699.405647876575,1.0,1.0,0.39750904390493474,18.4921739688063,-0.04124921922428037,-44.349927224268775,1.0,23.78428170409337,1.0,0.00013901196790651704,4.065930271634582,0.9413902476793811,1.0,0.10713613520819604,7.737781053168342
0.6,54.47595606531807,0.0,23.75091053531916,96.39733309540337,0.0,5.065051701594679,96.53030910882849,17.89719927956217,0.0,7.284396747928107,0.0,0.0,1.287392386900057,0.0,4.276642808730423,0.0,5694.334421752667,0.2837434151685643,96.53030910882848,2.14784570799025,1.222209263554081,101040.00193536746,287.99561908152043,0.0,0.0,0.0,403.9736842105263,0.21680974495047337,0.86,nominal,4891.967155124176,nan,pitch_program,12.7,0.0,0.0,-3.2985492621010906,-0.0,0.0,-3.2743767736036813,0.0,0.0,0.86,0.0,0.0,0.0,0.0,0.0,0.0,-0.05714865565021319,0.0,0.0,-0.05714865565021319,0.0,0.0,0.6,1.0,20.696198240124584,0.021879604234394782,3.8712878442516097,-0.003742297572952199,0.018926331811782608,0.00394597604947069,21.055164921811173,0.019692169864116413,1.0,0.0,36.45552622645728,-2.1791450494477407,23.155231859791137,92.48002730085682,0.00837115444938616,5.6838760297502695,1.0,23.951675273331823,0.0,1.0,96.8403230351734,5612.887705813945,1.0,1.0,0.10619213573177345,18.483746728560003,0.06835251100139483,-44.27783217386081,1.0,23.889350488981588,1.0,0.0015544963208671307,4.060442236007222,0.9406227236617021,1.0,-0.2614317798021988,7.105119139206087
0.63,57.38592937045985,0.0,23.89981892006844,96.99911017139249,0.0,4.96361282497605,97.12602548399788,17.890694987213656,0.0,7.244059171515974,0.0,0.0,1.3445859359412706,0.0,4.314689801505088,0.0,5764.751593419421,0.2854949573607286,97.12602548399788,2.14704596802992,1.2221917820346293,101038.21716521888,287.99465117701953,0.0,0.0,0.0,403.9397368421053,0.21679152564417503,0.86,nominal,4951.109572371592,nan,pitch_program,12.685,0.0,0.0,-3.33030125495186,-0.0,0.0,-3.3079314624125886,0.0,0.0,0.86,0.0,0.0,0.0,0.0,0.0,0.0,-0.057734295449410715,0.0,0.0,-0.057734295449410715,0.0,0.0,0.63,1.0,20.74294209653409,0.010714806184717731,3.9123895720706052,0.0006979459869648192,0.024611807669246297,0.00079979713402679,21.108684321645544,0.024634688567227486,1.0,0.0,57.00204960542456,-1.1257929309267303,24.303316845899978,97.12324805712822,0.08862701668725574,5.0109021516203756,1.0,23.951675273331823,0.0,1.0,97.60983197199968,5809.539806742694,1.0,1.0,0.10619213573177345,18.483746728560003,0.06835251100139483,-44.27783217386081,1.0,23.889350488981588,1.0,0.0015544963208671307,4.060442236007222,0.9406227236617021,1.0,-0.2614317798021988,7.105119139206087
0.6599999999999999,60.31392899422375,0.0,24.04574489426879,97.59998745879666,0.0,4.864199140011642,97.72112353647474,17.88419124144433,0.0,7.2024121046862835,0.0,0.0,1.388235622112797,0.0,4.349259301616196,0.0,5835.528295861107,0.2872446782546599,97.72112353647474,2.1462651633616447,1.222174650829251,101036.46816609305,287.9937026581872,0.0,0.0,0.0,403.9057894736842,0.21677330633787664,0.86,nominal,5010.517196782858,nan,pitch_program,12.67,0.0,0.0,-3.3594165852599076,-0.0,0.0,-3.33882253612098,0.0,0.0,0.86,0.0,0.0,0.0,0.0,0.0,0.0,-0.058273446395098405,0.0,0.0,-0.058273446395098405,0.0,0.0,0.6599999999999999,1.0,20.682027581454975,-0.030961489720738915,4.022340068310929,-6.281862588639059e-05,0.022674864034278885,0.0008581031323225626,21.069562005866416,0.022691182122985445,1.0,0.0,57.00204960542456,-1.1257929309267303,24.303316845899978,97.12324805712822,0.08862701668725574,5.0109021516203756,1.0,23.81911593747479,0.0,1.0,97.92112257799977,5799.580779545691,1.0,1.0,0.12376178465106247,18.625014497483804,-0.011475625631713745,-44.203757255662026,1.0,24.24427023899329,1.0,-0.0002726065503460053,4.065863663818155,0.939885637764328,1.0,0.044849824191745005,6.970458560329721
0.69,63.25992857263808,0.0,24.18874708966302,98.19998594714431,0.0,4.766739846474391,98.3156093852004,17.877688042254196,0.0,7.159826397624101,0.0,0.0,1.419523634089155,0.0,4.380804917506727,0.0,5906.663927664106,0.28899259584211956,98.3156093852004,2.145502917781865,1.222157863043627,101034.75423376913,287.9927731439172,0.0,0.0,0.0,403.8718421052631,0.21675508703157828,0.86,nominal,5070.190101038497,nan,pitch_program,12.655,0.0,0.0,-3.385983687313626,-0.0,0.0,-3.367119226836568,0.0,0.0,0.86,0.0,0.0,0.0,0.0,0.0,0.0,-0.05876731681550392,0.0,0.0,-0.05876731681550392,0.0,0.0,0.69,1.0,20.64703613905943,0.005756328250635014,4.0568428732943564,0.00013327388622671582,0.021793107840838905,-0.003503236103511003,21.04181809068647,0.022073286445115668,1.0,0.0,57.00204960542456,-1.1257929309267303,24.303316845899978,97.12324805712822,0.08862701668725574,5.0109021516203756,1.0,23.81911593747479,0.0,1.0,98.31734909822013,5865.518729722178,1.0,1.0,0.12376178465106247,18.625014497483804,-0.011475625631713745,-44.203757255662026,1.0,24.24427023899329,1.0,-0.0002726065503460053,4.065863663818155,0.939885637764328,1.0,0.044849824191745005,6.970458560329721
0.72,66.22390225125575,0.0,24.32888243636171,98.79912262058882,0.0,4.671178223289661,98.90948658542254,17.871185389643248,0.0,7.116596260620428,0.0,0.0,1.4410046351506516,0.0,4.409693255494989,0.0,5978.157596694602,0.2907387205785606,98.90948658542253,2.144758321665065,1.2221414119837082,101033.07468448867,287.9918622641636,0.0,0.0,0.0,403.8378947368421,0.21673686772527995,0.86,nominal,5130.128103240488,nan,pitch_program,12.64,0.0,0.0,-3.41047685579187,-0.0,0.0,-3.3931338042097487,0.0,0.0,0.86,0.0,0.0,0.0,0.0,0.0,0.0,-0.05922135684418075,0.0,0.0,-0.05922135684418075,0.0,0.0,0.72,1.0,20.565612588550884,0.023171463688753044,4.121807947146538,0.0038966959207656334,0.023006491009239866,0.00423454597952149,20.974609860787695,0.023715274556914325,1.0,0.0,57.00204960542456,-1.1257929309267303,24.303316845899978,97.12324805712822,0.08862701668725574,5.0109021516203756,1.0,25.019558657310363,0.0,1.0,98.61886947082071,5942.62205691093,1.0,1.0,0.2841556254165627,18.71969923736988,0.02455445569068346,-44.18596304725515,1.0,24.937374986278847,1.0,-0.016112601287739118,4.052243397842976,0.9391777939090957,1.0,-0.4591122962420326,7.704365750262039
0.75,69.20582459274632,0.0,24.46620646768639,99.39741138301915,0.0,4.577467710822737,99.50275674718148,17.86468328361149,0.0,7.072950384748852,0.0,0.0,1.454862599405426,0.0,4.436217644960584,0.0,6050.008185848784,0.2924830572018973,99.50275674718148,2.144030255421472,1.2221252911199159,101031.4288512999,287.99096965796,0.0,0.0,0.0,403.80394736842106,0.21671864841898159,0.86,nominal,5190.330823800722,nan,pitch_program,12.625,0.0,0.0,-3.433314266614737,-0.0,0.0,-3.417242081652742,0.0,0.0,0.86,0.0,0.0,0.0,0.0,0.0,0.0,-0.05964212566254525,0.0,0.0,-0.05964212566254525,0.0,0.0,0.75,1.0,20.578052331758876,-0.014041409999630078,4.239992571788742,0.0015508301705971503,0.02565080133546339,-0.0011737506027954252,21.01033012445605,0.025724431458187903,1.0,0.0,57.00204960542456,-1.1257929309267303,24.303316845899978,97.12324805712822,0.08862701668725574,5.0109021516203756,1.0,25.019558657310363,0.0,1.0,99.58882165082731,6064.881219615369,1.0,1.0,0.2841556254165627,18.71969923736988,0.02455445569068346,-44.18596304725515,1.0,24.937374986278847,1.0,-0.016112601287739118,4.052243397842976,0.9391777939090957,1.0,-0.4591122962420326,7.704365750262039
0.78,72.20567050633788,0.0,24.60077354082601,99.9948637863854,0.0,4.485569104654045,100.09542004432768,17.85818172415892,0.0,7.029081846045056,0.0,0.0,1.4622846948950365,0.0,4.460629909188393,0.0,6122.214408159898,0.29422560622927496,100.09542004432768,2.1433179833158693,1.2221094940612036,101029.816081409,287.9900949719846,0.0,0.0,0.0,403.77,0.21670042911268322,0.86,nominal,5250.79773276934,nan,pitch_program,12.61,0.0,0.0,-3.4546847227832327,-0.0,0.0,-3.439707666331036,0.0,0.0,0.86,0.0,0.0,0.0,0.0,0.0,0.0,-0.06003422408356708,0.0,0.0,-0.06003422408356708,0.0,0.0,0.78,1.0,20.54770327332033,0.055040887884968116,4.279253355205203,0.00015682338540270376,0.026044379551797878,-0.0002789418273333275,20.988643324088223,0.026046345393458802,1.0,0.0,57.00204960542456,-1.1257929309267303,24.303316845899978,97.12324805712822,0.08862701668725574,5.0109021516203756,1.0,25.319965956852045,0.0,1.0,99.61921658334738,6105.485525695479,1.0,1.0,0.08852130913396003,18.684839031556923,0.017328509694324697,-44.2442059943627,1.0,24.658662426714955,1.0,0.005867589858115465,4.0488224286127705,0.938498066147935,1.0,-0.1752342574868388,7.117259589531485
0.8099999999999999,75.22341518622002,0.0,24.73263703198444,100.59148932940481,0.0,4.395449705280865,100.68747540592828,17.851680711285542,0.0,6.985162805004366,0.0,0.0,1.4639681063717078,0.0,4.4831557394615285,0.0,6194.7748250567065,0.2959663645201924,100.68747540592828,2.1426212380149776,1.2220940145321384,101028.23573383957,287.9892378592921,0.0,0.0,0.0,403.73605263157896,0.21668220980638486,0.86,nominal,5311.528166759417,nan,pitch_program,12.595,0.0,0.0,-3.4746661408903186,-0.0,0.0,-3.4606827510666056,0.0,0.0,0.86,0.0,0.0,0.0,0.0,0.0,0.0,-0.060400308373087574,0.0,0.0,-0.060400308373087574,0.0,0.0,0.8099999999999999,1.0,20.573478672732687,0.04388955481430327,4.361637375783049,-0.0014401160651762062,0.027133867106852606,-0.0011375196315986567,21.03078295233528,0.02719585684191231,1.0,0.0,57.00204960542456,-1.1257929309267303,24.303316845899978,97.12324805712822,0.08862701668725574,5.0109021516203756,1.0,25.319965956852045,0.0,1.0,99.9645792432033,6143.789130547983,1.0,1.0,0.08852130913396003,18.684839031556923,0.017328509694324697,-44.2442059943627,1.0,24.658662426714955,1.0,0.005867589858115465,4.0488224286127705,0.938498066147935,1.0,-0.1752342574868388,7.117259589531485
0.84,78.25903405403551,0.0,24.861849524071108,101.18729559384967,0.0,4.307083069555623,101.27892058155616,17.84518024499135,0.0,6.9413429335512875,0.0,0.0,1.4606624529669765,0.0,4.503993427087791,0.0,6267.68784985326,0.2977053254689137,101.27892058155618,2.141939933605726,1.2220788463508439,101026.68717718028,287.98839797809353,0.0,0.0,0.0,403.7021052631579,0.2166639905000865,0.86,nominal,5372.521333717812,nan,pitch_program,12.58,0.0,0.0,-3.493362049913979,-0.0,0.0,-3.4802903303750297,0.0,0.0,0.86,0.0,0.0,0.0,0.0,0.0,0.0,-0.060742525190365486,0.0,0.0,-0.060742525190365486,0.0,0.0,0.84,1.0,20.621077858557673,0.043782391782156045,4.4866995844964155,0.0006322999932098888,0.024669096611756983,0.002463642301123623,21.103583631886977,0.02479987226397545,1.0,0.0,76.19404929205231,-0.12743431170227212,26.747338829159585,100.77153654514053,-0.14693352719364414,4.222122871200665,1.0,26.083040102535072,0.0,1.0,101.29992716618563,6256.814542502087,1.0,1.0,-1.6681376886332782,18.806514931121278,0.040307693089152614,-44.20093536125607,1.0,24.52585627306577,1.0,-0.007384932870974474,4.06014850003465,0.9378453761898222,1.0,0.8382070423224232,7.607106657615703
0.87,81.31250270771923,0.0,24.988462973442388,101.78228845612396,0.0,4.220448312376024,101.8697522688804,17.83868032527635,0.0,6.897746502587259,0.0,0.0,1.4532144355816874,0.0,4.523311498662842,0.0,6340.951759296095,0.2994424793799662,101.8697522688804,2.1412739576418653,1.2220639834094116,101025.16978758454,287.9875749906726,0.0,0.0,0.0,403.66815789473685,0.21664577119378817,0.86,nominal,5433.7763240800405,nan,pitch_program,12.565,0.0,0.0,-3.5109143992766065,-0.0,0.0,-3.498664771715976,0.0,0.0,0.86,0.0,0.0,0.0,0.0,0.0,0.0,-0.061063219689979555,0.0,0.0,-0.061063219689979555,0.0,0.0,0.87,1.0,20.396403083661607,-0.033126572136977624,4.571991070720892,0.0012868280260389833,0.027581245887702336,-0.0013910370518627915,20.90257061874768,0.027646266206599247,1.0,0.0,76.19404929205231,-0.12743431170227212,26.747338829159585,100.77153654514053,-0.14693352719364414,4.222122871200665,1.0,26.083040102535072,0.0,1.0,101.60768039640472,6302.314122617946,1.0,1.0,-1.6681376886332782,18.806514931121278,0.040307693089152614,-44.20093536125607,1.0,24.52585627306577,1.0,-0.007384932870974474,4.06014850003465,0.9378453761898222,1.0,0.8382070423224232,7.607106657615703
0.8999999999999999,84.3837968787425,0.0,25.11252884552707,102.37647236744225,0.0,4.13552906948934,102.45996630433888,17.832180952140536,0.0,6.854475474707361,0.0,0.0,1.44236766455235,0.0,4.541252527123389,0.0,6414.5647135867885,0.3011778140289865,102.45996630433888,2.1406231864200067,1.2220494196579685,101023.68294714323,287.98676856250404,0.0,0.0,0.0,403.6342105263158,0.2166275518874898,0.86,nominal,5495.292128546116,nan,pitch_program,12.55,0.0,0.0,-3.5274517972370387,-0.0,0.0,-3.5159369870286135,0.0,0.0,0.86,0.0,0.0,0.0,0.0,0.0,0.0,-0.061364676716298465,0.0,0.0,-0.061364676716298465,0.0,0.0,0.8999999999999999,1.0,20.45319853251259,0.0038134257027515645,4.629605686058183,0.0005753690442417248,0.02956265631383487,0.0006002486082128529,20.970612617684136,0.029574346928692336,1.0,0.0,76.19404929205231,-0.12743431170227212,26.747338829159585,100.77153654514053,-0.14693352719364414,4.222122871200665,1.0,24.8325819567028,0.0,1.0,102.41260186534114,6368.378528918976,1.0,1.0,0.4710190413002201,18.824371186270856,-0.04465604036652868,-44.110195029619305,1.0,25.04732373507237,1.0,0.01644797499528611,4.066318324569197,0.9372186778861823,1.0,0.26404776655529233,6.6024513759022065
0.9299999999999999,87.47289239665048,0.0,25.234098224440494,102.96985059693273,0.0,4.052312630447447,103.04955783315876,17.82568212558391,0.0,6.811615209773,0.0,0.0,1.428675564433912,0.0,4.557939434224681,0.0,6488.524774649011,0.30291131516279196,103.04955783315876,2.1399875676439026,1.2220351490917907,101022.22604256899,287.98597836154113,0.0,0.0,0.0,403.6002631578947,0.21660933258119142,0.86,nominal,5557.067654157475,nan,pitch_program,12.535000000000002,0.0,0.0,-3.5430645519281967,-0.0,0.0,-3.5322135259683636,0.0,0.0,0.86,0.0,0.0,0.0,0.0,0.0,0.0,-0.06164875591162617,0.0,0.0,-0.06164875591162617,0.0,0.0,0.9299999999999999,1.0,20.41103221481138,-0.014501992150463506,4.723887433872153,0.004580795331281981,0.023609200584289603,-0.0020706911156415965,20.950550323791965,0.02413847136404276,1.0,0.0,76.19404929205231,-0.12743431170227212,26.747338829159585,100.77153654514053,-0.14693352719364414,4.222122871200665,1.0,24.8325819567028,0.0,1.0,103.13535701116574,6458.947142170704,1.0,1.0,0.4710190413002201,18.824371186270856,-0.04465604036652868,-44.110195029619305,1.0,25.04732373507237,1.0,0.01644797499528611,4.066318324569197,0.9372186778861823,1.0,0.26404776655529233,6.6024513759022065
0.96,90.57976515863258,0.0,25.35322190631636,103.56242539940347,0.0,3.970789395862223,103.63852142438785,17.819183845606474,0.0,6.769238128973264,0.0,0.0,1.412569424385151,0.0,4.5734795492100515,0.0,6562.829918179907,0.3046429668377757,103.63852142438786,2.1393671296641292,1.2220211657403373,101020.79846407595,287.98520405760894,0.0,0.0,0.0,403.56631578947366,0.21659111327489305,0.86,nominal,5619.101735124227,nan,pitch_program,12.520000000000001,0.0,0.0,-3.557819639843439,-0.0,0.0,-3.5475771942934085,0.0,0.0,0.86,0.0,0.0,0.0,0.0,0.0,0.0,-0.06191690250908257,0.0,0.0,-0.06191690250908257,0.0,0.0,0.96,1.0,20.43466876951231,-0.031543971134591134,4.691882336085574,-0.0004196588666341469,0.023744739513675332,-0.0009938303621426583,20.966412249058457,0.023769233620909106,1.0,0.0,76.19404929205231,-0.12743431170227212,26.747338829159585,100.77153654514053,-0.14693352719364414,4.222122871200665,1.0,26.018069810026926,0.0,1.0,104.1472177927906,6521.63542166065,1.0,1.0,1.8628581169991358,18.98619718048686,0.03053839157658084,-44.10661580639369,1.0,24.994023724795195,1.0,-0.010615276861021337,4.070455047018734,0.9366169452342091,1.0,0.2144339504985059,6.502494738552224
0.99,93.70439110292963,0.0,25.469950480690105,104.15419814323494,0.0,3.890952479124814,104.2268511567679,17.812686112208226,0.0,6.727405013063728,0.0,0.0,1.394437258930499,0.0,4.587966207241081,0.0,6637.478042494931,0.30637275167256484,104.2268511567679,2.1387619315555684,1.2220074636576839,101019.39960440298,287.9844453218755,0.0,0.0,0.0,403.53236842105264,0.21657289396859472,0.86,nominal,5681.3931409089855,nan,pitch_program,12.505,0.0,0.0,-3.5717797009932615,-0.0,0.0,-3.5620986983133203,0.0,0.0,0.86,0.0,0.0,0.0,0.0,0.0,0.0,-0.06217035056657162,0.0,0.0,-0.06217035056657162,0.0,0.0,0.99,1.0,20.419091398061262,-0.001183360057617413,4.829846505416236,0.002224024505172299,0.025120734722418464,0.001122722981186056,20.982533502620743,0.025243971654361576,1.0,0.0,76.19404929205231,-0.12743431170227212,26.747338829159585,100.77153654514053,-0.14693352719364414,4.222122871200665,1.0,26.018069810026926,0.0,1.0,104.58085813795388,6589.268609265976,1.0,1.0,1.8628581169991358,18.98619718048686,0.03053839157658084,-44.10661580639369,1.0,24.994023724795195,1.0,-0.010615276861021337,4.070455047018734,0.9366169452342091,1.0,0.2144339504985059,6.502494738552224
1.02,96.8467461859283,0.0,25.584334399630187,104.74516943328877,0.0,3.812797298002727,104.8145407033014,17.80618892538917,0.0,6.686165945304985,0.0,0.0,1.374635651302367,0.0,4.601479987169442,0.0,6712.466977586285,0.3081006510968081,104.8145407033014,2.138172027395571,1.2219940369143982,101018.02885798362,287.98370182640235,0.0,0.0,0.0,403.49842105263156,0.21655467466229633,0.86,nominal,5743.940584362147,nan,pitch_program,12.49,0.0,0.0,-3.5850054781144687,-0.0,0.0,-3.5758427661940093,0.0,0.0,0.86,0.0,0.0,0.0,0.0,0.0,0.0,-0.062410229803707244,0.0,0.0,-0.062410229803707244,0.0,0.0,1.02,1.0,20.371740711790657,0.04893768703704143,4.885316192944482,-0.00033061017406035056,0.024824546417622995,0.0003999735641282324,20.949380153853884,0.02482996952837261,1.0,0.0,76.19404929205231,-0.12743431170227212,26.747338829159585,100.77153654514053,-0.14693352719364414,4.222122871200665,1.0,26.30750725478063,0.0,1.0,104.73284828038273,6750.52823793523,1.0,1.0,0.5182594782204969,19.004718194096593,-0.0010167235316687591,-44.088274642720606,1.0,25.425045064152794,1.0,-0.009175992789471798,4.086770340346906,0.9360391640009246,1.0,-0.19546263055611612,6.5620521235778595
1.05,100.00680636281302,0.0,25.696424034619472,105.33533922949069,0.0,3.7363211663095592,105.40158341528694,17.7996922851493,0.0,6.64556186333568,0.0,0.0,1.3534694556217273,0.0,4.61409054765171,0.0,6787.794494487442,0.30982664559836837,105.40158341528694,2.1375974666200355,1.2219808795908507,101016.68562026307,287.98297324377495,0.0,0.0,0.0,403.46447368421053,0.216536455355998,0.86,nominal,5806.742729983946,nan,pitch_program,12.475,0.0,0.0,-3.5975498786538465,-0.0,0.0,-3.5888670336699118,0.0,0.0,0.86,0.0,0.0,0.0,0.0,0.0,0.0,-0.06263754615382215,0.0,0.0,-0.06263754615382215,0.0,0.0,1.05,1.0,20.292589027044777,5.794516439156008e-05,4.998316591822546,-0.000921107930634753,0.025924242858350627,0.0015491330192074966,20.899098980003522,0.025986816286529227,1.0,0.0,97.96531463942854,-0.8779446915809588,26.554596424656477,105.40592242103214,0.10299639200278086,3.93652608942425,1.0,26.30750725478063,0.0,1.0,104.87650761503008,6818.028387030803,1.0,1.0,0.5182594782204969,19.004718194096593,-0.0010167235316687591,-44.088274642720606,1.0,25.425045064152794,1.0,-0.009175992789471798,4.086770340346906,0.9360391640009246,1.0,-0.19546263055611612,6.5620521235778595
1.08,103.18454757126409,0.0,25.806269723114315,105.92470694836888,0.0,3.6615229498280706,105.98797239503142,17.79319619148862,0.0,6.605626223156831,0.0,0.0,1.3311880598549266,0.0,4.625858530358518,0.0,6863.458313541558,0.3115507149372039,105.98797239503142,2.1370383031170035,1.2219679857717376,101015.36928713851,287.98225924679974,0.0,0.0,0.0,403.43052631578945,0.21651823604969964,0.86,nominal,5869.798201185151,nan,pitch_program,12.46,0.0,0.0,-3.6094561131662273,-0.0,0.0,-3.6012204813677013,0.0,0.0,0.86,0.0,0.0,0.0,0.0,0.0,0.0,-0.0628531544901215,0.0,0.0,-0.0628531544901215,0.0,0.0,1.08,1.0,20.337815310077385,0.08267553498664157,5.045778941912153,-0.0003890131623919345,0.02084354100191039,-0.001150061626699707,20.954556830473592,0.02087886909016005,1.0,0.0,97.96531463942854,-0.8779446915809588,26.554596424656477,105.40592242103214,0.10299639200278086,3.93652608942425,1.0,25.317824148552692,0.0,1.0,106.47966783864038,6830.098249310818,1.0,1.0,-0.15949055387060507,19.094174007462602,0.02013237780735231,-44.05514550146953,1.0,25.8202298141873,1.0,-0.0003266118242591075,4.0973952534317,0.9354843256922142,1.0,-0.11606201133487654,6.325142302595286
1.1099999999999999,106.37994571761517,0.0,25.913921807023115,106.51327154503609,0.0,3.588402796959989,106.57370055440425,17.786700644407127,0.0,6.566386208725798,0.0,0.0,1.3080005321601367,0.0,4.636836959943496,0.0,6939.4561111456305,0.31327283831761016,106.57370055440425,2.1364945920569918,1.2219553495415565,101014.07925449705,287.98155950825435,0.0,0.0,0.0,403.3965789473684,0.21650001674340127,0.86,nominal,5933.105586218756,nan,pitch_program,12.445,0.0,0.0,-3.6207608082907172,-0.0,0.0,-3.612944677521511,0.0,0.0,0.86,0.0,0.0,0.0,0.0,0.0,0.0,-0.06305778031515513,0.0,0.0,-0.06305778031515513,0.0,0.0,1.1099999999999999,1.0,20.288918132832965,0.05640087162536462,5.172733211163095,0.0006646711071686702,0.021308033233312856,-0.000814936039773996,20.93801683381184,0.021333967954920915,1.0,0.0,97.96531463942854,-0.8779446915809588,26.554596424656477,105.40592242103214,0.10299639200278086,3.93652608942425,1.0,25.317824148552692,0.0,1.0,106.77140739216209,6959.536611953616,1.0,1.0,-0.15949055387060507,19.094174007462602,0.02013237780735231,-44.05514550146953,1.0,25.8202298141873,1.0,-0.0003266118242591075,4.0973952534317,0.9354843256922142,1.0,-0.11606201133487654,6.325142302595286
1.14,109.5929766650907,0.0,26.019430664376276,107.10103158251768,0.0,3.516961911771997,107.15876066439134,17.780205643904825,0.0,6.527863548664887,0.0,0.0,1.284088717069842,0.0,4.647072221646393,0.0,7015.78552557347,0.314992994533988,107.15876066439132,2.1359663797500654,1.221942964980878,101012.81491783466,287.9808737006815,0.0,0.0,0.0,403.3626315789474,0.21648179743710294,0.86,nominal,5996.663443288958,nan,pitch_program,12.43,0.0,0.0,-3.631496826711381,-0.0,0.0,-3.6240759670354334,0.0,0.0,0.86,0.0,0.0,0.0,0.0,0.0,0.0,-0.06325205796716579,0.0,0.0,-0.06325205796716579,0.0,0.0,1.14,1.0,20.303505835403005,0.004079694276541784,5.181284355202257,0.0035575973005785373,0.020057417415325685,0.0028540129250016247,20.954189877483046,0.02056944048100896,1.0,0.0,97.96531463942854,-0.8779446915809588,26.554596424656477,105.40592242103214,0.10299639200278086,3.93652608942425,1.0,25.765814007381923,0.0,1.0,106.90651303535726,7020.829942898989,1.0,1.0,0.013900480334009655,19.12867996453544,0.028979464710833323,-44.07269287135632,1.0,25.89410303308492,1.0,0.005071488108486072,4.101331585630579,0.9349514233390593,1.0,0.9447600011083598,6.9456939743436665
1.17,112.82361622390094,0.0,26.122846734808213,107.6879852936748,0.0,3.4472023477312597,107.74314539977438,17.77371118998171,0.0,6.490075239940446,0.0,0.0,1.2596103364735334,0.0,4.656604929206159,0.0,7092.444162374719,0.31671116210226424,107.74314539977438,2.1354536980731784,1.221930826163348,101011.57567194996,287.98020149622374,0.0,0.0,0.0,403.3286842105263,0.21646357813080455,0.86,nominal,6060.470305250368,nan,pitch_program,12.415,0.0,0.0,-3.641693639982364,-0.0,0.0,-3.634646570803592,0.0,0.0,0.86,0.0,0.0,0.0,0.0,0.0,0.0,-0.06343654980684388,0.0,0.0,-0.06343654980684388,0.0,0.0,1.17,1.0,20.34482593653856,0.05076687125300122,5.2638199386198385,0.002931096139576603,0.02143823268113556,-0.0002422004008021685,21.014811919441026,0.02163903431542402,1.0,0.0,97.96531463942854,-0.8779446915809588,26.554596424656477,105.40592242103214,0.10299639200278086,3.93652608942425,1.0,25.765814007381923,0.0,1.0,108.10428223420793,7149.2682503536325,1.0,1.0,0.013900480334009655,19.12867996453544,0.028979464710833323,-44.07269287135632,1.0,25.89410303308492,1.0,0.005071488108486072,4.101331585630579,0.9349514233390593,1.0,0.9447600011083598,6.9456939743436665
1.2,116.07184014297891,0.0,26.22422053953508,108.27413063593252,0.0,3.379126824228897,108.32684737894482,17.767217282637787,0.0,6.45303426911975,0.0,0.0,1.2346990703596263,0.0,4.665470773266764,0.0,7169.429599325811,0.31842731937699525,108.32684737894483,2.1349565644888373,1.2219189271533284,101010.36091070306,287.979542566493,0.0,0.0,0.0,403.2947368421053,0.21644535882450622,0.86,nominal,6124.524683884634,nan,pitch_program,12.4,0.0,0.0,-3.651376947215806,-0.0,0.0,-3.64468479665092,0.0,0.0,0.86,0.0,0.0,0.0,0.0,0.0,0.0,-0.06361174989893856,0.0,0.0,-0.06361174989893856,0.0,0.0,1.2,1.0,20.243314769285142,-0.01031211319908614,5.401936897011524,0.002396759651981763,0.02060850173628369,0.0024967263541487653,20.951678248468095,0.02089709173859551,1.0,0.0,97.96531463942854,-0.8779446915809588,26.554596424656477,105.40592242103214,0.10299639200278086,3.93652608942425,1.0,26.632237158298416,0.0,1.0,108.45534362429356,7283.880589391164,1.0,1.0,0.44214019538492116,19.10898504685528,0.010135406194183643,-43.936136646664636,1.0,26.134053041104018,1.0,-0.016675358999916012,4.126353280925893,0.9344394486511622,1.0,-0.23327251267086882,6.371429807268321
1.23,119.3376241031179,0.0,26.32360269667847,108.85946533796643,0.0,3.3127385714463773,108.90985919791956,17.76072392187305,0.0,6.416750246832209,0.0,0.0,1.2094674500048848,0.0,4.673701263655733,0.0,7246.739390783612,0.32014144465141203,108.90985919791956,2.1344749823263647,1.221907262004096,101009.1700268313,287.9788965824716,0.0,0.0,0.0,403.26078947368416,0.2164271395182078,0.86,nominal,6188.8250736407135,nan,pitch_program,12.385,0.0,0.0,-3.6605690451060733,-0.0,0.0,-3.6542153457240123,0.0,0.0,0.86,0.0,0.0,0.0,0.0,0.0,0.0,-0.0637780893597869,0.0,0.0,-0.0637780893597869,0.0,0.0,1.23,1.0,20.192720821648546,0.01510977872660989,5.449394479796955,-0.000328853930293902,0.022084514558438757,-0.00025645041814281294,20.91511660696381,0.022088451620843157,1.0,0.0,97.96531463942854,-0.8779446915809588,26.554596424656477,105.40592242103214,0.10299639200278086,3.93652608942425,1.0,26.632237158298416,0.0,1.0,108.88409149069204,7231.8393257459975,1.0,1.0,0.44214019538492116,19.10898504685528,0.010135406194183643,-43.936136646664636,1.0,26.134053041104018,1.0,-0.016675358999916012,4.126353280925893,0.9344394486511622,1.0,-0.23327251267086882,6.371429807268321
1.26,122.62094371129578,0.0,26.42104393267974,109.44398693926267,0.0,3.2480412000423637,109.49217345910469,17.754231107687506,0.0,6.381229910218058,0.0,0.0,1.184011258393043,0.0,4.681324322940365,0.0,7324.371071484884,0.3218535162420159,109.49217345910469,2.1340089391318062,1.2218958247564904,101008.00241181112,287.97826321443756,0.0,0.0,0.0,403.22684210526313,0.21640892021190947,0.86,nominal,6253.369954881749,nan,pitch_program,12.37,0.0,0.0,-3.669289648385474,-0.0,0.0,-3.6632599273208895,0.0,0.0,0.86,0.0,0.0,0.0,0.0,0.0,0.0,-0.0639359470881177,0.0,0.0,-0.0639359470881177,0.0,0.0,1.26,1.0,20.214118495941502,0.0021670138692265395,5.5048413150512685,-0.0022480739443642246,0.020407447034896664,-0.0017169073810272574,20.950271338763343,0.020602560566504054,1.0,0.0,121.62975686694526,1.5141675477663055,25.10970502169285,109.48688126252111,-0.0699349688293041,2.9485063121955455,1.0,26.23724903372723,0.0,1.0,110.13148306331505,7411.418464001919,1.0,1.0,-1.4707945526430493,19.320204215304944,-0.0632675672920388,-43.961582240275334,1.0,26.509422943442726,1.0,0.004152941202097512,4.12898474120784,0.9339473901683006,1.0,0.32539532601098625,6.06230680080855
1.29,125.92177449602407,0.0,26.51659509033614,110.02769282427639,0.0,3.1850385885466412,110.07378279610387,17.747738840081148,0.0,6.346477534546609,0.0,0.0,1.1584125578960658,0.0,4.688364776827447,0.0,7402.32215993917,0.32356351256153587,110.07378279610387,2.1335584048681215,1.2218846094379634,101006.85745576068,287.9776421319128,0.0,0.0,0.0,403.1928947368421,0.21639070090561113,0.86,nominal,6318.157796764571,nan,pitch_program,12.355,0.0,0.0,-3.6775564177180726,-0.0,0.0,-3.6718378215591994,0.0,0.0,0.86,0.0,0.0,0.0,0.0,0.0,0.0,-0.06408565958546406,0.0,0.0,-0.06408565958546406,0.0,0.0,1.29,1.0,20.191122520903075,0.05007267214968916,5.550739624597999,-0.004759445939547396,0.021622093297469135,-0.001009768738695494,20.940263759243766,0.022162736228218315,1.0,0.0,121.62975686694526,1.5141675477663055,25.10970502169285,109.48688126252111,-0.0699349688293041,2.9485063121955455,1.0,26.23724903372723,0.0,1.0,110.69211746391896,7407.213052855293,1.0,1.0,-1.4707945526430493,19.320204215304944,-0.0632675672920388,-43.961582240275334,1.0,26.509422943442726,1.0,0.004152941202097512,4.12898474120784,0.9339473901683006,1.0,0.32539532601098625,6.06230680080855
1.3199999999999998,129.2400919035899,0.0,26.610307133885176,110.61058025219394,0.0,3.123734784967831,110.6546798953115,17.74124711905398,0.0,6.312495298175716,0.0,0.0,1.1327412455684236,0.0,4.694844787884367,0.0,7480.590161494966,0.3252714121824254,110.6546798953115,2.1331233313702906,1.2218736100619771,101005.73454737813,287.97703300362974,0.0,0.0,0.0,403.158947368421,0.21637248159931274,0.86,nominal,6383.187059821443,nan,pitch_program,12.34,0.0,0.0,-3.6853851454024924,-0.0,0.0,-3.679966215865175,0.0,0.0,0.86,0.0,0.0,0.0,0.0,0.0,0.0,-0.06422752682900369,0.0,0.0,-0.06422752682900369,0.0,0.0,1.3199999999999998,1.0,20.143502395551547,0.008907383770225185,5.626230196670833,0.001724892245972111,0.019651356948124202,-0.0021838603973125346,20.91447427804503,0.019847426266338772,1.0,0.0,121.62975686694526,1.5141675477663055,25.10970502169285,109.48688126252111,-0.0699349688293041,2.9485063121955455,1.0,27.016193012021464,0.0,1.0,110.87070008188692,7524.4931718474,1.0,1.0,-0.2476280799064947,19.305036968316056,-0.015545936545975865,-43.918783473465645,1.0,26.43628426036705,1.0,0.01673139239589448,4.144315372596863,0.933474232165287,1.0,-0.5591713432423099,6.2414224620249765
1.3499999999999999,132.5758712950687,0.0,26.702231151548403,111.19264638262737,0.0,3.064133922107579,111.23485751447083,17.734755944606,0.0,6.279283605241719,0.0,0.0,1.107056462130637,0.0,4.700784237627906,0.0,7559.172571086992,0.32697719389142893,111.23485751447082,2.132703652489289,1.2218628206276914,101004.6330739095,287.9764354975149,0.0,0.0,0.0,403.125,0.2163542622930144,0.86,nominal,6448.456198254646,nan,pitch_program,12.325,0.0,0.0,-3.692789927974734,-0.0,0.0,-3.687660443130911,0.0,0.0,0.86,0.0,0.0,0.0,0.0,0.0,0.0,-0.0643618164281875,0.0,0.0,-0.0643618164281875,0.0,0.0,1.3499999999999999,1.0,20.166220017282882,0.035994821269691446,5.755989232973057,-0.0010005197316797032,0.01971534093133326,0.002319909944029415,20.97162696270179,0.019876561320323782,1.0,0.0,121.62975686694526,1.5141675477663055,25.10970502169285,109.48688126252111,-0.0699349688293041,2.9485063121955455,1.0,27.016193012021464,0.0,1.0,111.1422664328424,7486.184077211857,1.0,1.0,-0.2476280799064947,19.305036968316056,-0.015545936545975865,-43.918783473465645,1.0,26.43628426036705,1.0,0.01673139239589448,4.144315372596863,0.933474232165287,1.0,-0.5591713432423099,6.2414224620249765
1.38,135.9290879439971,0.0,26.792418355914972,111.77388829761325,0.0,3.0062401455522196,111.81430849842097,17.72826531673721,0.0,6.246841358059904,0.0,0.0,1.081408268286404,0.0,4.706201049854563,0.0,7638.066875679812,0.3286808367358774,111.81430849842097,2.132299284071077,1.2218522351199184,101003.5524211439,287.97584928068653,0.0,0.0,0.0,403.0910526315789,0.21633604298671602,0.86,nominal,6513.963661960061,nan,pitch_program,12.31,0.0,0.0,-3.6997834336470894,-0.0,0.0,-3.6949342374406178,0.0,0.0,0.86,0.0,0.0,0.0,0.0,0.0,0.0,-0.06448876808800472,0.0,0.0,-0.06448876808800472,0.0,0.0,1.38,1.0,20.109685258336793,0.017070810390325843,5.82045573100734,-0.00033832483479699524,0.020612129019484015,0.0006860934769219902,20.935076725881654,0.02062631936795245,1.0,0.0,121.62975686694526,1.5141675477663055,25.10970502169285,109.48688126252111,-0.0699349688293041,2.9485063121955455,1.0,27.254594146090746,0.0,1.0,111.91852727853028,7661.962163370224,1.0,1.0,0.6059313627351929,19.30445670130382,-0.042296972886483285,-43.96500493050776,1.0,27.06022863620673,1.0,-0.005559116620127902,4.155482039566444,0.9330189541102125,1.0,-0.5489293049591698,6.339571904631765
1.41,139.29971703461212,0.0,26.880920082480657,112.35430302050042,0.0,2.950057552189453,112.39302579245592,17.72177523544761,0.0,6.215166184642375,0.0,0.0,1.055839140808776,0.0,4.711111462048386,0.0,7717.270556451278,0.33038232006295676,112.3930257924559,2.131910123795723,1.2218418475092807,101002.49197342925,287.9752740194638,0.0,0.0,0.0,403.0571052631579,0.2163178236804177,0.86,nominal,6579.707898318689,nan,pitch_program,12.295,0.0,0.0,-3.706377149680781,-0.0,0.0,-3.701799984784716,0.0,0.0,0.86,0.0,0.0,0.0,0.0,0.0,0.0,-0.06460859798476928,0.0,0.0,-0.06460859798476928,0.0,0.0,1.41,1.0,20.040788924875102,0.012000182220630248,5.770238099219726,-0.003294115995070848,0.017075186665237125,0.0019122592649609654,20.854951749104018,0.01749485453892379,1.0,0.0,121.62975686694526,1.5141675477663055,25.10970502169285,109.48688126252111,-0.0699349688293041,2.9485063121955455,1.0,27.254594146090746,0.0,1.0,112.24698043722029,7787.902859186766,1.0,1.0,0.6059313627351929,19.30445670130382,-0.042296972886483285,-43.96500493050776,1.0,27.06022863620673,1.0,-0.005559116620127902,4.155482039566444,0.9330189541102125,1.0,-0.5489293049591698,6.339571904631765
1.44,142.68773366057954,0.0,26.967787786602265,112.93388753224765,0.0,2.8955901373869386,112.9710024536832,17.715285700737198,0.0,6.184254633671156,0.0,0.0,1.0303850573667075,0.0,4.7155302584232235,0.0,7796.781090757372,0.3320816235530911,112.97100245368318,2.1315360512353188,1.2218316517525687,101001.4511137087,287.97470937938704,0.0,0.0,0.0,403.02315789473687,0.21629960437411935,0.86,nominal,6645.68735379253,nan,pitch_program,12.28,0.0,0.0,-3.7125815450588893,-0.0,0.0,-3.7082689209492203,0.0,0.0,0.86,0.0,0.0,0.0,0.0,0.0,0.0,-0.06472150221994122,0.0,0.0,-0.06472150221994122,0.0,0.0,1.44,1.0,20.05595045447191,0.06403410706379875,5.891752573625694,0.0005019380147718512,0.01687310141472458,-0.0029075644889471554,20.90354030751548,0.01712913962753647,1.0,0.0,121.62975686694526,1.5141675477663055,25.10970502169285,109.48688126252111,-0.0699349688293041,2.9485063121955455,1.0,28.289237778418535,0.0,1.0,112.84552609507034,7817.496104877975,1.0,1.0,0.29990227564496064,19.348467069789503,-0.021962377055115622,-43.97797426573574,1.0,27.073139273049954,1.0,-0.002338117235285162,4.1589327372575156,0.9325805305334943,1.0,-0.3284798747701366,6.2877629651339975
1.47,146.0931128241436,0.0,27.053073039095853,113.51263878546804,0.0,2.8428417497863037,113.54823166062285,17.708796712605974,0.0,6.15410234349486,0.0,0.0,1.0050763624058683,0.0,4.719470971920172,0.0,7876.595953901357,0.3337787272481465,113.54823166062283,2.13117692815011,1.2218216417932428,101000.4292235716,287.97415502524586,0.0,0.0,0.0,402.9892105263158,0.21628138506782096,0.86,nominal,6711.900475346085,nan,pitch_program,12.265,0.0,0.0,-3.718406192860279,-0.0,0.0,-3.714351284095856,0.0,0.0,0.86,0.0,0.0,0.0,0.0,0.0,0.0,-0.06482765948315197,0.0,0.0,-0.06482765948315197,0.0,0.0,1.47,1.0,19.98011355856197,0.033094434059352,5.949915483646962,0.004551445195929866,0.016567184496136218,0.0010461982303928525,20.84724267900049,0.017212837832206708,1.0,0.0,144.96477492977647,-1.223516912195619,29.47386692350008,113.64714500408958,0.16659465202598367,2.8467823086651034,1.0,28.289237778418535,0.0,1.0,113.31505511702844,7916.489954470017,1.0,1.0,0.29990227564496064,19.348467069789503,-0.021962377055115622,-43.97797426573574,1.0,27.073139273049954,1.0,-0.002338117235285162,4.1589327372575156,0.9325805305334943,1.0,-0.3284798747701366,6.2877629651339975
