time_s,sensor_time_s,imu_valid,imu_ax_mps2,imu_ay_mps2,imu_az_mps2,gyro_p_rps,gyro_q_rps,gyro_r_rps,imu_accel_norm_mps2,imu_gyro_norm_rps,gps_valid,gps_latency_s,gps_x_m,gps_y_m,gps_z_m,gps_vx_mps,gps_vy_mps,gps_vz_mps,baro_valid,baro_alt_m,baro_bias_m,pitot_valid,pitot_airspeed_mps,pitot_qbar_pa,pitot_compressibility_factor,mag_valid,mag_heading_deg,mag_x_ut,mag_y_ut,mag_z_ut,radar_valid,radar_agl_m,optical_flow_valid,optical_flow_x_radps,optical_flow_y_radps,optical_flow_quality,horizon_valid,horizon_roll_deg,horizon_pitch_deg
0.0,0.0,1.0,17.09193139522532,-0.009661837054554626,0.16054112424417594,-0.0011846461623943778,0.0013181441023463838,0.0014804783948871505,17.09268807481017,0.0023092653988560762,1.0,0.0,1.69062741851169,-1.0004827618806238,20.718048150427723,85.13084268154867,0.27725161253670577,8.076939739570042,1.0,19.911179626100555,0.0,1.0,85.6461399244302,4459.199975021921,1.0,1.0,0.536223259439391,19.56634421878517,0.01051648236020856,-43.84999618812795,1.0,20.107562645592367,1.0,-0.004597107947264304,4.260987275395636,0.95,1.0,0.45149697114415227,6.28521300696935
0.03,0.03,1.0,17.398711919184628,0.05753195452303725,0.6819936340645605,-0.000321663341559394,-0.1557830931609727,-0.0026074445027711576,17.41216820759187,0.15580524493399006,1.0,0.0,1.69062741851169,-1.0004827618806238,20.718048150427723,85.13084268154867,0.27725161253670577,8.076939739570042,1.0,19.911179626100555,0.0,1.0,86.29285230577052,4417.01701443229,1.0,1.0,0.536223259439391,19.56634421878517,0.01051648236020856,-43.84999618812795,1.0,20.107562645592367,1.0,-0.004597107947264304,4.260987275395636,0.95,1.0,0.45149697114415227,6.28521300696935
0.06,0.06,1.0,17.571536128943603,0.025446497799760374,1.0978368942476384,-0.0004956844866855269,-0.2201926263096705,-0.0008876895020184011,17.60581651901984,0.22019497355051623,1.0,0.0,1.69062741851169,-1.0004827618806238,20.718048150427723,85.13084268154867,0.27725161253670577,8.076939739570042,1.0,19.738865034254903,0.0,1.0,86.87704813542295,4559.158950257569,1.0,1.0,-1.0681719167476154,18.97787222576958,0.025985837493484466,-44.02002352673193,1.0,20.439356174421686,1.0,-0.001966200493011985,4.226322731476376,0.9488516621187282,1.0,0.3067786163094261,7.077274670175526
0.09,0.09,1.0,17.820478557479927,-0.010262679455118573,1.5665855043427408,0.00022426910296249,-0.17764883090156425,-0.001808129926732801,17.88920768180101,0.17765817389344926,1.0,0.0,1.69062741851169,-1.0004827618806238,20.718048150427723,85.13084268154867,0.27725161253670577,8.076939739570042,1.0,19.738865034254903,0.0,1.0,86.77099274802045,4689.89680455346,1.0,1.0,-1.0681719167476154,18.97787222576958,0.025985837493484466,-44.02002352673193,1.0,20.439356174421686,1.0,-0.001966200493011985,4.226322731476376,0.9488516621187282,1.0,0.3067786163094261,7.077274670175526
0.12,0.12,1.0,18.175068778493525,0.03826482366028904,1.804679833910366,0.003632593288705603,-0.10348378359239287,0.0026263514782552317,18.264486267142107,0.1035808231415723,1.0,0.0,1.69062741851169,-1.0004827618806238,20.718048150427723,85.13084268154867,0.27725161253670577,8.076939739570042,1.0,20.91478228782778,0.0,1.0,87.76201311449122,4637.760328816584,1.0,1.0,-0.8117565960866809,18.70070526931364,-0.004303695944464039,-44.263319410944256,1.0,20.957896897100245,1.0,0.005039761602942089,4.1622079415319195,0.9477631301341459,1.0,-0.22365598916713353,6.934088971447926
0.15,0.15,1.0,18.399336964698048,-0.015001310694163253,1.9280517313190801,0.0013558446973328598,-0.0556261023939109,-0.002698691069447571,18.50008673651205,0.055708029186729104,1.0,0.0,1.69062741851169,-1.0004827618806238,20.718048150427723,85.13084268154867,0.27725161253670577,8.076939739570042,1.0,20.91478228782778,0.0,1.0,88.45163825590367,4756.446590965045,1.0,1.0,-0.8117565960866809,18.70070526931364,-0.004303695944464039,-44.263319410944256,1.0,20.957896897100245,1.0,0.005039761602942089,4.1622079415319195,0.9477631301341459,1.0,-0.22365598916713353,6.934088971447926
0.18,0.18,1.0,18.644682353917613,-0.04395796919993218,2.055836483908809,-0.001899657734984098,-0.039260892858056305,-0.0011345426106863091,18.757733765839454,0.03932319410293783,1.0,0.0,1.69062741851169,-1.0004827618806238,20.718048150427723,85.13084268154867,0.27725161253670577,8.076939739570042,1.0,21.70419571837201,0.0,1.0,88.33515060751922,4823.786375814268,1.0,1.0,1.5203080213703033,18.560536770448408,-0.015147402769115479,-44.23276645376845,1.0,21.282326566446528,1.0,0.011750098375205074,4.147740515129702,0.9467267251788489,1.0,-0.11551356021630371,7.842048542238084
0.21,0.21,1.0,19.030517806493624,0.05307182285030255,2.3009840275721354,0.003415565051747849,-0.040876227538320785,-0.0011564127705134203,19.16919278678144,0.04103497718877278,1.0,0.0,17.174397865318433,0.7332168394256778,20.309352625192616,88.80993310299473,-0.10731359527186403,6.888144858538226,1.0,21.70419571837201,0.0,1.0,88.44056335016246,4826.014624058919,1.0,1.0,1.5203080213703033,18.560536770448408,-0.015147402769115479,-44.23276645376845,1.0,21.282326566446528,1.0,0.011750098375205074,4.147740515129702,0.9467267251788489,1.0,-0.11551356021630371,7.842048542238084
0.24,0.24,1.0,19.359988247012772,-0.04615088078125996,2.505999653480626,-0.0010821749791394923,-0.039271887886795635,-0.0005366574244413822,19.52156010905672,0.03929046044614048,1.0,0.0,17.174397865318433,0.7332168394256778,20.309352625192616,88.80993310299473,-0.10731359527186403,6.888144858538226,1.0,22.09613386087174,0.0,1.0,89.41247523754247,4931.271471345621,1.0,1.0,1.998078022549075,18.399924025438082,0.028941062522531938,-44.27700133866324,1.0,21.547376731614452,1.0,-0.007039766846519332,4.10897498580282,0.9457383116031629,1.0,-0.05842185576114896,8.104731158567894
0.27,0.27,1.0,19.574396073711206,-0.015990431710205207,2.69695580221037,0.0013073651574099648,-0.027524911717801626,0.004223097654358798,19.759322051717845,0.02787767067970051,1.0,0.0,17.174397865318433,0.7332168394256778,20.309352625192616,88.80993310299473,-0.10731359527186403,6.888144858538226,1.0,22.09613386087174,0.0,1.0,90.02827640764734,5022.807159593512,1.0,1.0,1.998078022549075,18.399924025438082,0.028941062522531938,-44.27700133866324,1.0,21.547376731614452,1.0,-0.007039766846519332,4.10897498580282,0.9457383116031629,1.0,-0.05842185576114896,8.104731158567894
0.3,0.3,1.0,19.9610323566803,0.021418961511525305,2.729483052051561,0.0008440042852495465,-0.01447105878151626,-0.00027000975640920517,20.14679501180738,0.014498165082525947,1.0,0.0,17.174397865318433,0.7332168394256778,20.309352625192616,88.80993310299473,-0.10731359527186403,6.888144858538226,1.0,20.478297264656216,0.0,1.0,90.68786788172436,5063.767341707437,1.0,1.0,-0.9317448256048663,18.337343257083287,-0.022556346737234723,-44.38088208603988,1.0,22.166171187082448,1.0,0.0012197767910665316,4.079877911658793,0.9447936738953197,1.0,0.04223176827975896,8.116832507711258
0.32999999999999996,0.32999999999999996,1.0,20.19745085637667,0.04095700313404213,2.929130288102079,0.005984539769211666,-0.0027348358241116753,-0.00019692068656961567,20.408784942189314,0.006582766970728924,1.0,0.0,17.174397865318433,0.7332168394256778,20.309352625192616,88.80993310299473,-0.10731359527186403,6.888144858538226,1.0,20.478297264656216,0.0,1.0,90.95558218650868,5069.696235238908,1.0,1.0,-0.9317448256048663,18.337343257083287,-0.022556346737234723,-44.38088208603988,1.0,22.166171187082448,1.0,0.0012197767910665316,4.079877911658793,0.9447936738953197,1.0,0.04223176827975896,8.116832507711258
0.36,0.36,1.0,20.487901310315518,-0.021272921198572183,3.0342662487890713,0.002279898282768594,0.0021934528655469317,-0.0018894412985728166,20.711381516136125,0.0036849911904779046,1.0,0.0,17.174397865318433,0.7332168394256778,20.309352625192616,88.80993310299473,-0.10731359527186403,6.888144858538226,1.0,22.930297627811854,0.0,1.0,91.44374201251715,5151.2010740435735,1.0,1.0,0.2695295900774236,18.400671517294494,0.03224986715806335,-44.361593889303116,1.0,22.353878848282864,1.0,-0.010705898590284608,4.08294873393601,0.9438891959491249,1.0,0.294010427592442,7.805173503280779
0.39,0.39,1.0,20.742615518464564,0.022061629924572262,3.148558664634144,0.0022195060680429354,0.0031299908084258896,0.0010260904493128225,20.980228953159795,0.003971890136582451,1.0,0.0,17.174397865318433,0.7332168394256778,20.309352625192616,88.80993310299473,-0.10731359527186403,6.888144858538226,1.0,22.930297627811854,0.0,1.0,93.02903090357442,5189.861724252625,1.0,1.0,0.2695295900774236,18.400671517294494,0.03224986715806335,-44.361593889303116,1.0,22.353878848282864,1.0,-0.010705898590284608,4.08294873393601,0.9438891959491249,1.0,0.294010427592442,7.805173503280779
0.42,0.42,1.0,20.83989003401405,0.07096470069506991,3.2969930890578563,-0.001368716280149412,0.008647449636981141,0.000989341476205931,21.099199417225247,0.008810820962669292,1.0,0.0,36.45552622645728,-2.1791450494477407,23.155231859791137,92.48002730085682,0.00837115444938616,5.6838760297502695,1.0,22.30630152982978,0.0,1.0,92.9889851880428,5296.350476408499,1.0,1.0,-0.15873729697608352,18.412338492204924,0.027587597927130905,-44.26316021112574,1.0,22.592414256813914,1.0,-0.010964516432769633,4.054175608353941,0.943021933897798,1.0,0.09185947323221498,7.671567592179622
0.44999999999999996,0.44999999999999996,1.0,20.8428519816802,-0.0025308593937348888,3.381762301602591,0.0002866724347440576,0.012558600464277866,0.0007097899158355498,21.115416202386825,0.012581908775333899,1.0,0.0,36.45552622645728,-2.1791450494477407,23.155231859791137,92.48002730085682,0.00837115444938616,5.6838760297502695,1.0,22.30630152982978,0.0,1.0,92.94334576790713,5280.994260653128,1.0,1.0,-0.15873729697608352,18.412338492204924,0.027587597927130905,-44.26316021112574,1.0,22.592414256813914,1.0,-0.010964516432769633,4.054175608353941,0.943021933897798,1.0,0.09185947323221498,7.671567592179622
0.48,0.48,1.0,20.826324772671924,-0.00910854249762346,3.4454348857460886,0.0008111159208016072,0.02011397429550639,-0.0013400088977721003,21.10940330881645,0.020174872858171326,1.0,0.0,36.45552622645728,-2.1791450494477407,23.155231859791137,92.48002730085682,0.00837115444938616,5.6838760297502695,1.0,24.469523354788898,0.0,1.0,94.47055004684123,5495.3468892454375,1.0,1.0,0.7711007157706777,18.43621309007891,0.09265589052709566,-44.363153671797406,1.0,23.304735130222564,1.0,-7.069333768340292e-05,4.062011911820089,0.9421895073974565,1.0,-0.3676081326089581,7.573021422001364
0.51,0.51,1.0,20.781206071190713,0.0620221780098486,3.5956872280388543,0.0009485868963498388,0.017398853480030983,9.367645734380226e-06,21.090076793737396,0.017424695327961964,1.0,0.0,36.45552622645728,-2.1791450494477407,23.155231859791137,92.48002730085682,0.00837115444938616,5.6838760297502695,1.0,24.469523354788898,0.0,1.0,95.21597007322869,5509.507468475858,1.0,1.0,0.7711007157706777,18.43621309007891,0.09265589052709566,-44.363153671797406,1.0,23.304735130222564,1.0,-7.069333768340292e-05,4.062011911820089,0.9421895073974565,1.0,-0.3676081326089581,7.573021422001364
0.54,0.54,1.0,20.692890851648993,-0.006798117578490514,3.652665533754621,0.0029703646449109012,0.020501902467324144,0.004023907341588521,21.012799516345748,0.021103149082473415,1.0,0.0,36.45552622645728,-2.1791450494477407,23.155231859791137,92.48002730085682,0.00837115444938616,5.6838760297502695,1.0,22.784277621033056,0.0,1.0,95.4565418947163,5554.329871726109,1.0,1.0,0.39750904390493474,18.4921739688063,-0.04124921922428037,-44.349927224268775,1.0,23.78428170409337,1.0,0.00013901196790651704,4.065930271634582,0.9413902476793811,1.0,0.10713613520819604,7.737781053168342
0.57,0.57,1.0,20.754694133639685,-0.02624420120003187,3.7204187162265114,0.0012460301353090255,0.021893011630446067,-0.00042080677667980844,21.085528989406043,0.021932478831455524,1.0,0.0,36.45552622645728,-2.1791450494477407,23.155231859791137,92.48002730085682,0.00837115444938616,5.6838760297502695,1.0,22.784277621033056,0.0,1.0,96.07586261911904,5699.405647876575,1.0,1.0,0.39750904390493474,18.4921739688063,-0.04124921922428037,-44.349927224268775,1.0,23.78428170409337,1.0,0.00013901196790651704,4.065930271634582,0.9413902476793811,1.0,0.10713613520819604,7.737781053168342
0.6,0.6,1.0,20.696198240124584,0.021879604234394782,3.8712878442516097,-0.003742297572952199,0.018926331811782608,0.00394597604947069,21.055164921811173,0.019692169864116413,1.0,0.0,36.45552622645728,-2.1791450494477407,23.155231859791137,92.48002730085682,0.00837115444938616,5.6838760297502695,1.0,23.951675273331823,0.0,1.0,96.8403230351734,5612.887705813945,1.0,1.0,0.10619213573177345,18.483746728560003,0.06835251100139483,-44.27783217386081,1.0,23.889350488981588,1.0,0.0015544963208671307,4.060442236007222,0.9406227236617021,1.0,-0.2614317798021988,7.105119139206087
0.63,0.63,1.0,20.74294209653409,0.010714806184717731,3.9123895720706052,0.0006979459869648192,0.024611807669246297,0.00079979713402679,21.108684321645544,0.024634688567227486,1.0,0.0,57.00204960542456,-1.1257929309267303,24.303316845899978,97.12324805712822,0.08862701668725574,5.0109021516203756,1.0,23.951675273331823,0.0,1.0,97.60983197199968,5809.539806742694,1.0,1.0,0.10619213573177345,18.483746728560003,0.06835251100139483,-44.27783217386081,1.0,23.889350488981588,1.0,0.0015544963208671307,4.060442236007222,0.9406227236617021,1.0,-0.2614317798021988,7.105119139206087
0.6599999999999999,0.6599999999999999,1.0,20.682027581454975,-0.030961489720738915,4.022340068310929,-6.281862588639059e-05,0.022674864034278885,0.0008581031323225626,21.069562005866416,0.022691182122985445,1.0,0.0,57.00204960542456,-1.1257929309267303,24.303316845899978,97.12324805712822,0.08862701668725574,5.0109021516203756,1.0,23.81911593747479,0.0,1.0,97.92112257799977,5799.580779545691,1.0,1.0,0.12376178465106247,18.625014497483804,-0.011475625631713745,-44.203757255662026,1.0,24.24427023899329,1.0,-0.0002726065503460053,4.065863663818155,0.939885637764328,1.0,0.044849824191745005,6.970458560329721
0.69,0.69,1.0,20.64703613905943,0.005756328250635014,4.0568428732943564,0.00013327388622671582,0.021793107840838905,-0.003503236103511003,21.04181809068647,0.022073286445115668,1.0,0.0,57.00204960542456,-1.1257929309267303,24.303316845899978,97.12324805712822,0.08862701668725574,5.0109021516203756,1.0,23.81911593747479,0.0,1.0,98.31734909822013,5865.518729722178,1.0,1.0,0.12376178465106247,18.625014497483804,-0.011475625631713745,-44.203757255662026,1.0,24.24427023899329,1.0,-0.0002726065503460053,4.065863663818155,0.939885637764328,1.0,0.044849824191745005,6.970458560329721
0.72,0.72,1.0,20.565612588550884,0.023171463688753044,4.121807947146538,0.0038966959207656334,0.023006491009239866,0.00423454597952149,20.974609860787695,0.023715274556914325,1.0,0.0,57.00204960542456,-1.1257929309267303,24.303316845899978,97.12324805712822,0.08862701668725574,5.0109021516203756,1.0,25.019558657310363,0.0,1.0,98.61886947082071,5942.62205691093,1.0,1.0,0.2841556254165627,18.71969923736988,0.02455445569068346,-44.18596304725515,1.0,24.937374986278847,1.0,-0.016112601287739118,4.052243397842976,0.9391777939090957,1.0,-0.4591122962420326,7.704365750262039
0.75,0.75,1.0,20.578052331758876,-0.014041409999630078,4.239992571788742,0.0015508301705971503,0.02565080133546339,-0.0011737506027954252,21.01033012445605,0.025724431458187903,1.0,0.0,57.00204960542456,-1.1257929309267303,24.303316845899978,97.12324805712822,0.08862701668725574,5.0109021516203756,1.0,25.019558657310363,0.0,1.0,99.58882165082731,6064.881219615369,1.0,1.0,0.2841556254165627,18.71969923736988,0.02455445569068346,-44.18596304725515,1.0,24.937374986278847,1.0,-0.016112601287739118,4.052243397842976,0.9391777939090957,1.0,-0.4591122962420326,7.704365750262039
0.78,0.78,1.0,20.54770327332033,0.055040887884968116,4.279253355205203,0.00015682338540270376,0.026044379551797878,-0.0002789418273333275,20.988643324088223,0.026046345393458802,1.0,0.0,57.00204960542456,-1.1257929309267303,24.303316845899978,97.12324805712822,0.08862701668725574,5.0109021516203756,1.0,25.319965956852045,0.0,1.0,99.61921658334738,6105.485525695479,1.0,1.0,0.08852130913396003,18.684839031556923,0.017328509694324697,-44.2442059943627,1.0,24.658662426714955,1.0,0.005867589858115465,4.0488224286127705,0.938498066147935,1.0,-0.1752342574868388,7.117259589531485
0.8099999999999999,0.8099999999999999,1.0,20.573478672732687,0.04388955481430327,4.361637375783049,-0.0014401160651762062,0.027133867106852606,-0.0011375196315986567,21.03078295233528,0.02719585684191231,1.0,0.0,57.00204960542456,-1.1257929309267303,24.303316845899978,97.12324805712822,0.08862701668725574,5.0109021516203756,1.0,25.319965956852045,0.0,1.0,99.9645792432033,6143.789130547983,1.0,1.0,0.08852130913396003,18.684839031556923,0.017328509694324697,-44.2442059943627,1.0,24.658662426714955,1.0,0.005867589858115465,4.0488224286127705,0.938498066147935,1.0,-0.1752342574868388,7.117259589531485
0.84,0.84,1.0,20.621077858557673,0.043782391782156045,4.4866995844964155,0.0006322999932098888,0.024669096611756983,0.002463642301123623,21.103583631886977,0.02479987226397545,1.0,0.0,76.19404929205231,-0.12743431170227212,26.747338829159585,100.77153654514053,-0.14693352719364414,4.222122871200665,1.0,26.083040102535072,0.0,1.0,101.29992716618563,6256.814542502087,1.0,1.0,-1.6681376886332782,18.806514931121278,0.040307693089152614,-44.20093536125607,1.0,24.52585627306577,1.0,-0.007384932870974474,4.06014850003465,0.9378453761898222,1.0,0.8382070423224232,7.607106657615703
0.87,0.87,1.0,20.396403083661607,-0.033126572136977624,4.571991070720892,0.0012868280260389833,0.027581245887702336,-0.0013910370518627915,20.90257061874768,0.027646266206599247,1.0,0.0,76.19404929205231,-0.12743431170227212,26.747338829159585,100.77153654514053,-0.14693352719364414,4.222122871200665,1.0,26.083040102535072,0.0,1.0,101.60768039640472,6302.314122617946,1.0,1.0,-1.6681376886332782,18.806514931121278,0.040307693089152614,-44.20093536125607,1.0,24.52585627306577,1.0,-0.007384932870974474,4.06014850003465,0.9378453761898222,1.0,0.8382070423224232,7.607106657615703
0.8999999999999999,0.8999999999999999,1.0,20.45319853251259,0.0038134257027515645,4.629605686058183,0.0005753690442417248,0.02956265631383487,0.0006002486082128529,20.970612617684136,0.029574346928692336,1.0,0.0,76.19404929205231,-0.12743431170227212,26.747338829159585,100.77153654514053,-0.14693352719364414,4.222122871200665,1.0,24.8325819567028,0.0,1.0,102.41260186534114,6368.378528918976,1.0,1.0,0.4710190413002201,18.824371186270856,-0.04465604036652868,-44.110195029619305,1.0,25.04732373507237,1.0,0.01644797499528611,4.066318324569197,0.9372186778861823,1.0,0.26404776655529233,6.6024513759022065
0.9299999999999999,0.9299999999999999,1.0,20.41103221481138,-0.014501992150463506,4.723887433872153,0.004580795331281981,0.023609200584289603,-0.0020706911156415965,20.950550323791965,0.02413847136404276,1.0,0.0,76.19404929205231,-0.12743431170227212,26.747338829159585,100.77153654514053,-0.14693352719364414,4.222122871200665,1.0,24.8325819567028,0.0,1.0,103.13535701116574,6458.947142170704,1.0,1.0,0.4710190413002201,18.824371186270856,-0.04465604036652868,-44.110195029619305,1.0,25.04732373507237,1.0,0.01644797499528611,4.066318324569197,0.9372186778861823,1.0,0.26404776655529233,6.6024513759022065
0.96,0.96,1.0,20.43466876951231,-0.031543971134591134,4.691882336085574,-0.0004196588666341469,0.023744739513675332,-0.0009938303621426583,20.966412249058457,0.023769233620909106,1.0,0.0,76.19404929205231,-0.12743431170227212,26.747338829159585,100.77153654514053,-0.14693352719364414,4.222122871200665,1.0,26.018069810026926,0.0,1.0,104.1472177927906,6521.63542166065,1.0,1.0,1.8628581169991358,18.98619718048686,0.03053839157658084,-44.10661580639369,1.0,24.994023724795195,1.0,-0.010615276861021337,4.070455047018734,0.9366169452342091,1.0,0.2144339504985059,6.502494738552224
0.99,0.99,1.0,20.419091398061262,-0.001183360057617413,4.829846505416236,0.002224024505172299,0.025120734722418464,0.001122722981186056,20.982533502620743,0.025243971654361576,1.0,0.0,76.19404929205231,-0.12743431170227212,26.747338829159585,100.77153654514053,-0.14693352719364414,4.222122871200665,1.0,26.018069810026926,0.0,1.0,104.58085813795388,6589.268609265976,1.0,1.0,1.8628581169991358,18.98619718048686,0.03053839157658084,-44.10661580639369,1.0,24.994023724795195,1.0,-0.010615276861021337,4.070455047018734,0.9366169452342091,1.0,0.2144339504985059,6.502494738552224
1.02,1.02,1.0,20.371740711790657,0.04893768703704143,4.885316192944482,-0.00033061017406035056,0.024824546417622995,0.0003999735641282324,20.949380153853884,0.02482996952837261,1.0,0.0,76.19404929205231,-0.12743431170227212,26.747338829159585,100.77153654514053,-0.14693352719364414,4.222122871200665,1.0,26.30750725478063,0.0,1.0,104.73284828038273,6750.52823793523,1.0,1.0,0.5182594782204969,19.004718194096593,-0.0010167235316687591,-44.088274642720606,1.0,25.425045064152794,1.0,-0.009175992789471798,4.086770340346906,0.9360391640009246,1.0,-0.19546263055611612,6.5620521235778595
1.05,1.05,1.0,20.292589027044777,5.794516439156008e-05,4.998316591822546,-0.000921107930634753,0.025924242858350627,0.0015491330192074966,20.899098980003522,0.025986816286529227,1.0,0.0,97.96531463942854,-0.8779446915809588,26.554596424656477,105.40592242103214,0.10299639200278086,3.93652608942425,1.0,26.30750725478063,0.0,1.0,104.87650761503008,6818.028387030803,1.0,1.0,0.5182594782204969,19.004718194096593,-0.0010167235316687591,-44.088274642720606,1.0,25.425045064152794,1.0,-0.009175992789471798,4.086770340346906,0.9360391640009246,1.0,-0.19546263055611612,6.5620521235778595
1.08,1.08,1.0,20.337815310077385,0.08267553498664157,5.045778941912153,-0.0003890131623919345,0.02084354100191039,-0.001150061626699707,20.954556830473592,0.02087886909016005,1.0,0.0,97.96531463942854,-0.8779446915809588,26.554596424656477,105.40592242103214,0.10299639200278086,3.93652608942425,1.0,25.317824148552692,0.0,1.0,106.47966783864038,6830.098249310818,1.0,1.0,-0.15949055387060507,19.094174007462602,0.02013237780735231,-44.05514550146953,1.0,25.8202298141873,1.0,-0.0003266118242591075,4.0973952534317,0.9354843256922142,1.0,-0.11606201133487654,6.325142302595286
1.1099999999999999,1.1099999999999999,1.0,20.288918132832965,0.05640087162536462,5.172733211163095,0.0006646711071686702,0.021308033233312856,-0.000814936039773996,20.93801683381184,0.021333967954920915,1.0,0.0,97.96531463942854,-0.8779446915809588,26.554596424656477,105.40592242103214,0.10299639200278086,3.93652608942425,1.0,25.317824148552692,0.0,1.0,106.77140739216209,6959.536611953616,1.0,1.0,-0.15949055387060507,19.094174007462602,0.02013237780735231,-44.05514550146953,1.0,25.8202298141873,1.0,-0.0003266118242591075,4.0973952534317,0.9354843256922142,1.0,-0.11606201133487654,6.325142302595286
1.14,1.14,1.0,20.303505835403005,0.004079694276541784,5.181284355202257,0.0035575973005785373,0.020057417415325685,0.0028540129250016247,20.954189877483046,0.02056944048100896,1.0,0.0,97.96531463942854,-0.8779446915809588,26.554596424656477,105.40592242103214,0.10299639200278086,3.93652608942425,1.0,25.765814007381923,0.0,1.0,106.90651303535726,7020.829942898989,1.0,1.0,0.013900480334009655,19.12867996453544,0.028979464710833323,-44.07269287135632,1.0,25.89410303308492,1.0,0.005071488108486072,4.101331585630579,0.9349514233390593,1.0,0.9447600011083598,6.9456939743436665
1.17,1.17,1.0,20.34482593653856,0.05076687125300122,5.2638199386198385,0.002931096139576603,0.02143823268113556,-0.0002422004008021685,21.014811919441026,0.02163903431542402,1.0,0.0,97.96531463942854,-0.8779446915809588,26.554596424656477,105.40592242103214,0.10299639200278086,3.93652608942425,1.0,25.765814007381923,0.0,1.0,108.10428223420793,7149.2682503536325,1.0,1.0,0.013900480334009655,19.12867996453544,0.028979464710833323,-44.07269287135632,1.0,25.89410303308492,1.0,0.005071488108486072,4.101331585630579,0.9349514233390593,1.0,0.9447600011083598,6.9456939743436665
1.2,1.2,1.0,20.243314769285142,-0.01031211319908614,5.401936897011524,0.002396759651981763,0.02060850173628369,0.0024967263541487653,20.951678248468095,0.02089709173859551,1.0,0.0,97.96531463942854,-0.8779446915809588,26.554596424656477,105.40592242103214,0.10299639200278086,3.93652608942425,1.0,26.632237158298416,0.0,1.0,108.45534362429356,7283.880589391164,1.0,1.0,0.44214019538492116,19.10898504685528,0.010135406194183643,-43.936136646664636,1.0,26.134053041104018,1.0,-0.016675358999916012,4.126353280925893,0.9344394486511622,1.0,-0.23327251267086882,6.371429807268321
1.23,1.23,1.0,20.192720821648546,0.01510977872660989,5.449394479796955,-0.000328853930293902,0.022084514558438757,-0.00025645041814281294,20.91511660696381,0.022088451620843157,1.0,0.0,97.96531463942854,-0.8779446915809588,26.554596424656477,105.40592242103214,0.10299639200278086,3.93652608942425,1.0,26.632237158298416,0.0,1.0,108.88409149069204,7231.8393257459975,1.0,1.0,0.44214019538492116,19.10898504685528,0.010135406194183643,-43.936136646664636,1.0,26.134053041104018,1.0,-0.016675358999916012,4.126353280925893,0.9344394486511622,1.0,-0.23327251267086882,6.371429807268321
1.26,1.26,1.0,20.214118495941502,0.0021670138692265395,5.5048413150512685,-0.0022480739443642246,0.020407447034896664,-0.0017169073810272574,20.950271338763343,0.020602560566504054,1.0,0.0,121.62975686694526,1.5141675477663055,25.10970502169285,109.48688126252111,-0.0699349688293041,2.9485063121955455,1.0,26.23724903372723,0.0,1.0,110.13148306331505,7411.418464001919,1.0,1.0,-1.4707945526430493,19.320204215304944,-0.0632675672920388,-43.961582240275334,1.0,26.509422943442726,1.0,0.004152941202097512,4.12898474120784,0.9339473901683006,1.0,0.32539532601098625,6.06230680080855
1.29,1.29,1.0,20.191122520903075,0.05007267214968916,5.550739624597999,-0.004759445939547396,0.021622093297469135,-0.001009768738695494,20.940263759243766,0.022162736228218315,1.0,0.0,121.62975686694526,1.5141675477663055,25.10970502169285,109.48688126252111,-0.0699349688293041,2.9485063121955455,1.0,26.23724903372723,0.0,1.0,110.69211746391896,7407.213052855293,1.0,1.0,-1.4707945526430493,19.320204215304944,-0.0632675672920388,-43.961582240275334,1.0,26.509422943442726,1.0,0.004152941202097512,4.12898474120784,0.9339473901683006,1.0,0.32539532601098625,6.06230680080855
1.3199999999999998,1.3199999999999998,1.0,20.143502395551547,0.008907383770225185,5.626230196670833,0.001724892245972111,0.019651356948124202,-0.0021838603973125346,20.91447427804503,0.019847426266338772,1.0,0.0,121.62975686694526,1.5141675477663055,25.10970502169285,109.48688126252111,-0.0699349688293041,2.9485063121955455,1.0,27.016193012021464,0.0,1.0,110.87070008188692,7524.4931718474,1.0,1.0,-0.2476280799064947,19.305036968316056,-0.015545936545975865,-43.918783473465645,1.0,26.43628426036705,1.0,0.01673139239589448,4.144315372596863,0.933474232165287,1.0,-0.5591713432423099,6.2414224620249765
1.3499999999999999,1.3499999999999999,1.0,20.166220017282882,0.035994821269691446,5.755989232973057,-0.0010005197316797032,0.01971534093133326,0.002319909944029415,20.97162696270179,0.019876561320323782,1.0,0.0,121.62975686694526,1.5141675477663055,25.10970502169285,109.48688126252111,-0.0699349688293041,2.9485063121955455,1.0,27.016193012021464,0.0,1.0,111.1422664328424,7486.184077211857,1.0,1.0,-0.2476280799064947,19.305036968316056,-0.015545936545975865,-43.918783473465645,1.0,26.43628426036705,1.0,0.01673139239589448,4.144315372596863,0.933474232165287,1.0,-0.5591713432423099,6.2414224620249765
1.38,1.38,1.0,20.109685258336793,0.017070810390325843,5.82045573100734,-0.00033832483479699524,0.020612129019484015,0.0006860934769219902,20.935076725881654,0.02062631936795245,1.0,0.0,121.62975686694526,1.5141675477663055,25.10970502169285,109.48688126252111,-0.0699349688293041,2.9485063121955455,1.0,27.254594146090746,0.0,1.0,111.91852727853028,7661.962163370224,1.0,1.0,0.6059313627351929,19.30445670130382,-0.042296972886483285,-43.96500493050776,1.0,27.06022863620673,1.0,-0.005559116620127902,4.155482039566444,0.9330189541102125,1.0,-0.5489293049591698,6.339571904631765
1.41,1.41,1.0,20.040788924875102,0.012000182220630248,5.770238099219726,-0.003294115995070848,0.017075186665237125,0.0019122592649609654,20.854951749104018,0.01749485453892379,1.0,0.0,121.62975686694526,1.5141675477663055,25.10970502169285,109.48688126252111,-0.0699349688293041,2.9485063121955455,1.0,27.254594146090746,0.0,1.0,112.24698043722029,7787.902859186766,1.0,1.0,0.6059313627351929,19.30445670130382,-0.042296972886483285,-43.96500493050776,1.0,27.06022863620673,1.0,-0.005559116620127902,4.155482039566444,0.9330189541102125,1.0,-0.5489293049591698,6.339571904631765
1.44,1.44,1.0,20.05595045447191,0.06403410706379875,5.891752573625694,0.0005019380147718512,0.01687310141472458,-0.0029075644889471554,20.90354030751548,0.01712913962753647,1.0,0.0,121.62975686694526,1.5141675477663055,25.10970502169285,109.48688126252111,-0.0699349688293041,2.9485063121955455,1.0,28.289237778418535,0.0,1.0,112.84552609507034,7817.496104877975,1.0,1.0,0.29990227564496064,19.348467069789503,-0.021962377055115622,-43.97797426573574,1.0,27.073139273049954,1.0,-0.002338117235285162,4.1589327372575156,0.9325805305334943,1.0,-0.3284798747701366,6.2877629651339975
1.47,1.47,1.0,19.98011355856197,0.033094434059352,5.949915483646962,0.004551445195929866,0.016567184496136218,0.0010461982303928525,20.84724267900049,0.017212837832206708,1.0,0.0,144.96477492977647,-1.223516912195619,29.47386692350008,113.64714500408958,0.16659465202598367,2.8467823086651034,1.0,28.289237778418535,0.0,1.0,113.31505511702844,7916.489954470017,1.0,1.0,0.29990227564496064,19.348467069789503,-0.021962377055115622,-43.97797426573574,1.0,27.073139273049954,1.0,-0.002338117235285162,4.1589327372575156,0.9325805305334943,1.0,-0.3284798747701366,6.2877629651339975
1.5,1.5,1.0,19.987930096615933,-0.06670470205928465,6.025118360836517,0.0006221136584046484,0.02001296173277005,0.0012511777045612804,20.876394572017727,0.020061682590692218,1.0,0.0,144.96477492977647,-1.223516912195619,29.47386692350008,113.64714500408958,0.16659465202598367,2.8467823086651034,1.0,26.822918702487815,0.0,1.0,113.7604469153054,7956.3329145962,1.0,1.0,1.675707146082998,19.422295349764184,0.010318420440860971,-43.930840449783425,1.0,27.350834684369122,1.0,0.01209589734904862,4.183832528440706,0.9321579311982922,1.0,0.47307162302511424,6.95021183832635
1.53,1.53,1.0,20.010420671073486,0.01154977951886851,6.110782178926134,0.0004831332898873071,0.01577737664821858,-0.0024610045120777714,20.922684523478654,0.0159754679081402,1.0,0.0,144.96477492977647,-1.223516912195619,29.47386692350008,113.64714500408958,0.16659465202598367,2.8467823086651034,1.0,26.822918702487815,0.0,1.0,113.9721625179022,8082.509683246702,1.0,1.0,1.675707146082998,19.422295349764184,0.010318420440860971,-43.930840449783425,1.0,27.350834684369122,1.0,0.01209589734904862,4.183832528440706,0.9321579311982922,1.0,0.47307162302511424,6.95021183832635
1.56,1.56,1.0,19.90546146136344,0.018928017644442553,6.242523376708193,-0.0017440403107010503,0.012535311120254548,-0.0005838851358807115,20.86137225516158,0.012669515513184787,1.0,0.0,144.96477492977647,-1.223516912195619,29.47386692350008,113.64714500408958,0.16659465202598367,2.8467823086651034,1.0,27.984156775388566,0.0,1.0,114.74258813773896,8130.031965358128,1.0,1.0,0.7451438665037375,19.52149711860147,0.08001711253763452,-43.89889526430529,1.0,27.057971527874003,1.0,0.002842960849203966,4.210967552033628,0.9317501214911105,1.0,0.9319668086258694,5.826340087734263
1.5899999999999999,1.5899999999999999,1.0,19.963253102660193,0.014042064746271381,6.263960530422522,-0.0012967624496228807,0.014397008340518748,0.0006730480148683682,20.92292697370866,0.014470951442045426,1.0,0.0,144.96477492977647,-1.223516912195619,29.47386692350008,113.64714500408958,0.16659465202598367,2.8467823086651034,1.0,27.984156775388566,0.0,1.0,115.75008155718146,8214.142127335004,1.0,1.0,0.7451438665037375,19.52149711860147,0.08001711253763452,-43.89889526430529,1.0,27.057971527874003,1.0,0.002842960849203966,4.210967552033628,0.9317501214911105,1.0,0.9319668086258694,5.826340087734263
1.6199999999999999,1.6199999999999999,1.0,19.80485056145509,-0.11248917219345693,6.25810102283073,0.0009826897694357347,0.01578796384285878,0.0005641805263704562,20.77037765634953,0.015828574830119912,1.0,0.0,144.96477492977647,-1.223516912195619,29.47386692350008,113.64714500408958,0.16659465202598367,2.8467823086651034,1.0,27.821458821492328,0.0,1.0,116.17279410888739,8166.706427006345,1.0,1.0,-2.0920918162158455,19.54354026238336,-0.02381201636251482,-43.8833903904222,1.0,27.832418517058013,1.0,0.0025289150693587194,4.217694303657478,0.9313560629714995,1.0,-0.504122657290334,6.1982583552723165
1.65,1.65,1.0,19.863692894791637,-0.018720117739654086,6.464306850009923,0.004442828796323585,0.017426037752378474,0.0025522851507296987,20.8890858802507,0.018163691225942958,1.0,0.0,144.96477492977647,-1.223516912195619,29.47386692350008,113.64714500408958,0.16659465202598367,2.8467823086651034,1.0,27.821458821492328,0.0,1.0,117.67021496591266,8398.903235660824,1.0,1.0,-2.0920918162158455,19.54354026238336,-0.02381201636251482,-43.8833903904222,1.0,27.832418517058013,1.0,0.0025289150693587194,4.217694303657478,0.9313560629714995,1.0,-0.504122657290334,6.1982583552723165
1.68,1.68,1.0,19.84119336835538,-0.019246307843165587,6.507113653151522,8.905931651731342e-05,0.015790609676980285,0.001970252581621049,20.88099261998495,0.01591330200706272,1.0,0.0,171.2427088075772,-0.6562197883922533,28.3956165455231,117.5869171216006,0.09573092157338671,2.7973327027068144,1.0,27.8815795530086,0.0,1.0,117.99961127594885,8507.624837152694,1.0,1.0,1.445715563276834,19.548541884510943,0.019190654303480298,-43.82997286682808,1.0,27.585789456656645,1.0,-0.005843582137439245,4.246050151604708,0.9309747140350508,1.0,-0.46776587330913694,5.784163423473177
1.71,1.71,1.0,19.818418130796534,-0.005587038605715481,6.562417297079631,-0.003195956338407976,0.011155379556964377,0.0028591143141202193,20.876662788939594,0.011951199297064542,1.0,0.0,171.2427088075772,-0.6562197883922533,28.3956165455231,117.5869171216006,0.09573092157338671,2.7973327027068144,1.0,27.8815795530086,0.0,1.0,117.36340781400968,8352.779519282889,1.0,1.0,1.445715563276834,19.548541884510943,0.019190654303480298,-43.82997286682808,1.0,27.585789456656645,1.0,-0.005843582137439245,4.246050151604708,0.9309747140350508,1.0,-0.46776587330913694,5.784163423473177
1.74,1.74,1.0,19.818233131407908,-0.03946558466893402,6.627003829084251,0.001807005184568969,0.016898366827518035,-0.0011878143918628479,20.896916081898418,0.01703616659357197,1.0,0.0,171.2427088075772,-0.6562197883922533,28.3956165455231,117.5869171216006,0.09573092157338671,2.7973327027068144,1.0,27.016765433360046,0.0,1.0,118.72763695089161,8672.895901846383,1.0,1.0,-0.02720542223355943,19.544506996612753,-0.0029689577739050984,-43.77485730626819,1.0,27.738758466489738,1.0,0.004023067300266043,4.258490421851384,0.9306050306552986,1.0,0.49126101710753267,6.351094954352744
1.77,1.77,1.0,19.80494131111741,0.001309271755733322,6.691854933109582,-0.002069997420904604,0.012411905361062545,-0.0014905433295444915,20.904942585350014,0.012671306303289113,1.0,0.0,171.2427088075772,-0.6562197883922533,28.3956165455231,117.5869171216006,0.09573092157338671,2.7973327027068144,1.0,27.016765433360046,0.0,1.0,118.91591660751071,8659.810388471415,1.0,1.0,-0.02720542223355943,19.544506996612753,-0.0029689577739050984,-43.77485730626819,1.0,27.738758466489738,1.0,0.004023067300266043,4.258490421851384,0.9306050306552986,1.0,0.49126101710753267,6.351094954352744
1.7999999999999998,1.7999999999999998,1.0,19.788710332344426,0.025861605043716752,6.7512199941992925,-0.002603104207800255,0.011433521316429607,0.001530405507883441,20.908675157697743,0.01182555293542241,1.0,0.0,171.2427088075772,-0.6562197883922533,28.3956165455231,117.5869171216006,0.09573092157338671,2.7973327027068144,1.0,28.195537934424507,0.0,1.0,118.72482695555256,8804.31873827117,1.0,1.0,0.8388316887367576,19.725409053444903,-0.000703039909990729,-43.81039799667178,1.0,27.876778449056438,1.0,0.0041906879825363485,4.2823397170205135,0.9302459671786738,1.0,-0.1335224834729541,5.745916005822208
1.8299999999999998,1.8299999999999998,1.0,19.677940297117775,0.03570678524773388,6.8218762574373,-0.0005356509770973898,0.010102323091330183,0.002029561522082923,20.826920199185263,0.010318089638242534,1.0,0.0,171.2427088075772,-0.6562197883922533,28.3956165455231,117.5869171216006,0.09573092157338671,2.7973327027068144,1.0,28.195537934424507,0.0,1.0,120.31764858297784,8965.17141202856,1.0,1.0,0.8388316887367576,19.725409053444903,-0.000703039909990729,-43.81039799667178,1.0,27.876778449056438,1.0,0.0041906879825363485,4.2823397170205135,0.9302459671786738,1.0,-0.1335224834729541,5.745916005822208
1.8599999999999999,1.8599999999999999,1.0,19.68150416743964,-0.0362002636450503,6.871705828304115,0.001989412658696618,0.009072410007497481,-0.0002861208856126781,20.8466605897151,0.00929237597344762,1.0,0.0,171.2427088075772,-0.6562197883922533,28.3956165455231,117.5869171216006,0.09573092157338671,2.7973327027068144,1.0,26.986209212787035,0.0,1.0,121.11504504169545,8943.558775771426,1.0,1.0,2.582981932852386,19.744324764997465,-0.021259756329246635,-43.790812331930844,1.0,27.88545370235116,1.0,0.005652722057605923,4.313954370141854,0.9298964771530659,1.0,0.25652242125301056,6.10434605630417
1.89,1.89,1.0,19.693263589678818,-0.005056775392112557,6.958687786458641,0.004599939512074417,0.012096501819296878,0.0018930154118418732,20.88655050727514,0.013079308358184195,1.0,0.0,195.601673256262,0.40891242666248667,28.998013654844012,121.30474594634298,-0.1691962756553599,2.3396374242338664,1.0,26.986209212787035,0.0,1.0,121.5015431045772,9082.762493839002,1.0,1.0,2.582981932852386,19.744324764997465,-0.021259756329246635,-43.790812331930844,1.0,27.88545370235116,1.0,0.005652722057605923,4.313954370141854,0.9298964771530659,1.0,0.25652242125301056,6.10434605630417
1.92,1.92,1.0,19.67802492635183,0.022575803713398332,7.051167217134166,0.00014179554245441101,0.011893268131488815,-0.00029351584738093793,20.903208696107516,0.011897734421981823,1.0,0.0,195.601673256262,0.40891242666248667,28.998013654844012,121.30474594634298,-0.1691962756553599,2.3396374242338664,1.0,28.94396812871377,0.0,1.0,122.09267721315354,9137.421007102395,1.0,1.0,-0.5155740390053287,19.61156010054467,-0.006338735267367522,-43.75017542650709,1.0,27.84493379673791,1.0,0.012849123420604907,4.320030032111782,0.9295555141753492,1.0,-0.10696720295663363,5.554356178440924
1.95,1.95,1.0,19.740640315735085,-0.07147429725784259,7.1208181456234705,-0.0021162144294953307,0.01112651726396509,0.0002179519066950939,20.98580567224986,0.011328073665480354,1.0,0.0,195.601673256262,0.40891242666248667,28.998013654844012,121.30474594634298,-0.1691962756553599,2.3396374242338664,1.0,28.94396812871377,0.0,1.0,122.766063538623,9137.226018389414,1.0,1.0,-0.5155740390053287,19.61156010054467,-0.006338735267367522,-43.75017542650709,1.0,27.84493379673791,1.0,0.012849123420604907,4.320030032111782,0.9295555141753492,1.0,-0.10696720295663363,5.554356178440924
1.98,1.98,1.0,19.605986797308557,-0.014417234673681589,7.180982639547386,-0.003221888112977677,0.008632887661683256,0.000786981354420379,20.879689600719022,0.009248062069644384,1.0,0.0,195.601673256262,0.40891242666248667,28.998013654844012,121.30474594634298,-0.1691962756553599,2.3396374242338664,1.0,28.02888540620239,0.0,1.0,123.34421051532209,9453.751626006338,1.0,1.0,-0.020000949919573918,19.77923229458952,0.06185982146871686,-43.86170135485294,1.0,28.114402612977976,1.0,0.0068855582043811205,4.336767662725705,0.9292220327468298,1.0,-0.12187602631683302,6.139339106855486
2.01,2.01,1.0,19.63068362129513,-0.021700639687369936,7.15475321236745,0.0013160919668925707,0.01113381424168834,0.0011598577355733984,20.893891544827884,0.011271166204102871,1.0,0.0,195.601673256262,0.40891242666248667,28.998013654844012,121.30474594634298,-0.1691962756553599,2.3396374242338664,1.0,28.02888540620239,0.0,1.0,123.79246757839185,9265.492982338661,1.0,1.0,-0.020000949919573918,19.77923229458952,0.06185982146871686,-43.86170135485294,1.0,28.114402612977976,1.0,0.0068855582043811205,4.336767662725705,0.9292220327468298,1.0,-0.12187602631683302,6.139339106855486
2.04,2.04,1.0,19.602798790239195,0.023742709316761274,7.28275668387219,-0.0016907475824398809,0.009468213184427858,-0.0012339706735119986,20.911930304095176,0.009696822774310535,1.0,0.0,195.601673256262,0.40891242666248667,28.998013654844012,121.30474594634298,-0.1691962756553599,2.3396374242338664,1.0,28.468699156424396,0.0,1.0,123.95308627491161,9395.56884497754,1.0,1.0,1.2242418579207603,19.67421071357647,-0.01941096838716834,-43.75728479011302,1.0,28.368481917093185,1.0,-0.002213836397276714,4.366225415686062,0.9288949891282756,1.0,-0.10621532300064974,5.197053856159631
2.07,2.07,1.0,19.44749857037007,0.036176077940762386,7.301383970759212,0.003526330967120457,0.010399165407878882,-0.0002623183458702335,20.772980461205382,0.010983918343864248,1.0,0.0,195.601673256262,0.40891242666248667,28.998013654844012,121.30474594634298,-0.1691962756553599,2.3396374242338664,1.0,28.468699156424396,0.0,1.0,124.76020168221429,9393.112541344603,1.0,1.0,1.2242418579207603,19.67421071357647,-0.01941096838716834,-43.75728479011302,1.0,28.368481917093185,1.0,-0.002213836397276714,4.366225415686062,0.9288949891282756,1.0,-0.10621532300064974,5.197053856159631
2.1,2.1,1.0,19.586057364415577,0.02408454835637734,7.347186203700526,-0.001457109775009536,0.009492951255974626,0.0012607536951279661,20.918780276571923,0.009686526329108769,1.0,0.0,223.14167274043007,-0.6830165419621607,27.40614791842394,125.35499251922153,0.17708913712224542,2.3372747290168667,1.0,28.336192245211137,0.0,1.0,125.63239140225905,9941.909451767122,1.0,1.0,0.5279314954277303,19.79395639782298,-0.09910998885037375,-43.78216978537005,1.0,28.928905949087376,1.0,0.016002107422224143,4.393410632253788,0.9285733421882292,1.0,0.2749813149562091,5.741583998416505
2.13,2.13,1.0,19.44334201975738,0.00038358305705089873,7.495249340626837,0.0002877420194203981,0.006518317601865843,0.00016524902055238425,20.838001624977526,0.006526757776057552,1.0,0.0,223.14167274043007,-0.6830165419621607,27.40614791842394,125.35499251922153,0.17708913712224542,2.3372747290168667,1.0,28.336192245211137,0.0,1.0,126.13480407218967,9777.596742544723,1.0,1.0,0.5279314954277303,19.79395639782298,-0.09910998885037375,-43.78216978537005,1.0,28.928905949087376,1.0,0.016002107422224143,4.393410632253788,0.9285733421882292,1.0,0.2749813149562091,5.741583998416505
2.16,2.16,1.0,19.310012739120204,-0.06870809991657187,7.51059494176448,0.0025961868116929007,0.0072842230463865554,0.00025237430886986114,20.719323086607748,0.007737169000512702,1.0,0.0,223.14167274043007,-0.6830165419621607,27.40614791842394,125.35499251922153,0.17708913712224542,2.3372747290168667,1.0,28.15118808213724,0.0,1.0,125.72009982440505,9603.685949258717,1.0,1.0,0.3376994517282681,19.79666201910297,-0.009812259342758914,-43.6558746556936,1.0,28.327830824947508,1.0,-0.0034975934732207796,4.415479501018096,0.9282560542398289,1.0,0.567664548314208,5.5355205922633175
2.19,2.19,1.0,19.460146485000937,-0.018135898907971754,7.623352446615291,0.0026676125805205637,0.008740488419887341,-0.0017062898303102083,20.900074943737373,0.009296435859132054,1.0,0.0,223.14167274043007,-0.6830165419621607,27.40614791842394,125.35499251922153,0.17708913712224542,2.3372747290168667,1.0,28.15118808213724,0.0,1.0,126.71836278626739,10016.276475770077,1.0,1.0,0.3376994517282681,19.79666201910297,-0.009812259342758914,-43.6558746556936,1.0,28.327830824947508,1.0,-0.0034975934732207796,4.415479501018096,0.9282560542398289,1.0,0.567664548314208,5.5355205922633175
2.2199999999999998,2.2199999999999998,1.0,19.363337009573176,-0.038449204998105876,7.744597566086616,0.0014500105864010953,0.008214818411712576,0.0027535986454655594,20.85471385438568,0.008784536284767509,1.0,0.0,223.14167274043007,-0.6830165419621607,27.40614791842394,125.35499251922153,0.17708913712224542,2.3372747290168667,1.0,27.49737464218117,0.0,1.0,126.81384675326284,9911.409378198327,1.0,1.0,-0.2646625628562947,19.830312995830816,-0.052437718030278524,-43.76591029157825,1.0,28.969044472059167,1.0,-0.01331378396537876,4.422817462294804,0.9279420918625263,1.0,0.1696366050259891,5.308241165836967
2.25,2.25,1.0,19.401248805831514,0.05917894611161077,7.775729147294755,0.00019862819396974967,0.005332606357461123,8.414651958706461e-05,20.90152915806714,0.005336967712084559,1.0,0.0,223.14167274043007,-0.6830165419621607,27.40614791842394,125.35499251922153,0.17708913712224542,2.3372747290168667,1.0,27.49737464218117,0.0,1.0,128.49524410271846,9919.477796661675,1.0,1.0,-0.2646625628562947,19.830312995830816,-0.052437718030278524,-43.76591029157825,1.0,28.969044472059167,1.0,-0.01331378396537876,4.422817462294804,0.9279420918625263,1.0,0.1696366050259891,5.308241165836967
2.28,2.28,1.0,19.32155130867458,-0.02001906799851836,7.823209833928735,-0.0028615232326196843,0.006416501367774654,0.0005592098287743513,20.845271834219556,0.007047873483971889,1.0,0.0,223.14167274043007,-0.6830165419621607,27.40614791842394,125.35499251922153,0.17708913712224542,2.3372747290168667,1.0,28.445129022592248,0.0,1.0,128.64681362619675,10285.430147249333,1.0,1.0,-1.3949600655488243,19.832156923999996,0.022688847328453894,-43.73420859169731,1.0,29.115695561025966,1.0,-0.012245611538291267,4.436293016959793,0.9276304267059573,1.0,-0.24724453492933468,5.744829601919174
2.31,2.31,1.0,19.28438995216749,-0.009779824957662265,7.88451600142356,0.001134650921894401,0.009454385401997027,-0.0009253939295891002,20.83394787477733,0.00956708889730678,1.0,0.0,248.82011463130067,0.735731528133306,27.535251431131705,129.23533850590658,0.0787601203655793,2.2766555123168883,1.0,28.445129022592248,0.0,1.0,129.32843717837918,10241.36914754835,1.0,1.0,-1.3949600655488243,19.832156923999996,0.022688847328453894,-43.73420859169731,1.0,29.115695561025966,1.0,-0.012245611538291267,4.436293016959793,0.9276304267059573,1.0,-0.24724453492933468,5.744829601919174
2.34,2.34,1.0,19.333777001495854,-0.04518114346178106,7.965960286338756,0.004917766921879032,0.004997261319178633,0.0016458157129044075,20.9106073025826,0.007201788774389984,1.0,0.0,248.82011463130067,0.735731528133306,27.535251431131705,129.23533850590658,0.0787601203655793,2.2766555123168883,1.0,29.734013162407344,0.0,1.0,130.07519718265704,10257.053054709553,1.0,1.0,0.222128864457922,19.830234775914857,-0.0444332774677913,-43.62548793632162,1.0,29.152697988405873,1.0,0.013153339967097456,4.449454271928581,0.9273200362738923,1.0,-0.03937666346509449,5.826357294743103
2.37,2.37,1.0,19.23496710342711,-0.01619642902476557,7.993123739050577,0.00034185519537878874,0.005907802505765492,-0.002222613989071723,20.82964831441016,0.00632131381645887,1.0,0.0,248.82011463130067,0.735731528133306,27.535251431131705,129.23533850590658,0.0787601203655793,2.2766555123168883,1.0,29.734013162407344,0.0,1.0,130.1375385950521,10402.295944154614,1.0,1.0,0.222128864457922,19.830234775914857,-0.0444332774677913,-43.62548793632162,1.0,29.152697988405873,1.0,0.013153339967097456,4.449454271928581,0.9273200362738923,1.0,-0.03937666346509449,5.826357294743103
2.4,2.4,1.0,19.173086110199904,0.04298572344739715,8.085755694275903,0.0035475348447424004,0.004514502520077721,-0.0002177607575148772,20.808376291990587,0.005745707634918699,1.0,0.0,248.82011463130067,0.735731528133306,27.535251431131705,129.23533850590658,0.0787601203655793,2.2766555123168883,1.0,28.921769084793713,0.0,1.0,131.25000921600446,10551.21604268059,1.0,1.0,-1.2291867932289253,19.907615666388153,0.04920664912360764,-43.68524001483206,1.0,29.040648958940206,1.0,-0.014494516790195398,4.47806969438059,0.9270099046866929,1.0,-0.5356284848453989,5.488725499342884
2.4299999999999997,2.4299999999999997,1.0,19.163524019235293,0.025422232041985536,8.063450422128676,3.420296936638554e-05,0.010051522272440331,0.0016323079119525308,20.790876168065097,0.010183255813142491,1.0,0.0,248.82011463130067,0.735731528133306,27.535251431131705,129.23533850590658,0.0787601203655793,2.2766555123168883,1.0,28.921769084793713,0.0,1.0,131.11094284596732,10618.51558413886,1.0,1.0,-1.2291867932289253,19.907615666388153,0.04920664912360764,-43.68524001483206,1.0,29.040648958940206,1.0,-0.014494516790195398,4.47806969438059,0.9270099046866929,1.0,-0.5356284848453989,5.488725499342884
2.46,2.46,1.0,19.112866059713074,-0.04769548374948718,8.191757101913073,0.0015665638826585092,0.0065911168903300885,-0.0019672621036801816,20.79444176438611,0.007054577552555564,1.0,0.0,248.82011463130067,0.735731528133306,27.535251431131705,129.23533850590658,0.0787601203655793,2.2766555123168883,1.0,29.882313731325425,0.0,1.0,131.81557350828436,10686.366567286403,1.0,1.0,0.4683275230063883,19.947681369357625,-0.004341395700786292,-43.61998097918577,1.0,29.239901069517586,1.0,-0.015041891906678862,4.491140373647752,0.92669903242992,1.0,-0.104616857671552,5.777163155202851
2.4899999999999998,2.4899999999999998,1.0,19.08408475170191,-0.035994720481147234,8.233248250789313,0.0001974527608674576,0.0012286229011615147,0.002231366102872805,20.784368241280973,0.0025548965754179733,1.0,0.0,248.82011463130067,0.735731528133306,27.535251431131705,129.23533850590658,0.0787601203655793,2.2766555123168883,1.0,29.882313731325425,0.0,1.0,132.9895633252047,10607.703028344235,1.0,1.0,0.4683275230063883,19.947681369357625,-0.004341395700786292,-43.61998097918577,1.0,29.239901069517586,1.0,-0.015041891906678862,4.491140373647752,0.92669903242992,1.0,-0.104616857671552,5.777163155202851
2.52,2.52,1.0,19.171062006518614,-0.05384845753841455,8.358838235958485,-0.0025542457998303666,-0.001409838118334247,-0.0026686753962536984,20.91417449408612,0.003953940249476357,1.0,0.0,274.2385614398699,0.2797499899858974,32.097002305698524,133.01602720732632,0.3302690374933821,1.8784848111160544,1.0,30.06047011421747,0.0,1.0,132.94817925643528,10835.254188535328,1.0,1.0,-0.7416504399131181,19.841340865066194,-0.03655637284358268,-43.682848979004525,1.0,29.3576509550672,1.0,-0.00817651903312966,4.500564580510425,0.9263863412905503,1.0,-0.4204938551264934,5.607122453979551
2.55,2.55,1.0,19.074451538633976,0.02666899707512358,8.36517908619753,-0.0024833754218360053,-0.0039594213814706115,0.00021524192561428346,20.8281452337758,0.004678728486284275,1.0,0.0,274.2385614398699,0.2797499899858974,32.097002305698524,133.01602720732632,0.3302690374933821,1.8784848111160544,1.0,30.06047011421747,0.0,1.0,133.86473212242922,10916.882457613401,1.0,1.0,-0.7416504399131181,19.841340865066194,-0.03655637284358268,-43.682848979004525,1.0,29.3576509550672,1.0,-0.00817651903312966,4.500564580510425,0.9263863412905503,1.0,-0.4204938551264934,5.607122453979551
2.58,2.58,1.0,18.97691753741458,0.00029320064113361443,8.522198530214734,0.0030008242709290527,-0.006721641177427003,0.0013509144556352708,20.802674517864133,0.0074840080364416695,1.0,0.0,274.2385614398699,0.2797499899858974,32.097002305698524,133.01602720732632,0.3302690374933821,1.8784848111160544,1.0,29.371334555561237,0.0,1.0,134.50149985592614,11016.422920287081,1.0,1.0,0.8010619225924255,19.946943248086818,0.05153620772181696,-43.65761794571992,1.0,29.64104520432612,1.0,-0.001783501510815391,4.517759020559008,0.9260705523388847,1.0,0.06394279579200407,5.8716740070628735
2.61,2.61,1.0,19.051117401197935,-0.07000512845858743,8.584012659885506,-0.0022821948198917265,-0.004715667060914554,0.0024812605009358066,20.895818919040046,0.005796773473134805,1.0,0.0,274.2385614398699,0.2797499899858974,32.097002305698524,133.01602720732632,0.3302690374933821,1.8784848111160544,1.0,29.371334555561237,0.0,1.0,135.11098789208097,11176.435224868743,1.0,1.0,0.8010619225924255,19.946943248086818,0.05153620772181696,-43.65761794571992,1.0,29.64104520432612,1.0,-0.001783501510815391,4.517759020559008,0.9260705523388847,1.0,0.06394279579200407,5.8716740070628735
2.6399999999999997,2.6399999999999997,1.0,19.003721680013527,0.0009305676708977279,8.695105967978838,0.0015384030063518074,-0.0050508838064607835,0.0013728176889910518,20.898476172959445,0.005455523755197734,1.0,0.0,274.2385614398699,0.2797499899858974,32.097002305698524,133.01602720732632,0.3302690374933821,1.8784848111160544,1.0,29.59948031191483,0.0,1.0,135.36482904401979,11254.467591970846,1.0,1.0,-0.34229204311321615,19.842758061343055,-0.005034963382186777,-43.670438981362025,1.0,29.28029585887336,1.0,-0.02672714126934823,4.539830269348867,0.9257502777946742,1.0,-0.4936129820497409,5.562530294134892
2.67,2.67,1.0,18.90559138994793,-0.08742082570059775,8.748604491834557,9.957878598770084e-05,-0.0031890753863950887,0.001797097125387282,20.831877225996394,0.003661922423100331,1.0,0.0,274.2385614398699,0.2797499899858974,32.097002305698524,133.01602720732632,0.3302690374933821,1.8784848111160544,1.0,29.59948031191483,0.0,1.0,135.96288527155454,11264.797409190096,1.0,1.0,-0.34229204311321615,19.842758061343055,-0.005034963382186777,-43.670438981362025,1.0,29.28029585887336,1.0,-0.02672714126934823,4.539830269348867,0.9257502777946742,1.0,-0.4936129820497409,5.562530294134892
2.6999999999999997,2.6999999999999997,1.0,18.862549137487928,0.1240475887384927,8.782850583528937,0.0042108736030761545,-0.008132163032529172,0.002512964526777754,20.807441268474435,0.009496237297033017,1.0,0.0,274.2385614398699,0.2797499899858974,32.097002305698524,133.01602720732632,0.3302690374933821,1.8784848111160544,1.0,30.743452506914114,0.0,1.0,136.51995552831704,11352.8739499158,1.0,1.0,-0.06987386924032982,19.875936568460215,-0.07050907541709227,-43.68049256993486,1.0,29.805722647857777,1.0,0.018408803690022343,4.560364444575749,0.9254240457336759,1.0,-0.4325102592444651,5.590515388854493
2.73,2.73,1.0,18.9655919406531,-0.03731179776720895,8.977262198106672,-0.001737006089868119,-0.009728492177786383,-0.0006363785878978836,20.983000414696974,0.009902814141274422,1.0,0.0,307.0591365610707,-1.185151627813481,30.441184978783216,137.29037017410081,0.01747772223439536,2.273013235659379,1.0,30.743452506914114,0.0,1.0,137.58885299120135,11436.796022092522,1.0,1.0,-0.06987386924032982,19.875936568460215,-0.07050907541709227,-43.68049256993486,1.0,29.805722647857777,1.0,0.018408803690022343,4.560364444575749,0.9254240457336759,1.0,-0.4325102592444651,5.590515388854493
2.76,2.76,1.0,18.875295036803532,-0.04954717049247868,9.028199946170641,0.002347702998052887,-0.005158130906869286,-0.005618719928166666,20.923374773599967,0.007980478522660399,1.0,0.0,307.0591365610707,-1.185151627813481,30.441184978783216,137.29037017410081,0.01747772223439536,2.273013235659379,1.0,29.080171241159988,0.0,1.0,137.59903731408758,11713.196281825767,1.0,1.0,-1.8997482365369152,19.85579108366231,-0.061852045118369184,-43.796456998916696,1.0,29.858729454493098,1.0,0.012041295468231333,4.562044665842371,0.9250903251096625,1.0,-0.38478492136181,6.375995055295417
2.79,2.79,1.0,18.809313254869423,0.03569029295528693,9.071745131527324,0.0007462076260742935,-0.007597762213269575,-6.670073471039651e-05,20.88272249128948,0.0076346097122648865,1.0,0.0,307.0591365610707,-1.185151627813481,30.441184978783216,137.29037017410081,0.01747772223439536,2.273013235659379,1.0,29.080171241159988,0.0,1.0,138.26353314845755,11500.21864105903,1.0,1.0,-1.8997482365369152,19.85579108366231,-0.061852045118369184,-43.796456998916696,1.0,29.858729454493098,1.0,0.012041295468231333,4.562044665842371,0.9250903251096625,1.0,-0.38478492136181,6.375995055295417
2.82,2.82,1.0,18.801559728554526,0.03194189545747804,9.14204794371045,0.0010269540290496354,-0.007366922512463485,-0.0006801367350164985,20.9063796271901,0.007469187898342195,1.0,0.0,307.0591365610707,-1.185151627813481,30.441184978783216,137.29037017410081,0.01747772223439536,2.273013235659379,1.0,30.209612751503492,0.0,1.0,139.01359664425812,11969.492299233361,1.0,1.0,1.7590305268914763,19.75694562630469,-0.04810973799388072,-43.72338650433292,1.0,30.314694258546943,1.0,-0.004597762074426365,4.600062760820595,0.9247475481008488,1.0,-0.0025744444125827973,5.770433855129868
2.85,2.85,1.0,18.81609696371556,-0.006332590632898815,9.27118245904124,-0.0007405145300093679,-0.00904962455224461,-3.0100923989533916e-05,20.976185764778208,0.009079921385748254,1.0,0.0,307.0591365610707,-1.185151627813481,30.441184978783216,137.29037017410081,0.01747772223439536,2.273013235659379,1.0,30.209612751503492,0.0,1.0,139.0974343371086,11877.805089570236,1.0,1.0,1.7590305268914763,19.75694562630469,-0.04810973799388072,-43.72338650433292,1.0,30.314694258546943,1.0,-0.004597762074426365,4.600062760820595,0.9247475481008488,1.0,-0.0025744444125827973,5.770433855129868
2.88,2.88,1.0,18.682083586389975,-0.004887528835496673,9.334542265988114,0.002680880990039198,-0.008754217411104563,0.0018870915609345495,20.88429913433339,0.009347970898702575,1.0,0.0,307.0591365610707,-1.185151627813481,30.441184978783216,137.29037017410081,0.01747772223439536,2.273013235659379,1.0,29.959303336935903,0.0,1.0,139.1428947940405,11789.746635393441,1.0,1.0,-1.175887111253461,19.692433562097758,0.006521553441295635,-43.72083647405074,1.0,30.12873342050305,1.0,-0.000947457740456373,4.596428916686639,0.9243941250455021,1.0,0.7068505799339218,5.669996762702189
2.9099999999999997,2.9099999999999997,1.0,18.671187977034062,0.016568585159291646,9.476018294716335,0.001983681503045746,-0.00958649572031365,-0.00014200366073955628,20.938205694699683,0.009790610682729713,1.0,0.0,307.0591365610707,-1.185151627813481,30.441184978783216,137.29037017410081,0.01747772223439536,2.273013235659379,1.0,29.959303336935903,0.0,1.0,139.7274366221728,12200.302043446418,1.0,1.0,-1.175887111253461,19.692433562097758,0.006521553441295635,-43.72083647405074,1.0,30.12873342050305,1.0,-0.000947457740456373,4.596428916686639,0.9243941250455021,1.0,0.7068505799339218,5.669996762702189
2.94,2.94,1.0,18.723674769228037,0.025580798202794363,9.553590394985463,-0.00021615437604884916,-0.004107982099224848,0.0038970605978013643,21.020174610983176,0.005666508708611749,1.0,0.0,333.6428798488972,1.9264170642812504,30.024988565082072,140.7263940382773,0.050668495093210884,2.709400617962622,1.0,30.326872503178016,0.0,1.0,140.98032412047476,12189.760540110641,1.0,1.0,-0.149666521266087,19.71660813382979,0.014094233154586041,-43.763941828454904,1.0,30.12774301915786,1.0,0.005863926270943099,4.627482665465849,0.9240284569708478,1.0,0.6004504253365485,5.552686204339971
2.9699999999999998,2.9699999999999998,1.0,18.75240368761881,-0.03224667229935631,9.669736338229166,-0.000241288437724017,-0.011782362638183521,-0.002218984116355668,21.098755526385045,0.011991921445559963,1.0,0.0,333.6428798488972,1.9264170642812504,30.024988565082072,140.7263940382773,0.050668495093210884,2.709400617962622,1.0,30.326872503178016,0.0,1.0,141.57580966062756,12146.860827343717,1.0,1.0,-0.149666521266087,19.71660813382979,0.014094233154586041,-43.763941828454904,1.0,30.12774301915786,1.0,0.005863926270943099,4.627482665465849,0.9240284569708478,1.0,0.6004504253365485,5.552686204339971
3.0,3.0,1.0,18.620729419444285,0.05206664782602019,9.67538479332006,0.0009601939971874288,-0.009830989902320147,0.0036453425178895986,20.984454864179405,0.010528953273924677,1.0,0.0,333.6428798488972,1.9264170642812504,30.024988565082072,140.7263940382773,0.050668495093210884,2.709400617962622,1.0,29.872127178822325,0.0,1.0,142.10770407921757,12203.22789030782,1.0,1.0,0.1524859149259115,19.732650834352402,0.07289848942119798,-43.776387057418376,1.0,30.351950838308074,1.0,-0.001675983752696525,4.618362083248744,0.9236489454656719,1.0,-1.0965920951493127,5.481903495785441
