time_s,x_m,y_m,altitude_m,vx_mps,vy_mps,vz_mps,speed_mps,mass_kg,roll_deg,pitch_deg,yaw_deg,p_dps,q_dps,r_dps,alpha_deg,beta_deg,qbar_pa,mach,airspeed_mps,load_factor_g,density_kgpm3,pressure_pa,temperature_k,wind_x_mps,wind_y_mps,wind_z_mps,thrust_n,mass_flow_kgps,propulsion_throttle_actual,propulsion_health,energy_j_per_kg,target_distance_m,guidance_mode,pitch_command_deg,heading_command_deg,roll_command_deg
0.0,0.0,0.0,20.0,85.0,0.0,8.0,85.37564055396598,18.01840612980101,0.0,6.000000000000002,0.0,0.0,0.0,0.0,0.623294571949261,0.0,4455.946741876431,0.2509445034436674,85.37564055396597,1.7442355250325887,1.2226496753673843,101084.96761777384,288.02,0.0,0.0,0.0,326.8,0.17539118863220368,0.86,nominal,3840.633,nan,pitch_program,13.0,0.0,0.0
0.03,2.565291924701109,0.0,20.23294907555394,85.50973082337029,0.0,7.76496918513128,85.86156772346567,18.013144394142046,0.0,6.265582975204377,0.0,0.0,-8.852781691043555,0.0,1.076897697062698,0.0,4506.713521321092,0.25237345189344096,85.86156772346567,1.7722779351951998,1.2226223201999833,101082.17456690547,288.0184858310089,0.0,0.0,0.0,332.605,0.1785066900092231,0.86,nominal,3884.521856017422,nan,pitch_program,12.985,0.0,0.0
0.06,5.146061394150594,0.0,20.459335152508718,86.02564898164952,0.0,7.546202565159321,86.35599258805607,18.00778919344177,0.0,6.6413065372118085,0.0,0.0,-12.52416361425763,0.0,1.628131310695352,0.0,4558.66671433108,0.25382736645434206,86.35599258805608,1.8008932389896144,1.2225957361729365,101079.46026602437,288.01701432150867,0.0,0.0,0.0,338.40999999999997,0.18162219138624247,0.86,nominal,3929.316267007547,nan,pitch_program,12.97,0.0,0.0
0.09,7.74246198077018,0.0,20.67977771139081,86.54668622065284,0.0,7.34808529606971,86.8580638357456,18.002340527700184,0.0,6.946399106541867,0.0,0.0,-10.169776340702374,0.0,2.093446172297416,0.0,4611.731075971943,0.2553037464998666,86.8580638357456,1.830601016613368,1.222569850505303,101076.81728284952,288.0155814448759,0.0,0.0,0.0,344.215,0.18473769276326188,0.86,nominal,3974.960968740639,nan,pitch_program,12.955,0.0,0.0
0.12,10.35466754680735,0.0,20.89474794634162,87.07351886790569,0.0,7.165674498360435,87.36786926013465,17.996798396917285,0.0,7.124620538905501,0.0,0.0,-5.940719202087215,0.0,2.4200923570951667,0.0,4665.929872971435,0.2568028513201554,87.36786926013465,1.860736689496921,1.2225446078340851,101074.23996367541,288.01418413834875,0.0,0.0,0.0,350.02,0.1878531941402813,0.86,nominal,4021.4797694759814,nan,pitch_program,12.94,0.0,0.0
0.15,12.982888442743059,0.0,21.10452800574428,87.60736319785694,0.0,6.9926686467553285,87.88599149628189,17.991162801093076,0.0,7.2193625956224245,0.0,0.0,-3.1580692768136602,0.0,2.6557873217307266,0.0,4721.340053080432,0.2583263941850178,87.8859914962819,1.8912128804261736,1.2225199749985993,101071.72492180944,288.01282056796265,0.0,0.0,0.0,355.825,0.1909686955173007,0.86,nominal,4068.9384702097987,nan,pitch_program,12.925,0.0,0.0
0.18,15.62735633115415,0.0,21.30930992846044,88.14892961370302,0.0,6.826064090538659,88.41283245666158,17.985433740227556,0.0,7.289072716732276,0.0,0.0,-2.323670990303702,0.0,2.861047365782847,0.0,4778.0207819069465,0.25987555692162506,88.41283245666155,1.922141375149086,1.2224959294215463,101069.26985121435,288.011489485465,0.0,0.0,0.0,361.63,0.19408419689432013,0.86,nominal,4117.387415714792,nan,pitch_program,12.91,0.0,0.0
0.21,18.28830560439879,0.0,21.509286881178102,88.69830910815467,0.0,6.665898423922036,88.94843585158651,17.979611214320727,0.0,7.358346843569196,0.0,0.0,-2.3091378425278886,0.0,3.060505685152035,0.0,4835.993575243996,0.2614504684951381,88.94843585158651,1.9534632157620626,1.222472448395221,101066.87243260186,288.0101896352723,0.0,0.0,0.0,367.435,0.19719969827133954,0.86,nominal,4166.846168415205,nan,pitch_program,12.895,0.0,0.0
0.24,20.965967276371366,0.0,21.704675358734846,89.25538906575252,0.0,6.512949251891402,89.49269794366784,17.973695223372587,0.0,7.421404686694326,0.0,0.0,-2.1019283163340745,0.0,3.2479390880941637,0.0,4895.264199843498,0.26305082454522605,89.49269794366784,1.9849956199507162,1.2224495064747676,101064.53006728296,288.0089196101682,0.0,0.0,0.0,373.24,0.20031519964835895,0.86,nominal,4217.3216472250215,nan,pitch_program,12.88,0.0,0.0
0.27,23.660572820847836,0.0,21.895692069314663,89.82018481588239,0.0,6.367223685993884,90.04558366642281,17.967685767383138,0.0,7.46633392145672,0.0,0.0,-1.4976412354895312,0.0,3.411501558288909,0.0,4955.845980435745,0.26467652256571306,90.0455836664228,2.0165776830298405,1.2224270781922986,101062.24015428056,288.00767800154944,0.0,0.0,0.0,379.045,0.20343070102537836,0.86,nominal,4268.826957544919,nan,pitch_program,12.865,0.0,0.0
0.3,26.372359135669893,0.0,22.082530441872155,90.39287716073518,0.0,6.227945751916437,90.60717162390941,17.961582846352375,0.0,7.490094890233844,0.0,0.0,-0.7920323039219993,0.0,3.54872267081602,0.0,5017.765018938314,0.26632779410736546,90.60717162390941,2.048165310973829,1.2224051408151517,101060.00037194132,288.0064635521278,0.0,0.0,0.0,384.84999999999997,0.20654620240239774,0.86,nominal,4321.385422000073,nan,pitch_program,12.850000000000001,0.0,0.0
0.32999999999999996,29.101569688892763,0.0,22.26535709931905,90.97368510742898,0.0,6.094221914896459,91.17757905742864,17.9553864602803,0.0,7.49783023043643,0.0,0.0,-0.2578446738112447,0.0,3.665378120272724,0.0,5081.052225273534,0.2680049842182304,91.17757905742863,2.0797962346347525,1.2223836747597085,101057.8087201777,288.0052751788544,0.0,0.0,0.0,390.655,0.20966170377941715,0.86,nominal,4375.024025584862,nan,pitch_program,12.835,0.0,0.0
0.36,31.848452614584623,0.0,22.444321620350046,91.56276418972868,0.0,5.965484034366528,91.75688958235312,17.94909660916692,0.0,7.495781287189683,0.0,0.0,0.06829810823225552,0.0,3.7681232928857162,0.0,5145.735352959655,0.26970833906347014,91.75688958235312,2.111501587085322,1.22236266244499,101055.66340341367,288.0041119094677,0.0,0.0,0.0,396.46,0.21277720515643656,0.86,nominal,4429.766999532278,nan,pitch_program,12.82,0.0,0.0
0.39,34.61325861176608,0.0,22.619565807399347,92.1601999060486,0.0,5.841472901643428,92.3451420074899,17.942713293012226,0.0,7.487050982046653,0.0,0.0,0.29101017199741497,0.0,3.860272709568599,0.0,5211.837624947377,0.271437973087243,92.3451420074899,2.1432695418536603,1.2223420872043282,101053.56271946365,288.0029728222519,0.0,0.0,0.0,402.265,0.21589270653345596,0.86,nominal,4485.63479121687,nan,pitch_program,12.805,0.0,0.0
0.42,37.396240147806374,0.0,22.791226440880827,92.76605120134326,0.0,5.722021116049315,92.94235730356075,17.936236511816222,0.0,7.472095652922373,0.0,0.0,0.4985109736397067,0.0,3.9424335090452574,0.0,5279.3806420980145,0.2731939482904001,92.94235730356075,2.1531988418899126,1.2223219329619064,101051.50502650451,288.0018570281342,0.0,0.0,0.0,404.1773684210526,0.21691906078826353,0.86,nominal,4542.646471347841,nan,pitch_program,12.79,0.0,0.0
0.44999999999999996,40.19745794230508,0.0,22.959408555769166,93.37392648329025,0.0,5.606070496277901,93.54206633016041,17.929728939992575,0.0,7.450947236920584,0.0,0.0,0.7049472080632331,0.0,4.015094441433049,0.0,5347.644291495754,0.2749572495683255,93.5420663301604,2.1522256213747455,1.2223021873701392,101049.48906338937,288.00076384438745,0.0,0.0,0.0,404.14342105263154,0.21690084148196515,0.86,nominal,4600.213970571499,nan,pitch_program,12.775,0.0,0.0
0.48,43.01687792480427,0.0,23.124197041017375,93.98066608330642,0.0,5.492949508273655,94.14105423120344,17.923221914748115,0.0,7.424355397552346,0.0,0.0,0.886394661518908,0.0,4.079356985390452,0.0,5416.264116187145,0.2767184272648974,94.14105423120341,2.151285225483353,1.2222828404475903,101047.51381057556,287.99969271923334,0.0,0.0,0.0,404.1094736842105,0.2168826221756668,0.86,nominal,4658.039952793486,nan,pitch_program,12.76,0.0,0.0
0.51,45.854467900249894,0.0,23.285670099363056,94.58633251485416,0.0,5.382435278189419,94.73935247896966,17.916715436082846,0.0,7.393534552144817,0.0,0.0,1.0273615383577381,0.0,4.136630651746498,0.0,5485.242185722325,0.2784775739215044,94.73935247896968,2.150379455114531,1.2222638829985906,101045.57832876865,287.9986431443541,0.0,0.0,0.0,404.0755263157895,0.21686440286936848,0.86,nominal,4716.126870747146,nan,pitch_program,12.745,0.0,0.0
0.54,48.710197144343915,0.0,23.44390092824756,95.19097480313415,0.0,5.274360962816904,95.33698425866538,17.910209503996764,0.0,7.3595372449878935,0.0,0.0,1.133243605146971,0.0,4.188123831510496,0.0,5554.579699012865,0.28023475771192735,95.33698425866537,2.149507856623255,1.2222453064158199,101043.68173876483,287.99761464396636,0.0,0.0,0.0,404.0415789473684,0.2168461835630701,0.86,nominal,4774.476414806504,nan,pitch_program,12.73,0.0,0.0
0.57,51.58403607245597,0.0,23.59895898427132,95.79463093706858,0.0,5.168601867458647,95.93396563070596,17.903704118489873,0.0,7.323018518072695,0.0,0.0,1.217290938382935,0.0,4.234617810459862,0.0,5624.2770896488255,0.28199002586203853,95.93396563070597,2.1486652463725133,1.2222271025318108,101041.82320628833,287.9966067666022,0.0,0.0,0.0,404.0076315789474,0.21682796425677175,0.86,nominal,4833.08961193984,nan,pitch_program,12.715,0.0,0.0
0.6,54.47595606531807,0.0,23.75091053531916,96.39733309540337,0.0,5.065051701594679,96.53030910882849,17.89719927956217,0.0,7.284396747928107,0.0,0.0,1.287392386900057,0.0,4.276642808730423,0.0,5694.334421752667,0.2837434151685643,96.53030910882848,2.14784570799025,1.222209263554081,101040.00193536746,287.99561908152043,0.0,0.0,0.0,403.9736842105263,0.21680974495047337,0.86,nominal,4891.967155124176,nan,pitch_program,12.7,0.0,0.0
0.63,57.38592937045985,0.0,23.89981892006844,96.99911017139249,0.0,4.96361282497605,97.12602548399788,17.890694987213656,0.0,7.244059171515974,0.0,0.0,1.3445859359412706,0.0,4.314689801505088,0.0,5764.751593419421,0.2854949573607286,97.12602548399788,2.14704596802992,1.2221917820346293,101038.21716521888,287.99465117701953,0.0,0.0,0.0,403.9397368421053,0.21679152564417503,0.86,nominal,4951.109572371592,nan,pitch_program,12.685,0.0,0.0
0.6599999999999999,60.31392899422375,0.0,24.04574489426879,97.59998745879666,0.0,4.864199140011642,97.72112353647474,17.88419124144433,0.0,7.2024121046862835,0.0,0.0,1.388235622112797,0.0,4.349259301616196,0.0,5835.528295861107,0.2872446782546599,97.72112353647474,2.1462651633616447,1.222174650829251,101036.46816609305,287.9937026581872,0.0,0.0,0.0,403.9057894736842,0.21677330633787664,0.86,nominal,5010.517196782858,nan,pitch_program,12.67,0.0,0.0
0.69,63.25992857263808,0.0,24.18874708966302,98.19998594714431,0.0,4.766739846474391,98.3156093852004,17.877688042254196,0.0,7.159826397624101,0.0,0.0,1.419523634089155,0.0,4.380804917506727,0.0,5906.663927664106,0.28899259584211956,98.3156093852004,2.145502917781865,1.222157863043627,101034.75423376913,287.9927731439172,0.0,0.0,0.0,403.8718421052631,0.21675508703157828,0.86,nominal,5070.190101038497,nan,pitch_program,12.655,0.0,0.0
0.72,66.22390225125575,0.0,24.32888243636171,98.79912262058882,0.0,4.671178223289661,98.90948658542254,17.871185389643248,0.0,7.116596260620428,0.0,0.0,1.4410046351506516,0.0,4.409693255494989,0.0,5978.157596694602,0.2907387205785606,98.90948658542253,2.144758321665065,1.2221414119837082,101033.07468448867,287.9918622641636,0.0,0.0,0.0,403.8378947368421,0.21673686772527995,0.86,nominal,5130.128103240488,nan,pitch_program,12.64,0.0,0.0
0.75,69.20582459274632,0.0,24.46620646768639,99.39741138301915,0.0,4.577467710822737,99.50275674718148,17.86468328361149,0.0,7.072950384748852,0.0,0.0,1.454862599405426,0.0,4.436217644960584,0.0,6050.008185848784,0.2924830572018973,99.50275674718148,2.144030255421472,1.2221252911199159,101031.4288512999,287.99096965796,0.0,0.0,0.0,403.80394736842106,0.21671864841898159,0.86,nominal,5190.330823800722,nan,pitch_program,12.625,0.0,0.0
0.78,72.20567050633788,0.0,24.60077354082601,99.9948637863854,0.0,4.485569104654045,100.09542004432768,17.85818172415892,0.0,7.029081846045056,0.0,0.0,1.4622846948950365,0.0,4.460629909188393,0.0,6122.214408159898,0.29422560622927496,100.09542004432768,2.1433179833158693,1.2221094940612036,101029.816081409,287.9900949719846,0.0,0.0,0.0,403.77,0.21670042911268322,0.86,nominal,5250.79773276934,nan,pitch_program,12.61,0.0,0.0
0.8099999999999999,75.22341518622002,0.0,24.73263703198444,100.59148932940481,0.0,4.395449705280865,100.68747540592828,17.851680711285542,0.0,6.985162805004366,0.0,0.0,1.4639681063717078,0.0,4.4831557394615285,0.0,6194.7748250567065,0.2959663645201924,100.68747540592828,2.1426212380149776,1.2220940145321384,101028.23573383957,287.9892378592921,0.0,0.0,0.0,403.73605263157896,0.21668220980638486,0.86,nominal,5311.528166759417,nan,pitch_program,12.595,0.0,0.0
0.84,78.25903405403551,0.0,24.861849524071108,101.18729559384967,0.0,4.307083069555623,101.27892058155616,17.84518024499135,0.0,6.9413429335512875,0.0,0.0,1.4606624529669765,0.0,4.503993427087791,0.0,6267.68784985326,0.2977053254689137,101.27892058155618,2.141939933605726,1.2220788463508439,101026.68717718028,287.98839797809353,0.0,0.0,0.0,403.7021052631579,0.2166639905000865,0.86,nominal,5372.521333717812,nan,pitch_program,12.58,0.0,0.0
0.87,81.31250270771923,0.0,24.988462973442388,101.78228845612396,0.0,4.220448312376024,101.8697522688804,17.83868032527635,0.0,6.897746502587259,0.0,0.0,1.4532144355816874,0.0,4.523311498662842,0.0,6340.951759296095,0.2994424793799662,101.8697522688804,2.1412739576418653,1.2220639834094116,101025.16978758454,287.9875749906726,0.0,0.0,0.0,403.66815789473685,0.21664577119378817,0.86,nominal,5433.7763240800405,nan,pitch_program,12.565,0.0,0.0
0.8999999999999999,84.3837968787425,0.0,25.11252884552707,102.37647236744225,0.0,4.13552906948934,102.45996630433888,17.832180952140536,0.0,6.854475474707361,0.0,0.0,1.44236766455235,0.0,4.541252527123389,0.0,6414.5647135867885,0.3011778140289865,102.45996630433888,2.1406231864200067,1.2220494196579685,101023.68294714323,287.98676856250404,0.0,0.0,0.0,403.6342105263158,0.2166275518874898,0.86,nominal,5495.292128546116,nan,pitch_program,12.55,0.0,0.0
0.9299999999999999,87.47289239665048,0.0,25.234098224440494,102.96985059693273,0.0,4.052312630447447,103.04955783315876,17.82568212558391,0.0,6.811615209773,0.0,0.0,1.428675564433912,0.0,4.557939434224681,0.0,6488.524774649011,0.30291131516279196,103.04955783315876,2.1399875676439026,1.2220351490917907,101022.22604256899,287.98597836154113,0.0,0.0,0.0,403.6002631578947,0.21660933258119142,0.86,nominal,5557.067654157475,nan,pitch_program,12.535000000000002,0.0,0.0
0.96,90.57976515863258,0.0,25.35322190631636,103.56242539940347,0.0,3.970789395862223,103.63852142438785,17.819183845606474,0.0,6.769238128973264,0.0,0.0,1.412569424385151,0.0,4.5734795492100515,0.0,6562.829918179907,0.3046429668377757,103.63852142438786,2.1393671296641292,1.2220211657403373,101020.79846407595,287.98520405760894,0.0,0.0,0.0,403.56631578947366,0.21659111327489305,0.86,nominal,5619.101735124227,nan,pitch_program,12.520000000000001,0.0,0.0
0.99,93.70439110292963,0.0,25.469950480690105,104.15419814323494,0.0,3.890952479124814,104.2268511567679,17.812686112208226,0.0,6.727405013063728,0.0,0.0,1.394437258930499,0.0,4.587966207241081,0.0,6637.478042494931,0.30637275167256484,104.2268511567679,2.1387619315555684,1.2220074636576839,101019.39960440298,287.9844453218755,0.0,0.0,0.0,403.53236842105264,0.21657289396859472,0.86,nominal,5681.3931409089855,nan,pitch_program,12.505,0.0,0.0
1.02,96.8467461859283,0.0,25.584334399630187,104.74516943328877,0.0,3.812797298002727,104.8145407033014,17.80618892538917,0.0,6.686165945304985,0.0,0.0,1.374635651302367,0.0,4.601479987169442,0.0,6712.466977586285,0.3081006510968081,104.8145407033014,2.138172027395571,1.2219940369143982,101018.02885798362,287.98370182640235,0.0,0.0,0.0,403.49842105263156,0.21655467466229633,0.86,nominal,5743.940584362147,nan,pitch_program,12.49,0.0,0.0
1.05,100.00680636281302,0.0,25.696424034619472,105.33533922949069,0.0,3.7363211663095592,105.40158341528694,17.7996922851493,0.0,6.64556186333568,0.0,0.0,1.3534694556217273,0.0,4.61409054765171,0.0,6787.794494487442,0.30982664559836837,105.40158341528694,2.1375974666200355,1.2219808795908507,101016.68562026307,287.98297324377495,0.0,0.0,0.0,403.46447368421053,0.216536455355998,0.86,nominal,5806.742729983946,nan,pitch_program,12.475,0.0,0.0
1.08,103.18454757126409,0.0,25.806269723114315,105.92470694836888,0.0,3.6615229498280706,105.98797239503142,17.79319619148862,0.0,6.605626223156831,0.0,0.0,1.3311880598549266,0.0,4.625858530358518,0.0,6863.458313541558,0.3115507149372039,105.98797239503142,2.1370383031170035,1.2219679857717376,101015.36928713851,287.98225924679974,0.0,0.0,0.0,403.43052631578945,0.21651823604969964,0.86,nominal,5869.798201185151,nan,pitch_program,12.46,0.0,0.0
1.1099999999999999,106.37994571761517,0.0,25.913921807023115,106.51327154503609,0.0,3.588402796959989,106.57370055440425,17.786700644407127,0.0,6.566386208725798,0.0,0.0,1.3080005321601367,0.0,4.636836959943496,0.0,6939.4561111456305,0.31327283831761016,106.57370055440425,2.1364945920569918,1.2219553495415565,101014.07925449705,287.98155950825435,0.0,0.0,0.0,403.3965789473684,0.21650001674340127,0.86,nominal,5933.105586218756,nan,pitch_program,12.445,0.0,0.0
1.14,109.5929766650907,0.0,26.019430664376276,107.10103158251768,0.0,3.516961911771997,107.15876066439134,17.780205643904825,0.0,6.527863548664887,0.0,0.0,1.284088717069842,0.0,4.647072221646393,0.0,7015.78552557347,0.314992994533988,107.15876066439132,2.1359663797500654,1.221942964980878,101012.81491783466,287.9808737006815,0.0,0.0,0.0,403.3626315789474,0.21648179743710294,0.86,nominal,5996.663443288958,nan,pitch_program,12.43,0.0,0.0
1.17,112.82361622390094,0.0,26.122846734808213,107.6879852936748,0.0,3.4472023477312597,107.74314539977438,17.77371118998171,0.0,6.490075239940446,0.0,0.0,1.2596103364735334,0.0,4.656604929206159,0.0,7092.444162374719,0.31671116210226424,107.74314539977438,2.1354536980731784,1.221930826163348,101011.57567194996,287.98020149622374,0.0,0.0,0.0,403.3286842105263,0.21646357813080455,0.86,nominal,6060.470305250368,nan,pitch_program,12.415,0.0,0.0
1.2,116.07184014297891,0.0,26.22422053953508,108.27413063593252,0.0,3.379126824228897,108.32684737894482,17.767217282637787,0.0,6.45303426911975,0.0,0.0,1.2346990703596263,0.0,4.665470773266764,0.0,7169.429599325811,0.31842731937699525,108.32684737894483,2.1349565644888373,1.2219189271533284,101010.36091070306,287.979542566493,0.0,0.0,0.0,403.2947368421053,0.21644535882450622,0.86,nominal,6124.524683884634,nan,pitch_program,12.4,0.0,0.0
1.23,119.3376241031179,0.0,26.32360269667847,108.85946533796643,0.0,3.3127385714463773,108.90985919791956,17.76072392187305,0.0,6.416750246832209,0.0,0.0,1.2094674500048848,0.0,4.673701263655733,0.0,7246.739390783612,0.32014144465141203,108.90985919791956,2.1344749823263647,1.221907262004096,101009.1700268313,287.9788965824716,0.0,0.0,0.0,403.26078947368416,0.2164271395182078,0.86,nominal,6188.8250736407135,nan,pitch_program,12.385,0.0,0.0
1.26,122.62094371129578,0.0,26.42104393267974,109.44398693926267,0.0,3.2480412000423637,109.49217345910469,17.754231107687506,0.0,6.381229910218058,0.0,0.0,1.184011258393043,0.0,4.681324322940365,0.0,7324.371071484884,0.3218535162420159,109.49217345910469,2.1340089391318062,1.2218958247564904,101008.00241181112,287.97826321443756,0.0,0.0,0.0,403.22684210526313,0.21640892021190947,0.86,nominal,6253.369954881749,nan,pitch_program,12.37,0.0,0.0
1.29,125.92177449602407,0.0,26.51659509033614,110.02769282427639,0.0,3.1850385885466412,110.07378279610387,17.747738840081148,0.0,6.346477534546609,0.0,0.0,1.1584125578960658,0.0,4.688364776827447,0.0,7402.32215993917,0.32356351256153587,110.07378279610387,2.1335584048681215,1.2218846094379634,101006.85745576068,287.9776421319128,0.0,0.0,0.0,403.1928947368421,0.21639070090561113,0.86,nominal,6318.157796764571,nan,pitch_program,12.355,0.0,0.0
1.3199999999999998,129.2400919035899,0.0,26.610307133885176,110.61058025219394,0.0,3.123734784967831,110.6546798953115,17.74124711905398,0.0,6.312495298175716,0.0,0.0,1.1327412455684236,0.0,4.694844787884367,0.0,7480.590161494966,0.3252714121824254,110.6546798953115,2.1331233313702906,1.2218736100619771,101005.73454737813,287.97703300362974,0.0,0.0,0.0,403.158947368421,0.21637248159931274,0.86,nominal,6383.187059821443,nan,pitch_program,12.34,0.0,0.0
1.3499999999999999,132.5758712950687,0.0,26.702231151548403,111.19264638262737,0.0,3.064133922107579,111.23485751447083,17.734755944606,0.0,6.279283605241719,0.0,0.0,1.107056462130637,0.0,4.700784237627906,0.0,7559.172571086992,0.32697719389142893,111.23485751447082,2.132703652489289,1.2218628206276914,101004.6330739095,287.9764354975149,0.0,0.0,0.0,403.125,0.2163542622930144,0.86,nominal,6448.456198254646,nan,pitch_program,12.325,0.0,0.0
1.38,135.9290879439971,0.0,26.792418355914972,111.77388829761325,0.0,3.0062401455522196,111.81430849842097,17.72826531673721,0.0,6.246841358059904,0.0,0.0,1.081408268286404,0.0,4.706201049854563,0.0,7638.066875679812,0.3286808367358774,111.81430849842097,2.132299284071077,1.2218522351199184,101003.5524211439,287.97584928068653,0.0,0.0,0.0,403.0910526315789,0.21633604298671602,0.86,nominal,6513.963661960061,nan,pitch_program,12.31,0.0,0.0
1.41,139.29971703461212,0.0,26.880920082480657,112.35430302050042,0.0,2.950057552189453,112.39302579245592,17.72177523544761,0.0,6.215166184642375,0.0,0.0,1.055839140808776,0.0,4.711111462048386,0.0,7717.270556451278,0.33038232006295676,112.3930257924559,2.131910123795723,1.2218418475092807,101002.49197342925,287.9752740194638,0.0,0.0,0.0,403.0571052631579,0.2163178236804177,0.86,nominal,6579.707898318689,nan,pitch_program,12.295,0.0,0.0
1.44,142.68773366057954,0.0,26.967787786602265,112.93388753224765,0.0,2.8955901373869386,112.9710024536832,17.715285700737198,0.0,6.184254633671156,0.0,0.0,1.0303850573667075,0.0,4.7155302584232235,0.0,7796.781090757372,0.3320816235530911,112.97100245368318,2.1315360512353188,1.2218316517525687,101001.4511137087,287.97470937938704,0.0,0.0,0.0,403.02315789473687,0.21629960437411935,0.86,nominal,6645.68735379253,nan,pitch_program,12.28,0.0,0.0
1.47,146.0931128241436,0.0,27.053073039095853,113.51263878546804,0.0,2.8428417497863037,113.54823166062285,17.708796712605974,0.0,6.15410234349486,0.0,0.0,1.0050763624058683,0.0,4.719470971920172,0.0,7876.595953901357,0.3337787272481465,113.54823166062283,2.13117692815011,1.2218216417932428,101000.4292235716,287.97415502524586,0.0,0.0,0.0,402.9892105263158,0.21628138506782096,0.86,nominal,6711.900475346085,nan,pitch_program,12.265,0.0,0.0
1.5,149.5158294356381,0.0,27.13682752068316,114.09055371648387,0.0,2.7918160529102054,114.12470672123183,17.70230827105394,0.0,6.124704186661038,0.0,0.0,0.9799385826261716,0.0,4.722946057268372,0.0,7956.712620724273,0.3354736115750019,114.12470672123183,2.130832598830539,1.2218118115620817,100999.42568331957,287.97361062111554,0.0,0.0,0.0,402.9552631578947,0.2162631657615226,0.86,nominal,6778.345711709297,nan,pitch_program,12.25,0.0,0.0
1.53,152.95585831330808,0.0,27.219103015462746,114.66762925566584,0.0,2.7425164926529226,114.70042107955535,17.695820376081095,0.0,6.096054392389884,0.0,0.0,0.9549931622701671,0.0,4.7259670381487755,0.0,8037.128567036867,0.3371662573650791,114.70042107955534,2.130502890422518,1.2218021549779434,100998.43987204386,287.97307583039947,0.0,0.0,0.0,402.9213157894737,0.21624494645522424,0.86,nominal,6845.021514500241,nan,pitch_program,12.235,0.0,0.0
1.56,156.41317418339744,0.0,27.299951403555824,115.24386233631239,0.0,2.6949462697691917,115.27536832119803,17.68933302768744,0.0,6.068146651013853,0.0,0.0,0.9302580642595012,0.0,4.728544633070005,0.0,8117.8412709132035,0.3388566458703995,115.27536832119803,2.130187613296279,1.2217926659486218,100997.47116771262,287.97255031587684,0.0,0.0,0.0,402.8873684210526,0.21622672714892588,0.86,nominal,6911.926339225613,nan,pitch_program,12.220000000000002,0.0,0.0
1.5899999999999999,159.8877516804656,0.0,27.379424653056493,115.81924990227226,0.0,2.6491083166889577,115.84954217776843,17.68284622587297,0.0,6.040974203587591,0.0,0.0,0.9057482645182221,0.0,4.730688863614734,0.0,8198.848213861587,0.34054475877661833,115.84954217776843,2.129886561479372,1.2217833383717835,100996.51894726644,287.9720337397551,0.0,0.0,0.0,402.8534210526316,0.21620850784262752,0.86,nominal,6979.058646173169,nan,pitch_program,12.205000000000002,0.0,0.0
1.6199999999999999,163.37956534789987,0.0,27.4575748114002,116.39378891447528,0.0,2.605005278123618,116.42293653042118,17.676359970637694,0.0,6.014529918515603,0.0,0.0,0.8814761847139284,0.0,4.732409147270598,0.0,8280.146881885368,0.34223057821340463,116.4229365304212,2.129599513115386,1.2217741661359756,100995.5825867209,287.9715257637259,0.0,0.0,0.0,402.8194736842105,0.21619028853632916,0.86,nominal,7046.416901207458,nan,pitch_program,12.19,0.0,0.0
1.65,166.88858963859548,0.0,27.534453996249137,116.96747635652052,0.0,2.5626394949645395,116.99554541261107,17.669874261981604,0.0,5.988806356796912,0.0,0.0,0.8574520716924332,0.0,4.73371437677862,0.0,8361.734766445301,0.3439140867624997,116.99554541261105,2.1293262309252223,1.2217651431216898,100994.66146127522,287.9710260490244,0.0,0.0,0.0,402.78552631578947,0.21617206923003082,0.86,nominal,7113.999576479486,nan,pitch_program,12.175,0.0,0.0
1.68,170.41479891577916,0.0,27.610114385979667,117.54030923945594,0.0,2.5220129910176428,117.56736301216334,17.663389099904702,0.0,5.963795827646037,0.0,0.0,0.833684318267141,0.0,4.734612988057278,0.0,8443.609365334538,0.34559526746376373,117.56736301216334,2.129066462678237,1.2217562632024732,100993.75494542523,287.97053425649113,0.0,0.0,0.0,402.75157894736844,0.21615384992373246,0.86,nominal,7181.8051510601645,nan,pitch_program,12.16,0.0,0.0
1.71,173.95816745395504,0.0,27.68460820984547,118.1122846058626,0.0,2.483127462193493,118.13838367274958,17.65690448440699,0.0,5.9394904360145775,0.0,0.0,0.8101797331981724,0.0,4.735113018476005,0.0,8525.768183475544,0.3472741038194722,118.13838367274958,2.1288199416777935,1.2217475202460772,100992.86241308071,287.970050046636,0.0,0.0,0.0,402.71763157894736,0.2161356306174341,0.86,nominal,7249.832111505973,nan,pitch_program,12.145,0.0,0.0
1.74,177.5186694399552,0.0,27.757987737880523,118.6833995333388,0.0,2.445984267835063,118.70860189484425,17.650420415488465,0.0,5.915882123145392,0.0,0.0,0.7869437734400815,0.0,4.735222156818907,0.0,8608.208733647007,0.3489505797970828,118.70860189484426,2.1285863872527457,1.221738908115639,100991.98323768564,287.96957307970376,0.0,0.0,0.0,402.68368421052634,0.21611741131113574,0.86,nominal,7318.078952363997,nan,pitch_program,12.13,0.0,0.0
1.77,181.0962789740792,0.0,27.830305270597584,119.2536511374672,0.0,2.4105844239020633,119.27801233622856,17.64393689314913,0.0,5.892962701113797,0.0,0.0,0.7639807445738827,0.0,4.734947786075747,0.0,8690.928537147662,0.35062467983067036,119.27801233622856,2.1283655052483814,1.2217304206708834,100991.11679234095,287.9691030157411,0.0,0.0,0.0,402.64973684210526,0.21609919200483738,0.86,nominal,7386.544176622652,nan,pitch_program,12.115,0.0,0.0
1.7999999999999998,184.69097007130935,0.0,27.901613128530478,119.82303657433786,0.0,2.3769285977631243,119.84660981210095,17.637453917388985,0.0,5.870723882247209,0.0,0.0,0.7412939715261605,0.0,4.734297020111089,0.0,8773.925124403568,0.35229638882120257,119.84660981210097,2.1281569885174014,1.2217220517693457,100990.262449929,287.9686395146645,0.0,0.0,0.0,402.6157894736842,0.216080972698539,0.86,nominal,7455.2262961138895,nan,pitch_program,12.1,0.0,0.0
1.8299999999999998,188.30271666259003,0.0,27.97196364166197,120.39155304268962,0.0,2.345017104383021,120.41438929484548,17.63097148820803,0.0,5.849157304191318,0.0,0.0,0.7188859436841782,0.0,4.7332767351157585,0.0,8857.196035524325,0.353965692135808,120.41438929484549,2.127960517411293,1.2217137952676107,100989.41958324003,287.9681822363292,0.0,0.0,0.0,402.58184210526315,0.21606275339224065,0.86,nominal,7524.123831871803,nan,pitch_program,12.085,0.0,0.0
1.8599999999999999,191.93149259616172,0.0,28.041409138773652,120.95919778572315,0.0,2.314849903722827,120.98134591350212,17.62448960560626,0.0,5.828254551247199,0.0,0.0,0.6967584391985092,0.0,4.7318935965808615,0.0,8940.73882081302,0.35563257560616707,120.98134591350214,2.127775760269875,1.2217056450225507,100988.58756509844,287.96773084059794,0.0,0.0,0.0,402.54789473684207,0.2160445340859423,0.86,nominal,7593.235314451984,nan,pitch_program,12.07,0.0,0.0
1.89,195.57727163894066,0.0,28.110001936749473,121.52596809263177,0.0,2.286426599194003,121.54747495297818,17.618008269583683,0.0,5.80800717251255,0.0,0.0,0.6749126315118764,0.0,4.730154082427957,0.0,9024.55104123437,0.35729702552613946,121.54747495297818,2.127602373907514,1.221697594892587,100987.76576849136,287.9672849874111,0.0,0.0,0.0,402.51394736842104,0.21602631477964393,0.86,nominal,7662.559284215453,nan,pitch_program,12.055,0.0,0.0
1.92,199.24002747793736,0.0,28.177794329860305,122.09186129989014,0.0,2.2597464370277,122.11277185303457,17.611527480140293,0.0,5.788406697296559,0.0,0.0,0.6533491802379768,0.0,4.728064502851696,0.0,9108.630268844585,0.35895902864872875,122.11277185303457,2.1274400040959374,1.2216896387389353,100986.95356669562,287.9668443368559,0.0,0.0,0.0,402.48,0.2160080954733456,0.86,nominal,7732.094291580561,nan,pitch_program,12.040000000000001,0.0,0.0
1.95,202.91973372170742,0.0,28.244838579053493,122.65687479233505,0.0,2.2348083064395547,122.67723220707698,17.605047237276093,0.0,5.7694446482098956,0.0,0.0,0.6320683086579406,0.0,4.72563101735096,0.0,9192.974087186512,0.3606185721824715,122.67723220707698,2.1272882860435334,1.2216817704268623,100986.15033340604,287.9664085492361,0.0,0.0,0.0,402.44605263157894,0.2159898761670472,0.86,nominal,7801.838897245819,nan,pitch_program,12.025,0.0,0.0
1.98,206.61636390182946,0.0,28.311186901268087,123.22100600406783,0.0,2.2116107404865004,123.24085176077759,17.59856754099108,0.0,5.751112552267055,0.0,0.0,0.6110698699743523,0.0,4.722859649349737,0.0,9277.580091652922,0.3622756437873277,123.24085176077759,2.1271468448705284,1.2216739838269368,100985.35544286294,287.9659772851417,0.0,0.0,0.0,402.4121052631579,0.21597165686074887,0.86,nominal,7871.791672386298,nan,pitch_program,12.01,0.0,0.0
2.01,210.32989147440557,0.0,28.376891458793853,123.78425241920382,0.0,2.190151917525508,123.8036264105499,17.59208839128526,0.0,5.733401950290993,0.0,0.0,0.5903534039026456,0.0,4.719756298753022,0.0,9362.445889820467,0.36393023157013726,123.8036264105499,2.127015296079824,1.2216662728162728,100984.568269979,287.96555020551784,0.0,0.0,0.0,402.37815789473683,0.2159534375544505,0.86,nominal,7941.9511988258855,nan,pitch_program,11.995000000000001,0.0,0.0
2.04,214.06028982158028,0.0,28.442004348689732,124.34661157249063,0.0,2.1704296631960114,124.3655522018969,17.585609788158624,0.0,5.716304404869086,0.0,0.0,0.5699181849593644,0.0,4.716326752734477,0.0,9447.569101756695,0.3655823240797041,124.3655522018969,2.126893246023387,1.221658631279767,100983.78819046544,287.96512697173347,0.0,0.0,0.0,402.3442105263158,0.21593521824815215,0.86,nominal,8012.316069187449,nan,pitch_program,11.98,0.0,0.0
2.07,217.8075322530747,0.0,28.506577592275477,124.90808104981411,0.0,2.1524414528581115,124.92662532764949,17.57913173161118,0.0,5.699811507073421,0.0,0.0,0.549763263651731,0.0,4.712576695010065,0.0,9532.947360302187,0.36723191030155544,124.92662532764948,2.126780292364098,1.221651053111337,100983.01458095825,287.9647072456502,0.0,0.0,0.0,402.3102631578947,0.2159169989418538,0.86,nominal,8082.884887022746,nan,pitch_program,11.965,0.0,0.0
2.1,221.57159200773293,0.0,28.570663124708304,125.4686584886081,0.0,2.1361844144275755,125.48684212611063,17.572654221642924,0.0,5.6839148821275405,0.0,0.0,0.5298875015951479,0.0,4.708511713815211,0.0,9618.57831132944,0.36887897965242405,125.48684212611063,2.1266760245330776,1.2216435322151311,100982.24681914184,287.9642906896894,0.0,0.0,0.0,402.27631578947364,0.2158987796355554,0.86,nominal,8153.656266923627,nan,pitch_program,11.95,0.0,0.0
2.13,225.3524422550784,0.0,28.634312784654995,126.02834157818164,0.0,2.1216553315563944,126.04619907911841,17.56617725825386,0.0,5.66860619417367,0.0,0.0,0.5102896014980205,0.0,4.704137308770227,0.0,9704.45961398031,0.3705235219744905,126.04619907911842,2.1265800241822195,1.2216360625067437,100981.48428387278,287.9638769668997,0.0,0.0,0.0,402.2423684210526,0.21588056032925707,0.86,nominal,8224.62883461601,nan,pitch_program,11.935,0.0,0.0
2.16,229.15005609687765,0.0,28.69757830406842,126.58712805997575,0.0,2.10885064711415,126.60469281003977,17.55970084144398,0.0,5.653877150274404,0.0,0.0,0.4909681326793306,0.0,4.69945889679449,0.0,9790.588940883334,0.3721655275294208,126.60469281003977,2.126491865632088,1.2216286379144135,100980.72635530222,287.9634657410235,0.0,0.0,0.0,402.2084210526316,0.2158623410229587,0.86,nominal,8295.80122703786,nan,pitch_program,11.92,0.0,0.0
2.19,232.96440656871044,0.0,28.76051129807636,127.14501572775964,0.0,2.0977664669313643,127.16232008170513,17.553224971213293,0.0,5.639719503761831,0.0,0.0,0.4719215528202597,0.0,4.694481817205248,0.0,9876.963978352218,0.37380498699222997,127.16232008170515,2.126411116315,1.2216212523802052,100979.97241499631,287.9630566765625,0.0,0.0,0.0,402.1744736842105,0.21584412171666034,0.86,nominal,8367.172092402294,nan,pitch_program,11.905,0.0,0.0
2.2199999999999998,236.7954666415437,0.0,28.823163254989485,127.70200242777518,0.0,2.088398563770898,127.71907779429297,17.546749647561793,0.0,5.626125057031448,0.0,0.0,0.45314822647201486,0.0,4.689211336118297,0.0,9963.582426566625,0.3754418914449972,127.71907779429299,2.1263373372133216,1.2216138998611827,100979.22184605604,287.96264943884256,0.0,0.0,0.0,402.1405263157895,0.215825902410362,0.86,nominal,8438.740090246873,nan,pitch_program,11.890000000000002,0.0,0.0
2.25,240.64320922330882,0.0,28.88558552643442,128.25808605883697,0.0,2.0807423814978447,128.27496298317217,17.540274870489483,0.0,5.61308566386332,0.0,0.0,0.4346464408135706,0.0,4.683652650250121,0.0,10050.441999736287,0.37707623237045645,128.27496298317217,2.12627008329286,1.2216065743305606,100978.47403323467,287.96224369407815,0.0,0.0,0.0,402.1065789473684,0.21580768310406362,0.86,nominal,8510.503891469903,nan,pitch_program,11.875,0.0,0.0
2.28,244.50760716048063,0.0,28.947829317617078,128.81326457239425,0.0,2.074793039422028,128.82997281670936,17.53380063999636,0.0,5.600593231341565,0.0,0.0,0.4164144190414731,0.0,4.6778108902075,0.0,10137.54042624944,0.37870800164548385,128.82997281670933,2.126208903931301,1.2215992697788522,100977.72836305485,287.96183910943546,0.0,0.0,0.0,402.0726315789474,0.21578946379776529,0.86,nominal,8582.462178354646,nan,pitch_program,11.86,0.0,0.0
2.31,248.38863323965742,0.0,29.009945677720793,129.36753597256015,0.0,2.0705453367904916,129.38410459404722,17.52732695608243,0.0,5.588639721432831,0.0,0.0,0.3984503317363663,0.0,4.671691123338214,0.0,10224.875448806266,0.38033719153449885,129.38410459404722,2.126153343341662,1.22159198021499,100976.984223923,287.96143535309477,0.0,0.0,0.0,402.03868421052636,0.21577124449146692,0.86,nominal,8654.613644582096,nan,pitch_program,11.845,0.0,0.0
2.34,252.28626018914082,0.0,29.071985490443097,129.92089831611273,0.0,2.0679937574101945,129.93735574285938,17.520853818747685,0.0,5.577217152274755,0.0,0.0,0.3807523065303104,0.0,4.66529835620505,0.0,10312.44482453821,0.38196379468279495,129.93735574285938,2.126102940990583,1.2215846996674367,100976.24100624272,287.9610320943121,0.0,0.0,0.0,402.0047368421053,0.21575302518516856,0.86,nominal,8726.95699523305,nan,pitch_program,11.83,0.0,0.0
2.37,256.20046068051494,0.0,29.133999464674602,130.4733497124715,0.0,2.0671324743834667,130.4897238170866,17.514381227992132,0.0,5.566317599218972,0.0,0.0,0.3633184362884568,0.0,4.658637536737481,0.0,10400.246325113838,0.3835878041098174,130.4897238170866,2.1260572320114113,1.2215774221852795,100975.49810252636,287.9606290034796,0.0,0.0,0.0,401.9707894736842,0.21573480587887017,0.86,nominal,8799.490946780019,nan,pitch_program,11.815,0.0,0.0
2.4,260.1312073302245,0.0,29.19603812532283,131.02488832365313,0.0,2.067955354940938,131.04120649465878,17.507909183815766,0.0,5.555933195666492,0.0,0.0,0.34614678603017696,0.0,4.651713556107354,0.0,10488.277736831802,0.38520921320239687,131.04120649465878,2.1260157476120187,1.2215701418393006,100974.75490750441,287.96022575218535,0.0,0.0,0.0,401.9368421052631,0.2157165865725718,0.86,nominal,8872.214227069599,nan,pitch_program,11.8,0.0,0.0
2.4299999999999997,264.07847270115076,0.0,29.258151804283585,131.57551236420838,0.0,2.0704559653585166,131.5918015752062,17.501437686218587,0.0,5.546056133726667,0.0,0.0,0.3292353988094986,0.0,4.644531250367279,0.0,10576.53686070164,0.3868280157079514,131.59180157520623,2.125818124396906,1.2215628527230462,100974.01081823454,287.9598220132721,0.0,0.0,0.0,401.9028947368421,0.21569836726627348,0.86,nominal,8945.125575295699,nan,pitch_program,11.785,0.0,0.0
2.46,268.0422296540892,0.0,29.320387028031977,132.1252317646162,0.0,2.0745074582796823,132.1415167540013,17.4949667352006,0.0,5.541104624741862,0.0,0.0,0.16505029959623294,0.0,4.641573517188791,0.0,10665.023094267293,0.38844423445017345,132.14151675400132,2.126023441655092,1.2215555493767354,100973.26527737502,287.9594174843178,0.0,0.0,0.0,401.86894736842106,0.21568014795997512,0.86,nominal,9018.22499847245,nan,pitch_program,11.77,0.0,0.0
2.4899999999999998,272.02244807336353,0.0,29.382802859281522,132.67394730914285,0.0,2.080527708318171,132.69025921345656,17.488496330761798,0.0,5.5394155253351665,0.0,0.0,0.05630331356061054,0.0,4.641004876936096,0.0,10753.71955217286,0.39005759684278946,132.69025921345656,2.126375552089118,1.2215482248695586,100972.51757742198,287.95901178141463,0.0,0.0,0.0,401.835,0.21566192865367675,0.86,nominal,9091.49930872712,nan,pitch_program,11.755,0.0,0.0
2.52,276.0190962283554,0.0,29.445463483779886,133.22160516639644,0.0,2.0886874832787505,133.23797768847302,17.482026472902188,0.0,5.539287376602098,0.0,0.0,0.004271624435650827,0.0,4.641060897127325,0.0,10842.615859387603,0.39166795247386826,133.23797768847302,2.1267021017136045,1.2215408716696543,100971.76694951908,287.9586044873554,0.0,0.0,0.0,401.80105263157895,0.2156437093473784,0.86,nominal,9164.940703730228,nan,pitch_program,11.74,0.0,0.0
2.55,280.03214193940096,0.0,29.50843286962493,133.7681903681859,0.0,2.0989795281681416,133.78465707785364,17.475557161621765,0.0,5.541579702650799,0.0,0.0,-0.07641086830034155,0.0,4.642615611829883,0.0,10931.707415650959,0.3932752572426236,133.78465707785367,2.127166323926484,1.2215334822708406,100971.0126274358,287.95819518634744,0.0,0.0,0.0,401.7671052631579,0.21562549004108003,0.86,nominal,9238.546107920354,nan,pitch_program,11.725000000000001,0.0,0.0
2.58,284.06155181437464,0.0,29.571779064446122,134.31366249912293,0.0,2.1115398273731008,134.33025919118478,17.469088396920533,0.0,5.546115768599531,0.0,0.0,-0.1512021983700201,0.0,4.645445257957938,0.0,11020.98578918929,0.39487939919747456,134.33025919118478,2.1277492961361952,1.2215260486883472,100970.25379609107,287.95778343608106,0.0,0.0,0.0,401.73315789473685,0.2156072707347817,0.86,nominal,9312.309354347793,nan,pitch_program,11.71,0.0,0.0
2.61,288.1072913778624,0.0,29.635573528515934,134.8579854495914,0.0,2.126482135660378,134.8747499193066,17.46262017879849,0.0,5.552216386061981,0.0,0.0,-0.20335391560715765,0.0,4.6488338037673,0.0,11110.443117154986,0.39648027840397326,134.87474991930657,2.1283763682984236,1.2215185625370966,100969.48959954466,287.9573687720646,0.0,0.0,0.0,401.6992105263158,0.21558905142848334,0.86,nominal,9386.224780041168,nan,pitch_program,11.695,0.0,0.0
2.6399999999999997,292.1693255531025,0.0,29.69988888213031,135.4011391746707,0.0,2.143845120479225,135.41811016883653,17.456152507255634,0.0,5.559912806489922,0.0,0.0,-0.2565473479837512,0.0,4.65280807202999,0.0,11200.073930662733,0.39807783907835415,135.41811016883653,2.1290777709211812,1.2215110152960404,100968.71916798146,287.95695072226613,0.0,0.0,0.0,401.6652631578947,0.21557083212218495,0.86,nominal,9460.288696155518,nan,pitch_program,11.68,0.0,0.0
2.67,296.24761857947107,0.0,29.76479954735041,135.94310087895204,0.0,2.163688840670077,135.96031857120727,17.449685382291968,0.0,5.569138347474083,0.0,0.0,-0.3075180334697868,0.0,4.65728793834819,0.0,11289.872332540966,0.3996720187617596,135.96031857120727,2.129856383674288,1.2215033982328738,100967.94161002616,287.9565288029422,0.0,0.0,0.0,401.63131578947366,0.21555261281588659,0.86,nominal,9534.497084473109,nan,pitch_program,11.665,0.0,0.0
2.6999999999999997,300.3421340376448,0.0,29.830381706529657,136.48384860579168,0.0,2.1860719726415883,136.5013547219156,17.44321880390749,0.0,5.579629981161825,0.0,0.0,-0.3497211239019153,0.0,4.6619976780169194,0.0,11379.832530150188,0.40126275784233584,136.50135472191562,2.1306861099073395,1.2214957024088973,100967.15601324018,287.9561025189075,0.0,0.0,0.0,401.59736842105264,0.21553439350958825,0.86,nominal,9608.846033221453,nan,pitch_program,11.65,0.0,0.0
2.73,304.4528350300031,0.0,29.896712496923488,137.02336641194265,0.0,2.2110263464610678,137.04120395109726,17.436752772102203,0.0,5.5913028501118,0.0,0.0,-0.3890956330116508,0.0,4.666851144439483,0.0,11469.949638230959,0.40285001357541544,137.0412039510973,2.1315687437408437,1.2214879187735463,100966.36145377134,287.95567136876997,0.0,0.0,0.0,401.56342105263155,0.21551617420328986,0.86,nominal,9683.332385791073,nan,pitch_program,11.635,0.0,0.0
2.76,308.579684215337,0.0,29.963869956135024,137.5616395111309,0.0,2.238581973717847,137.57985286459416,17.430287286876105,0.0,5.604085840104194,0.0,0.0,-0.4260996681805584,0.0,4.671776663097342,0.0,11560.218948717491,0.4044337469757745,137.57985286459416,2.13250377440303,1.2214800381707915,100965.55699700754,287.9552348452851,0.0,0.0,0.0,401.52947368421053,0.21549795489699153,0.86,nominal,9757.953142427023,nan,pitch_program,11.620000000000001,0.0,0.0
2.79,312.7226438422656,0.0,30.031932932431207,138.09865423095263,0.0,2.2687658765394594,138.11728928343027,17.423822348229194,0.0,5.617855354228936,0.0,0.0,-0.45898380636716196,0.0,4.676651276024819,0.0,11650.635924975688,0.40601392263936437,138.1172892834303,2.133481036739943,1.2214720513496784,100964.74169865283,287.95479243593917,0.0,0.0,0.0,401.49552631578945,0.21547973559069317,0.86,nominal,9832.705454593208,nan,pitch_program,11.605,0.0,0.0
2.82,316.88167582845296,0.0,30.100980759660494,138.63439953957825,0.0,2.301594240976189,138.6535036403679,17.417357956161474,0.0,5.6325360601990715,0.0,0.0,-0.48935686834842,0.0,4.681404717758641,0.0,11741.19644281924,0.4075905128472299,138.6535036403679,2.1344976528125916,1.2214639490024723,100963.91460862158,287.95434362506217,0.0,0.0,0.0,401.4615789473684,0.2154615162843948,0.86,nominal,9907.58681884148,nan,pitch_program,11.59,0.0,0.0
2.85,321.05674180075107,0.0,30.171093129261042,139.1688657432706,0.0,2.3370789866848742,139.18848777991118,17.410894110672942,0.0,5.6480655658815655,0.0,0.0,-0.5176501925854802,0.0,4.685981292928432,0.0,11831.89659531313,0.4091634940374047,139.18848777991118,2.1355509889898148,1.2214557217796946,100963.07477257364,287.9538878946598,0.0,0.0,0.0,401.4276315789474,0.21544329697809647,0.86,nominal,9982.594915665308,nan,pitch_program,11.575,0.0,0.0
2.88,325.24780312856427,0.0,30.242349981799144,139.70204426043924,0.0,2.3752284179367535,139.72223473943973,17.4044308117636,0.0,5.664371961033483,0.0,0.0,-0.5435465087327638,0.0,4.690317118660822,0.0,11922.732660260506,0.4107328461610321,139.72223473943973,2.1366357350523493,1.2214473603028533,100962.22123321403,287.9534247251183,0.0,0.0,0.0,401.3936842105263,0.21542507767179808,0.86,nominal,10057.727581740559,nan,pitch_program,11.56,0.0,0.0
2.9099999999999997,329.4548209674868,0.0,30.314831341735793,140.233927964084,0.0,2.4160453312216625,140.25473905461598,17.397968059433445,0.0,5.6813996319554665,0.0,0.0,-0.5675890349102459,0.0,4.694366689828499,0.0,12013.701156691845,0.4122985535793863,140.25473905461595,2.137748660626149,1.2214388551838398,100961.35303227337,287.9529535962787,0.0,0.0,0.0,401.3597368421053,0.21540685836549975,0.86,nominal,10132.982854416641,nan,pitch_program,11.545,0.0,0.0
2.94,333.6777562904902,0.0,30.388617211660886,140.76451076677992,0.0,2.4595289975030963,140.78599637144475,17.39150585368248,0.0,5.699099745660128,0.0,0.0,-0.5900037948476337,0.0,4.698092515296354,0.0,12104.798783225671,0.4138606039229616,140.78599637144475,2.1388867094620014,1.2214301970373485,100960.4692117758,287.95247398812415,0.0,0.0,0.0,401.3257894736842,0.21538863905920136,0.86,nominal,10208.358920128963,nan,pitch_program,11.53,0.0,0.0
2.9699999999999998,337.9165699153909,0.0,30.463787478843273,141.29378749668888,0.0,2.505675572746174,141.31600332317402,17.385044194510705,0.0,5.717424164315721,0.0,0.0,-0.6108139603929067,0.0,4.70145884295719,0.0,12196.0224005958,0.4154189877291426,141.31600332317402,2.1400462166937824,1.2214213764918556,100959.56881515993,287.9519853813875,0.0,0.0,0.0,401.29184210526313,0.215370419752903,0.86,nominal,10283.854099097065,nan,pitch_program,11.515,0.0,0.0
3.0,342.1712225332334,0.0,30.540421813731253,141.8217539280844,0.0,2.5544778295993065,141.8447575493012,17.37858308191812,0.0,5.736331784813303,0.0,0.0,-0.6302540223056377,0.0,4.70443808961613,0.0,12287.369038311594,0.4169736984975668,141.84475754930122,2.1412242056895305,1.2214123842015294,100958.65088849512,287.9514872582107,0.0,0.0,0.0,401.2578947368421,0.21535220044660466,0.86,nominal,10359.466849689648,nan,pitch_program,11.5,0.0,0.0
3.03,346.44167473171467,0.0,30.61859959049814,142.3484066160419,0.0,2.605925892229465,142.3722575359462,17.37212251590472,0.0,5.7557852121710145,0.0,0.0,-0.6484475848196863,0.0,4.707007197880946,0.0,12378.835870284976,0.4185247322204603,142.3722575359462,2.142417769288309,1.2214032108555681,100957.71448143477,287.95097910266173,0.0,0.0,0.0,401.223947368421,0.21533398114030627,0.86,nominal,10435.195747615055,nan,pitch_program,11.485,0.0,0.0
3.06,350.72788701660727,0.0,30.698399814361952,142.87374282975352,0.0,2.6600074621271323,142.89850254597184,17.365662496470513,0.0,5.7757493371588415,0.0,0.0,-0.6654708396604653,0.0,4.709146109200415,0.0,12470.420205480275,0.4200720871768236,142.89850254597184,2.143623938295653,1.2213938471867378,100956.75864808819,287.9504604012066,0.0,0.0,0.0,401.19,0.21531576183400794,0.86,nominal,10511.039477480072,nan,pitch_program,11.47,0.0,0.0
3.09,355.02981983216614,0.0,30.779901051810185,143.39776051862833,0.0,2.716707914941068,143.42349257932952,17.359203023615493,0.0,5.796192661024478,0.0,0.0,-0.6814441360840553,0.0,4.710839038200583,0.0,12562.119483571278,0.42161576381547367,143.42349257932952,2.144840009950357,1.2213842839795666,100955.78244785739,287.9499306431632,0.0,0.0,0.0,401.156052631579,0.21529754252770958,0.86,nominal,10586.996828476227,nan,pitch_program,11.455,0.0,0.0
3.12,359.3474335791651,0.0,30.863181370746727,143.92045823329994,0.0,2.7760106312180635,143.94722829255056,17.352744097339663,0.0,5.8170859677616225,0.0,0.0,-0.6964435656222486,0.0,4.712073002370735,0.0,12653.931263237542,0.42315576451802944,143.94722829255056,2.1460633293714033,1.2213745120773771,100954.78494615528,287.9493893210901,0.0,0.0,0.0,401.1221052631579,0.21527932322141122,0.86,nominal,10663.066684143267,nan,pitch_program,11.44,0.0,0.0
3.15,363.680688631691,0.0,30.948318285066527,144.4418350841957,0.0,2.8378971439933136,144.46971095246877,17.34628571764302,0.0,5.838402011156947,0.0,0.0,-0.7105347880395774,0.0,4.712837442625092,0.0,12745.853216174095,0.42469209346253955,144.46971095246877,2.147291299513975,1.2213645223888039,100953.76521507115,287.9488359311471,0.0,0.0,0.0,401.08815789473687,0.21526110391511288,0.86,nominal,10739.248016855185,nan,pitch_program,11.425,0.0,0.0
3.1799999999999997,368.0295453528322,0.0,31.035388703403093,144.9618907047067,0.0,2.902347277885481,144.99094239436053,17.33982788452557,0.0,5.860115610182944,0.0,0.0,-0.723786642862505,0.0,4.71312425712463,0.0,12837.883121689696,0.4262247565001109,144.99094239436053,2.1485214456550312,1.2213543058938114,100952.72233398541,287.94826997342784,0.0,0.0,0.0,401.0542105263158,0.2152428846088145,0.86,nominal,10815.539882830615,nan,pitch_program,11.410000000000002,0.0,0.0
3.21,372.3939641090808,0.0,31.12446888311141,145.48062520828628,0.0,2.9693393236105123,145.51092497476816,17.333370597987305,0.0,5.88220310627517,0.0,0.0,-0.7362498788587095,0.0,4.7129271843857286,0.0,12930.01886018345,0.42775376101592777,145.51092497476813,2.1497513423188077,1.2213438536491101,100951.6553901227,287.94769095225973,0.0,0.0,0.0,401.0202631578947,0.21522466530251613,0.86,nominal,10891.941416278867,nan,pitch_program,11.395000000000001,0.0,0.0
3.2399999999999998,376.7739052838774,0.0,31.215634387523313,145.99803915988772,0.0,3.0388501470635116,146.02966153747127,17.326913858028227,0.0,5.904642256642004,0.0,0.0,-0.7479716884547245,0.0,4.712241649840392,0.0,13022.25840877278,0.4292791158289336,146.02966153747124,2.1509786327121008,1.2213331567931773,100950.56347906477,287.94709837648105,0.0,0.0,0.0,400.9863157894737,0.21520644599621777,0.86,nominal,10968.451825340613,nan,pitch_program,11.38,0.0,0.0
3.27,381.1693292903148,0.0,31.308960046596855,146.5141335479131,0.0,3.11085530245137,146.54715538013184,17.32045766464834,0.0,5.927412099653656,0.0,0.0,-0.7589947770443902,0.0,4.7110645839366185,0.0,13114.599836899486,0.43080083109350475,146.54715538013184,2.1522010304401604,1.2213222065508886,100949.4457052236,287.9464917596971,0.0,0.0,0.0,400.9523684210526,0.2151882266899194,0.86,nominal,11045.070388045211,nan,pitch_program,11.365,0.0,0.0
3.3,385.58019658306637,0.0,31.404519920739098,147.02890975838554,0.0,3.1853291380747466,147.06341022313248,17.314002017847642,0.0,5.95049273075126,0.0,0.0,-0.7693543803240019,0.0,4.709394154674969,0.0,13207.04130219087,0.43231891820758406,147.06341022313245,2.153416299457712,1.221310994237769,100948.30118227561,287.94587062051517,0.0,0.0,0.0,400.9184210526316,0.21517000738362105,0.86,nominal,11121.796448509389,nan,pitch_program,11.35,0.0,0.0
3.33,390.0064676696985,0.0,31.502387267139493,147.54236955440425,0.0,3.2622448800132196,147.57843018336237,17.307546917626134,0.0,5.973865222493917,0.0,0.0,-0.7790830688920837,0.0,4.707229653842138,0.0,13299.58104708401,0.4338333897353691,147.57843018336237,2.154622262259795,1.2212995112639577,100947.12903356686,287.94523448276357,0.0,0.0,0.0,400.8844736842105,0.2151517880773227,0.86,nominal,11198.629413786075,nan,pitch_program,11.335,0.0,0.0
3.36,394.44810312139197,0.0,31.602634508586757,148.054515056448,0.0,3.341574714908827,148.09221974896354,17.301092363983813,0.0,5.997511501523611,0.0,0.0,-0.7882093121775275,0.0,4.704571341245691,0.0,13392.21739551432,0.4353442593328302,148.09221974896352,2.155816793413094,1.221287749137878,100945.9283924878,287.94458287569415,0.0,0.0,0.0,400.85052631578947,0.21513356877102435,0.86,nominal,11275.568750791284,nan,pitch_program,11.32,0.0,0.0
3.3899999999999997,398.90506358315065,0.0,31.70533320445598,148.56534872529005,0.0,3.4232898623073877,148.60478375660864,17.294638356920682,0.0,6.021414247392201,0.0,0.0,-0.7967582071753727,0.0,4.701420315552097,0.0,13484.94874995925,0.4368515416806817,148.60478375660867,2.156997815997241,1.2212756994696523,100944.69840282237,287.94391533417104,0.0,0.0,0.0,400.81657894736844,0.215115349464726,0.86,nominal,11352.613983543688,nan,pitch_program,11.305,0.0,0.0
3.42,403.3773097835591,0.0,31.810554023634246,149.07487334694844,0.0,3.5073606392755936,149.11612737079332,17.28818489643674,0.0,6.0455568245379085,0.0,0.0,-0.8047525834306147,0.0,4.6977784218458005,0.0,13577.773588754626,0.43835525242327983,149.11612737079332,2.1581633026472224,1.2212633539742845,100943.43821907311,287.94323139884636,0.0,0.0,0.0,400.78263157894736,0.21509713015842763,0.86,nominal,11429.7646906472,nan,pitch_program,11.29,0.0,0.0
3.4499999999999997,407.86480254412237,0.0,31.918366719268285,149.58309201877518,0.0,3.593756521134585,149.62625606433704,17.281731982531987,0.0,6.069923205212609,0.0,0.0,-0.8122127013978557,0.0,4.693648152141018,0.0,13670.690463546509,0.43985540811108287,149.62625606433704,2.1593112720367738,1.2212507044746437,100942.14700676616,287.94253061632475,0.0,0.0,0.0,400.74868421052633,0.21507891085212927,0.86,nominal,11507.020502902791,nan,pitch_program,11.275,0.0,0.0
3.48,412.3675027882371,0.0,32.02884010513878,150.0900081371585,0.0,3.6824461956830152,150.13517560051142,17.275279615206422,0.0,6.094497914336313,0.0,0.0,-0.819156983348069,0.0,4.689032570775912,0.0,13763.697996960827,0.4413520261478996,150.13517560051142,2.160439788768495,1.221237742904238,100940.82394273471,287.9418125393166,0.0,0.0,0.0,400.71473684210525,0.2150606915458309,0.86,nominal,11584.38110111526,nan,pitch_program,11.26,0.0,0.0
3.51,416.8853715498236,0.0,32.14204203354968,150.59562538621665,0.0,3.7733976136967007,150.6428920162407,17.268827794460048,0.0,6.119265979614953,0.0,0.0,-0.8256021888113471,0.0,4.683935246885175,0.0,13856.794880396956,0.4428451247412972,150.6428920162407,2.1615469625829276,1.2212244613098269,100939.46821538592,287.9410767267819,0.0,0.0,0.0,400.6807894736842,0.21504247223953252,0.86,nominal,11661.846214016687,nan,pitch_program,11.245000000000001,0.0,0.0
3.54,421.41836998164666,0.0,32.25803937461895,151.09994772743573,0.0,3.8665780356424233,151.1494116063292,17.26237652029286,0.0,6.144212887378587,0.0,0.0,-0.831563605258302,0.0,4.678360194384221,0.0,13949.979871941832,0.44433472285603304,151.1494116063292,2.162630947511417,1.2212108518538574,100938.07902495007,287.94032274406493,0.0,0.0,0.0,400.64684210526315,0.21502425293323418,0.86,nominal,11739.41561630287,nan,pitch_program,11.23,0.0,0.0
3.57,425.96645936335125,0.0,32.37689799686614,151.60297939015217,0.0,3.9619540749063904,151.6547409086263,17.255925792704865,0.0,6.169324547557807,0.0,0.0,-0.8370553527065688,0.0,4.672311822722375,0.0,14043.251794393362,0.4458208401702477,151.6547409086263,2.1636899419494156,1.2211969068167563,100936.65558371489,287.93955016302033,0.0,0.0,0.0,400.61289473684207,0.21500603362693582,0.86,nominal,11817.089126772255,nan,pitch_program,11.215,0.0,0.0
3.5999999999999996,430.5296011092308,0.0,32.498682749019714,152.1047248626516,0.0,4.059491738452423,152.15888668992525,17.249475611696056,0.0,6.194587261595889,0.0,0.0,-0.8420904815784815,0.0,4.665794891814401,0.0,14136.609533359648,0.44730349703382094,152.15888668992523,2.164722188281334,1.2211826185990713,100935.19711624435,287.93875856213134,0.0,0.0,0.0,400.57894736842104,0.21498781432063746,0.86,nominal,11894.866606539428,nan,pitch_program,11.2,0.0,0.0
3.63,435.10775677574657,0.0,32.62345744296585,152.60518888385997,0.0,4.159156464871107,152.6618559325736,17.243025977266438,0.0,6.219987696202408,0.0,0.0,-0.8466811674174118,0.0,4.658814474038254,0.0,14230.052035433877,0.44878271442882434,152.66185593257362,2.1657259730099074,1.2211679797234871,100933.70285958482,287.9379475266207,0.0,0.0,0.0,400.545,0.21496959501433913,0.86,nominal,11972.74795732199,nan,pitch_program,11.185,0.0,0.0
3.6599999999999997,439.7008880688111,0.0,32.751284837777206,153.1043764354845,0.0,4.260913160378571,153.1636558216695,17.236576889416007,0.0,6.245512860507674,0.0,0.0,-0.8508388242476149,0.0,4.651375920616867,0.0,14323.578306424519,0.45025851393169947,153.1636558216695,2.166699626862984,1.2211529828367076,100932.17206345766,287.9371166485544,0.0,0.0,0.0,400.51105263157893,0.21495137570804074,0.86,nominal,12050.733119783805,nan,pitch_program,11.17,0.0,0.0
3.69,444.3089568508474,0.0,32.882226624765686,153.6022927345424,0.0,4.364726232949382,153.66429373278834,17.230128348144767,0.0,6.271150086455159,0.0,0.0,-0.8545742125077431,0.0,4.6434848321263775,0.0,14417.1874096338,0.45173091767700274,153.66429373278834,2.1676415249883685,1.221137620711219,100930.6039904394,287.936265526939,0.0,0.0,0.0,400.4771052631579,0.2149331564017424,0.86,nominal,12128.822071928085,nan,pitch_program,11.155,0.0,0.0
3.7199999999999998,448.93192514763365,0.0,33.01634341351015,154.09894322620954,0.0,4.470559624815366,154.16377722018095,17.223680353452714,0.0,6.296887012205811,0.0,0.0,-0.8578975394469115,0.0,4.63514703279504,0.0,14510.878464175777,0.45319994832253724,154.16377722018095,2.1685500872736623,1.221121886246943,100928.99791613079,287.9353937678122,0.0,0.0,0.0,400.4431578947368,0.21491493709544401,0.86,nominal,12207.014827532888,nan,pitch_program,11.14,0.0,0.0
3.75,453.56975515494133,0.0,33.15369471881713,154.5943335769236,0.0,4.578376843565932,154.66211400538538,17.217232905339852,0.0,6.322711567668879,0.0,0.0,-0.8608185300086486,0.0,4.626368547599517,0.0,14604.650643325633,0.45466562901570773,154.6621140053854,2.1694237786492705,1.2211057724727725,100927.35312931401,287.93450098432766,0.0,0.0,0.0,400.4092105263158,0.21489671778914568,0.86,nominal,12285.3114346217,nan,pitch_program,11.125,0.0,0.0
3.78,458.22240924497237,0.0,33.294338948576424,155.08846966770085,0.0,4.688140991976425,155.15931196621753,17.210786003806177,0.0,6.348611962223082,0.0,0.0,-0.8633464998419214,0.0,4.617155582157836,0.0,14698.503172895807,0.45612798336099114,155.15931196621753,2.1702611094753426,1.2210892725480127,100925.66893209988,287.9335867968342,0.0,0.0,0.0,400.3752631578947,0.21487849848284732,0.86,nominal,12363.711973965066,nan,pitch_program,11.11,0.0,0.0
3.81,462.8898499726009,0.0,33.43833339247864,155.58135758761884,0.0,4.7998147967405975,155.65537912609872,17.204339648851693,0.0,6.374576674020216,0.0,0.0,-0.8654904080493612,0.0,4.607514504730217,0.0,14792.435329632799,0.4575870353884042,155.65537912609872,2.1710606359116458,1.2210723797637064,100923.94464006372,287.93265083294887,0.0,0.0,0.0,400.34131578947364,0.21486027917654893,0.86,nominal,12442.216557608117,nan,pitch_program,11.095,0.0,0.0
3.84,467.57204008142395,0.0,33.585734211564834,156.0730036274342,0.0,4.9133606362063595,156.1503236436944,17.197893840476397,0.0,6.400594440793167,0.0,0.0,-0.8672589073343219,0.0,4.5974518301993585,0.0,14886.446439631718,0.45904280952288745,156.1503236436944,2.1718209603118015,1.221055087543875,100922.17958237213,287.9316927276248,0.0,0.0,0.0,400.3073684210526,0.2148420598702506,0.86,nominal,12520.825327421097,nan,pitch_program,11.080000000000002,0.0,0.0
3.8699999999999997,472.26894250962306,0.0,33.73659642858171,156.56341427330418,0.0,5.028740567229226,156.6441538028367,17.19144857868029,0.0,6.426654251849881,0.0,0.0,-0.8686603835321222,0.0,4.586974205657291,0.0,14980.53587676493,0.460495330554529,156.6441538028367,2.1725407316019987,1.2210373894466602,100920.37310189976,287.9307121232142,0.0,0.0,0.0,400.2734210526316,0.21482384056395223,0.86,nominal,12599.538453669731,nan,pitch_program,11.065000000000001,0.0,0.0
3.9,476.9805203956407,0.0,33.89097391911842,157.05259620058908,0.0,5.145916351223558,157.13687800271163,17.185003863463372,0.0,6.452745341104306,0.0,0.0,-0.8697029901764414,0.0,4.5760883974094275,0.0,15074.703061122524,0.4619446236095702,157.13687800271163,2.1732186456477276,1.2210192791653667,100918.52455533623,287.9297086695257,0.0,0.0,0.0,400.2394736842105,0.21480562125765387,0.86,nominal,12678.356133603462,nan,pitch_program,11.05,0.0,0.0
3.9299999999999997,481.7067370836722,0.0,34.048919403503,157.54055626771498,0.0,5.264849479485905,157.62850474829327,17.178559694825644,0.0,6.4788571809720565,0.0,0.0,-0.8703946773232033,0.0,4.564801279186506,0.0,15168.947457462922,0.46339071412214106,157.62850474829327,2.1738534455968046,1.2210007505294302,100916.63331328506,287.92868202387723,0.0,0.0,0.0,400.2055263157895,0.21478740195135554,0.86,nominal,12757.278590059717,nan,pitch_program,11.035,0.0,0.0
3.96,486.4475561289746,0.0,34.21048443943852,158.02730151008075,0.0,5.385501197850641,158.1190426410115,17.172116072767103,0.0,6.504979476991321,0.0,0.0,-0.8707432157250629,0.0,4.5531198213940725,0.0,15263.268573671965,0.4648336278066862,158.11904264101153,2.1744439221917364,1.2209817975052806,100914.69876035204,287.92763185114364,0.0,0.0,0.0,400.1715789473684,0.21476918264505715,0.86,nominal,12836.306070083028,nan,pitch_program,11.02,0.0,0.0
