time_s,sensor_time_s,imu_valid,imu_ax_mps2,imu_ay_mps2,imu_az_mps2,gyro_p_rps,gyro_q_rps,gyro_r_rps,imu_accel_norm_mps2,imu_gyro_norm_rps,gps_valid,gps_latency_s,gps_x_m,gps_y_m,gps_z_m,gps_vx_mps,gps_vy_mps,gps_vz_mps,baro_valid,baro_alt_m,baro_bias_m,pitot_valid,pitot_airspeed_mps,pitot_qbar_pa,pitot_compressibility_factor,mag_valid,mag_heading_deg,mag_x_ut,mag_y_ut,mag_z_ut,radar_valid,radar_agl_m,optical_flow_valid,optical_flow_x_radps,optical_flow_y_radps,optical_flow_quality,horizon_valid,horizon_roll_deg,horizon_pitch_deg
0.0,0.0,1.0,17.089474510188992,-0.04331266066330364,0.17662148382067971,0.0016677683591043149,0.0011681274632859406,0.0012765720485123657,17.090442070628836,0.00240324973008537,1.0,0.0,-1.885154541229685,1.8645638091475825,21.162662438547994,85.32748210022089,0.18147237523479218,7.846341299741817,1.0,20.771163472887363,0.0,1.0,85.6269982596741,4465.519226242078,1.0,1.0,-0.8198733225718878,19.523475325297145,-0.00615746722134172,-43.81279554351524,1.0,20.39618647858491,1.0,-0.0077448575321814855,4.273240466216326,0.95,1.0,0.17459483210835952,5.697481511065039
0.03,0.03,1.0,17.396245286212196,-0.024205067786461216,0.6306746726689686,0.001972178925766813,-0.15518944895900577,0.0016995476198838452,17.407690440897454,0.15521128509237772,1.0,0.0,-1.885154541229685,1.8645638091475825,21.162662438547994,85.32748210022089,0.18147237523479218,7.846341299741817,1.0,20.771163472887363,0.0,1.0,85.44841255458797,4493.766976450421,1.0,1.0,-0.8198733225718878,19.523475325297145,-0.00615746722134172,-43.81279554351524,1.0,20.39618647858491,1.0,-0.0077448575321814855,4.273240466216326,0.95,1.0,0.17459483210835952,5.697481511065039
0.06,0.06,1.0,17.696718120006093,-0.048625240197861,1.2207048915769716,-0.003446139225741984,-0.2200582056481762,-0.00034689119184351384,17.73883640674484,0.2200854608604512,1.0,0.0,-1.885154541229685,1.8645638091475825,21.162662438547994,85.32748210022089,0.18147237523479218,7.846341299741817,1.0,20.525977458669733,0.0,1.0,85.93808248615807,4525.842513620243,1.0,1.0,0.07665381874344163,19.002287191418148,-0.026858555853548426,-44.03804623616444,1.0,20.44432733929693,1.0,0.00018197912592243334,4.21901060739763,0.9488516472573326,1.0,-0.15907090264631085,6.462321243080083
0.09,0.09,1.0,17.957941161843888,-0.01094183278357201,1.5605999222741616,0.0004011470069548937,-0.17918798555099863,0.0025448602353110453,18.02562738473626,0.17920650489969203,1.0,0.0,-1.885154541229685,1.8645638091475825,21.162662438547994,85.32748210022089,0.18147237523479218,7.846341299741817,1.0,20.525977458669733,0.0,1.0,87.23015656976472,4643.903578237996,1.0,1.0,0.07665381874344163,19.002287191418148,-0.026858555853548426,-44.03804623616444,1.0,20.44432733929693,1.0,0.00018197912592243334,4.21901060739763,0.9488516472573326,1.0,-0.15907090264631085,6.462321243080083
0.12,0.12,1.0,18.21486617013283,-0.01413003862604277,1.769597691143846,0.0017811967641120853,-0.1030091995337478,-0.0028376729027249836,18.300629094168936,0.10306367079625493,1.0,0.0,-1.885154541229685,1.8645638091475825,21.162662438547994,85.32748210022089,0.18147237523479218,7.846341299741817,1.0,20.835346675393623,0.0,1.0,87.26231604531297,4712.4753234927075,1.0,1.0,-1.8951218293581098,18.642793566258323,-0.005790965511073151,-44.16548821910077,1.0,20.15966351575513,1.0,-0.013840283315854317,4.180330849097613,0.9477630712509209,1.0,0.28335723464815654,7.7313650572821455
0.15,0.15,1.0,18.51338589276055,-0.03605765477427094,1.911825020821404,-0.00013304420042076212,-0.05525493785691937,-0.0016289172586783655,18.611873422065063,0.0552791030115984,1.0,0.0,-1.885154541229685,1.8645638091475825,21.162662438547994,85.32748210022089,0.18147237523479218,7.846341299741817,1.0,20.835346675393623,0.0,1.0,87.53690191654472,4739.461051137476,1.0,1.0,-1.8951218293581098,18.642793566258323,-0.005790965511073151,-44.16548821910077,1.0,20.15966351575513,1.0,-0.013840283315854317,4.180330849097613,0.9477630712509209,1.0,0.28335723464815654,7.7313650572821455
0.18,0.18,1.0,18.722395301246326,-0.04780444576139571,2.0707822345168676,0.00013974800767314763,-0.043132531811431674,-0.0008869940367906495,18.836626824990606,0.043141877432387156,1.0,0.0,-1.885154541229685,1.8645638091475825,21.162662438547994,85.32748210022089,0.18147237523479218,7.846341299741817,1.0,20.083473073800906,0.0,1.0,88.02649605978284,4842.667696522247,1.0,1.0,-0.5428950996559269,18.545494132805594,0.02966309435753329,-44.298865296669945,1.0,21.36299970432775,1.0,0.006974051956994979,4.137638881536074,0.9467265852925736,1.0,-0.5040599611879599,6.931354511358753
0.21,0.21,1.0,19.015788198892793,0.06045326675660328,2.2444984797309786,-0.0011844703614280934,-0.03860383529069305,0.0010356537480328346,19.147888365251315,0.03863588549359098,1.0,0.0,18.15791259743845,-0.8507156713177079,22.53059064180877,88.78304681392605,-0.10696639449047544,6.726218385228926,1.0,20.083473073800906,0.0,1.0,88.80539906745064,4832.93092062345,1.0,1.0,-0.5428950996559269,18.545494132805594,0.02966309435753329,-44.298865296669945,1.0,21.36299970432775,1.0,0.006974051956994979,4.137638881536074,0.9467265852925736,1.0,-0.5040599611879599,6.931354511358753
0.24,0.24,1.0,19.31687443287298,-0.05931437453800777,2.458853724222343,0.0004014737785476082,-0.036654270896719715,0.0011573760834501412,19.472830243380923,0.03667473620305288,1.0,0.0,18.15791259743845,-0.8507156713177079,22.53059064180877,88.78304681392605,-0.10696639449047544,6.726218385228926,1.0,22.188630893539845,0.0,1.0,89.45005947764496,4890.3418085637495,1.0,1.0,-0.9874075351661772,18.47284255361201,-0.01105574941250553,-44.366377141568655,1.0,21.601088770911293,1.0,0.015553992101837083,4.1244851166897,0.9457380494623289,1.0,-0.5929147826834491,7.378205424401504
0.27,0.27,1.0,19.52925762258861,-0.02835453910261265,2.614903190497859,0.0019072580176267414,-0.024039096284036117,-0.002090558849283284,19.703563788436824,0.0242050866472582,1.0,0.0,18.15791259743845,-0.8507156713177079,22.53059064180877,88.78304681392605,-0.10696639449047544,6.726218385228926,1.0,22.188630893539845,0.0,1.0,90.1201284882899,4960.861670691598,1.0,1.0,-0.9874075351661772,18.47284255361201,-0.01105574941250553,-44.366377141568655,1.0,21.601088770911293,1.0,0.015553992101837083,4.1244851166897,0.9457380494623289,1.0,-0.5929147826834491,7.378205424401504
0.3,0.3,1.0,19.911433434700793,-0.023144794989114953,2.7470761142291615,-0.0006483740193760299,-0.016093798621415023,0.0011196854561373627,20.100053340312908,0.01614572508301648,1.0,0.0,18.15791259743845,-0.8507156713177079,22.53059064180877,88.78304681392605,-0.10696639449047544,6.726218385228926,1.0,22.08906485306401,0.0,1.0,90.38896124360716,5032.527577266674,1.0,1.0,-0.032100222264470346,18.3127916644862,-0.006038005167106243,-44.36222581766783,1.0,21.919691914621186,1.0,0.0042634016461290366,4.089274607021744,0.944793243664726,1.0,0.49262759900427344,8.0845801778381
0.32999999999999996,0.32999999999999996,1.0,20.15334596439354,-0.05396740755448139,2.9172477573066216,-0.0008335127957680589,-0.004022854952521819,0.0009767482210283772,20.363462390249996,0.004222812171648238,1.0,0.0,18.15791259743845,-0.8507156713177079,22.53059064180877,88.78304681392605,-0.10696639449047544,6.726218385228926,1.0,22.08906485306401,0.0,1.0,90.87802407909837,5071.858415811021,1.0,1.0,-0.032100222264470346,18.3127916644862,-0.006038005167106243,-44.36222581766783,1.0,21.919691914621186,1.0,0.0042634016461290366,4.089274607021744,0.944793243664726,1.0,0.49262759900427344,8.0845801778381
0.36,0.36,1.0,20.54526930593075,0.04056869726443273,2.985146839228727,-0.0017116473741721086,0.0006612878101991434,0.0002472742290717788,20.761041359338773,0.0018515352672286033,1.0,0.0,18.15791259743845,-0.8507156713177079,22.53059064180877,88.78304681392605,-0.10696639449047544,6.726218385228926,1.0,23.007612118487227,0.0,1.0,91.37879736266909,5124.012921953597,1.0,1.0,0.24703569469091746,18.423414859299807,0.05777323077028381,-44.3870568993559,1.0,22.24264327146497,1.0,0.008474791280591054,4.084088373288474,0.943888547891736,1.0,-0.12522865530984933,7.282012422683893
0.39,0.39,1.0,20.81651048515513,-0.03998306635079582,3.1232136302253366,-0.004200210305302578,0.005170430049053935,0.0021403138457621635,21.049540869201724,0.0069968605002022925,1.0,0.0,18.15791259743845,-0.8507156713177079,22.53059064180877,88.78304681392605,-0.10696639449047544,6.726218385228926,1.0,23.007612118487227,0.0,1.0,91.52965767842944,5179.738019887575,1.0,1.0,0.24703569469091746,18.423414859299807,0.05777323077028381,-44.3870568993559,1.0,22.24264327146497,1.0,0.008474791280591054,4.084088373288474,0.943888547891736,1.0,-0.12522865530984933,7.282012422683893
0.42,0.42,1.0,20.86093075004675,-0.028261817516269515,3.260577851870793,-4.435109278206495e-05,0.009880472612281482,0.001005012113417697,21.11422739331671,0.009931553524479024,1.0,0.0,38.98501038315757,0.8561697855581142,23.12014395398818,92.794233764703,-0.01429878191719496,5.712280891600675,1.0,23.190533407759474,0.0,1.0,93.14007569346379,5282.389393205666,1.0,1.0,1.0151129233973093,18.3792321847813,0.018258774712861983,-44.30133916143864,1.0,22.72556529396938,1.0,0.016688064665782515,4.0590557430200525,0.94302101497069,1.0,0.4032278623625569,7.101417097442554
0.44999999999999996,0.44999999999999996,1.0,20.89110868327675,0.03480239865722864,3.373490150398316,0.003273383298076893,0.014339235892098708,0.0006495057299919682,21.16175959173216,0.014722451625957988,1.0,0.0,38.98501038315757,0.8561697855581142,23.12014395398818,92.794233764703,-0.01429878191719496,5.712280891600675,1.0,23.190533407759474,0.0,1.0,93.13119374678512,5385.294198574349,1.0,1.0,1.0151129233973093,18.3792321847813,0.018258774712861983,-44.30133916143864,1.0,22.72556529396938,1.0,0.016688064665782515,4.0590557430200525,0.94302101497069,1.0,0.4032278623625569,7.101417097442554
0.48,0.48,1.0,20.845805843271023,0.012525986310875077,3.452645194479446,-0.0009259558692904829,0.01568457143051238,0.002863435715449263,21.12980210495705,0.015970674354178944,1.0,0.0,38.98501038315757,0.8561697855581142,23.12014395398818,92.794233764703,-0.01429878191719496,5.712280891600675,1.0,24.520286557151778,0.0,1.0,94.00239638618862,5360.212481452436,1.0,1.0,-0.341560527222041,18.39210978638994,-0.01746976429002118,-44.30540884304842,1.0,23.27693698110055,1.0,0.007915542794734144,4.076271849131108,0.9421882617411498,1.0,0.636746191090788,7.7739116187038455
0.51,0.51,1.0,20.793700267481675,0.06853486531179354,3.6137041869625866,0.0007061520466158617,0.018849709429752982,-0.0019268357040249766,21.105485680090418,0.018961088896193797,1.0,0.0,38.98501038315757,0.8561697855581142,23.12014395398818,92.794233764703,-0.01429878191719496,5.712280891600675,1.0,24.520286557151778,0.0,1.0,93.75884593946044,5481.9474670196305,1.0,1.0,-0.341560527222041,18.39210978638994,-0.01746976429002118,-44.30540884304842,1.0,23.27693698110055,1.0,0.007915542794734144,4.076271849131108,0.9421882617411498,1.0,0.636746191090788,7.7739116187038455
0.54,0.54,1.0,20.80673431693664,-0.011959623866143985,3.685720849998367,0.00258475109658373,0.021285778306034005,-0.000786372376342729,21.130661943069946,0.021456553260931578,1.0,0.0,38.98501038315757,0.8561697855581142,23.12014395398818,92.794233764703,-0.01429878191719496,5.712280891600675,1.0,23.621649063813532,0.0,1.0,95.00184346662552,5539.594670587091,1.0,1.0,0.6010780516446778,18.45539125655832,-0.00910350250981173,-44.24086251144945,1.0,23.63842360862492,1.0,-0.0028495226081697673,4.044911547785855,0.9413886173583322,1.0,0.0064165621930257054,7.2397804962622665
0.57,0.57,1.0,20.782827686572766,0.012149172236429435,3.733425201748899,0.0034063518963941427,0.023907683282658746,-0.0048126073959461535,21.115504682323255,0.024624007454788998,1.0,0.0,38.98501038315757,0.8561697855581142,23.12014395398818,92.794233764703,-0.01429878191719496,5.712280891600675,1.0,23.621649063813532,0.0,1.0,96.33231536604825,5656.773080043072,1.0,1.0,0.6010780516446778,18.45539125655832,-0.00910350250981173,-44.24086251144945,1.0,23.63842360862492,1.0,-0.0028495226081697673,4.044911547785855,0.9413886173583322,1.0,0.0064165621930257054,7.2397804962622665
0.6,0.6,1.0,20.775409096318405,0.03723658218695693,3.872050221263445,-0.00218884881802764,0.026981165117181835,0.0005021721522843135,21.13319149107462,0.02707446226796279,1.0,0.0,38.98501038315757,0.8561697855581142,23.12014395398818,92.794233764703,-0.01429878191719496,5.712280891600675,1.0,23.95433550346537,0.0,1.0,96.59578604559472,5723.380822247452,1.0,1.0,-2.0884129315731466,18.545374379122947,-0.05198653732366435,-44.31726602465389,1.0,23.329423156791922,1.0,0.0059601927122216744,4.048601278041474,0.9406206488761988,1.0,-0.031199227627410092,7.2300041352988575
0.63,0.63,1.0,20.745537896400915,0.0482501784753116,3.965237912528996,0.000997562163779802,0.021454065830449228,0.0018119332194381364,21.121145385458778,0.021553542004031673,1.0,0.0,57.711938243444145,-1.4405247638228156,24.37104372039117,97.22219282570329,0.11105817103984193,4.933238397560012,1.0,23.95433550346537,0.0,1.0,97.35629943053848,5766.5779534225485,1.0,1.0,-2.0884129315731466,18.545374379122947,-0.05198653732366435,-44.31726602465389,1.0,23.329423156791922,1.0,0.0059601927122216744,4.048601278041474,0.9406206488761988,1.0,-0.031199227627410092,7.2300041352988575
0.6599999999999999,0.6599999999999999,1.0,20.645713925432165,0.01932912714719676,3.9794074877107226,0.0011141667637941386,0.020544606090577483,0.002382543117453245,21.025735684136908,0.02071228424633702,1.0,0.0,57.711938243444145,-1.4405247638228156,24.37104372039117,97.22219282570329,0.11105817103984193,4.933238397560012,1.0,23.987774567558617,0.0,1.0,98.39662515872968,5693.518070745865,1.0,1.0,-1.670335623109286,18.656928252161382,0.0066186895430424015,-44.23764108432618,1.0,24.087448354088437,1.0,0.005384943889153253,4.042647331968665,0.9398830569739448,1.0,-0.05654672738215016,7.656962039438371
0.69,0.69,1.0,20.68137275153855,0.03405703130360546,4.143656140460811,-0.00024342411824013636,0.025451881202956935,0.002091143341679508,21.092421031731778,0.025538801705370283,1.0,0.0,57.711938243444145,-1.4405247638228156,24.37104372039117,97.22219282570329,0.11105817103984193,4.933238397560012,1.0,23.987774567558617,0.0,1.0,97.57616947422255,5917.292822211158,1.0,1.0,-1.670335623109286,18.656928252161382,0.0066186895430424015,-44.23764108432618,1.0,24.087448354088437,1.0,0.005384943889153253,4.042647331968665,0.9398830569739448,1.0,-0.05654672738215016,7.656962039438371
0.72,0.72,1.0,20.61948119765707,-0.007930072127170567,4.227685567067179,0.0025088031883426986,0.0252425809421196,-0.0021429161886015883,21.048429703912962,0.025457299068217525,1.0,0.0,57.711938243444145,-1.4405247638228156,24.37104372039117,97.22219282570329,0.11105817103984193,4.933238397560012,1.0,23.58695181135242,0.0,1.0,98.80367246346796,5962.378435565359,1.0,1.0,0.2874945668536168,18.618421640489636,-0.004236792949381907,-44.199323293366554,1.0,24.907830799889037,1.0,0.005990995406906327,4.059364118000056,0.9391746439354766,1.0,-0.44453082773386493,6.7694177171220735
0.75,0.75,1.0,20.57166928893986,0.011625204899593356,4.221451654631502,0.0011903280909354376,0.029103941409909063,0.0013521571613500842,21.000342057959234,0.029159640182013218,1.0,0.0,57.711938243444145,-1.4405247638228156,24.37104372039117,97.22219282570329,0.11105817103984193,4.933238397560012,1.0,23.58695181135242,0.0,1.0,99.93815489904964,6035.291074269855,1.0,1.0,0.2874945668536168,18.618421640489636,-0.004236792949381907,-44.199323293366554,1.0,24.907830799889037,1.0,0.005990995406906327,4.059364118000056,0.9391746439354766,1.0,-0.44453082773386493,6.7694177171220735
0.78,0.78,1.0,20.57708540860323,-0.06683260163433906,4.327553612159817,0.0007836953734760417,0.024752988653322892,-0.0002538655740981199,21.027330567043236,0.024766692824025816,1.0,0.0,57.711938243444145,-1.4405247638228156,24.37104372039117,97.22219282570329,0.11105817103984193,4.933238397560012,1.0,23.55136418553855,0.0,1.0,100.15190667254792,6211.417779232021,1.0,1.0,0.02320020698432135,18.758895676133797,0.020512500027092834,-44.22373080848532,1.0,24.40958895500158,1.0,0.02958593775135763,4.059369383379115,0.938494282243291,1.0,-0.3641198977541506,6.509991824758309
0.8099999999999999,0.8099999999999999,1.0,20.613599428006655,-0.01909293271997271,4.478264230887356,0.001127163187817565,0.02496719490997198,0.0027680952868012225,21.094447052246743,0.025145450285117447,1.0,0.0,57.711938243444145,-1.4405247638228156,24.37104372039117,97.22219282570329,0.11105817103984193,4.933238397560012,1.0,23.55136418553855,0.0,1.0,99.88384267575196,6148.05127386609,1.0,1.0,0.02320020698432135,18.758895676133797,0.020512500027092834,-44.22373080848532,1.0,24.40958895500158,1.0,0.02958593775135763,4.059369383379115,0.938494282243291,1.0,-0.3641198977541506,6.509991824758309
0.84,0.84,1.0,20.50230470505062,0.05166430092585032,4.460074822733408,0.0012661216670166629,0.029257122621765486,-5.870225580505489e-05,20.981883491314868,0.029284564776269895,1.0,0.0,77.8600339312021,0.11040984545368764,24.968544340236,101.2126795848166,0.017043018975863612,4.259644002049987,1.0,26.009958581193633,0.0,1.0,101.05414616688392,6287.980374073702,1.0,1.0,-0.2524767918030103,18.706855319275164,0.042477749502781575,-44.15385849565438,1.0,24.692007237915195,1.0,-0.015716378217716927,4.064713180084689,0.937840892090769,1.0,0.559642409700591,7.381516220056872
0.87,0.87,1.0,20.466754307011225,-0.0032009294677551336,4.570443369956067,-0.0007627910474587565,0.02493457821242811,0.001423801640237294,20.970860609605115,0.02498684157560775,1.0,0.0,77.8600339312021,0.11040984545368764,24.968544340236,101.2126795848166,0.017043018975863612,4.259644002049987,1.0,26.009958581193633,0.0,1.0,101.64821184630758,6281.785351486666,1.0,1.0,-0.2524767918030103,18.706855319275164,0.042477749502781575,-44.15385849565438,1.0,24.692007237915195,1.0,-0.015716378217716927,4.064713180084689,0.937840892090769,1.0,0.559642409700591,7.381516220056872
0.8999999999999999,0.8999999999999999,1.0,20.498404011069898,-0.010573689704318741,4.596680836764276,0.00044742135249231185,0.025091346541639067,0.00382627890876341,21.007478514068183,0.025385355373264654,1.0,0.0,77.8600339312021,0.11040984545368764,24.968544340236,101.2126795848166,0.017043018975863612,4.259644002049987,1.0,25.100717499229464,0.0,1.0,101.94710142086365,6550.899032963918,1.0,1.0,-2.017714388591032,18.936459416390978,-0.03530780576572019,-44.0778249822636,1.0,25.254893168902928,1.0,0.0004759712891396072,4.066665425056569,0.9372134258546759,1.0,0.18807463782397235,6.636261316945411
0.9299999999999999,0.9299999999999999,1.0,20.441486594769433,-0.03394187802056017,4.656805140937262,-0.0007921764512016805,0.026043883319484484,-0.001474918900734763,20.9652417199488,0.026097639503459027,1.0,0.0,77.8600339312021,0.11040984545368764,24.968544340236,101.2126795848166,0.017043018975863612,4.259644002049987,1.0,25.100717499229464,0.0,1.0,102.95399676061362,6453.153098538915,1.0,1.0,-2.017714388591032,18.936459416390978,-0.03530780576572019,-44.0778249822636,1.0,25.254893168902928,1.0,0.0004759712891396072,4.066665425056569,0.9372134258546759,1.0,0.18807463782397235,6.636261316945411
0.96,0.96,1.0,20.41488594767681,0.0403044881716855,4.801022401393572,0.005810731508932576,0.024219917222877578,-0.0017345670483146591,20.971862311370963,0.02496753319407111,1.0,0.0,77.8600339312021,0.11040984545368764,24.968544340236,101.2126795848166,0.017043018975863612,4.259644002049987,1.0,25.07323164964012,0.0,1.0,103.15861662391801,6579.630849617104,1.0,1.0,0.32106353464181236,18.971220607562014,0.01749869089294133,-44.125438349539074,1.0,25.504805443127015,1.0,0.008488511521670595,4.063609252583687,0.936610856089528,1.0,-0.2852912671137542,6.553081986526138
0.99,0.99,1.0,20.488522898167915,0.02423630645272609,4.865727443884059,-0.0014060586879246736,0.02462863414449648,0.003593470265315887,21.05838221482049,0.02492909243043268,1.0,0.0,77.8600339312021,0.11040984545368764,24.968544340236,101.2126795848166,0.017043018975863612,4.259644002049987,1.0,25.07323164964012,0.0,1.0,103.5593141009406,6596.205566856417,1.0,1.0,0.32106353464181236,18.971220607562014,0.01749869089294133,-44.125438349539074,1.0,25.504805443127015,1.0,0.008488511521670595,4.063609252583687,0.936610856089528,1.0,-0.2852912671137542,6.553081986526138
1.02,1.02,1.0,20.371850275942386,-0.003617189695431459,4.955245180134928,-0.0012687287302588265,0.024872587617027285,0.0009741654625859581,20.9658472651292,0.02492397010321948,1.0,0.0,77.8600339312021,0.11040984545368764,24.968544340236,101.2126795848166,0.017043018975863612,4.259644002049987,1.0,25.416543726313837,0.0,1.0,105.00636129244641,6836.065473767673,1.0,1.0,0.20716255069020592,18.981477627981622,-0.02774534788802444,-44.06798211071773,1.0,25.64602347714872,1.0,0.004000979885722656,4.111357331825129,0.936032167146583,1.0,-0.2350183702845472,6.342230373328141
1.05,1.05,1.0,20.404820688693565,0.023065120251563386,4.99600887769781,-0.0009619480502852831,0.025107852629869785,-0.000216186253064102,21.00755445175722,0.025127203271170483,1.0,0.0,100.9448943336209,-0.5143213134600304,25.16123207933974,105.46666543942736,-0.10413279965858194,3.729328753249817,1.0,25.416543726313837,0.0,1.0,105.06449029074179,6692.721107056503,1.0,1.0,0.20716255069020592,18.981477627981622,-0.02774534788802444,-44.06798211071773,1.0,25.64602347714872,1.0,0.004000979885722656,4.111357331825129,0.936032167146583,1.0,-0.2350183702845472,6.342230373328141
1.08,1.08,1.0,20.317146202916405,-0.022853924830118926,5.137791286802834,6.010971362783861e-05,0.023347818598026593,0.0015833385952579505,20.956713755722955,0.023401521479836783,1.0,0.0,100.9448943336209,-0.5143213134600304,25.16123207933974,105.46666543942736,-0.10413279965858194,3.729328753249817,1.0,26.227274262573207,0.0,1.0,105.82543306716242,6857.785672085805,1.0,1.0,0.7264451323418568,19.072748716242536,-0.02658840919779483,-43.99721330371421,1.0,25.75410192470577,1.0,-0.0045325187658295995,4.104189715248792,0.9354763491393125,1.0,-0.808246265656688,6.679078746784222
1.1099999999999999,1.1099999999999999,1.0,20.35198672458856,-0.051319635676952136,5.186345675025951,-0.0009535318708432641,0.0234671537863428,0.002824344071052272,21.002480301233362,0.023655727621281604,1.0,0.0,100.9448943336209,-0.5143213134600304,25.16123207933974,105.46666543942736,-0.10413279965858194,3.729328753249817,1.0,26.227274262573207,0.0,1.0,107.11552252055337,6984.807432281938,1.0,1.0,0.7264451323418568,19.072748716242536,-0.02658840919779483,-43.99721330371421,1.0,25.75410192470577,1.0,-0.0045325187658295995,4.104189715248792,0.9354763491393125,1.0,-0.808246265656688,6.679078746784222
1.14,1.14,1.0,20.301072118307065,0.00532466447862414,5.206296249201531,0.00121304139877298,0.018977818890406808,0.0019481353936812015,20.958031351708733,0.019116074669877497,1.0,0.0,100.9448943336209,-0.5143213134600304,25.16123207933974,105.46666543942736,-0.10413279965858194,3.729328753249817,1.0,26.742043395839623,0.0,1.0,106.95757536653181,6956.480664346058,1.0,1.0,-0.7598756353801139,19.145425786910547,0.06539829339394247,-44.06534696343197,1.0,26.077426395848693,1.0,0.0038094536017736326,4.113381403969403,0.9349423937280272,1.0,-0.20272584193111715,6.824181173796579
1.17,1.17,1.0,20.2115115894261,-0.02730403298349267,5.23312382583251,-0.0008634720567739232,0.024178717666521434,-0.001090500165282645,20.878015499951584,0.02421869448588562,1.0,0.0,100.9448943336209,-0.5143213134600304,25.16123207933974,105.46666543942736,-0.10413279965858194,3.729328753249817,1.0,26.742043395839623,0.0,1.0,107.8337729592691,7015.654604890052,1.0,1.0,-0.7598756353801139,19.145425786910547,0.06539829339394247,-44.06534696343197,1.0,26.077426395848693,1.0,0.0038094536017736326,4.113381403969403,0.9349423937280272,1.0,-0.20272584193111715,6.824181173796579
1.2,1.2,1.0,20.184548809286493,0.05991784686592215,5.429944667125889,-0.00012476373930662816,0.021060394506693735,-0.0010175630330780644,20.902246287681397,0.021085331804230837,1.0,0.0,100.9448943336209,-0.5143213134600304,25.16123207933974,105.46666543942736,-0.10413279965858194,3.729328753249817,1.0,26.916236385516616,0.0,1.0,107.75202600879904,7200.932896342994,1.0,1.0,2.06342647402825,19.18338218667744,0.08539920361413032,-43.99985771594657,1.0,26.47316420383013,1.0,-5.519108586433316e-05,4.119051573592124,0.9344292912729439,1.0,-0.11770425331794655,6.056204581580737
1.23,1.23,1.0,20.232773826387387,-0.0034837575534648673,5.4275252926086734,0.0002589862009826061,0.021915667823237523,0.0025757760128478453,20.9481068273059,0.022068035527865872,1.0,0.0,100.9448943336209,-0.5143213134600304,25.16123207933974,105.46666543942736,-0.10413279965858194,3.729328753249817,1.0,26.916236385516616,0.0,1.0,109.26986159202939,7292.352829585937,1.0,1.0,2.06342647402825,19.18338218667744,0.08539920361413032,-43.99985771594657,1.0,26.47316420383013,1.0,-5.519108586433316e-05,4.119051573592124,0.9344292912729439,1.0,-0.11770425331794655,6.056204581580737
1.26,1.26,1.0,20.22305294986908,0.00794684442405135,5.491574287295666,-0.0014282419835606125,0.021229154518726943,-0.00016546531227039135,20.955412711717983,0.021277787843503714,1.0,0.0,120.32756493383128,-0.9886792019865726,28.34207550381318,109.5142419460642,-0.10364898284714909,3.220407993709872,1.0,25.699757899465396,0.0,1.0,110.11647780199928,7438.117895395001,1.0,1.0,0.9629097954391108,19.283540240022926,0.023134658006696746,-43.92117054334116,1.0,26.799327514304366,1.0,0.0006925181714708218,4.130618365510382,0.9339360289858593,1.0,-0.16193324251844712,6.253383328574115
1.29,1.29,1.0,20.21221707581023,-0.049476832008403165,5.574740179862807,-0.003389608958674506,0.019035229155059,-0.0003681181865630906,20.966971530231948,0.019338172325160753,1.0,0.0,120.32756493383128,-0.9886792019865726,28.34207550381318,109.5142419460642,-0.10364898284714909,3.220407993709872,1.0,25.699757899465396,0.0,1.0,110.01497854747893,7335.117027026433,1.0,1.0,0.9629097954391108,19.283540240022926,0.023134658006696746,-43.92117054334116,1.0,26.799327514304366,1.0,0.0006925181714708218,4.130618365510382,0.9339360289858593,1.0,-0.16193324251844712,6.253383328574115
1.3199999999999998,1.3199999999999998,1.0,20.09264256975719,0.03567348886726788,5.643710718260912,-0.0005986024000608491,0.021940502484252136,0.00022732488971947352,20.87024266043018,0.02194984397895162,1.0,0.0,120.32756493383128,-0.9886792019865726,28.34207550381318,109.5142419460642,-0.10364898284714909,3.220407993709872,1.0,26.46207292766196,0.0,1.0,111.20919343294557,7373.288803310825,1.0,1.0,1.6927284296326035,19.251326352179536,-0.030682723420617862,-43.88680739588803,1.0,26.61251092255004,1.0,0.013162503591316774,4.137249403120206,0.9334615898360369,1.0,-0.7218941598180079,6.43238674538269
1.3499999999999999,1.3499999999999999,1.0,20.135616704392827,-0.08324399002846977,5.730208522567519,-0.002692286164653651,0.020928495808653108,0.00011597472438910492,20.935264014103208,0.021101274647326244,1.0,0.0,120.32756493383128,-0.9886792019865726,28.34207550381318,109.5142419460642,-0.10364898284714909,3.220407993709872,1.0,26.46207292766196,0.0,1.0,110.49432322673961,7544.470219317241,1.0,1.0,1.6927284296326035,19.251326352179536,-0.030682723420617862,-43.88680739588803,1.0,26.61251092255004,1.0,0.013162503591316774,4.137249403120206,0.9334615898360369,1.0,-0.7218941598180079,6.43238674538269
1.38,1.38,1.0,20.06442706438541,0.016192227366680224,5.781659766067668,0.000628780306154169,0.01897368845319887,0.0021791237596503594,20.88083056922867,0.01910876235009301,1.0,0.0,120.32756493383128,-0.9886792019865726,28.34207550381318,109.5142419460642,-0.10364898284714909,3.220407993709872,1.0,26.64000495602239,0.0,1.0,111.80011612048958,7753.57495794226,1.0,1.0,0.008506569961628012,19.31386180263249,-0.03420361459673876,-43.930803494569766,1.0,26.976015909681514,1.0,-0.0009266132384222408,4.166999806453358,0.9330049520097937,1.0,-0.06537621353699231,6.827735446937253
1.41,1.41,1.0,20.130417128123433,-0.07625831548021851,5.788056184818881,-0.003819351200820914,0.014967090510887304,-0.0006470055900708794,20.946147700270455,0.015460267080160288,1.0,0.0,120.32756493383128,-0.9886792019865726,28.34207550381318,109.5142419460642,-0.10364898284714909,3.220407993709872,1.0,26.64000495602239,0.0,1.0,112.43141622361084,7650.6158179773265,1.0,1.0,0.008506569961628012,19.31386180263249,-0.03420361459673876,-43.930803494569766,1.0,26.976015909681514,1.0,-0.0009266132384222408,4.166999806453358,0.9330049520097937,1.0,-0.06537621353699231,6.827735446937253
1.44,1.44,1.0,20.136373498965096,0.027761547359216102,5.871280762384425,-0.00031388330610222076,0.017457188170551308,0.001718790116999069,20.97489561795436,0.017544405975073077,1.0,0.0,120.32756493383128,-0.9886792019865726,28.34207550381318,109.5142419460642,-0.10364898284714909,3.220407993709872,1.0,27.287755680313783,0.0,1.0,113.36073092230001,7685.3135512768295,1.0,1.0,1.430724974756069,19.37640262240277,0.04184226310548753,-43.891564446201734,1.0,26.7823500538151,1.0,0.00636477619432341,4.18672144748476,0.9325650887811829,1.0,-0.3017590074810985,5.80349821898371
1.47,1.47,1.0,19.998047477104382,-0.014612581059159788,5.997386580043911,0.0003055854345507461,0.017778047429819557,-0.0003411062948706504,20.87799708340187,0.017783945186013245,1.0,0.0,145.7689109635702,-1.2389951447554337,26.851909688241268,113.81600995922152,-0.12167131273932834,3.2156570373946702,1.0,27.287755680313783,0.0,1.0,113.37713782634131,7936.147732344478,1.0,1.0,1.430724974756069,19.37640262240277,0.04184226310548753,-43.891564446201734,1.0,26.7823500538151,1.0,0.00636477619432341,4.18672144748476,0.9325650887811829,1.0,-0.3017590074810985,5.80349821898371
1.5,1.5,1.0,20.03067352246391,-0.05849183849588691,6.020987316443942,0.0005658666969142462,0.01764746553101138,0.001447673505714987,20.91610841728179,0.017715784017820393,1.0,0.0,145.7689109635702,-1.2389951447554337,26.851909688241268,113.81600995922152,-0.12167131273932834,3.2156570373946702,1.0,27.045627901646753,0.0,1.0,114.40122196394691,8055.567947161024,1.0,1.0,-1.2019821554122339,19.468126979442182,0.031243065780116114,-43.84040166006166,1.0,27.136201151623432,1.0,0.0008202138454862203,4.186616603103123,0.9321409686842279,1.0,0.3489614714784054,6.206790721922505
1.53,1.53,1.0,19.99669798990308,-0.004045045969823648,6.162416927559256,0.003779395934551159,0.014428483266014895,0.000847128737547872,20.924706192701,0.014939296840405613,1.0,0.0,145.7689109635702,-1.2389951447554337,26.851909688241268,113.81600995922152,-0.12167131273932834,3.2156570373946702,1.0,27.045627901646753,0.0,1.0,114.84035095807106,7947.93331059688,1.0,1.0,-1.2019821554122339,19.468126979442182,0.031243065780116114,-43.84040166006166,1.0,27.136201151623432,1.0,0.0008202138454862203,4.186616603103123,0.9321409686842279,1.0,0.3489614714784054,6.206790721922505
1.56,1.56,1.0,19.992180803952426,0.06228828308165944,6.161731038702741,0.0019368357837205887,0.017135452446383592,-0.0016953108876864049,20.920279695105556,0.017327698704712118,1.0,0.0,145.7689109635702,-1.2389951447554337,26.851909688241268,113.81600995922152,-0.12167131273932834,3.2156570373946702,1.0,27.27602049377627,0.0,1.0,115.14485875540396,8029.686582100185,1.0,1.0,0.7895691799827573,19.43790588806884,-0.08293977770278484,-43.840540643306994,1.0,27.398030571730676,1.0,0.002017349946885081,4.205184696476373,0.9317315559054525,1.0,-0.12955041479895812,5.207922887100554
1.5899999999999999,1.5899999999999999,1.0,19.897115514704552,-0.027721553808669343,6.262150010970935,0.0007793280462142175,0.012942326855153306,0.0014853473402726709,20.859302410434186,0.013050572146480538,1.0,0.0,145.7689109635702,-1.2389951447554337,26.851909688241268,113.81600995922152,-0.12167131273932834,3.2156570373946702,1.0,27.27602049377627,0.0,1.0,115.82389402720999,8162.942966666861,1.0,1.0,0.7895691799827573,19.43790588806884,-0.08293977770278484,-43.840540643306994,1.0,27.398030571730676,1.0,0.002017349946885081,4.205184696476373,0.9317315559054525,1.0,-0.12955041479895812,5.207922887100554
1.6199999999999999,1.6199999999999999,1.0,19.967637364066462,-0.04133767912465263,6.344185109741059,-0.00022357653111030915,0.01286899550274764,-0.0008930185862735824,20.951299134259877,0.012901880247097024,1.0,0.0,145.7689109635702,-1.2389951447554337,26.851909688241268,113.81600995922152,-0.12167131273932834,3.2156570373946702,1.0,27.98993749205281,0.0,1.0,116.8860341592175,8337.132301533285,1.0,1.0,0.2672245144087914,19.4919879915312,0.0836155907880831,-43.91109350513042,1.0,27.276182516210095,1.0,0.0016252355438096673,4.220996233116383,0.9313358108355613,1.0,0.2590999534225386,5.479063993557076
1.65,1.65,1.0,19.82490900628018,-0.03149770820662431,6.354685793321362,-0.00031166391982524196,0.018472781329363763,-0.0008708280710869574,20.81850236555818,0.018495921874045754,1.0,0.0,145.7689109635702,-1.2389951447554337,26.851909688241268,113.81600995922152,-0.12167131273932834,3.2156570373946702,1.0,27.98993749205281,0.0,1.0,117.43858544742368,8277.078311041822,1.0,1.0,0.2672245144087914,19.4919879915312,0.0836155907880831,-43.91109350513042,1.0,27.276182516210095,1.0,0.0016252355438096673,4.220996233116383,0.9313358108355613,1.0,0.2590999534225386,5.479063993557076
1.68,1.68,1.0,19.925914926355,0.0016834332470432795,6.558460806599975,0.0007375120723331163,0.013987442314290475,0.002200374561925831,20.97749977089721,0.014178649962715457,1.0,0.0,169.35922728994345,0.10467949366459839,25.799805837175327,117.3968963822617,-0.11996303888903753,2.5365726828332735,1.0,28.214841435314494,0.0,1.0,118.03900503708616,8431.013285187242,1.0,1.0,0.21119975031304736,19.535767150654497,-0.05832704608835584,-43.82286806049623,1.0,27.797384188724294,1.0,-0.00543425822334291,4.233478136082893,0.930952690734424,1.0,0.10699802367398142,5.774194379926176
1.71,1.71,1.0,19.731527467442405,-0.022542819924003258,6.541312315978731,0.0007828565490089715,0.011523962678341318,0.0008870477358788632,20.787555199982975,0.01158453425364428,1.0,0.0,169.35922728994345,0.10467949366459839,25.799805837175327,117.3968963822617,-0.11996303888903753,2.5365726828332735,1.0,28.214841435314494,0.0,1.0,118.1769075067927,8650.949005104585,1.0,1.0,0.21119975031304736,19.535767150654497,-0.05832704608835584,-43.82286806049623,1.0,27.797384188724294,1.0,-0.00543425822334291,4.233478136082893,0.930952690734424,1.0,0.10699802367398142,5.774194379926176
1.74,1.74,1.0,19.760782918758697,0.06386807782458512,6.550553464140071,0.0012293759769343958,0.016243364729939144,-0.0013421034472542188,20.818318168868203,0.016345014674377812,1.0,0.0,169.35922728994345,0.10467949366459839,25.799805837175327,117.3968963822617,-0.11996303888903753,2.5365726828332735,1.0,27.737213862335345,0.0,1.0,118.71193733175345,8519.276713253417,1.0,1.0,0.35735351418991396,19.546341220294256,0.013098680850136067,-43.797877151442165,1.0,28.09791448413635,1.0,0.0041346211143124464,4.266498576670534,0.9305811504749454,1.0,-0.07440528772314185,5.89746536150867
1.77,1.77,1.0,19.769802692173773,0.008778923153284957,6.741008497870946,-0.002399117131381455,0.011225994010833271,-0.002344988067335383,20.887469236969363,0.01171655553382895,1.0,0.0,169.35922728994345,0.10467949366459839,25.799805837175327,117.3968963822617,-0.11996303888903753,2.5365726828332735,1.0,27.737213862335345,0.0,1.0,119.59692240473312,8763.955369388677,1.0,1.0,0.35735351418991396,19.546341220294256,0.013098680850136067,-43.797877151442165,1.0,28.09791448413635,1.0,0.0041346211143124464,4.266498576670534,0.9305811504749454,1.0,-0.07440528772314185,5.89746536150867
1.7999999999999998,1.7999999999999998,1.0,19.766519005530085,-0.021217514946967615,6.771314885554406,-0.0006837096447960569,0.010089994826938068,0.001158210139002124,20.89417213144022,0.010179238930888275,1.0,0.0,169.35922728994345,0.10467949366459839,25.799805837175327,117.3968963822617,-0.11996303888903753,2.5365726828332735,1.0,28.242911308793932,0.0,1.0,119.71247864230911,8594.329561970579,1.0,1.0,-2.254423487237513,19.56377948521984,0.015143301359906294,-43.77998992509248,1.0,27.928128016985358,1.0,-0.02474790865352522,4.283828066415246,0.9302201433399396,1.0,-0.23641239826435617,5.777016479995874
1.8299999999999998,1.8299999999999998,1.0,19.71419608758009,0.033205225890756,6.854279314211308,7.149624547488423e-05,0.01425322796447412,0.0006277958355700721,20.871793762966554,0.014267226315284385,1.0,0.0,169.35922728994345,0.10467949366459839,25.799805837175327,117.3968963822617,-0.11996303888903753,2.5365726828332735,1.0,28.242911308793932,0.0,1.0,120.07363515047,8916.734936965953,1.0,1.0,-2.254423487237513,19.56377948521984,0.015143301359906294,-43.77998992509248,1.0,27.928128016985358,1.0,-0.02474790865352522,4.283828066415246,0.9302201433399396,1.0,-0.23641239826435617,5.777016479995874
1.8599999999999999,1.8599999999999999,1.0,19.72063653988831,-0.014808011295835657,6.88319308906141,-0.0020288310169881587,0.009243526609083879,0.0005026141464205757,20.88736632313608,0.009476896140008975,1.0,0.0,169.35922728994345,0.10467949366459839,25.799805837175327,117.3968963822617,-0.11996303888903753,2.5365726828332735,1.0,28.316924610832125,0.0,1.0,120.88003892425625,8966.737442602082,1.0,1.0,-0.38454546694159275,19.637241430016488,0.019967761008969995,-43.77336525457428,1.0,27.935940868290274,1.0,0.003225422314104629,4.297493498980409,0.9298686218525523,1.0,0.06865813693711625,6.250737230819
1.89,1.89,1.0,19.668127080154754,-0.007213876384782036,6.981472145637881,-0.001675229689958972,0.011839384568351343,4.729491857227685e-05,20.8704630567088,0.011957410182843051,1.0,0.0,195.88572338045466,0.5803632647016573,28.41684568976681,121.72425941543968,-0.020949794872449978,2.08244311659407,1.0,28.316924610832125,0.0,1.0,121.71044377357097,8942.875081291175,1.0,1.0,-0.38454546694159275,19.637241430016488,0.019967761008969995,-43.77336525457428,1.0,27.935940868290274,1.0,0.003225422314104629,4.297493498980409,0.9298686218525523,1.0,0.06865813693711625,6.250737230819
1.92,1.92,1.0,19.701978796507568,0.0009528939202755693,7.023828274133781,-2.475920507279969e-05,0.0073889776158697195,0.0008898182702178508,20.91655165247278,0.007442404166670411,1.0,0.0,195.88572338045466,0.5803632647016573,28.41684568976681,121.72425941543968,-0.020949794872449978,2.08244311659407,1.0,27.32221304125291,0.0,1.0,122.28293574112247,9098.524792912967,1.0,1.0,0.027167083226558676,19.648517190651734,0.06485926045376163,-43.86218204960627,1.0,27.96476867479732,1.0,-0.01561150849108961,4.331609636141021,0.9295255386255689,1.0,0.04638167746826721,6.585344702852638
1.95,1.95,1.0,19.66580905031138,-0.029418256994016394,7.107124341781762,0.0002499554068132249,0.013253566153977391,0.0006055810501484147,20.91067018167281,0.013269748374085663,1.0,0.0,195.88572338045466,0.5803632647016573,28.41684568976681,121.72425941543968,-0.020949794872449978,2.08244311659407,1.0,27.32221304125291,0.0,1.0,122.44237435554139,9267.55547801686,1.0,1.0,0.027167083226558676,19.648517190651734,0.06485926045376163,-43.86218204960627,1.0,27.96476867479732,1.0,-0.01561150849108961,4.331609636141021,0.9295255386255689,1.0,0.04638167746826721,6.585344702852638
1.98,1.98,1.0,19.64814406210492,0.02372509537056146,7.150964977105982,-0.0022144301550635105,0.01427858336870413,0.00044669641978878404,20.909003516886585,0.01445618143287296,1.0,0.0,195.88572338045466,0.5803632647016573,28.41684568976681,121.72425941543968,-0.020949794872449978,2.08244311659407,1.0,29.060107304929083,0.0,1.0,123.40996486109846,9367.53621514308,1.0,1.0,0.22990760679561076,19.660408014275966,-0.030262560087283178,-43.75029383565675,1.0,28.246502725296505,1.0,-0.0008272722942451474,4.348377184380413,0.929189847218559,1.0,0.5447030672880988,5.074311917073889
2.01,2.01,1.0,19.56431423094585,0.008599499041272819,7.26632261394575,0.0002276717814214487,0.011058810341683805,0.00047190024471040166,20.87012001902513,0.011071215400955129,1.0,0.0,195.88572338045466,0.5803632647016573,28.41684568976681,121.72425941543968,-0.020949794872449978,2.08244311659407,1.0,29.060107304929083,0.0,1.0,124.0107436641915,9391.404990684847,1.0,1.0,0.22990760679561076,19.660408014275966,-0.030262560087283178,-43.75029383565675,1.0,28.246502725296505,1.0,-0.0008272722942451474,4.348377184380413,0.929189847218559,1.0,0.5447030672880988,5.074311917073889
2.04,2.04,1.0,19.53349659428706,0.00901287799253271,7.300602789495982,0.0012959509496534008,0.007853526564459267,-0.0010481736513931015,20.853210101108907,0.008028451679249846,1.0,0.0,195.88572338045466,0.5803632647016573,28.41684568976681,121.72425941543968,-0.020949794872449978,2.08244311659407,1.0,27.37669651610658,0.0,1.0,124.33272284427788,9546.766749178647,1.0,1.0,0.5174757826812354,19.724649028553916,0.022011415832582027,-43.740411494323325,1.0,28.231336197681806,1.0,-0.00815869616760906,4.36191737690141,0.9288605029945136,1.0,0.21326898200569677,5.872568121456243
2.07,2.07,1.0,19.47124300737161,0.022062440982930705,7.365335144320461,-5.2136427482700744e-05,0.0076882260256955,-0.0012669380291954451,20.817731691795387,0.0077920901944904305,1.0,0.0,195.88572338045466,0.5803632647016573,28.41684568976681,121.72425941543968,-0.020949794872449978,2.08244311659407,1.0,27.37669651610658,0.0,1.0,125.44960788424375,9623.25311947496,1.0,1.0,0.5174757826812354,19.724649028553916,0.022011415832582027,-43.740411494323325,1.0,28.231336197681806,1.0,-0.00815869616760906,4.36191737690141,0.9288605029945136,1.0,0.21326898200569677,5.872568121456243
2.1,2.1,1.0,19.50673459718551,0.004081106689045281,7.413580747484268,-0.002733906544495553,0.008246210734830197,0.002438693497912051,20.868011184584297,0.009023384201840401,1.0,0.0,220.681681324283,-0.9126351324079304,27.79035911182529,125.4036198041546,-0.16126875235301044,2.059451045017747,1.0,28.97489006336408,0.0,1.0,125.81541687898911,9781.782111094857,1.0,1.0,-0.132208708406364,19.67773954934786,-0.021724524062429765,-43.784945326192876,1.0,28.412535616297372,1.0,0.009225769955652965,4.36858673205182,0.9285364639696647,1.0,0.002188521992375938,6.2836895560637736
2.13,2.13,1.0,19.44451434319402,-0.03772153904689924,7.506889948636227,-0.003215320442064753,0.00727477240838588,0.0021725951250623253,20.843319257213366,0.008245045100932836,1.0,0.0,220.681681324283,-0.9126351324079304,27.79035911182529,125.4036198041546,-0.16126875235301044,2.059451045017747,1.0,28.97489006336408,0.0,1.0,125.60455240872169,9742.327704215926,1.0,1.0,-0.132208708406364,19.67773954934786,-0.021724524062429765,-43.784945326192876,1.0,28.412535616297372,1.0,0.009225769955652965,4.36858673205182,0.9285364639696647,1.0,0.002188521992375938,6.2836895560637736
2.16,2.16,1.0,19.420267452050787,0.0008643724797329816,7.5245436364358325,-0.002053445989291011,0.01038603059819391,0.00012167427065311867,20.82703880999289,0.01058777958996571,1.0,0.0,220.681681324283,-0.9126351324079304,27.79035911182529,125.4036198041546,-0.16126875235301044,2.059451045017747,1.0,29.002826865939824,0.0,1.0,126.15061609260881,9763.144157894296,1.0,1.0,-1.1808146066566236,19.783597739608542,0.017835522692160915,-43.713269831818224,1.0,28.556100064550172,1.0,0.005341512196297713,4.391680511781693,0.9282166916517167,1.0,0.4447806537253375,5.598206674314479
2.19,2.19,1.0,19.393201388920904,-0.0680490998716121,7.636128710765397,0.002127563673337678,0.009581315390906784,-0.0016183734827011527,20.8425370931327,0.009947223961168442,1.0,0.0,220.681681324283,-0.9126351324079304,27.79035911182529,125.4036198041546,-0.16126875235301044,2.059451045017747,1.0,29.002826865939824,0.0,1.0,126.5522289255049,9631.339958437868,1.0,1.0,-1.1808146066566236,19.783597739608542,0.017835522692160915,-43.713269831818224,1.0,28.556100064550172,1.0,0.005341512196297713,4.391680511781693,0.9282166916517167,1.0,0.4447806537253375,5.598206674314479
2.2199999999999998,2.2199999999999998,1.0,19.35902679974188,-0.03674808958546651,7.669500244760871,0.0005881574895730492,0.0072418384097944835,-0.0001691356679671133,20.82293214366314,0.00726765159183448,1.0,0.0,220.681681324283,-0.9126351324079304,27.79035911182529,125.4036198041546,-0.16126875235301044,2.059451045017747,1.0,28.89046616574395,0.0,1.0,127.83566985808254,10030.470479589812,1.0,1.0,1.1001754087521782,19.766145095137453,-0.012095677645621642,-43.728203597696094,1.0,29.03205490246672,1.0,0.006808794125097082,4.409156605382104,0.9279001518628699,1.0,0.5526411510499093,5.801339909340477
2.25,2.25,1.0,19.337070762867253,-0.04122723800333921,7.776689861462524,0.0015116432580279864,0.0062506253952548125,0.001822756685767126,20.842286596596423,0.006684147298410965,1.0,0.0,220.681681324283,-0.9126351324079304,27.79035911182529,125.4036198041546,-0.16126875235301044,2.059451045017747,1.0,28.89046616574395,0.0,1.0,128.7637346900478,10167.285605994453,1.0,1.0,1.1001754087521782,19.766145095137453,-0.012095677645621642,-43.728203597696094,1.0,29.03205490246672,1.0,0.006808794125097082,4.409156605382104,0.9279001518628699,1.0,0.5526411510499093,5.801339909340477
2.28,2.28,1.0,19.415057094962524,0.01221413090344737,7.834196134758722,0.0010587851842506692,0.007713178301444373,0.002181179473663335,20.93607461449058,0.008085276091302714,1.0,0.0,220.681681324283,-0.9126351324079304,27.79035911182529,125.4036198041546,-0.16126875235301044,2.059451045017747,1.0,29.59640041241212,0.0,1.0,129.5438961102459,10143.694796670328,1.0,1.0,0.7489650167228306,19.7993258967167,-0.014113850951209258,-43.655589579292524,1.0,28.52979896941888,1.0,-0.0046198615492057185,4.4299215520867286,0.9275858155448945,1.0,-0.5889626797749533,5.686918189806548
2.31,2.31,1.0,19.410476268300087,0.0027120919167082113,7.88734951684447,4.77148430652025e-05,0.006359412260474183,-0.0006233268279356578,20.951775073213966,0.006390065519174465,1.0,0.0,248.80728798166706,0.39841727765723006,29.40237102487353,129.3221051825851,0.275570978637166,1.9546432197959895,1.0,29.59640041241212,0.0,1.0,129.80081123684778,10220.839086479722,1.0,1.0,0.7489650167228306,19.7993258967167,-0.014113850951209258,-43.655589579292524,1.0,28.52979896941888,1.0,-0.0046198615492057185,4.4299215520867286,0.9275858155448945,1.0,-0.5889626797749533,5.686918189806548
2.34,2.34,1.0,19.307419079087644,0.008517984442994285,7.861829461668424,0.00017656879866341583,0.008434838382182196,-0.0003304306777197846,20.84669917603106,0.008443154594520568,1.0,0.0,248.80728798166706,0.39841727765723006,29.40237102487353,129.3221051825851,0.275570978637166,1.9546432197959895,1.0,29.16926630685548,0.0,1.0,129.94965771264316,10139.830962791244,1.0,1.0,0.8814232332534068,19.81807856811029,-0.05036015320854237,-43.66465041737369,1.0,29.242619100713245,1.0,0.001965513710947383,4.447947048888488,0.9272726595441807,1.0,0.3201883821516754,5.324761537294943
2.37,2.37,1.0,19.22506809995252,0.04330105164029876,8.004169785350896,0.0016188102975515004,0.007788772235420296,-0.0032302341210303106,20.82478937184262,0.008586031224691726,1.0,0.0,248.80728798166706,0.39841727765723006,29.40237102487353,129.3221051825851,0.275570978637166,1.9546432197959895,1.0,29.16926630685548,0.0,1.0,130.79808538941685,10385.95184704135,1.0,1.0,0.8814232332534068,19.81807856811029,-0.05036015320854237,-43.66465041737369,1.0,29.242619100713245,1.0,0.001965513710947383,4.447947048888488,0.9272726595441807,1.0,0.3201883821516754,5.324761537294943
2.4,2.4,1.0,19.25119112740033,-0.026595376024048878,8.132476124062409,-0.00102717545926293,0.003195391928913867,0.003772060297661713,20.898474466959737,0.0050491640786050574,1.0,0.0,248.80728798166706,0.39841727765723006,29.40237102487353,129.3221051825851,0.275570978637166,1.9546432197959895,1.0,30.442358009854228,0.0,1.0,130.5148520582334,10542.455029743556,1.0,1.0,-1.2292660481253275,19.888450684202976,-0.013679138290930001,-43.7495932757766,1.0,29.036919088056834,1.0,0.0047068960552744945,4.46676022925871,0.9269596673751908,1.0,0.5933274989912868,5.94734988868183
2.4299999999999997,2.4299999999999997,1.0,19.221782495756305,0.037674202403097524,8.085885427550972,0.001272348202470435,0.008967648404658593,-0.002397425815906407,20.853294339436427,0.009369377695486507,1.0,0.0,248.80728798166706,0.39841727765723006,29.40237102487353,129.3221051825851,0.275570978637166,1.9546432197959895,1.0,30.442358009854228,0.0,1.0,131.94785086147672,10616.861996508975,1.0,1.0,-1.2292660481253275,19.888450684202976,-0.013679138290930001,-43.7495932757766,1.0,29.036919088056834,1.0,0.0047068960552744945,4.46676022925871,0.9269596673751908,1.0,0.5933274989912868,5.94734988868183
2.46,2.46,1.0,19.141225462098436,0.01725438232334368,8.231136887296088,-0.0001487685996427187,0.0026300474662616356,-0.0036123455428427372,20.835988682133642,0.004470830134541536,1.0,0.0,248.80728798166706,0.39841727765723006,29.40237102487353,129.3221051825851,0.275570978637166,1.9546432197959895,1.0,28.79090441432495,0.0,1.0,132.11062879363763,10647.101132010972,1.0,1.0,2.090500705405645,19.90310000817128,-0.04437813586878794,-43.602504173241456,1.0,29.084661801332885,1.0,-0.007722047058818455,4.4903678417626365,0.9266458398494962,1.0,0.8662572561451346,5.478628693256232
2.4899999999999998,2.4899999999999998,1.0,19.220960670037904,0.024032802005368833,8.300882484914043,-0.0019050035423399088,-0.0018779438876838604,-0.0011308485599816366,20.9368229844709,0.002904226266534568,1.0,0.0,248.80728798166706,0.39841727765723006,29.40237102487353,129.3221051825851,0.275570978637166,1.9546432197959895,1.0,28.79090441432495,0.0,1.0,132.63779580716508,10686.25055577095,1.0,1.0,2.090500705405645,19.90310000817128,-0.04437813586878794,-43.602504173241456,1.0,29.084661801332885,1.0,-0.007722047058818455,4.4903678417626365,0.9266458398494962,1.0,0.8662572561451346,5.478628693256232
2.52,2.52,1.0,19.165133031485816,0.011535326374274377,8.379491852040235,0.002291227630734123,0.00022065810250870258,0.0007244888954484719,20.916939089568338,0.0024131510963199946,1.0,0.0,273.9052287927113,0.20176025599158562,29.502840219952873,133.33491633479983,-0.0696421494113209,2.1764908078212315,1.0,29.721685067556272,0.0,1.0,133.14600396543437,10751.87844667087,1.0,1.0,-0.6098023610345005,19.8870359994439,0.036790822791022346,-43.61861381697596,1.0,29.60036859228624,1.0,0.012029913998308855,4.499162721806572,0.9263300903214409,1.0,0.22765828148255066,5.407550245474525
2.55,2.55,1.0,19.071257133099103,-0.009835198927267665,8.542551668322524,0.0001440186347443477,-0.0017876180038678025,-0.0006658152489848269,20.897084351025654,0.0019130157972914545,1.0,0.0,273.9052287927113,0.20176025599158562,29.502840219952873,133.33491633479983,-0.0696421494113209,2.1764908078212315,1.0,29.721685067556272,0.0,1.0,133.55520572245638,11136.029301571953,1.0,1.0,-0.6098023610345005,19.8870359994439,0.036790822791022346,-43.61861381697596,1.0,29.60036859228624,1.0,0.012029913998308855,4.499162721806572,0.9263300903214409,1.0,0.22765828148255066,5.407550245474525
2.58,2.58,1.0,19.06795694055541,0.05370447164653571,8.507961796240938,-0.0036574406157678244,0.0010126866087288061,-0.0012609970144927824,20.880021072389876,0.0039990648276724,1.0,0.0,273.9052287927113,0.20176025599158562,29.502840219952873,133.33491633479983,-0.0696421494113209,2.1764908078212315,1.0,29.43499904010954,0.0,1.0,134.9726489106237,10853.815370813665,1.0,1.0,-0.4421226376729621,19.894043713276552,0.028040520701193124,-43.67035096087079,1.0,29.836740742678714,1.0,-0.00389804089071116,4.527952955435989,0.9260111328088437,1.0,-0.29934993309376307,6.166363682884381
2.61,2.61,1.0,19.03642615029455,0.0664022513206286,8.583960947163948,-0.00024114491760876216,-0.003218716551940632,0.002171356915759841,20.88239247253615,0.0038901257008794993,1.0,0.0,273.9052287927113,0.20176025599158562,29.502840219952873,133.33491633479983,-0.0696421494113209,2.1764908078212315,1.0,29.43499904010954,0.0,1.0,135.7530896134375,11175.435128119585,1.0,1.0,-0.4421226376729621,19.894043713276552,0.028040520701193124,-43.67035096087079,1.0,29.836740742678714,1.0,-0.00389804089071116,4.527952955435989,0.9260111328088437,1.0,-0.29934993309376307,6.166363682884381
2.6399999999999997,2.6399999999999997,1.0,18.985188813830252,0.0904396940321086,8.713181832513996,0.0015596281021600699,-0.0063899632209360015,0.0004070795264131864,20.889354017812373,0.006590127731902243,1.0,0.0,273.9052287927113,0.20176025599158562,29.502840219952873,133.33491633479983,-0.0696421494113209,2.1764908078212315,1.0,29.366152912058695,0.0,1.0,135.22679578115014,11066.47257884525,1.0,1.0,-0.5640543747808037,19.9686125265722,-0.021717159203047003,-43.66879283693562,1.0,29.863608023650276,1.0,0.008479129042409857,4.533337913894739,0.9256875731399041,1.0,0.5719898668425217,6.331985835829567
2.67,2.67,1.0,19.053004709651034,-0.04863038105835259,8.80104115125424,0.001541810122804799,-0.005812518206164661,-0.0015914128913733369,20.987560094637416,0.006220541884965348,1.0,0.0,273.9052287927113,0.20176025599158562,29.502840219952873,133.33491633479983,-0.0696421494113209,2.1764908078212315,1.0,29.366152912058695,0.0,1.0,136.15915390544205,11556.55352715066,1.0,1.0,-0.5640543747808037,19.9686125265722,-0.021717159203047003,-43.66879283693562,1.0,29.863608023650276,1.0,0.008479129042409857,4.533337913894739,0.9256875731399041,1.0,0.5719898668425217,6.331985835829567
2.6999999999999997,2.6999999999999997,1.0,18.86243936018028,-0.04796357526115563,8.80095753960199,0.0006356576811287177,-0.005751575159118989,-0.0021755139739447864,20.814676858767402,0.006182033528653949,1.0,0.0,273.9052287927113,0.20176025599158562,29.502840219952873,133.33491633479983,-0.0696421494113209,2.1764908078212315,1.0,30.32369125659125,0.0,1.0,135.8419594554367,11372.653097941264,1.0,1.0,1.356642701192511,19.776030958349565,0.027156923288884763,-43.66259997639048,1.0,29.908296313434775,1.0,-0.014418349992410054,4.562259806587224,0.9253579351531281,1.0,-0.4059408602265983,5.404388923903233
2.73,2.73,1.0,18.84139093128695,-0.007278845032513286,8.972303454621906,-0.0012000749088391701,-0.007944099017949431,-0.0009280501254632214,20.868643810487235,0.008087655162603236,1.0,0.0,302.72569620853477,0.9234410924736416,32.39803456479611,137.14701515425529,0.011270291125223627,2.30259375948754,1.0,30.32369125659125,0.0,1.0,137.2913704687525,11441.49317577116,1.0,1.0,1.356642701192511,19.776030958349565,0.027156923288884763,-43.66259997639048,1.0,29.908296313434775,1.0,-0.014418349992410054,4.562259806587224,0.9253579351531281,1.0,-0.4059408602265983,5.404388923903233
2.76,2.76,1.0,18.854610753119605,0.030824936769150945,8.995932374864765,0.000304903391135432,-0.007639342703766142,-0.0037273558382535585,20.890765809838573,0.008505627817420286,1.0,0.0,302.72569620853477,0.9234410924736416,32.39803456479611,137.14701515425529,0.011270291125223627,2.30259375948754,1.0,29.861420130297553,0.0,1.0,137.80106370750855,11606.59462775273,1.0,1.0,-1.4421442425219928,19.762011622618232,0.026670993516435048,-43.757713098417355,1.0,29.480128446759657,1.0,0.020682851812615907,4.577110899515421,0.925020684100132,1.0,0.1256258689012356,5.558545251958954
2.79,2.79,1.0,18.900834635132757,0.0404730276103574,9.031268690004019,0.003993726602763566,-0.011054630765340367,-0.001959319294788977,20.947720690367362,0.011916108661579229,1.0,0.0,302.72569620853477,0.9234410924736416,32.39803456479611,137.14701515425529,0.011270291125223627,2.30259375948754,1.0,29.861420130297553,0.0,1.0,138.06374644119379,11570.424645653093,1.0,1.0,-1.4421442425219928,19.762011622618232,0.026670993516435048,-43.757713098417355,1.0,29.480128446759657,1.0,0.020682851812615907,4.577110899515421,0.925020684100132,1.0,0.1256258689012356,5.558545251958954
2.82,2.82,1.0,18.842525125810855,0.02293663732086746,9.19356273429421,-0.002564169592683705,-0.009798790692264102,0.0019164528533044678,20.965754814829545,0.010308445870730668,1.0,0.0,302.72569620853477,0.9234410924736416,32.39803456479611,137.14701515425529,0.011270291125223627,2.30259375948754,1.0,30.471145119149742,0.0,1.0,138.594635064557,11843.374589862713,1.0,1.0,-1.8266271924628283,19.77167678410679,0.0030350272323798264,-43.71194499361407,1.0,30.160798055976738,1.0,0.003368237854427196,4.590138314257398,0.92467424927588,1.0,-0.35809540184838956,5.587481782735913
2.85,2.85,1.0,18.870822088715297,0.05353413402624443,9.28252376342135,-0.00028237044305409227,-0.012207944914410632,0.002668347357816831,21.030359949985,0.012499349171951436,1.0,0.0,302.72569620853477,0.9234410924736416,32.39803456479611,137.14701515425529,0.011270291125223627,2.30259375948754,1.0,30.471145119149742,0.0,1.0,139.75365318305361,12111.259804616238,1.0,1.0,-1.8266271924628283,19.77167678410679,0.0030350272323798264,-43.71194499361407,1.0,30.160798055976738,1.0,0.003368237854427196,4.590138314257398,0.92467424927588,1.0,-0.35809540184838956,5.587481782735913
2.88,2.88,1.0,18.762904408359326,-0.03615650005563831,9.357614286255345,0.0006034458294573401,-0.010315577037658898,0.001600319573296504,20.966946231152885,0.010456399917067101,1.0,0.0,302.72569620853477,0.9234410924736416,32.39803456479611,137.14701515425529,0.011270291125223627,2.30259375948754,1.0,29.90952107923923,0.0,1.0,139.59262153570995,11874.489753194457,1.0,1.0,0.29787603331982676,19.789427576281984,0.0458927442708022,-43.746162578663935,1.0,30.3716770070106,1.0,0.018989474823699035,4.611631409791414,0.9243170387658716,1.0,-0.6145416429887318,5.750440646763439
2.9099999999999997,2.9099999999999997,1.0,18.731579029244173,-0.024628922534964213,9.475569176310707,0.002396700685191622,-0.011446409317186334,-0.00020077747661171683,20.991881066919536,0.011696357211802429,1.0,0.0,302.72569620853477,0.9234410924736416,32.39803456479611,137.14701515425529,0.011270291125223627,2.30259375948754,1.0,29.90952107923923,0.0,1.0,140.60147169982937,11842.546502241927,1.0,1.0,0.29787603331982676,19.789427576281984,0.0458927442708022,-43.746162578663935,1.0,30.3716770070106,1.0,0.018989474823699035,4.611631409791414,0.9243170387658716,1.0,-0.6145416429887318,5.750440646763439
2.94,2.94,1.0,18.73526465416196,0.012246636495848735,9.597207416174202,0.004059827262651679,-0.010839024067564831,-9.796278652709261e-05,21.05033685789054,0.01157481044541826,1.0,0.0,335.18235453219705,-2.2542872146042616,30.503795983682924,141.2395610114585,0.025456919087767427,2.795334862540835,1.0,31.99101841154834,0.0,1.0,141.20915742272228,12411.685262465095,1.0,1.0,0.20243712099329267,19.681176169938112,-0.013421981974192084,-43.68092386583111,1.0,30.611480754560684,1.0,-0.01461027070043123,4.615887909364184,0.9239474518166348,1.0,-0.6431591562241735,5.795016494718633
2.9699999999999998,2.9699999999999998,1.0,18.68829912744287,0.03704693588504008,9.60031915765493,0.0027584679670912783,-0.009050928881270346,-0.001437560076455922,21.009998207545777,0.009570529667301717,1.0,0.0,335.18235453219705,-2.2542872146042616,30.503795983682924,141.2395610114585,0.025456919087767427,2.795334862540835,1.0,31.99101841154834,0.0,1.0,141.2244571495389,12146.064890354104,1.0,1.0,0.20243712099329267,19.681176169938112,-0.013421981974192084,-43.68092386583111,1.0,30.611480754560684,1.0,-0.01461027070043123,4.615887909364184,0.9239474518166348,1.0,-0.6431591562241735,5.795016494718633
3.0,3.0,1.0,18.636285668405904,0.0596521370930404,9.685296623538731,-0.0014416629791642013,-0.014133306368352224,-0.0010842513525904714,21.00284915381296,0.014247959223790345,1.0,0.0,335.18235453219705,-2.2542872146042616,30.503795983682924,141.2395610114585,0.025456919087767427,2.795334862540835,1.0,31.299914631078494,0.0,1.0,141.74954180082125,12506.288746652215,1.0,1.0,-0.3837121961309631,19.734924531604292,-0.03950730821613547,-43.72564161125042,1.0,30.53515202035555,1.0,-0.014780175839994046,4.6259194859467705,0.9235638886544855,1.0,0.30255840620065566,5.495073986642655
