time_s,sensor_time_s,imu_valid,imu_ax_mps2,imu_ay_mps2,imu_az_mps2,gyro_p_rps,gyro_q_rps,gyro_r_rps,imu_accel_norm_mps2,imu_gyro_norm_rps,gps_valid,gps_latency_s,gps_x_m,gps_y_m,gps_z_m,gps_vx_mps,gps_vy_mps,gps_vz_mps,baro_valid,baro_alt_m,baro_bias_m,pitot_valid,pitot_airspeed_mps,pitot_qbar_pa,pitot_compressibility_factor,mag_valid,mag_heading_deg,mag_x_ut,mag_y_ut,mag_z_ut,radar_valid,radar_agl_m,optical_flow_valid,horizon_valid,horizon_roll_deg,horizon_pitch_deg,optical_flow_x_radps,optical_flow_y_radps,optical_flow_quality
0.0,0.0,1.0,16.85224990470911,1.440920986576299,0.15635926717474696,0.0003333831402736275,0.0027201108026021956,-0.001301384633203857,16.91446210675219,0.003033768128943114,1.0,0.18,1.8347711166656184,-0.49177120807065694,901.9719831810988,83.95613523520122,0.8313201125277895,9.679181518680478,1.0,898.2001442847273,0.0024,1.0,87.79444623154082,4138.270535302328,1.0,1.0,0.27545682687165446,18.720326376914336,-0.6508654652868338,-44.147666441320624,1.0,899.6589145189045,0.0,1.0,0.3105616510371684,7.095479288062197,,,
0.03,0.03,1.0,17.040204411688137,1.5016101649826026,0.6666821055655211,0.035904734525017856,-0.1421393839894133,-0.09850618981007912,17.119224997340744,0.17662452794870034,1.0,0.18,1.8347711166656184,-0.49177120807065694,901.9719831810988,83.95613523520122,0.8313201125277895,9.679181518680478,1.0,898.2001442847273,0.0024,1.0,87.96369325338999,4307.287660766084,1.0,1.0,0.27545682687165446,18.720326376914336,-0.6508654652868338,-44.147666441320624,1.0,899.6589145189045,0.0,1.0,0.3105616510371684,7.095479288062197,,,
0.06,0.06,1.0,17.229008249415934,1.3949003248951273,1.0687869720050378,0.06753483308549996,-0.22848406460510384,-0.18827666989499195,17.31839420288043,0.3036676240317749,1.0,0.18,1.8347711166656184,-0.49177120807065694,901.9719831810988,83.95613523520122,0.8313201125277895,9.679181518680478,1.0,902.1979341090552,0.0048,1.0,86.8279674277952,4342.270653558137,1.0,1.0,0.27302315311327907,18.291632024876186,-0.5556805039072813,-44.37793346480611,1.0,899.6589145189045,0.0,1.0,0.7311257859489149,7.912645233529329,,,
0.09,0.09,1.0,17.513724025880457,1.3328384524635892,1.5041914010287014,0.09803353257601281,-0.22781068199690585,-0.27959012674893624,17.628657900305303,0.37373643027769415,1.0,0.18,1.8347711166656184,-0.49177120807065694,901.9719831810988,83.95613523520122,0.8313201125277895,9.679181518680478,1.0,902.1979341090552,0.0048,1.0,87.90063751811624,4393.123705085788,1.0,1.0,0.27302315311327907,18.291632024876186,-0.5556805039072813,-44.37793346480611,1.0,900.8430823605551,0.0,1.0,0.7311257859489149,7.912645233529329,,,
0.12,0.12,1.0,17.86974685717643,1.2834028626349985,1.853219064124369,0.12922127322217236,-0.172154884561719,-0.3665163466880105,18.0113685362057,0.4250525545401933,1.0,0.18,1.8347711166656184,-0.49177120807065694,901.9719831810988,83.95613523520122,0.8313201125277895,9.679181518680478,1.0,900.5991302175526,0.0072,1.0,88.85257992574105,4445.136555147145,1.0,1.0,-0.8614129494575378,17.731494320090327,-0.4585952529840203,-44.54888082093513,1.0,900.8430823605551,0.0,1.0,0.7362775322088768,8.265674196085868,,,
0.15,0.15,1.0,18.03672993896507,1.2116948715850686,2.0892270035888707,0.16129805314188297,-0.1131593982335529,-0.45381134194149314,18.19771141724996,0.49473916908880416,1.0,0.18,1.8347711166656184,-0.49177120807065694,901.9719831810988,83.95613523520122,0.8313201125277895,9.679181518680478,1.0,900.5991302175526,0.0072,1.0,88.81914845222401,4444.002739356541,1.0,1.0,-0.8614129494575378,17.731494320090327,-0.4585952529840203,-44.54888082093513,1.0,900.8430823605551,0.0,1.0,0.7362775322088768,8.265674196085868,,,
0.18,0.18,1.0,18.24258305208558,1.1340226919651537,2.3131249858046017,0.19332559973428667,-0.08670833027216847,-0.5402562958428704,18.423582471335084,0.5803188668732632,1.0,0.18,1.8347711166656184,-0.49177120807065694,901.9719831810988,83.95613523520122,0.8313201125277895,9.679181518680478,1.0,902.559171519311,0.0096,1.0,90.89591310800384,4607.469288504914,1.0,1.0,-3.0034892774256083,17.449895681393745,-0.4707200160989508,-44.69146043429509,1.0,901.8040722901056,0.0,1.0,2.221129722180019,8.681522999180936,,,
0.21,0.21,1.0,18.608837736374667,1.0146308547538478,2.366225183843138,0.22070013395630025,-0.07407951351870294,-0.6171561432498025,18.786094306448955,0.6596044485920841,1.0,0.18,1.8347711166656184,-0.49177120807065694,901.9719831810988,83.95613523520122,0.8313201125277895,9.679181518680478,1.0,902.559171519311,0.0096,1.0,89.54315298478271,4491.684155660861,1.0,1.0,-3.0034892774256083,17.449895681393745,-0.4707200160989508,-44.69146043429509,1.0,901.8040722901056,0.0,1.0,2.221129722180019,8.681522999180936,,,
0.24,0.24,1.0,18.86541713116102,0.7394465498744835,2.6587240980021805,0.24964544205386172,-0.08284985508154273,-0.6961442365827248,19.066188884046085,0.7441799132955991,1.0,0.18,1.8347711166656184,-0.49177120807065694,901.9719831810988,83.95613523520122,0.8313201125277895,9.679181518680478,1.0,903.2167507634756,0.011999999999999999,1.0,90.40002638557036,4606.502923394238,1.0,1.0,-5.018708670114551,17.35208063771505,-0.42697016560063694,-44.76616485718168,1.0,901.8040722901056,0.0,1.0,3.5046745272197515,8.867617371862965,,,
0.27,0.27,1.0,19.117647019507196,0.6876229171907553,2.9005485251659144,0.27288814436435677,-0.08541138155578672,-0.7659970384714473,19.34865459368068,0.8176273640118205,1.0,0.18,1.8347711166656184,-0.49177120807065694,901.9719831810988,83.95613523520122,0.8313201125277895,9.679181518680478,1.0,903.2167507634756,0.011999999999999999,1.0,90.89797157097757,4665.232577771542,1.0,1.0,-5.018708670114551,17.35208063771505,-0.42697016560063694,-44.76616485718168,1.0,902.4062392647287,0.0,1.0,3.5046745272197515,8.867617371862965,,,
0.3,0.3,1.0,19.354949672533625,0.4040226878839401,3.0707285590176863,0.3017345645033628,-0.08037109087578613,-0.8313280844183433,19.601190908763716,0.8880369607213823,1.0,0.18,1.8347711166656184,-0.49177120807065694,901.9719831810988,83.95613523520122,0.8313201125277895,9.679181518680478,1.0,901.835062428462,0.014399999999999998,1.0,91.69726104695538,4687.122221861085,1.0,1.0,-8.952893975095744,17.139088562360506,-0.2685491327568458,-44.798834196272125,1.0,902.4062392647287,0.0,1.0,4.263968738553507,8.851603328585117,,,
0.32999999999999996,0.32999999999999996,1.0,19.616871110282695,0.15407285482141786,3.327656876545848,0.32012263345241326,-0.07543971093242058,-0.8860599752558032,19.897705166427095,0.9451306418608963,1.0,0.18,1.8347711166656184,-0.49177120807065694,901.9719831810988,83.95613523520122,0.8313201125277895,9.679181518680478,1.0,901.835062428462,0.014399999999999998,1.0,92.38005778819642,4808.110239566617,1.0,1.0,-8.952893975095744,17.139088562360506,-0.2685491327568458,-44.798834196272125,1.0,902.4062392647287,0.0,1.0,4.263968738553507,8.851603328585117,,,
0.36,0.36,1.0,19.942166302694712,-0.09941584675189075,3.7800314565516855,0.3364748279450713,-0.07945528124462733,-0.9328255921007189,20.29750029356911,0.9948326677569373,1.0,0.18,1.6732141174671735,-2.734186269715318,898.839492209881,83.89537078811607,0.9200989743198974,9.794453791573138,1.0,900.8764388468921,0.0168,1.0,92.84719879687326,4914.369247383065,1.0,1.0,-11.501830141952539,16.90283835709342,-0.331739862517637,-44.957568690869316,1.0,903.1081350855234,0.0,1.0,6.624561444729567,8.87730833126094,,,
0.39,0.39,1.0,20.2171178788543,-0.3949128723907032,3.662904533361057,0.35000068679938506,-0.07556574121854703,-0.9753196639361559,20.55005306866109,1.0389702155819893,1.0,0.18,1.6732141174671735,-2.734186269715318,898.839492209881,83.89537078811607,0.9200989743198974,9.794453791573138,1.0,900.8764388468921,0.0168,1.0,93.51519280764045,4971.704313234935,1.0,1.0,-11.501830141952539,16.90283835709342,-0.331739862517637,-44.957568690869316,1.0,903.1081350855234,0.0,1.0,6.624561444729567,8.87730833126094,,,
0.42,0.42,1.0,20.245645088204277,-0.7502803143703346,4.118045471536476,0.36763702783195296,-0.11691033170984438,-1.002876298538965,20.67383283509141,1.0745165797068155,1.0,0.18,1.6732141174671735,-2.734186269715318,898.839492209881,83.89537078811607,0.9200989743198974,9.794453791573138,1.0,905.7375970423332,0.0192,1.0,95.04585533006457,4988.425347480989,1.0,1.0,-13.801027497912779,16.62907215183979,-0.2926263871483547,-44.97335603292044,1.0,903.1081350855234,0.0,1.0,8.64084875489394,7.837959485996916,,,
0.44999999999999996,0.44999999999999996,1.0,20.229556288017832,-0.9916712124748418,4.585850927092292,0.3745726622179235,-0.11805810341631179,-1.0188900081498886,20.766520847971773,1.0919611915132146,1.0,0.18,1.6732141174671735,-2.734186269715318,898.839492209881,83.89537078811607,0.9200989743198974,9.794453791573138,1.0,905.7375970423332,0.0192,1.0,95.57933100174515,5050.912215130278,1.0,1.0,-13.801027497912779,16.62907215183979,-0.2926263871483547,-44.97335603292044,1.0,903.6266184617125,0.0,1.0,8.64084875489394,7.837959485996916,,,
0.48,0.48,1.0,20.178587245862428,-1.167810863471896,4.8853790597269215,0.38339635568503777,-0.09762569764004034,-1.0224434940669351,20.794376499643914,1.096318494303583,1.0,0.18,1.6732141174671735,-2.734186269715318,898.839492209881,83.89537078811607,0.9200989743198974,9.794453791573138,1.0,902.8775544387228,0.021599999999999998,1.0,95.82769934030235,5053.901451747799,1.0,1.0,-19.508700619288966,16.492607741145115,-0.2793451241196251,-45.17607535852937,1.0,903.6266184617125,0.0,1.0,9.912783822674335,8.826278684622512,,,
0.51,0.51,1.0,20.059205490906944,-1.488723118708469,5.197196489903127,0.38391171488081277,-0.08658431343114072,-1.019342817859478,20.77495782920557,1.0926778246476723,1.0,0.18,1.6732141174671735,-2.734186269715318,898.839492209881,83.89537078811607,0.9200989743198974,9.794453791573138,1.0,902.8775544387228,0.021599999999999998,1.0,95.9930723802053,5228.953379175329,1.0,1.0,-19.508700619288966,16.492607741145115,-0.2793451241196251,-45.17607535852937,1.0,903.6266184617125,0.0,1.0,9.912783822674335,8.826278684622512,,,
0.54,0.54,1.0,20.063391162868687,-1.9928482975538295,5.607279217371234,0.3758669950681024,-0.09756055553999263,-1.0038044323346522,20.927319214674963,1.0762980062944882,1.0,0.18,1.6732141174671735,-2.734186269715318,898.839492209881,83.89537078811607,0.9200989743198974,9.794453791573138,1.0,900.2728968267231,0.023999999999999997,1.0,96.93274689333602,5183.524023638649,1.0,1.0,-22.6973270602378,16.10668686567109,-0.3042616417385742,-45.2030539868696,1.0,904.983667735596,0.0,1.0,12.227882126343797,8.000987013440284,,,
0.57,0.57,1.0,19.975161637635697,-2.324159485442009,6.099146319495755,0.3779528808755198,-0.10971554253708761,-0.962053712971243,21.01448037877838,1.0394389001177833,1.0,0.18,1.6732141174671735,-2.734186269715318,898.839492209881,83.89537078811607,0.9200989743198974,9.794453791573138,1.0,900.2728968267231,0.023999999999999997,1.0,97.30661458896196,5317.315189902276,1.0,1.0,-22.6973270602378,16.10668686567109,-0.3042616417385742,-45.2030539868696,1.0,904.983667735596,0.0,1.0,12.227882126343797,8.000987013440284,,,
0.6,0.6,1.0,19.985101962905485,-2.788329983661633,6.576935074761273,0.367211910087287,-0.0911734463605258,-0.9016281960869108,21.22345776595181,0.9777988485420436,1.0,0.18,1.6732141174671735,-2.734186269715318,898.839492209881,83.89537078811607,0.9200989743198974,9.794453791573138,1.0,905.5822877644264,0.026399999999999996,1.0,98.32016695034471,5553.899581136877,1.0,1.0,-24.729301546246575,15.938263575031176,-0.47265861951236304,-45.32109474578938,1.0,904.983667735596,0.0,1.0,13.931255918697843,7.565073170179814,,,
0.63,0.63,1.0,19.922653194705983,-3.2745616093576078,7.102490076469873,0.35545381784960856,-0.06644531540486799,-0.8236870665744268,21.402808912298408,0.8995681075966951,1.0,0.18,1.6732141174671735,-2.734186269715318,898.839492209881,83.89537078811607,0.9200989743198974,9.794453791573138,1.0,905.5822877644264,0.026399999999999996,1.0,99.14513491759031,5471.126435989916,1.0,1.0,-24.729301546246575,15.938263575031176,-0.47265861951236304,-45.32109474578938,1.0,905.6333119790152,0.0,1.0,13.931255918697843,7.565073170179814,,,
0.6599999999999999,0.6599999999999999,1.0,19.776736586563256,-3.4842750604197934,7.458666089101395,0.33541847657972396,-0.04824050609113391,-0.7176709110056784,21.421745553051554,0.7936524663621426,1.0,0.18,1.6732141174671735,-2.734186269715318,898.839492209881,83.89537078811607,0.9200989743198974,9.794453791573138,1.0,904.1536140040951,0.028799999999999996,1.0,99.60020519467106,5570.297955214985,1.0,1.0,-27.681470554272536,15.711973036657122,-0.6997883020915793,-45.289597700726524,1.0,905.6333119790152,0.0,1.0,14.883187556726487,6.671260711148215,,,
0.69,0.69,1.0,19.72107039094535,-3.854732077394838,7.635894735699946,0.30921470766530906,-0.02941242686715218,-0.601728124480386,21.496196527939734,0.6771673073040673,1.0,0.18,1.6732141174671735,-2.734186269715318,898.839492209881,83.89537078811607,0.9200989743198974,9.794453791573138,1.0,904.1536140040951,0.028799999999999996,1.0,99.2953311686433,5511.520807487955,1.0,1.0,-27.681470554272536,15.711973036657122,-0.6997883020915793,-45.289597700726524,1.0,905.6333119790152,0.0,1.0,14.883187556726487,6.671260711148215,,,
0.72,0.72,1.0,19.701698626719114,-4.0490663727954335,8.062162325545058,0.2823902218091037,-0.0018920704386283394,-0.46988915231606904,21.669110010169007,0.5482185994366239,1.0,0.18,32.66878639851347,-4.60994526321321,906.1074638040172,89.98269285474248,0.8201854626204507,8.407409535719395,1.0,906.2093789727098,0.031199999999999995,1.0,100.2112316708349,5612.891784313953,1.0,1.0,-27.915588125090583,15.73852994686109,-0.9556539054777362,-45.364490821725596,1.0,905.8144715711541,0.0,1.0,16.509126283631595,7.133017503371103,,,
0.75,0.75,1.0,19.761275580957715,-4.164956607561483,8.144685417350836,0.251415111902401,0.028291152346396814,-0.3288088034523988,21.77592194780816,0.4148797139193264,1.0,0.18,32.66878639851347,-4.60994526321321,906.1074638040172,89.98269285474248,0.8201854626204507,8.407409535719395,1.0,906.2093789727098,0.031199999999999995,1.0,100.8609552256869,5761.623588449415,1.0,1.0,-27.915588125090583,15.73852994686109,-0.9556539054777362,-45.364490821725596,1.0,905.8144715711541,0.0,1.0,16.509126283631595,7.133017503371103,,,
0.78,0.78,1.0,19.736841283478864,-4.334140007167053,8.163888705125181,0.21983636287763852,0.09985715395901079,-0.1797069608806129,21.793961370999813,0.3009884872034286,1.0,0.18,32.66878639851347,-4.60994526321321,906.1074638040172,89.98269285474248,0.8201854626204507,8.407409535719395,1.0,905.1637416026524,0.0336,1.0,100.73140919736403,5786.865377013218,1.0,1.0,-30.95274030057087,15.88788883396848,-1.3720973025263041,-45.27286394420366,1.0,905.8144715711541,0.0,1.0,17.040542130976714,5.986490826286455,,,
0.8099999999999999,0.8099999999999999,1.0,19.652905817338684,-4.395025719003423,8.145626251857475,0.18171016727815711,0.10903769989125933,-0.02466890910406172,21.723355752987057,0.21334563498280584,1.0,0.18,32.66878639851347,-4.60994526321321,906.1074638040172,89.98269285474248,0.8201854626204507,8.407409535719395,1.0,905.1637416026524,0.0336,1.0,102.21337524113777,5928.329569859033,1.0,1.0,-30.95274030057087,15.88788883396848,-1.3720973025263041,-45.27286394420366,1.0,906.2372270325752,0.0,1.0,17.040542130976714,5.986490826286455,,,
0.84,0.84,1.0,19.68973040725452,-4.36114045360761,8.17624370891178,0.1555029236798366,0.10093835696157327,0.132092061385107,21.761341657948748,0.22763572623831688,1.0,0.18,32.66878639851347,-4.60994526321321,906.1074638040172,89.98269285474248,0.8201854626204507,8.407409535719395,1.0,908.6278859515816,0.036,1.0,102.45183824588241,5885.619881844639,1.0,1.0,-29.46843708035944,16.227401835038012,-1.8703778452163713,-45.06391913150731,1.0,906.2372270325752,0.0,1.0,17.48580600993917,6.016118334058743,,,
0.87,0.87,1.0,19.6692164938567,-4.2998066366056795,8.134247478221232,0.12468584252607497,0.13426827988830797,0.2830855465405086,21.71479672093089,0.33721203562556995,1.0,0.18,32.66878639851347,-4.60994526321321,906.1074638040172,89.98269285474248,0.8201854626204507,8.407409535719395,1.0,908.6278859515816,0.036,1.0,102.76893797341066,6012.660885080247,1.0,1.0,-29.46843708035944,16.227401835038012,-1.8703778452163713,-45.06391913150731,1.0,906.2372270325752,0.0,1.0,17.48580600993917,6.016118334058743,,,
0.8999999999999999,0.8999999999999999,1.0,19.728438237607183,-4.255479204825216,7.838118269370107,0.09441598663516604,0.17264818755620748,0.4410623286232885,21.650784663896466,0.4829676520527363,1.0,0.18,32.66878639851347,-4.60994526321321,906.1074638040172,89.98269285474248,0.8201854626204507,8.407409535719395,1.0,909.6175919739183,0.0384,1.0,103.84246811922289,6135.45236162855,1.0,1.0,-29.201325673931994,16.571844182085833,-2.5560699404679323,-45.01722229041553,1.0,907.1817390637286,0.0,1.0,17.959727153534814,5.391205452000391,,,
0.9299999999999999,0.9299999999999999,1.0,19.676339278085,-4.132932118492383,7.844450137638957,0.0685236905468526,0.20210859066170647,0.604582567072384,21.58181765385576,0.6411423079108535,1.0,0.18,32.66878639851347,-4.60994526321321,906.1074638040172,89.98269285474248,0.8201854626204507,8.407409535719395,1.0,909.6175919739183,0.0384,1.0,104.67742906895683,6121.900962626454,1.0,1.0,-29.201325673931994,16.571844182085833,-2.5560699404679323,-45.01722229041553,1.0,907.1817390637286,0.0,1.0,17.959727153534814,5.391205452000391,,,
0.96,0.96,1.0,19.63107472685759,-3.8610961299678284,7.758966511264962,0.04920934198210442,0.24145411573621972,0.7643989914279915,21.459000898906048,0.8031360205098524,1.0,0.18,32.66878639851347,-4.60994526321321,906.1074638040172,89.98269285474248,0.8201854626204507,8.407409535719395,1.0,910.898930329218,0.040799999999999996,1.0,105.39654679945977,6195.184773706273,1.0,1.0,-25.88507794238285,17.07972010124847,-3.306811991423325,-44.792740360594706,1.0,907.1817390637286,0.0,1.0,17.78673364322331,5.979865494870074,,,
0.99,0.99,1.0,19.69080944113805,-3.5734244654777703,7.140177905028189,0.02883312368506339,0.2812593454515339,0.9171759240893531,21.248046483692075,0.9597655151933843,1.0,0.18,32.66878639851347,-4.60994526321321,906.1074638040172,89.98269285474248,0.8201854626204507,8.407409535719395,1.0,910.898930329218,0.040799999999999996,1.0,105.10940110075309,6174.794311463638,1.0,1.0,-25.88507794238285,17.07972010124847,-3.306811991423325,-44.792740360594706,1.0,908.0644081288079,0.0,1.0,17.78673364322331,5.979865494870074,,,
1.02,1.02,1.0,19.772643447136947,-3.311023308130663,6.6815814113462775,0.028896170938952557,0.289501893842266,1.0661836294251406,21.132057031700445,1.1051668954901597,1.0,0.18,32.66878639851347,-4.60994526321321,906.1074638040172,89.98269285474248,0.8201854626204507,8.407409535719395,1.0,910.4375109295219,0.043199999999999995,1.0,106.68977971293764,6348.035815445692,1.0,1.0,-22.986561645825123,17.536602495101185,-4.489365198551481,-44.44949137178268,1.0,908.0644081288079,0.0,1.0,17.757614441254564,5.77723513064263,,,
1.05,1.05,1.0,19.735345220660776,-2.814332732619948,6.0705031535304546,0.029558481775252398,0.29205198042131386,1.2000913278330896,20.838793828952227,1.2354704602915674,1.0,0.18,32.66878639851347,-4.60994526321321,906.1074638040172,89.98269285474248,0.8201854626204507,8.407409535719395,1.0,910.4375109295219,0.043199999999999995,1.0,107.03181678045723,6335.885628081059,1.0,1.0,-22.986561645825123,17.536602495101185,-4.489365198551481,-44.44949137178268,1.0,908.0644081288079,0.0,1.0,17.757614441254564,5.77723513064263,,,
1.08,1.08,1.0,19.791752060425786,-2.2914003717086993,5.966344301194806,0.040754289526763125,0.29583322104417525,1.317108911114472,20.79810639469937,1.350538444667664,1.0,0.18,63.20489210181742,6.333374633133783,905.959746120886,96.04571631525047,-2.4753877285978505,7.5777618963380995,1.0,907.583234686738,0.045599999999999995,1.0,107.54773269144054,6487.838548179932,1.0,1.0,-18.117766786761432,18.014515958536126,-5.965269135708148,-44.10799502580286,1.0,908.8377850971508,0.0,1.0,16.8220712787554,6.272278232904438,,,
1.1099999999999999,1.1099999999999999,1.0,19.823453301183804,-1.6853832991408466,5.438520708131111,0.07406706589215034,0.3291947280212517,1.4208491194341069,20.6249200032875,1.4603654745999493,1.0,0.18,63.20489210181742,6.333374633133783,905.959746120886,96.04571631525047,-2.4753877285978505,7.5777618963380995,1.0,907.583234686738,0.045599999999999995,1.0,108.39750103453491,6513.888836250155,1.0,1.0,-18.117766786761432,18.014515958536126,-5.965269135708148,-44.10799502580286,1.0,908.8377850971508,0.0,1.0,16.8220712787554,6.272278232904438,,,
1.14,1.14,1.0,19.93573886521312,-1.1301939445494544,4.906975879054685,0.1173835610399917,0.339055860660295,1.4941309166714771,20.561844147154936,1.536608269274922,1.0,0.18,63.20489210181742,6.333374633133783,905.959746120886,96.04571631525047,-2.4753877285978505,7.5777618963380995,1.0,909.8410467237048,0.047999999999999994,1.0,108.49374832992417,6653.835608146932,1.0,1.0,-12.16633326136825,18.306399002830524,-7.751921050823761,-43.7224157165974,1.0,908.8377850971508,0.0,1.0,17.096913508457927,6.718371041266046,,,
1.17,1.17,1.0,19.989274958171443,-0.4117927987084179,4.480871729097347,0.18601559400522352,0.3274237087793953,1.552935548060703,20.489482621947094,1.5979414578496192,1.0,0.18,63.20489210181742,6.333374633133783,905.959746120886,96.04571631525047,-2.4753877285978505,7.5777618963380995,1.0,909.8410467237048,0.047999999999999994,1.0,110.20712347078764,6646.838909858949,1.0,1.0,-12.16633326136825,18.306399002830524,-7.751921050823761,-43.7224157165974,1.0,909.000433913621,0.0,1.0,17.096913508457927,6.718371041266046,,,
1.2,1.2,1.0,20.02623605510523,0.3049155392498431,4.051747523698278,0.27310230101828764,0.3241027632310791,1.5742777388524118,20.43427909216931,1.630330600523025,1.0,0.18,63.20489210181742,6.333374633133783,905.959746120886,96.04571631525047,-2.4753877285978505,7.5777618963380995,1.0,908.9444288311945,0.05039999999999999,1.0,110.70662597389355,6686.237380625187,1.0,1.0,-6.49760830939297,18.273945070792323,-10.110015960720208,-43.16836321192179,1.0,909.000433913621,0.0,1.0,16.596988423017233,8.170120891637978,,,
1.23,1.23,1.0,20.118556945195838,1.1138582205556868,3.2340890076747972,0.379365509452727,0.3201619719298874,1.559268808727635,20.407262075108218,1.6363804862877274,1.0,0.18,63.20489210181742,6.333374633133783,905.959746120886,96.04571631525047,-2.4753877285978505,7.5777618963380995,1.0,908.9444288311945,0.05039999999999999,1.0,110.86890257883934,6890.369537071265,1.0,1.0,-6.49760830939297,18.273945070792323,-10.110015960720208,-43.16836321192179,1.0,909.000433913621,0.0,1.0,16.596988423017233,8.170120891637978,,,
1.26,1.26,1.0,20.27933737733277,1.7767835273687724,2.6477096001161033,0.5140798450369619,0.28549134950715366,1.507487551217001,20.5284887484043,1.618116842131888,1.0,0.18,63.20489210181742,6.333374633133783,905.959746120886,96.04571631525047,-2.4753877285978505,7.5777618963380995,1.0,916.5214565957765,0.05279999999999999,1.0,110.94909389894525,6712.409463305144,1.0,1.0,-1.1439809063344164,17.96466480404768,-12.911140045108349,-42.62968318138604,1.0,909.7998897332408,0.0,1.0,17.56253293833084,8.38869028543218,,,
1.29,1.29,1.0,20.33198771290568,2.4791256283314698,2.188826597748628,0.6711601202006152,0.26635632939421067,1.4280411644126492,20.59919294811836,1.6002197250418757,1.0,0.18,63.20489210181742,6.333374633133783,905.959746120886,96.04571631525047,-2.4753877285978505,7.5777618963380995,1.0,916.5214565957765,0.05279999999999999,1.0,111.08818057223017,6991.0754758549565,1.0,1.0,-1.1439809063344164,17.96466480404768,-12.911140045108349,-42.62968318138604,1.0,909.7998897332408,0.0,1.0,17.56253293833084,8.38869028543218,,,
1.3199999999999998,1.3199999999999998,1.0,20.412756285861263,3.084040055553157,1.4957058499079137,0.8612011822973182,0.25502758709463363,1.3099280777406122,20.69852792446056,1.5882752014127857,1.0,0.18,63.20489210181742,6.333374633133783,905.959746120886,96.04571631525047,-2.4753877285978505,7.5777618963380995,1.0,914.3511550823507,0.05519999999999999,1.0,111.92109777750755,7127.995414957449,1.0,1.0,2.48950648825937,17.50374893931315,-16.326894818357683,-41.57549245747966,1.0,909.7998897332408,0.0,1.0,19.597699228222066,8.51249266521029,,,
1.3499999999999999,1.3499999999999999,1.0,20.523945000170002,3.740361932181457,0.6692944107623637,1.069575861074884,0.22138833596334162,1.1522977308364553,20.872723367160145,1.5877012875177563,1.0,0.18,63.20489210181742,6.333374633133783,905.959746120886,96.04571631525047,-2.4753877285978505,7.5777618963380995,1.0,914.3511550823507,0.05519999999999999,1.0,113.05897852718729,7094.39759066906,1.0,1.0,2.48950648825937,17.50374893931315,-16.326894818357683,-41.57549245747966,1.0,909.9744255260968,0.0,1.0,19.597699228222066,8.51249266521029,,,
1.38,1.38,1.0,20.655658810727267,4.126953697083195,0.05604916632504356,1.3193464230509129,0.16319477961337092,0.9678478373937954,21.06397705164173,1.6443956204205061,1.0,0.18,63.20489210181742,6.333374633133783,905.959746120886,96.04571631525047,-2.4753877285978505,7.5777618963380995,1.0,911.9558716835126,0.05759999999999999,1.0,113.02042838456853,7134.776002461843,1.0,1.0,6.615390650523287,16.804685395987548,-20.343159386688914,-40.07263882211616,1.0,909.9744255260968,0.0,1.0,23.272604270748733,9.003240879062375,,,
1.41,1.41,1.0,20.590473112937566,4.735003953132869,-0.9013530638963343,1.5982606176284293,0.0994581765708837,0.7531191067183698,21.147110507031076,1.7696093692261827,1.0,0.18,63.20489210181742,6.333374633133783,905.959746120886,96.04571631525047,-2.4753877285978505,7.5777618963380995,1.0,911.9558716835126,0.05759999999999999,1.0,114.25587006702565,7241.606974111552,1.0,1.0,6.615390650523287,16.804685395987548,-20.343159386688914,-40.07263882211616,1.0,909.9744255260968,0.0,1.0,23.272604270748733,9.003240879062375,,,
1.44,1.44,1.0,20.496377155224813,5.085227448051121,-1.713366197176423,1.9163279829606665,0.009704964336159095,0.5058563094979842,21.187180992601657,1.9819933729631345,1.0,0.18,99.835089038582,-6.7215365399280405,906.3750845974753,101.21231693686278,-7.414955946348245,6.82160158030033,1.0,910.0632075491599,0.05999999999999999,1.0,114.3908663742346,7190.5552235272535,1.0,1.0,8.212232009818544,16.12080749139463,-25.010845130665842,-37.67085445300839,1.0,911.0898351728227,0.0,1.0,29.03112184837383,9.536250255897047,,,
1.47,1.47,1.0,20.376024834844436,5.234164080221035,-2.62066432880867,2.266847763401491,-0.08796435631936932,0.24487780656125385,21.20015903744978,2.2817321601290708,1.0,0.18,99.835089038582,-6.7215365399280405,906.3750845974753,101.21231693686278,-7.414955946348245,6.82160158030033,1.0,910.0632075491599,0.05999999999999999,1.0,114.30214338665765,7409.736720055124,1.0,1.0,8.212232009818544,16.12080749139463,-25.010845130665842,-37.67085445300839,1.0,911.0898351728227,0.0,1.0,29.03112184837383,9.536250255897047,,,
1.5,1.5,1.0,20.259154942942693,5.324776873520212,-3.2819599869096168,2.6145696399502967,-0.24652200827777832,-0.03660496662975756,21.202779749613278,2.626421029899262,1.0,0.18,99.835089038582,-6.7215365399280405,906.3750845974753,101.21231693686278,-7.414955946348245,6.82160158030033,1.0,915.4788242140919,0.06239999999999999,1.0,115.4937059868616,7458.059856235777,1.0,1.0,6.272149240249321,15.594836074189335,-30.344423762618902,-33.71211386842819,1.0,911.0898351728227,0.0,1.0,37.48255060314026,11.296575133693034,,,
1.53,1.53,1.0,20.04954300630704,5.3466326463961895,-3.9375513211213424,2.9756127309407785,-0.4473862810511063,-0.31709237627008563,21.12048687468472,3.0257186227569455,1.0,0.18,99.835089038582,-6.7215365399280405,906.3750845974753,101.21231693686278,-7.414955946348245,6.82160158030033,1.0,915.4788242140919,0.06239999999999999,1.0,115.77481999094198,7642.807483025655,1.0,1.0,6.272149240249321,15.594836074189335,-30.344423762618902,-33.71211386842819,1.0,911.2994625056067,0.0,1.0,37.48255060314026,11.296575133693034,,,
1.56,1.56,1.0,20.1317678982886,5.2574548458380495,-4.118524342532903,3.3256291421366284,-0.7163533109028577,-0.5987785247677457,21.210637730314133,3.454201351802314,1.0,0.18,99.835089038582,-6.7215365399280405,906.3750845974753,101.21231693686278,-7.414955946348245,6.82160158030033,1.0,910.6721155161634,0.0648,1.0,116.92987957832844,7814.106375178374,1.0,1.0,7.461508704347246,15.433812628732467,-35.816362482590904,-28.031378711444795,1.0,911.2994625056067,0.0,1.0,48.28419257947776,11.086437707789731,,,
1.5899999999999999,1.5899999999999999,1.0,20.150026266237955,4.930272833131364,-3.8177332473766623,3.6687541273322397,-1.0513658384949318,-0.8658224103824403,21.09280057003616,3.913409692262229,1.0,0.18,99.835089038582,-6.7215365399280405,906.3750845974753,101.21231693686278,-7.414955946348245,6.82160158030033,1.0,910.6721155161634,0.0648,1.0,117.21971765516888,7655.496529143109,1.0,1.0,7.461508704347246,15.433812628732467,-35.816362482590904,-28.031378711444795,1.0,911.2994625056067,0.0,1.0,48.28419257947776,11.086437707789731,,,
1.6199999999999999,1.6199999999999999,1.0,20.29179354783695,4.461341337488156,-2.2647155461309114,4.004841658046174,-1.4721634826592778,-1.1050076356568712,20.899506894242858,4.407614309414733,1.0,0.18,99.835089038582,-6.7215365399280405,906.3750845974753,101.21231693686278,-7.414955946348245,6.82160158030033,1.0,908.5545590617777,0.0672,1.0,117.99380305016643,7828.435442404718,1.0,1.0,-0.6784308255000511,15.921316689980422,-40.52600924996559,-20.371891096517828,1.0,911.5063153487905,0.0,1.0,62.42484249952538,10.55553827164165,,,
1.65,1.65,1.0,20.256894165864555,4.265000393775886,0.3579284980578248,4.324313773253457,-1.9879804019932865,-1.2992115661344543,20.704108346308175,4.933528796088707,1.0,0.18,99.835089038582,-6.7215365399280405,906.3750845974753,101.21231693686278,-7.414955946348245,6.82160158030033,1.0,908.5545590617777,0.0672,1.0,118.63693127833814,7799.502030895487,1.0,1.0,-0.6784308255000511,15.921316689980422,-40.52600924996559,-20.371891096517828,1.0,911.5063153487905,0.0,1.0,62.42484249952538,10.55553827164165,,,
1.68,1.68,1.0,19.485520646664813,3.993089414123895,4.908471104430646,4.631499287936526,-2.568122325348073,-1.4352218891939206,20.487151254477027,5.48688434389947,1.0,0.18,99.835089038582,-6.7215365399280405,906.3750845974753,101.21231693686278,-7.414955946348245,6.82160158030033,1.0,910.0610900956732,0.0696,1.0,119.41318852686697,7922.474458011915,1.0,1.0,-9.734507616923224,17.224884352728477,-43.36634115529941,-11.285822784280816,1.0,911.5063153487905,0.0,1.0,79.22340687670582,8.727532424179488,,,
1.71,1.71,1.0,18.622971505440344,3.598684123442566,11.12055630005053,4.928726141569045,-3.0981646499264492,-1.5151427779225084,21.987095477469374,6.015531831362103,1.0,0.18,99.835089038582,-6.7215365399280405,906.3750845974753,101.21231693686278,-7.414955946348245,6.82160158030033,1.0,910.0610900956732,0.0696,1.0,120.13781008214292,8064.040508375063,1.0,1.0,-9.734507616923224,17.224884352728477,-43.36634115529941,-11.285822784280816,1.0,912.1196779683128,0.0,1.0,79.22340687670582,8.727532424179488,,,
1.74,1.74,1.0,16.059039434039107,3.7524490711168696,15.84726193499493,5.2199458139651655,-3.4758112230765463,-1.5117338844941852,22.871583513427492,6.4509253054678295,1.0,0.18,99.835089038582,-6.7215365399280405,906.3750845974753,101.21231693686278,-7.414955946348245,6.82160158030033,1.0,914.7234473174268,0.072,1.0,120.38609222306917,8276.012470028949,1.0,1.0,-20.1362485535149,19.923475535375125,-43.633804951147496,-1.721741111780734,1.0,912.1196779683128,0.0,0.0,79.22340687670582,8.727532424179488,,,
1.77,1.77,1.0,13.197165508644579,4.045226063698823,20.036126467641694,5.514711840355132,-3.822978133356669,-1.4483746217382343,24.33054449033803,6.864764929345483,1.0,0.18,99.835089038582,-6.7215365399280405,906.3750845974753,101.21231693686278,-7.414955946348245,6.82160158030033,1.0,914.7234473174268,0.072,1.0,120.29748370695486,8140.6736645894325,1.0,1.0,-20.1362485535149,19.923475535375125,-43.633804951147496,-1.721741111780734,1.0,912.1196779683128,0.0,0.0,79.22340687670582,8.727532424179488,,,
1.7999999999999998,1.7999999999999998,1.0,13.486376269362683,4.955629803390303,18.089956625548187,5.807996830391414,-4.151232520685239,-1.3382802060280365,23.101669687303854,7.263370604098202,1.0,0.18,138.69124299109225,-0.12857648138345912,909.9765693992122,108.24217007938259,-7.950210598078909,5.068105710941601,1.0,912.6139854327636,0.0744,1.0,119.81369156493034,8028.077222424648,1.0,1.0,-31.89890724697341,24.14295132967245,-40.75618420094361,7.433329150271742,1.0,912.6192009783389,0.0,0.0,79.22340687670582,8.727532424179488,,,
1.8299999999999998,1.8299999999999998,1.0,13.411228021185089,6.817999835113167,16.670111933677624,6.112030362759639,-4.610870108458827,-1.2065755417290942,22.45526198175306,7.750668542150006,1.0,0.18,138.69124299109225,-0.12857648138345912,909.9765693992122,108.24217007938259,-7.950210598078909,5.068105710941601,1.0,912.6139854327636,0.0744,1.0,119.22360034439554,7913.6525140728945,1.0,1.0,-31.89890724697341,24.14295132967245,-40.75618420094361,7.433329150271742,1.0,912.6192009783389,0.0,0.0,79.22340687670582,8.727532424179488,,,
1.8599999999999999,1.8599999999999999,1.0,13.793413218274225,9.30420945834827,16.64279500716093,6.440812607232413,-5.074091237433097,-1.0662667121441771,23.533150819753402,8.268457753940941,1.0,0.18,138.69124299109225,-0.12857648138345912,909.9765693992122,108.24217007938259,-7.950210598078909,5.068105710941601,1.0,913.5063202825863,0.0768,1.0,119.19513705847076,8180.964064380058,1.0,1.0,-42.12893790802599,29.929506911826188,-34.855807597096394,13.82175403148968,1.0,912.6192009783389,0.0,0.0,79.22340687670582,8.727532424179488,,,
1.89,1.89,1.0,14.923095071842429,12.455755491347835,17.179394600103077,6.807952740516902,-5.5004147735222695,-0.9335919678661281,25.94178502357809,8.801953031024295,1.0,0.18,138.69124299109225,-0.12857648138345912,909.9765693992122,108.24217007938259,-7.950210598078909,5.068105710941601,1.0,913.5063202825863,0.0768,1.0,119.114573333697,7872.447964536411,1.0,1.0,-42.12893790802599,29.929506911826188,-34.855807597096394,13.82175403148968,1.0,912.8030958707728,0.0,0.0,79.22340687670582,8.727532424179488,,,
1.92,1.92,1.0,16.03772852637876,16.360697768016845,17.237096825494998,7.218037548622343,-5.877404718197577,-0.8415592022597312,28.670519261319708,9.346238503575716,1.0,0.18,138.69124299109225,-0.12857648138345912,909.9765693992122,108.24217007938259,-7.950210598078909,5.068105710941601,1.0,913.0208941591512,0.07919999999999999,1.0,118.77141051606705,7965.406105513411,1.0,1.0,-51.62336025466691,36.71965520299409,-26.832220262551747,15.293299012009625,1.0,912.8030958707728,0.0,0.0,79.22340687670582,8.727532424179488,,,
1.95,1.95,1.0,17.200145073887033,18.572139760854213,16.83236342499289,7.686232239245419,-6.202860190289502,-0.8101808135537737,30.39897735665627,9.910097553835916,1.0,0.18,138.69124299109225,-0.12857648138345912,909.9765693992122,108.24217007938259,-7.950210598078909,5.068105710941601,1.0,913.0208941591512,0.07919999999999999,1.0,118.85644023782544,7862.522881211959,1.0,1.0,-51.62336025466691,36.71965520299409,-26.832220262551747,15.293299012009625,1.0,912.8030958707728,0.0,0.0,79.22340687670582,8.727532424179488,,,
1.98,1.98,1.0,18.312307413649684,20.003679257056092,15.776017788445502,8.167675686589844,-6.486119356828277,-0.7271367431031004,31.374679661990722,10.455113498929789,1.0,0.18,138.69124299109225,-0.12857648138345912,909.9765693992122,108.24217007938259,-7.950210598078909,5.068105710941601,1.0,910.5684026678834,0.08159999999999999,1.0,118.96395385419396,7839.002806679702,1.0,1.0,-53.27105859639024,42.93033996513499,-18.393099802036296,10.850098376789125,1.0,912.5579564408429,0.0,0.0,79.22340687670582,8.727532424179488,,,
2.01,2.01,1.0,19.182221179621365,20.867211347470338,14.095474637176595,8.594820448599425,-6.732645208818936,-0.5369509412141432,31.655655482886434,10.931045986764769,1.0,0.18,138.69124299109225,-0.12857648138345912,909.9765693992122,108.24217007938259,-7.950210598078909,5.068105710941601,1.0,910.5684026678834,0.08159999999999999,1.0,118.4213539821669,7933.411092269792,1.0,1.0,-53.27105859639024,42.93033996513499,-18.393099802036296,10.850098376789125,1.0,912.5579564408429,0.0,0.0,79.22340687670582,8.727532424179488,,,
2.04,2.04,1.0,19.76657312699307,21.12597388041871,12.008149329672277,8.95827165960207,-6.925292792773879,-0.19816529023295676,31.324428740275646,11.324733148075877,1.0,0.18,138.69124299109225,-0.12857648138345912,909.9765693992122,108.24217007938259,-7.950210598078909,5.068105710941601,1.0,913.4402406036467,0.08399999999999999,1.0,117.80220014341296,7638.90043420687,1.0,1.0,-13.211888470168933,45.790178527148115,-14.143334978989595,0.9906927807022681,1.0,912.5579564408429,0.0,0.0,79.22340687670582,8.727532424179488,,,
2.07,2.07,1.0,21.783736792932,13.218721181426535,2.8004771703681337,9.075922917249825,-7.0416753941567585,0.2669669591539593,25.63412668139461,11.490380346786317,1.0,0.18,138.69124299109225,-0.12857648138345912,909.9765693992122,108.24217007938259,-7.950210598078909,5.068105710941601,1.0,913.4402406036467,0.08399999999999999,1.0,117.51860546922154,7588.709643466442,1.0,1.0,-13.211888470168933,45.790178527148115,-14.143334978989595,0.9906927807022681,1.0,912.0473337071573,0.0,0.0,79.22340687670582,8.727532424179488,,,
2.1,2.1,1.0,20.757650282937178,16.888816366641514,-12.995628617093221,9.075610563362044,-7.621911583360952,0.8148563710904054,29.748924798860756,11.879572138250065,1.0,0.18,138.69124299109225,-0.12857648138345912,909.9765693992122,108.24217007938259,-7.950210598078909,5.068105710941601,1.0,912.7313680179664,0.08639999999999999,1.0,116.31538008657397,7674.573907781162,1.0,1.0,54.82652261080226,43.18315372174576,-18.218341889180298,-10.20451647072814,1.0,912.0473337071573,0.0,1.0,-11.176748360825616,-63.737091699147065,,,
2.13,2.13,1.0,20.54558263822006,15.965967030975206,-13.953386790006116,9.075574106677749,-8.19498194015719,1.3887480423455667,29.525075310482006,12.306599672144243,1.0,0.18,138.69124299109225,-0.12857648138345912,909.9765693992122,108.24217007938259,-7.950210598078909,5.068105710941601,1.0,912.7313680179664,0.08639999999999999,1.0,115.70292700026593,7533.799317365905,1.0,1.0,54.82652261080226,43.18315372174576,-18.218341889180298,-10.20451647072814,1.0,912.0473337071573,0.0,1.0,-11.176748360825616,-63.737091699147065,,,
2.16,2.16,1.0,19.950241952079676,14.794112399427123,-14.609623800094145,9.07803029072488,-8.770306257739522,1.9688532064844337,28.815256778548417,12.775182533433622,1.0,0.18,180.57711107624914,-7.604692724697761,907.3107909639106,113.64535638258413,-7.929886594599351,3.8354524945380604,1.0,911.61533860825,0.08879999999999999,1.0,115.37866307789074,7628.672585343851,1.0,1.0,61.43178257131853,33.50398802485313,-29.908858659384723,-16.94296790898549,1.0,911.9792534202045,0.0,1.0,23.100348166000334,-34.77122788965485,,,
2.19,2.19,1.0,19.368775489139214,13.445592513624792,-14.652426991922193,9.076279084470986,-9.073893086999066,2.547889819821442,27.7601700056886,13.084575664019244,1.0,0.18,180.57711107624914,-7.604692724697761,907.3107909639106,113.64535638258413,-7.929886594599351,3.8354524945380604,1.0,911.61533860825,0.08879999999999999,1.0,114.6654854820862,7486.763240379495,1.0,1.0,61.43178257131853,33.50398802485313,-29.908858659384723,-16.94296790898549,1.0,911.9792534202045,0.0,1.0,23.100348166000334,-34.77122788965485,,,
2.2199999999999998,2.2199999999999998,1.0,18.46872857933238,12.812122977751327,-14.503157741000974,9.071391526394079,-9.075098655326634,3.1209939565627693,26.750439528995198,13.20561104629191,1.0,0.18,180.57711107624914,-7.604692724697761,907.3107909639106,113.64535638258413,-7.929886594599351,3.8354524945380604,1.0,911.901068288771,0.09119999999999999,1.0,113.9282415249424,7366.79744464734,1.0,1.0,49.433933143195986,19.00073406358251,-42.56344834443231,-11.5490015710113,1.0,911.9792534202045,0.0,1.0,50.83163237321776,-4.671403821495744,,,
2.25,2.25,1.0,17.74460071383403,11.329672338245185,-13.890838940770381,9.074150821529976,-9.072868950033651,3.698079436002228,25.222762264744517,13.354136274253772,1.0,0.18,180.57711107624914,-7.604692724697761,907.3107909639106,113.64535638258413,-7.929886594599351,3.8354524945380604,1.0,911.901068288771,0.09119999999999999,1.0,114.06993030078836,7305.102576547332,1.0,1.0,49.433933143195986,19.00073406358251,-42.56344834443231,-11.5490015710113,1.0,911.1859575690307,0.0,1.0,50.83163237321776,-4.671403821495744,,,
2.28,2.28,1.0,17.308375863558148,10.172883749608268,-13.704093994804795,9.0753806431377,-9.073877101563106,4.270982574135209,24.307810083092452,13.525497093292962,1.0,0.18,180.57711107624914,-7.604692724697761,907.3107909639106,113.64535638258413,-7.929886594599351,3.8354524945380604,1.0,914.3253041420843,0.09359999999999999,1.0,113.8997667393041,7277.448089574451,1.0,1.0,24.366357996191564,6.4133171297986316,-47.08413535097738,6.556974386206669,1.0,911.1859575690307,0.0,0.0,50.83163237321776,-4.671403821495744,,,
2.31,2.31,1.0,17.781110988500014,10.090370431014467,-15.360806766708562,9.072149209281065,-8.823428284554595,4.853328113842723,25.57220889842343,13.554024190208354,1.0,0.18,180.57711107624914,-7.604692724697761,907.3107909639106,113.64535638258413,-7.929886594599351,3.8354524945380604,1.0,914.3253041420843,0.09359999999999999,1.0,114.83867312197917,7346.365060632155,1.0,1.0,24.366357996191564,6.4133171297986316,-47.08413535097738,6.556974386206669,1.0,911.1859575690307,0.0,0.0,50.83163237321776,-4.671403821495744,,,
2.34,2.34,1.0,17.75447097638163,11.451957999659271,-16.836786979893137,9.077609631263776,-8.247448682979615,5.429262576866898,27.015661707302982,13.412691695724703,1.0,0.18,180.57711107624914,-7.604692724697761,907.3107909639106,113.64535638258413,-7.929886594599351,3.8354524945380604,1.0,911.3745141634761,0.09599999999999999,1.0,114.95126430920568,7455.805286063493,1.0,1.0,-9.142996838645331,1.9267796553175798,-38.63057463063032,28.5169592135665,1.0,910.5213762023241,0.0,0.0,50.83163237321776,-4.671403821495744,,,
2.37,2.37,1.0,18.030975574110993,13.896249453934995,-16.765612543968714,9.074115219199781,-7.673865973305362,6.004166080190115,28.272028455960797,13.314570826957677,1.0,0.18,180.57711107624914,-7.604692724697761,907.3107909639106,113.64535638258413,-7.929886594599351,3.8354524945380604,1.0,911.3745141634761,0.09599999999999999,1.0,115.75519042633816,7570.075551339665,1.0,1.0,-9.142996838645331,1.9267796553175798,-38.63057463063032,28.5169592135665,1.0,910.5213762023241,0.0,0.0,50.83163237321776,-4.671403821495744,,,
2.4,2.4,1.0,18.401322506982414,14.506323529817562,-17.02962856982581,9.075582153654784,-7.0940897250879935,6.5755362387338625,28.966365695128957,13.26385981840273,1.0,0.18,180.57711107624914,-7.604692724697761,907.3107909639106,113.64535638258413,-7.929886594599351,3.8354524945380604,1.0,908.6060226792245,0.09839999999999999,1.0,115.48369707330065,7448.320189936196,1.0,1.0,-42.05722252082709,6.870078453232809,-20.131709689998633,43.054144345856656,1.0,910.5213762023241,0.0,0.0,50.83163237321776,-4.671403821495744,,,
2.4299999999999997,2.4299999999999997,1.0,18.759968037274213,15.096403505407677,-17.948031578989763,9.074701140415598,-6.707989346567287,7.0305911193194115,30.032809344416133,13.29573365213719,1.0,0.18,180.57711107624914,-7.604692724697761,907.3107909639106,113.64535638258413,-7.929886594599351,3.8354524945380604,1.0,908.6060226792245,0.09839999999999999,1.0,115.39418416475974,7399.835311013613,1.0,1.0,-42.05722252082709,6.870078453232809,-20.131709689998633,43.054144345856656,1.0,910.0678617623865,0.0,0.0,50.83163237321776,-4.671403821495744,,,
2.46,2.46,1.0,19.07629135082156,15.778068080084939,-15.258428555627416,9.077420703829272,-6.658859829322891,7.414607220756053,29.080439577633808,13.480221849026305,1.0,0.18,180.57711107624914,-7.604692724697761,907.3107909639106,113.64535638258413,-7.929886594599351,3.8354524945380604,1.0,909.600909785576,0.10079999999999999,1.0,115.26741938832583,7269.297860072974,1.0,1.0,-62.001943978585466,20.100646308834268,-1.719743701264113,43.52425876782926,1.0,910.0678617623865,0.0,0.0,50.83163237321776,-4.671403821495744,,,
2.4899999999999998,2.4899999999999998,1.0,19.13990621376861,16.83373538770743,-13.266061523381632,9.077669896844549,-6.870551172851497,7.789595640315211,28.73497947306311,13.794432370143635,1.0,0.18,180.57711107624914,-7.604692724697761,907.3107909639106,113.64535638258413,-7.929886594599351,3.8354524945380604,1.0,909.600909785576,0.10079999999999999,1.0,114.51111282611275,7243.577248024723,1.0,1.0,-62.001943978585466,20.100646308834268,-1.719743701264113,43.52425876782926,1.0,910.0678617623865,0.0,0.0,50.83163237321776,-4.671403821495744,,,
2.52,2.52,1.0,19.716890705558484,16.709046627670354,-14.326297893241994,9.072561915689535,-7.313715797967716,8.195609224501613,29.54980253109165,14.246748016589562,1.0,0.18,223.96360601260642,-15.003827579667814,914.2858166506844,110.00179300189363,-11.378570586059556,-6.33376032187573,1.0,907.0167266953763,0.10319999999999999,1.0,114.71484442088638,7363.600178215519,1.0,1.0,-67.7422303355912,37.33534210000925,4.771337787580385,29.844098429926948,1.0,909.3240816325444,0.0,0.0,50.83163237321776,-4.671403821495744,,,
2.55,2.55,1.0,20.03700988965743,15.980823136714768,-15.417571916981816,8.989151046277525,-7.8898104878191155,8.681902943156478,29.909363036689598,14.779356710658348,1.0,0.18,223.96360601260642,-15.003827579667814,914.2858166506844,110.00179300189363,-11.378570586059556,-6.33376032187573,1.0,907.0167266953763,0.10319999999999999,1.0,114.23506524541337,7512.838997651072,1.0,1.0,-67.7422303355912,37.33534210000925,4.771337787580385,29.844098429926948,1.0,909.3240816325444,0.0,0.0,50.83163237321776,-4.671403821495744,,,
2.58,2.58,1.0,20.08579954766619,14.89953129853464,-16.346267668533255,8.912754957809511,-8.463411293795705,9.075660402771305,29.877011950266652,15.278551744597317,1.0,0.18,223.96360601260642,-15.003827579667814,914.2858166506844,110.00179300189363,-11.378570586059556,-6.33376032187573,1.0,909.5080436808362,0.10559999999999999,1.0,114.5498440230218,7459.8912555909665,1.0,1.0,9.62304116635721,46.552197821528424,-7.5841270602674005,8.903268718625542,1.0,909.3240816325444,0.0,1.0,-23.466957067120106,-74.05935444943691,,,
2.61,2.61,1.0,19.769817362545183,13.797563073594315,-16.22446786516321,8.839113688275507,-9.04029008658944,9.073327533981091,29.05945255550971,15.562199336303534,1.0,0.18,223.96360601260642,-15.003827579667814,914.2858166506844,110.00179300189363,-11.378570586059556,-6.33376032187573,1.0,909.5080436808362,0.10559999999999999,1.0,113.04778264223953,7306.109542310522,1.0,1.0,9.62304116635721,46.552197821528424,-7.5841270602674005,8.903268718625542,1.0,908.6430018199832,0.0,1.0,-23.466957067120106,-74.05935444943691,,,
2.6399999999999997,2.6399999999999997,1.0,19.315248846270347,11.707438826378546,-15.798117342164064,8.780160906048227,-9.075837955737027,9.07784306893341,27.56308171129507,15.552147598292553,1.0,0.18,223.96360601260642,-15.003827579667814,914.2858166506844,110.00179300189363,-11.378570586059556,-6.33376032187573,1.0,911.912594754388,0.10799999999999998,1.0,113.2068058344176,7272.486199807766,1.0,1.0,47.49902873071396,36.79558930904382,-30.323932682145895,-4.446682827899541,1.0,908.6430018199832,0.0,1.0,44.239497856010836,-36.01518393756849,,,
2.67,2.67,1.0,18.674113482187025,10.04633434335318,-15.334444258986958,8.727101107553631,-9.076797373435069,9.073546102620494,26.1686172507455,15.520302290105084,1.0,0.18,223.96360601260642,-15.003827579667814,914.2858166506844,110.00179300189363,-11.378570586059556,-6.33376032187573,1.0,911.912594754388,0.10799999999999998,1.0,113.96630508508906,7273.001235562373,1.0,1.0,47.49902873071396,36.79558930904382,-30.323932682145895,-4.446682827899541,1.0,908.6430018199832,0.0,1.0,44.239497856010836,-36.01518393756849,,,
2.6999999999999997,2.6999999999999997,1.0,18.080830238015434,9.92277726076444,-14.428371291135601,8.646991778421897,-9.075058933330606,9.072732971290426,25.170534932288252,15.473902062112836,1.0,0.18,223.96360601260642,-15.003827579667814,914.2858166506844,110.00179300189363,-11.378570586059556,-6.33376032187573,1.0,908.2371947841721,0.11039999999999998,1.0,112.50475389628791,7196.935053114106,1.0,1.0,40.849407708750654,14.21263025100518,-45.80562659326761,1.7485116332418718,1.0,907.9259388386903,0.0,1.0,71.71259402428515,5.9344038092090905,,,
2.73,2.73,1.0,17.7965458752027,10.937231163623904,-13.544814954265373,8.571532045349018,-8.770245886294994,9.077740164271587,24.89582460494191,15.257579788437907,1.0,0.18,223.96360601260642,-15.003827579667814,914.2858166506844,110.00179300189363,-11.378570586059556,-6.33376032187573,1.0,908.2371947841721,0.11039999999999998,1.0,112.27985090086828,7205.0854501327,1.0,1.0,40.849407708750654,14.21263025100518,-45.80562659326761,1.7485116332418718,1.0,907.9259388386903,0.0,1.0,71.71259402428515,5.9344038092090905,,,
2.76,2.76,1.0,17.51514363169593,12.800434610097101,-13.038702270233902,8.523056447641304,-8.199426185715375,9.07702322872362,25.31085023341004,14.908569068809493,1.0,0.18,223.96360601260642,-15.003827579667814,914.2858166506844,110.00179300189363,-11.378570586059556,-6.33376032187573,1.0,907.2057271952744,0.11279999999999998,1.0,113.75850488726978,7109.192071723348,1.0,1.0,7.697506760485474,-4.44710034100603,-41.911701624614906,22.785633378796906,1.0,907.9259388386903,0.0,0.0,71.71259402428515,5.9344038092090905,,,
2.79,2.79,1.0,17.73668686184511,14.334942411187244,-12.789902500279334,8.53058105223154,-7.6236729839602395,9.079494088584738,26.146935589736998,14.60576652420893,1.0,0.18,223.96360601260642,-15.003827579667814,914.2858166506844,110.00179300189363,-11.378570586059556,-6.33376032187573,1.0,907.2057271952744,0.11279999999999998,1.0,113.45098402590716,7051.838770335919,1.0,1.0,7.697506760485474,-4.44710034100603,-41.911701624614906,22.785633378796906,1.0,906.2139223217652,0.0,0.0,71.71259402428515,5.9344038092090905,,,
2.82,2.82,1.0,18.056885957840713,15.124195398555837,-12.70298444786193,8.585016298508403,-7.048802701530697,9.0781255772396,26.76113283907811,14.345748093665009,1.0,0.18,223.96360601260642,-15.003827579667814,914.2858166506844,110.00179300189363,-11.378570586059556,-6.33376032187573,1.0,904.4076243385334,0.11519999999999998,1.0,113.6066416675477,7224.095539602948,1.0,1.0,-41.40642081618907,-7.489485017539971,-20.986504178791968,42.497181044442875,1.0,906.2139223217652,0.0,0.0,71.71259402428515,5.9344038092090905,,,
2.85,2.85,1.0,18.470892182518856,15.378603566655471,-13.235821126861996,8.668374384296483,-6.470724895684902,9.076664969865355,27.438335710842065,14.120794670171529,1.0,0.18,223.96360601260642,-15.003827579667814,914.2858166506844,110.00179300189363,-11.378570586059556,-6.33376032187573,1.0,904.4076243385334,0.11519999999999998,1.0,113.6303251423149,7278.689036596915,1.0,1.0,-41.40642081618907,-7.489485017539971,-20.986504178791968,42.497181044442875,1.0,906.2139223217652,0.0,0.0,71.71259402428515,5.9344038092090905,,,
2.88,2.88,1.0,18.87671198586926,15.44074055451727,-13.884229801218558,8.725331879415863,-6.171777243842493,9.075598561276532,28.06276111579935,14.021010662538114,1.0,0.18,269.95071219727805,-17.423507318895318,908.1292826968428,109.99842042981646,-9.885461309353605,-7.2877939353786365,1.0,905.3227400738585,0.11759999999999998,1.0,113.89756582519676,7202.748581926939,1.0,1.0,-65.35778599230554,5.510754829143774,4.0798199455652755,47.467041001209786,1.0,905.4073922824138,0.0,0.0,71.71259402428515,5.9344038092090905,,,
2.9099999999999997,2.9099999999999997,1.0,19.261789698462152,15.112791983579555,-14.526182298442405,8.760753137616256,-6.204504021737042,9.075585148463006,28.467929255467645,14.057485958769671,1.0,0.18,269.95071219727805,-17.423507318895318,908.1292826968428,109.99842042981646,-9.885461309353605,-7.2877939353786365,1.0,905.3227400738585,0.11759999999999998,1.0,112.7458862341986,7118.434089318644,1.0,1.0,-65.35778599230554,5.510754829143774,4.0798199455652755,47.467041001209786,1.0,905.4073922824138,0.0,0.0,71.71259402428515,5.9344038092090905,,,
2.94,2.94,1.0,19.415600241366327,14.64225769454599,-15.031319248628547,8.733657555593764,-6.524101601338948,9.074878666139284,28.588490717074002,14.184290564146075,1.0,0.18,269.95071219727805,-17.423507318895318,908.1292826968428,109.99842042981646,-9.885461309353605,-7.2877939353786365,1.0,907.8733217282918,0.11999999999999998,1.0,112.5939610925265,7079.934606332422,1.0,1.0,-72.09627889466252,28.028331177059776,17.221023609479456,34.93599060416467,1.0,905.4073922824138,0.0,0.0,71.71259402428515,5.9344038092090905,,,
2.9699999999999998,2.9699999999999998,1.0,19.341540023381768,13.999222445298992,-15.628607013327908,8.651064120778639,-7.102512765309191,9.076822404771159,28.536411069475506,14.410943861210452,1.0,0.18,269.95071219727805,-17.423507318895318,908.1292826968428,109.99842042981646,-9.885461309353605,-7.2877939353786365,1.0,907.8733217282918,0.11999999999999998,1.0,113.17173268420184,7087.996254452434,1.0,1.0,-72.09627889466252,28.028331177059776,17.221023609479456,34.93599060416467,1.0,904.1881732582511,0.0,0.0,71.71259402428515,5.9344038092090905,,,
3.0,3.0,1.0,19.066427180727924,12.205528538808519,-15.762353880908627,8.507204954793071,-7.67889746839754,9.075889802080516,27.58541955846721,14.618815895021287,1.0,0.18,269.95071219727805,-17.423507318895318,908.1292826968428,109.99842042981646,-9.885461309353605,-7.2877939353786365,1.0,905.0439656395718,0.12239999999999998,1.0,112.73799325218789,6895.999731628059,1.0,1.0,-33.43498721934902,45.94189533180772,8.510321778942723,10.728084726474739,1.0,904.1881732582511,0.0,1.0,-59.65172642062628,-62.055698179627605,,,
3.03,3.03,1.0,18.625354218794023,11.06412262601663,-15.15015615451712,8.356196618993959,-8.253539251696393,9.077349113152865,26.43569293143901,14.844029070189677,1.0,0.18,269.95071219727805,-17.423507318895318,908.1292826968428,109.99842042981646,-9.885461309353605,-7.2877939353786365,1.0,905.0439656395718,0.12239999999999998,1.0,110.62817292036905,7062.886469256508,1.0,1.0,-33.43498721934902,45.94189533180772,8.510321778942723,10.728084726474739,1.0,904.1881732582511,0.0,1.0,-59.65172642062628,-62.055698179627605,,,
3.06,3.06,1.0,18.30218173918154,11.100384756252506,-14.319710405844061,8.210965988492621,-8.830118570160987,9.074465435906632,25.753494991129106,15.090953560817443,1.0,0.18,269.95071219727805,-17.423507318895318,908.1292826968428,109.99842042981646,-9.885461309353605,-7.2877939353786365,1.0,902.2117114172966,0.12479999999999998,1.0,110.46867071675712,6895.935965438636,1.0,1.0,27.72157365736492,43.45924095705594,-17.10427805446353,-11.228000124386075,1.0,903.1184760402347,0.0,1.0,22.126571498845873,-41.724879872482816,,,
3.09,3.09,1.0,18.087554989142884,11.89444784673766,-13.606046253714071,8.08867978358268,-9.075603376949802,9.074784300616633,25.568770594657785,15.170531546381621,1.0,0.18,269.95071219727805,-17.423507318895318,908.1292826968428,109.99842042981646,-9.885461309353605,-7.2877939353786365,1.0,902.2117114172966,0.12479999999999998,1.0,110.52915334471231,6899.897165076875,1.0,1.0,27.72157365736492,43.45924095705594,-17.10427805446353,-11.228000124386075,1.0,903.1184760402347,0.0,1.0,22.126571498845873,-41.724879872482816,,,
3.12,3.12,1.0,18.21592594366986,12.166984669817277,-13.093123880148088,8.019647239137724,-9.074182383356247,9.075914578516908,25.52029323659384,15.13366291428344,1.0,0.18,269.95071219727805,-17.423507318895318,908.1292826968428,109.99842042981646,-9.885461309353605,-7.2877939353786365,1.0,901.6457778908463,0.12719999999999998,1.0,111.44669344212681,6940.875404495958,1.0,1.0,35.12264556635863,19.31026322349211,-41.58875745065371,-14.22357457294834,1.0,903.1184760402347,0.0,1.0,53.44563926278141,0.9461428079233883,,,
3.15,3.15,1.0,18.45857906628062,13.032852290381886,-12.97943563775127,7.981218020664482,-8.91399914316767,9.073546134256315,26.058398443564663,15.01627321502413,1.0,0.18,269.95071219727805,-17.423507318895318,908.1292826968428,109.99842042981646,-9.885461309353605,-7.2877939353786365,1.0,901.6457778908463,0.12719999999999998,1.0,111.79603659748277,6795.784562692495,1.0,1.0,35.12264556635863,19.31026322349211,-41.58875745065371,-14.22357457294834,1.0,901.6891804952212,0.0,1.0,53.44563926278141,0.9461428079233883,,,
3.1799999999999997,3.1799999999999997,1.0,18.64959807621773,13.985669306149537,-12.096919933328387,7.960904504319962,-8.497284268928063,9.074551079399708,26.26293826324075,14.76236152404176,1.0,0.18,269.95071219727805,-17.423507318895318,908.1292826968428,109.99842042981646,-9.885461309353605,-7.2877939353786365,1.0,897.647689057553,0.1296,1.0,110.7738507782755,6868.118792651701,1.0,1.0,15.543151805338905,-8.755563800294796,-46.857747914764886,5.006607913909272,1.0,901.6891804952212,0.0,0.0,53.44563926278141,0.9461428079233883,,,
3.21,3.21,1.0,19.30351641322803,14.682589766720604,-11.982054749030171,7.959862925903586,-7.920679691519629,9.073441377228212,27.05131834462655,14.436894506812152,1.0,0.18,269.95071219727805,-17.423507318895318,908.1292826968428,109.99842042981646,-9.885461309353605,-7.2877939353786365,1.0,897.647689057553,0.1296,1.0,111.08689275069565,7015.47784715018,1.0,1.0,15.543151805338905,-8.755563800294796,-46.857747914764886,5.006607913909272,1.0,901.6891804952212,0.0,0.0,53.44563926278141,0.9461428079233883,,,
3.2399999999999998,3.2399999999999998,1.0,19.82294845066898,14.999754131680508,-12.223777785770016,7.988592246002529,-7.344969711214477,9.079198911287785,27.701311388535938,14.149135627390075,1.0,0.18,301.54889437783146,-18.597081806660295,902.9581015022242,107.71422466545154,-7.891784750339416,-10.305265154139363,1.0,900.3827266298363,0.132,1.0,111.2802248514811,6693.890751988752,1.0,1.0,-40.191222631127836,-21.737551896869046,-29.155191738298377,31.318506659709055,1.0,900.0548151228518,0.0,0.0,53.44563926278141,0.9461428079233883,,,
3.27,3.27,1.0,20.39021340844555,14.927638655211831,-12.944066249167667,8.05180456285841,-6.768834196947751,9.07478070239848,28.392675987398032,13.892455430947425,1.0,0.18,301.54889437783146,-18.597081806660295,902.9581015022242,107.71422466545154,-7.891784750339416,-10.305265154139363,1.0,900.3827266298363,0.132,1.0,110.03435506158245,6832.198967110747,1.0,1.0,-40.191222631127836,-21.737551896869046,-29.155191738298377,31.318506659709055,1.0,900.0548151228518,0.0,0.0,53.44563926278141,0.9461428079233883,,,
3.3,3.3,1.0,20.784350274234857,14.520355393440283,-13.712225971656478,8.084324411484465,-6.193749017174789,9.075958339875667,28.82455685993572,13.641548587496802,1.0,0.18,301.54889437783146,-18.597081806660295,902.9581015022242,107.71422466545154,-7.891784750339416,-10.305265154139363,1.0,898.8523360409724,0.13440000000000002,1.0,109.9565725384852,6904.320321927619,1.0,1.0,-76.88383583980351,-14.307683512019716,0.5469662191230441,45.77071029679206,1.0,900.0548151228518,0.0,0.0,53.44563926278141,0.9461428079233883,,,
3.33,3.33,1.0,20.9562792382841,13.744675602504458,-14.593378798257568,8.101715232022352,-5.743435228476261,9.078318378623093,29.000835361769358,13.455136658842637,1.0,0.18,301.54889437783146,-18.597081806660295,902.9581015022242,107.71422466545154,-7.891784750339416,-10.305265154139363,1.0,898.8523360409724,0.13440000000000002,1.0,109.69518267490142,6769.484680998951,1.0,1.0,-76.88383583980351,-14.307683512019716,0.5469662191230441,45.77071029679206,1.0,899.3202771822108,0.0,0.0,53.44563926278141,0.9461428079233883,,,
3.36,3.36,1.0,20.683295811347016,10.653585987862057,-15.132827163421204,8.09224704868619,-5.627675840766053,9.074235977841058,27.754280354180224,13.397647414649233,1.0,0.18,301.54889437783146,-18.597081806660295,902.9581015022242,107.71422466545154,-7.891784750339416,-10.305265154139363,1.0,898.8163218342696,0.13680000000000003,1.0,109.96683917166331,6775.037421646652,1.0,1.0,-85.68976126245963,8.055931817434551,24.197515995327155,40.682175497416274,1.0,899.3202771822108,0.0,0.0,53.44563926278141,0.9461428079233883,,,
