time_s,x_m,y_m,altitude_m,vx_mps,vy_mps,vz_mps,speed_mps,mass_kg,roll_deg,pitch_deg,yaw_deg,p_dps,q_dps,r_dps,alpha_deg,beta_deg,qbar_pa,mach,airspeed_mps,load_factor_g,density_kgpm3,pressure_pa,temperature_k,wind_x_mps,wind_y_mps,wind_z_mps,thrust_n,mass_flow_kgps,propulsion_throttle_actual,propulsion_health,energy_j_per_kg,target_distance_m,guidance_mode,pitch_command_deg,heading_command_deg,roll_command_deg
0.0,0.0,0.0,900.0,84.0,1.0,10.0,84.59905436823747,18.0,0.5000000000000002,7.000000000000002,0.5000000000000002,0.0,0.0,0.0,0.7027195106788418,-6.575927884762318,4245.2587978967495,0.25819853852765123,86.96693879077696,1.714136124610442,1.1226019692711875,90970.07887058289,282.29999999999995,-1.9676325000958201,10.199960284633255,0.6098277050743938,319.2,0.17131232378029196,0.84,nominal,12404.484999999999,nan,altitude_hold,15.25,4.0,0.0
0.03,2.534917747096986,0.031451836310459225,900.2932351078515,84.49725823656621,1.0483945436819742,9.774503595049893,85.0671893337603,17.994860630286592,0.5802907341618749,7.244370084793663,0.33124350752496184,1.9789095028247046,-8.197941717918699,-5.504790836600361,1.1835451641596642,-6.4362484715632355,4326.080389227608,0.260649378023256,87.79213898436961,1.7402339998833134,1.1225697119109015,90966.85070204125,282.29809397179895,-2.3218051809443208,10.369162498531415,0.6622492368240069,324.87,0.17435537163691558,0.84,nominal,12447.074004643322,nan,altitude_hold,15.220420252283517,4.0,0.0
0.06,5.084925849860584,0.06428551623078527,900.5801525496054,85.00027009211995,1.0944559973442012,9.56391472512811,85.54362755070062,17.989629969137486,0.7390972067487198,7.637623853866358,-0.00030333068092015304,3.8623041010356687,-13.233819945347499,-10.806940977849596,1.7196660068639258,-6.168715860311021,4311.645052727071,0.26021866273543653,87.64677559046059,1.7695255435791881,1.1225381502125267,90963.69217324647,282.29622900842753,-1.6906755268318485,10.478617414438782,0.6996756943699857,330.53999999999996,0.17739841949353916,0.84,nominal,12490.53046026708,nan,altitude_hold,15.220420252283517,4.0,0.0
0.09,7.650193933736663,0.09837247801578089,900.861325162553,85.50893612920262,1.136232059499854,9.372420431590093,86.0285501795048,17.984308016552678,0.9767467674819883,8.01953058539777,-0.48997507009089114,5.698362477382316,-12.970976958671958,-15.978047227636083,2.178128689334941,-5.490168383871087,4366.271217698747,0.2618663431726741,88.20146132911565,1.7979143554374637,1.1225072211195555,90960.5969725172,282.2944013864434,-1.7771605364587357,10.263561457081108,0.5788450761188558,336.21,0.18044146735016278,0.84,nominal,12534.887437399138,nan,altitude_hold,15.220420252283517,4.0,0.0
0.12,10.230886641943593,0.13349976624787976,901.1372525169655,86.02309027356434,1.1709096077366294,9.19757848041475,86.52131841012755,17.978894772532172,1.2916982118692932,8.300352895912642,-1.1309925400598422,7.4655498328096686,-9.777624083031224,-20.9618013040039,2.6113227870805065,-4.995598591962396,4423.387991037774,0.26357796307371817,88.77768476748044,1.826839220311692,1.1224768696408136,90957.5595954855,282.2926078586397,-1.838856695457328,10.54487235668781,0.6019743790015994,341.88,0.18348451520678638,0.84,nominal,12580.106907108839,nan,altitude_hold,15.220420252283517,4.0,0.0
0.15,12.827181216987055,0.1694470453031788,901.4083415650732,86.54315250144876,1.1982426351766344,9.036301603588322,87.02188102410096,17.973390237075968,1.6843105476034872,8.475598133576797,-1.9228621692516439,9.236554479619938,-6.517671133585259,-25.953311705604737,2.881776297063358,-4.3397504185389355,4456.611503557906,0.2645703017789517,89.11164374269288,1.8565066996287758,1.1224470509778957,90954.57555796143,282.290845779827,-1.6472166749078354,10.771678690196365,0.5691204219321913,347.55,0.18652756306341,0.84,nominal,12626.200001295518,nan,altitude_hold,15.220420252283517,4.0,0.0
0.18,15.439299615479445,0.20591258522492908,901.6748288172222,87.07061328307968,1.2155179973916759,8.882908404967703,87.53099589987903,17.967794410184066,2.1533065957903585,8.594335723748136,-2.863664095918232,10.978886857598104,-4.99415136230969,-30.863670321672117,3.286800010512872,-3.525153762274955,4522.297221504272,0.26651721016919855,89.76711920598014,1.8853405081823373,1.122417739083978,90951.64225239212,282.289113612688,-1.7956049944533046,10.990016711235137,0.7964929763873718,353.21999999999997,0.18957061092003358,0.84,nominal,12673.247081632731,nan,altitude_hold,15.220420252283517,4.0,0.0
0.21,18.067419940982873,0.2425212352522029,901.9370540589664,87.60401085011429,1.2202883342424604,8.740841391474596,88.04745384664196,17.962107291856466,2.69688035571482,8.676887054778987,-3.949888537163496,12.682463020015147,-4.263998936902376,-35.64975326074563,3.442152186930473,-2.3514420120537847,4535.169851265642,0.2669004936400176,89.89594361059385,1.9156985936845132,1.122388896555585,90948.7559348305,282.2874091486167,-1.4180723614200332,10.805750582234383,0.7116264977224347,358.89,0.1926136587766572,0.84,nominal,12721.158075625637,nan,altitude_hold,15.220420252283517,4.0,0.0
0.24,20.71177508972164,0.2787675462515145,902.1951650895589,88.14517162462555,1.2082103666437198,8.603701019752217,88.57231353115964,17.956328882093167,3.309199411619022,8.750077092456072,-5.170363466064523,14.24734180482968,-4.543137636891748,-40.03167035832025,3.647641950473459,-0.989609051755089,4604.478264600692,0.26893640509225375,90.5813988336278,1.9451044956387873,1.122360507108885,90945.91497489181,282.28573142691783,-1.5982262819592277,10.56294325962543,0.6286574877011619,364.56,0.19565670663328083,0.84,nominal,12770.039577856543,nan,altitude_hold,15.220420252283517,4.0,0.0
0.27,23.372546851902957,0.31406622482490487,902.4493840276631,88.6923920727105,1.1766226191130125,8.473964603470781,89.10405674529126,17.950459180894168,3.9834809028604394,8.811289623800924,-6.510830061732496,15.654972910943398,-4.844829976963337,-43.94169575627488,3.922408814177068,-0.0018487978736073188,4655.29088058163,0.27042041431976155,91.08096652096079,1.9757990744439742,1.1223325462876308,90943.1169244288,282.2840790038202,-1.5183994581577287,11.039437264922757,0.6970474103272366,370.22999999999996,0.1986997544899044,0.84,nominal,12819.771716108924,nan,altitude_hold,15.220420252283517,4.0,0.0
0.3,26.04989391450988,0.34784636560417426,902.6999804776174,89.24490208689743,1.1260046926423133,8.353214998474735,89.64204725394498,17.94449818825947,4.716604913962727,8.84385616808628,-7.96339039409545,17.006792831304644,-4.711694005119902,-47.62791269990026,4.233142522996625,1.4012762834776946,4711.74091634243,0.27205915777722284,91.63265136829274,2.006528497555781,1.1223049844151598,90940.35881295893,282.28245012689547,-1.5382710948038403,11.009195079305204,0.7848062076328749,375.9,0.20174280234652803,0.84,nominal,12870.311081490077,nan,altitude_hold,15.220420252283517,4.0,0.0
0.32999999999999996,28.7439343277372,0.3794036870926463,902.9472325647465,89.80134710757739,1.0519107162824017,8.24173623763848,90.18489160996663,17.938445904189074,5.500397989837921,8.838204286198328,-9.511426547844586,18.195333615231462,-4.3527561252015685,-50.805909263603525,4.4292663258363,2.7284573034822652,4797.401849203437,0.2745251864922624,92.46297496976992,2.0368224290349075,1.1222777908802246,90937.63757655588,282.28084298832914,-1.7856153376230597,11.261596645040493,0.6924075550430051,381.57,0.20478585020315163,0.84,nominal,12921.544815581785,nan,altitude_hold,15.220420252283517,4.0,0.0
0.36,31.45477568891414,0.4080047393216942,903.191332140313,90.36137870589803,0.9533684076349281,8.13665251888148,90.7319832648026,17.93230232868298,6.328028440203191,8.807934154353742,-11.142295795502553,19.249001594320564,-4.531956731260048,-53.54122116678321,4.845633411986118,3.9567946936145617,4890.24759058026,0.2771730399593854,93.35453754777623,2.068338914009282,1.1222509445625626,90934.95110111951,282.27925634108794,-2.0876812942755785,11.752659062350014,0.9522035352474474,387.24,0.20782889805977525,0.84,nominal,12973.427670916008,nan,altitude_hold,15.220420252283517,4.0,0.0
0.39,34.182440510385504,0.4328781055475667,903.4326352814106,90.92216071571228,0.8291122075290842,8.043438036589116,91.28101462908339,17.926067461741187,7.193369696552924,8.740492430972454,-12.842577039025892,20.198852372542376,-4.362091096687286,-55.89266207785963,4.82576854620589,5.541381730407391,4918.653512824117,0.27798093924732614,93.62638565831963,2.0995250421786333,1.122224406282479,90932.29546543697,282.27768787067083,-1.7585993223243035,11.751271732572476,0.5013400843093345,392.90999999999997,0.21087194591639885,0.84,nominal,13025.759468639913,nan,altitude_hold,15.267407616851782,4.0,0.0
0.42,36.92704105117282,0.4531626581596728,903.6710730540534,91.48668469291066,0.6761517537368708,7.94792575475994,91.83376384041608,17.919741303363697,8.0879606758218,8.711880786837787,-14.600949889187198,20.926983284706434,-6.758326797766713,-57.55162110311779,5.216809190027349,7.231383415970983,5047.524191382352,0.2816030625611466,94.84608775473176,2.1118968221713006,1.1221981836043635,90929.67142594254,282.2761380251486,-2.4213801570970106,11.68057133873291,0.4673864625437923,394.7778947368421,0.21187443146760623,0.84,nominal,13078.70601911419,nan,altitude_hold,15.267407616851782,4.0,0.0
0.44999999999999996,39.688293432760894,0.4679490209441611,903.907005551572,92.04174605293568,0.4928787594829408,7.864416583951874,92.37843359870628,17.913385070419668,8.999953232578129,8.651354532681484,-16.384707379959938,21.42437002621028,-6.738080316537581,-58.430231212960315,5.674019858920763,8.652473712423893,5101.384666927676,0.2831055646757732,95.35188306173013,2.1163044960849113,1.1221722369103704,90927.07501768747,282.2746044639148,-2.3421416331594416,11.95657177213052,0.6362016460703679,394.7447368421052,0.2118566358661055,0.84,nominal,13131.187133067615,nan,altitude_hold,15.267407616851782,4.0,0.0
0.48,42.465815450201426,0.4763919002856916,904.1407436363876,92.5840672480177,0.28142931138435134,7.791269493854541,92.9117462486237,17.907029371343686,9.918522225204983,8.527177412525406,-18.16870435941737,21.737156500288837,-5.581379166629702,-58.685878652986005,6.077682262967509,9.814864065210319,5139.530923091717,0.28416609170089635,95.70881821978271,2.120678422773195,1.122146531999654,90924.50281787303,282.27308516636344,-2.070686506352177,12.62042255123291,0.8339192400594084,394.7115789473684,0.2118388402646048,0.84,nominal,13182.888119066098,nan,altitude_hold,15.267407616851782,4.0,0.0
0.51,45.25923438974578,0.47770359316188266,904.372496592598,93.11396465147848,0.043723095873035245,7.725098540347445,93.43387754066497,17.900674206135747,10.83637730166639,8.35710070751326,-19.940329349474283,21.924949020395033,-4.94671037914933,-58.485441144972725,6.334659236414259,11.142308383562458,5217.696871331323,0.2863228613838175,96.43497366762291,2.1245078761740848,1.1221210458444968,90921.95252182473,282.2715787721481,-2.1828206659780136,13.057974014109838,0.7353827041417851,394.67842105263156,0.21182104466310406,0.84,nominal,13233.80927985179,nan,altitude_hold,15.267407616851782,4.0,0.0
0.54,48.068147676514165,0.47104553576900926,904.6023545365414,93.63044289227969,-0.2219352464291134,7.6619314647795385,93.9436761321859,17.894319574795855,11.74485134506829,8.181842343618637,-21.682313266288254,21.930479282596426,-5.522371858803446,-57.49929367059114,6.664634401702447,12.95098034256369,5298.340805419133,0.28853107193237837,97.1784528534086,2.1328434318364597,1.1220957685235662,90919.4231364128,282.2700846955125,-2.4323856355830484,12.617092225216638,0.5384458158203971,394.6452631578947,0.21180324906160333,0.84,nominal,13283.82582273029,nan,altitude_hold,15.267407616851782,4.0,0.0
0.57,50.892049373915206,0.45545458255433374,904.8304537515014,94.13005658003473,-0.5196984404891846,7.60330716533357,94.43806392594037,17.887965477324006,12.628157003920583,8.010848321686392,-23.354289362686224,21.593933702507854,-6.077131506147515,-55.14150183830374,7.194543670222675,14.390023223225784,5331.118995128264,0.28942618974386963,97.4796762066635,2.1459570185645798,1.122070685039488,90916.91316059913,282.26860205061524,-2.2284779147971876,12.521804648375046,0.7302219376219397,394.6121052631579,0.21178545346010264,0.84,nominal,13332.62952832216,nan,altitude_hold,15.267407616851782,4.0,0.0
0.6,53.73039232183937,0.4300532565836619,905.0570737060106,94.61143159747209,-0.8467108656890625,7.5539984836369625,94.91629365553634,17.881611913720203,13.47314581395238,7.815346600582513,-24.914024249968143,21.008387739042604,-5.28085301392079,-51.641421647819506,7.661930703602231,15.627611656684817,5416.363862848169,0.2917349835337246,98.25702903763852,2.159521749282848,1.1220457646506823,90914.41951794995,282.2671290209109,-2.485553953572665,12.63048531805552,0.8469622359040183,394.57894736842104,0.2117676578586019,0.84,nominal,13380.129352511052,nan,altitude_hold,15.267407616851782,4.0,0.0
0.63,56.58260844896107,0.3940239306142655,905.2824768006889,95.07387090405668,-1.200977532313213,7.513436489278851,95.37785384245538,17.875258883984444,14.268441381634902,7.59140659189923,-26.32659747657847,20.198121351394587,-3.939791964139398,-47.09265974209541,8.043478980410105,17.08058844988726,5537.967020837754,0.29499571083044906,99.35499181087086,2.175186483709773,1.1220209784945587,90911.93932011597,282.2656639007955,-3.1407548656184905,12.18733368802484,0.7270674064599144,394.54578947368424,0.2117498622571012,0.84,nominal,13426.255902913865,nan,altitude_hold,15.267407616851782,4.0,0.0
0.6599999999999999,59.44810167238038,0.34653190697564207,905.5068599324699,95.5164407806438,-1.5830674546207812,7.47943772603441,95.82191059807637,17.86890638811673,14.999802950557742,7.3583332294893165,-27.554756230572067,19.05290532206797,-2.7384318074559992,-41.23881353779139,8.315982144879948,18.003539965271457,5582.358688335137,0.2961796974809825,99.75350254795096,2.1868361013872275,1.121996304913359,90909.47039974673,282.26420541043893,-3.0401740978110694,12.24528588982591,0.6874146058504859,394.5126315789473,0.21173206665560043,0.84,nominal,13470.908123289624,nan,altitude_hold,15.267407616851782,4.0,0.0
0.69,62.32642528346453,0.2869565804245151,905.7302874311152,95.94412036947168,-1.985844218370899,7.447583288180068,96.25323011497164,17.86255442611706,15.660589342931658,7.136170601162212,-28.57742929537023,17.72583228308561,-1.7988626207899667,-34.572638829614704,8.603880615537314,19.06496804260906,5588.405801310409,0.29634407985652267,99.80860986833828,2.200538387952038,1.121971736827778,90907.01204829455,282.2627531316977,-2.6910488017738112,11.657232892616193,0.6117619510184233,394.4794736842105,0.21171427105409973,0.84,nominal,13514.522077019188,nan,altitude_hold,15.267407616851782,4.0,0.0
0.72,65.21716885804786,0.21472008760840036,905.9528066539242,96.35811915277772,-2.4078830938704914,7.417307426966379,96.67316834117307,17.856202997985438,16.241679310099002,6.925098905815357,-29.36578742636597,16.153204776090842,-0.4028148484525653,-27.011011131044878,8.825063347422907,19.666260293236704,5661.134906057211,0.2982702159764031,100.4570746352638,2.2125729727386783,1.1219472690252534,90904.56374401713,282.2613067567495,-2.8919943413862956,11.536756171988587,0.5919245501174619,394.44631578947366,0.211696475452599,0.84,nominal,13557.212829933098,nan,altitude_hold,15.267407616851782,4.0,0.0
0.75,68.11996345516137,0.12937453827209247,906.1745194876597,96.75981990378381,-2.8448516445435965,7.390427791182556,97.08333714715837,17.84985210372186,16.73819461361161,6.722080664672844,-29.89929518138703,14.437642494601125,1.476844256490111,-18.852512656937613,8.781219978961778,20.090393114466274,5711.650244160874,0.29960204009562214,100.90537391096582,2.2190576146281495,1.121922890297779,90902.12436527028,282.2598656233302,-2.8871191790962403,11.358078823766187,0.2729295202331956,394.4131578947368,0.21167867985109828,0.84,nominal,13599.123527348069,nan,altitude_hold,15.158388042939741,4.0,0.0
0.78,71.03460171008246,0.030613391934153245,906.3953672574581,97.15460849736958,-3.292038211264641,7.361592326611877,97.48870965114276,17.84350174332633,17.144910045263742,6.466931753795493,-30.145407263662875,12.615090511830344,5.7611850016846695,-10.274196028857608,8.79903670367409,20.347311106190062,5794.7963895470275,0.30177889117143447,101.63827458752665,2.2209420521481045,1.1218986070924404,90899.69455701965,282.2584301128265,-3.224481795318093,10.980874491884435,0.2439342770701338,394.38,0.21166088424959756,0.84,nominal,13640.72638303776,nan,altitude_hold,15.158388042939741,4.0,0.0
0.8099999999999999,73.96095051749627,-0.08176997756438657,906.6152360757994,97.54496024712728,-3.746112316617994,7.328960611377154,97.89160480217635,17.83715191679884,17.464120836101863,6.275790015749823,-30.128979053866242,10.701156921608245,6.24491535961483,-1.3755858498969011,8.64768408155312,20.147763961415436,5885.41368659926,0.3041333489543219,102.43098997240963,2.218402978145538,1.1218744319266452,90897.27557161762,282.2570009655073,-3.5621033755891407,11.002452952542688,0.1213802392158082,394.34684210526314,0.21164308864809683,0.84,nominal,13682.241450235477,nan,altitude_hold,15.158388042939741,4.0,0.0
0.84,76.89901279860393,-0.20780758033486696,906.834009093827,97.93540937025519,-4.201253425682679,7.292433934254583,98.2963607238424,17.830802624139398,17.6998342477484,6.171468574025336,-29.858862877979288,8.833235567004547,6.01873163632647,7.482302417893239,8.585208022079783,19.70616389051531,5929.8986117393315,0.3052846236768097,102.81847604862098,2.218506992865041,1.1218503776425899,90894.86869389044,282.2555789408901,-3.522194570457125,10.892569040576,0.20934541811514473,394.31368421052633,0.21162529304659614,0.84,nominal,13724.091001055853,nan,altitude_hold,15.158388042939741,4.0,0.0
0.87,79.84885162453803,-0.3474437224659145,907.0516909836643,98.32796086446983,-4.654538071034918,7.25606299457569,98.70513189596919,17.824453865348,17.854929994416782,6.101990820821783,-29.319640150656053,7.091337553494186,7.661785086174541,16.31080551753986,8.396740958770692,19.27397477817762,5988.480932654082,0.30679293451710815,103.32620931040395,2.215379585514204,1.121826443720652,90892.47387166233,282.25416400860615,-3.6471760431001794,10.37537897982641,0.08120574275585632,394.2805263157895,0.2116074974450954,0.84,nominal,13766.489996685288,nan,altitude_hold,15.158388042939741,4.0,0.0
0.8999999999999999,82.81061518345717,-0.5005631928212944,907.2681859488214,98.72545196397144,-5.10398234517933,7.216498838568091,99.12034784421103,17.818105640424648,17.93173965220459,6.049144057882597,-28.499902340471557,5.452411010082063,10.024717653867466,25.316083841426398,8.026317242268938,18.71274497431887,6079.146949707504,0.3091106930907457,104.10655840495802,2.2064818219569027,1.12180264068743,90890.09215803324,282.2527567913326,-4.048526991018383,9.714849671114523,-0.2726246319797621,394.2473684210526,0.21158970184359466,0.84,nominal,13809.683234113703,nan,altitude_hold,15.158388042939741,4.0,0.0
0.9299999999999999,85.78456390516196,-0.666947252638848,907.4832617556117,99.13162405682637,-5.54613532725179,7.1691935596759295,99.54514474100806,17.81175794936934,17.93417213434614,6.036290868731145,-27.399831951281044,3.9413451384821516,11.635769060526536,34.56284156443935,7.86964478131532,17.75638812343817,6155.919130097527,0.31106046286678013,104.76296929019128,2.20140886252127,1.1217789940694098,90887.72610694949,282.2513587985885,-4.346566275948154,9.115306106333325,-0.08242660696304949,394.21421052631575,0.21157190624209393,0.84,nominal,13853.988649649791,nan,altitude_hold,15.158388042939741,4.0,0.0
0.96,88.77098540653913,-0.8462565530667352,907.6969220210182,99.54738337923898,-5.976976680929573,7.122008846883445,99.98064211592485,17.805410792182077,17.86919389198953,6.042458287649563,-26.014454609154193,2.6928987609727937,13.921056227380845,43.76489695526075,7.648629309210371,16.265208038931704,6216.899825093127,0.3126013947332966,105.28168525584726,2.1903432917901196,1.1217555034613753,90885.37567763356,282.24997000686335,-4.447291902320616,8.954869663951381,0.3116690516065712,394.1810526315789,0.2115541106405932,0.84,nominal,13899.53041929374,nan,altitude_hold,15.158388042939741,4.0,0.0
0.99,91.77030828827444,-1.0379282236115541,907.9091378443925,99.97742939117704,-6.389055684827294,7.07386077914567,100.43080168222471,17.79906416886286,17.751653072980307,6.062524048809209,-24.358093496112502,1.9039059362194732,16.15783770654069,52.48108445146832,7.0816562604925135,14.937245854186708,6242.665419748794,0.3132525276168158,105.5007238768138,2.170722959461988,1.1217321720332123,90883.0411870262,282.24859060401144,-4.276664659653658,8.174966699745893,0.04706462770488168,394.1478947368421,0.2115363150390925,0.84,nominal,13946.720109908885,nan,altitude_hold,15.158388042939741,4.0,0.0
1.02,94.783134926044,-1.2412644128079744,908.1195048703675,100.4275545923188,-6.777872973214009,7.0122341991643165,100.89997379532923,17.792718079411685,17.595167773035723,6.144421942313394,-22.456708719775996,1.5232195617471123,16.533020651335555,60.88004577524685,6.528713996712386,13.232882236133838,6328.470746970071,0.31540202112962323,106.22439726766214,2.1528978235642393,1.1217090442319113,90880.72708212819,282.2472232183426,-4.562737494003375,7.691879805109401,-0.14928777881401814,394.11473684210523,0.21151851943759178,0.84,nominal,13996.012498386051,nan,altitude_hold,15.158388042939741,4.0,0.0
1.05,97.81005754273832,-1.4554348678665159,908.3277549168325,100.89742055647761,-7.139015168618048,6.941668215500939,101.38758193261424,17.786372523828557,17.41530493280742,6.287091963135117,-20.327910274109907,1.6884806560318966,16.685768225791055,68.71404846475201,5.9540683452359815,11.146713780526486,6386.267497317369,0.3168429950178953,106.70944766735252,2.1347603423702353,1.1216861495311619,90878.43631167957,282.24586959304054,-4.558792643495878,7.471552072995334,-0.2988182233702361,394.0815789473684,0.21150072383609106,0.84,nominal,14047.373262826437,nan,altitude_hold,15.158388042939741,4.0,0.0
1.08,100.85172074070508,-1.6794095224245074,908.5336305222157,101.38877326555829,-7.465821818599716,6.862520179439728,101.89463196329375,17.780027502113473,17.23297503837739,6.470564439977236,-17.995424698628064,2.5616312702190593,17.17354558862298,75.5941757639285,5.654270797858934,8.850161311167215,6475.1869157350275,0.3190451323492857,107.45085004673984,2.122980023468889,1.1216635162243431,90876.17170626963,282.24453140160557,-4.838867342101382,7.180408554006015,0.016975455356030813,394.04842105263157,0.21148292823459033,0.84,nominal,14100.929339228229,nan,altitude_hold,15.158388042939741,4.0,0.0
1.1099999999999999,103.90864936320963,-1.9120950598994693,908.7371770556484,101.89762075015213,-7.756184582498732,6.784884447757069,102.41737240717045,17.773683014266435,17.07343383407053,6.64526979278354,-15.479371792506418,4.261896142397637,19.012729213588486,81.34377649502416,5.127408131505359,6.375432658352843,6571.818323599144,0.32142088513569933,108.2507234268671,2.1069768127268236,1.121641139311739,90873.93276527684,282.2432083491383,-5.124238838515636,7.029832569791765,0.008868701337365857,394.0152631578947,0.2114651326330896,0.84,nominal,14156.326522767295,nan,altitude_hold,15.160603808186709,4.0,0.0
1.14,106.98142794553573,-2.1522045293293894,908.9381834895114,102.42595274420312,-8.003648980997335,6.700214462099236,102.95643285587781,17.767339060287444,16.970041413522264,6.841851775131177,-12.83071646963722,6.9227781412664005,19.405169378444164,85.76996494520245,4.601912161614965,3.961758038827404,6670.820464201417,0.3238368211222875,109.06412943693192,2.0944238923372294,1.121619041980441,90871.72180832858,282.24190180731813,-5.446435090760833,6.560250777776116,-0.11338197703339142,393.9821052631579,0.2114473370315889,0.84,nominal,14213.652170320853,nan,altitude_hold,15.160603808186709,4.0,0.0
1.17,110.07057540507854,-2.3983895180181074,909.1364373951857,102.97158198476039,-8.206166289623933,6.608463522476917,103.50922495963874,17.760995640176496,16.956111827773064,7.076476567336238,-10.095366138986225,10.585140568452791,18.93027911110164,88.86730593466089,4.132357338920455,1.0382749933773143,6755.939696514454,0.3259002507491093,109.75881576747933,2.0858548898645273,1.1215972475703093,90869.54117029908,282.24061315693126,-5.55321542330717,6.841113806500935,0.05519350468192799,393.94894736842105,0.21142954143008816,0.84,nominal,14272.662669654048,nan,altitude_hold,15.160603808186709,4.0,0.0
1.2,113.17653883652449,-2.6491086581559777,909.3318329464381,103.53211438153157,-8.35730467126235,6.513185041747909,104.0728822944137,17.754652753933595,17.074846390241945,7.332287800851512,-7.328569037156627,15.526198213272808,18.626746335806637,90.00600154742037,3.6696560203251942,-1.7268699945129757,6804.506422464255,0.32707342773474135,110.15367813350183,2.082353637135248,1.121575767701258,90867.39201339506,282.23934308584813,-5.392274847117115,6.7645366226869035,0.13822203122212004,393.91578947368424,0.21141174582858746,0.84,nominal,14333.081434097632,nan,altitude_hold,15.160603808186709,4.0,0.0
1.23,116.29967448312935,-2.9028106635575366,909.5242358723748,104.1045215534953,-8.456733513385297,6.413430864557378,104.64415819840609,17.748310401558737,17.371358374984244,7.59960285672989,-4.586452763969473,21.762964969482432,18.329067832897845,89.22121156192243,2.929702024453073,-4.551430501627786,6852.319485384805,0.3282243577113316,110.5410500709264,2.082294076066046,1.121554617119574,90865.27581261387,282.2380924668295,-5.14685464617672,7.019182337833239,-0.216544838776661,393.8826315789473,0.2113939502270867,0.84,nominal,14394.585770244343,nan,altitude_hold,15.160603808186709,4.0,0.0
1.26,119.44032447536617,-3.1578193992940595,909.7132284638554,104.68833307456043,-8.500291191217427,6.29975304935528,105.22161812454917,17.741968583051925,17.898059057419754,7.916618201814535,-1.9464818688668684,29.438475347533103,16.34960718384773,86.31457228918651,2.4395020293165626,-6.8572660235757805,6852.704129242695,0.32823732418650203,110.54517640886118,2.0888154187481858,1.1215338417282106,90863.1971602626,282.2368640149849,-4.651332037833182,6.3463344391740115,-0.38241484488828903,393.8494736842105,0.211376154625586,0.84,nominal,14457.033692289295,nan,altitude_hold,15.160603808186709,4.0,0.0
1.29,122.59864777283808,-3.4126849510100192,909.8986430203116,105.27744324906378,-8.495518390531984,6.18048521520447,105.80034162175032,17.735627298413156,18.69945596284971,8.251864352503267,0.5482739002301146,38.410880683195636,15.245052214444671,81.69381925333649,1.947290846175519,-9.371746774730388,6936.508633810145,0.33024200479571353,111.22008389398522,2.0980884235156414,1.1215134599456618,90861.15789867568,282.235658820368,-4.747287921483444,6.411853948502268,-0.3184256304159109,393.81631578947366,0.21135835902408526,0.84,nominal,14519.913671214676,nan,altitude_hold,15.160603808186709,4.0,0.0
1.3199999999999998,125.77468391516518,-3.6659065308366574,910.0803778115247,105.86787141090332,-8.440719327554602,6.057826373771581,106.37645040241226,17.729286547642435,19.835464185388823,8.584922930372901,2.8367772902524253,49.03907791016881,14.425064673111905,74.91384887445572,1.3885261400943252,-11.379344109536028,7059.425228691611,0.3331588042429355,112.20217923972831,2.108951907888055,1.1214934829380314,90859.15914454553,282.23447754422506,-5.210702109639419,5.999671881675966,-0.4502173038534729,393.7831578947368,0.21134056342258453,0.84,nominal,14582.814337173826,nan,altitude_hold,15.160603808186709,4.0,0.0
1.3499999999999999,128.9684083814271,-3.9161131503382074,910.2582387396175,106.45748220873088,-8.340220650051663,5.9286976030899154,106.9481381510809,17.722946330739756,21.369964874456116,8.92907014492635,4.853686656952956,61.391803921303826,12.647820260329825,66.24858862536743,0.6986991793600625,-13.417952189296138,7128.420556312688,0.3347865140483207,112.75013309861771,2.1274713418651334,1.1214739320243585,90857.20303037857,282.23332144819244,-5.176704624843872,6.143973515495206,-0.4438186297077552,393.75,0.21132276782108383,0.84,nominal,14645.53608392721,nan,altitude_hold,15.160603808186709,4.0,0.0
1.38,132.17978523317078,-4.16193112492485,910.4319356029288,107.04589505812233,-8.193932486221435,5.789895443709052,107.51505507431216,17.716606647705124,23.374301939222754,9.301899812090697,6.521156453741073,75.62739378199915,9.399726032845312,55.494418643719136,0.08377449588184999,-14.727393979762406,7181.21125303996,0.3360274183474032,113.16782120193997,2.1457494008707676,1.1214548390866594,90855.29274550128,282.23219241858095,-5.1143450255988405,5.501665230774128,-0.4923735039330298,393.71684210526314,0.2113049722195831,0.84,nominal,14708.030875096647,nan,altitude_hold,15.160603808186709,4.0,0.0
1.41,135.40873856572637,-4.4022865202081425,910.6012686867682,107.6317777518532,-8.011846509443076,5.64443612798019,108.07705087444812,17.710267498538535,25.91443499887361,9.684231933659765,7.789989316486629,91.66455407171462,5.813483026244909,43.24391240045249,-0.7464472626348105,-16.13015975309586,7276.115510519514,0.3382440045527615,113.9141043252542,2.1522951946225217,1.121436226059468,90853.43048394287,282.23109175353596,-5.268086515990259,5.902275650760267,-0.39220342050677887,393.68368421052634,0.2112871766180824,0.84,nominal,14770.272394426116,nan,altitude_hold,15.160603808186709,4.0,0.0
1.44,138.65499695092896,-4.636031381777575,910.7659841151446,108.20861284008674,-7.791495385647758,5.490514279214436,108.62760717317957,17.703928883239993,29.07505503044682,10.063898861640332,8.587495631988784,109.94307427574037,0.8653757069209491,29.08691677359343,-1.373282899217838,-16.67297049646778,7354.31844357994,0.3400602422966095,114.52556119328578,2.156485415567147,1.1214181208299414,90851.61903527797,282.23002110325154,-5.413125384982957,5.385709355948679,-0.21615239659792954,393.6505263157895,0.21126938101658166,0.84,nominal,14831.541758208088,nan,altitude_hold,15.160603808186709,4.0,0.0
1.47,141.9183160559087,-4.862422775268676,910.9260134226083,108.77730349932463,-7.546379783036709,5.33431024878966,109.16915530608613,17.697590801809493,32.915966756402995,10.405917241072206,8.868730275980349,129.745966394506,-5.024816617237161,13.787010137968236,-2.1874739395442715,-16.595943281481386,7419.110102104471,0.34155823362653914,115.0298430557359,2.160251631398116,1.1214005309047328,90849.85914997339,282.228980912753,-5.433699734866085,4.861062164966528,-0.4766206554494288,393.6173684210526,0.21125158541508093,0.84,nominal,14892.084824652997,nan,altitude_hold,15.15437373103787,4.0,0.0
1.5,145.1985116778483,-5.080841256608551,911.0811104810784,109.3398540646539,-7.280616044662487,5.1699019490032345,109.70386931659209,17.69125325424704,37.470332784057135,10.715761055229121,8.567431310428981,150.0485692759453,-14.14149127113814,-2.1177022565841743,-2.679458169299256,-16.171160489974227,7496.1956827803615,0.3433312898309878,115.62676569161849,2.1644581562462015,1.1213834833184577,90848.1535322782,282.22797278187295,-5.562340829363988,4.449629631646984,-0.255583210408142,393.58421052631576,0.2112337898135802,0.84,nominal,14952.123043615225,nan,altitude_hold,15.15437373103787,4.0,0.0
1.53,148.49547371479846,-5.291022617586367,911.2313815758456,109.89873456500567,-7.006045365927195,5.0090364922403054,110.2356883102727,17.684916240552635,42.75542746589416,10.9478604944122,7.636559497471022,170.4515051399323,-25.57837896918129,-18.341576580771896,-3.140762992211226,-15.133916082812473,7591.019394435149,0.34549910606436157,116.35663930768085,2.1666351786704916,1.121366966369988,90846.50101091464,282.226996019757,-5.786610217733427,4.2030766827724495,-0.4795057890835288,393.5510526315789,0.21121599421207948,0.84,nominal,15012.080716750565,nan,altitude_hold,15.15437373103787,4.0,0.0
1.56,151.80918846173526,-5.492945090579883,911.3769297927762,110.45715823122667,-6.7307490997838615,4.851607231018986,110.76833880078982,17.678579760726272,48.78081446093966,11.070732510966806,6.0077053875609066,190.63494908073682,-41.098286034660575,-34.287630121359754,-3.1212271411167674,-13.773703789888325,7681.683936209705,0.347559305207897,117.05027371306048,2.1636006366951457,1.12135096871096,90844.90044993313,282.2260499563469,-5.967717982854133,4.16339062861375,-0.3764415844086368,393.5178947368421,0.21119819861057876,0.84,nominal,15072.36700889561,nan,altitude_hold,15.15437373103787,4.0,0.0
1.5899999999999999,155.13976779934572,-5.68717018339084,911.5182359930315,111.01931125368237,-6.474169760365264,4.710206675173943,111.30762953297895,17.672243814767956,55.54303396042264,11.007164036415379,3.6275970971894735,210.4265549671814,-60.296678664078605,-49.522229524814705,-2.6639588861075194,-12.000900959966616,7694.760799683461,0.34785798709301863,117.15067252366939,2.155106957643996,1.1213354374722742,90843.34655929978,282.2251314660453,-5.519044343283653,4.347390663584279,-0.3873983991654496,393.48473684210524,0.21118040300907803,0.84,nominal,15133.634505126505,nan,altitude_hold,15.15437373103787,4.0,0.0
1.6199999999999999,158.48747289777938,-5.874968220559208,911.6559338606279,111.59016994778877,-6.259934572278941,4.5899289198821,111.85982414305488,17.665908402677683,63.021029680021975,10.671764619205977,0.42545773089524774,229.46391717073107,-84.58859668385931,-63.2888542930242,-1.1610598260836602,-9.616807029967491,7787.623292081782,0.34995363166833116,117.85625115609467,2.1388060018822364,1.121320302990752,90841.83236883534,282.2242364299059,-5.706741998497885,3.899763852304441,-0.730871053341813,393.45157894736843,0.21116260740757734,0.84,nominal,15196.600792451907,nan,altitude_hold,15.15437373103787,4.0,0.0
1.65,161.85265476634348,-6.058962642547603,911.7908447282858,112.17272895213685,-6.1331473996131685,4.497028921932934,112.43024453731141,17.659573524455457,71.17168745878281,9.94764988224432,-3.6481483728972397,247.7230002446573,-113.95908797072543,-74.40458693431633,1.1558649698907932,-7.482232701141566,7889.531257139415,0.3522387926839734,118.62565598922981,2.1087726797009743,1.1213054749821576,90840.34884535265,282.2233595092661,-5.8946167461971335,4.139935933121301,-0.661643142066311,393.4184210526316,0.2111448118060766,0.84,nominal,15261.893630814466,nan,altitude_hold,15.15437373103787,4.0,0.0
1.68,165.23518235927733,-6.243096861403401,911.9236784523973,112.75091976446191,-6.13780729519327,4.427790803715657,113.00463670808612,17.653239180101274,79.91890599442749,8.655685704402794,-8.584838516106746,265.3843446981524,-146.95908797072545,-82.46355401302111,4.673188761117629,-5.54297663900734,7944.884439343298,0.3534751335938225,119.0418441359534,2.0904103143615362,1.121290875418281,90838.88818197834,282.2224960900594,-5.741779247234108,4.174089985725145,-0.4819658786489863,393.3852631578947,0.21112701620457588,0.84,nominal,15327.940300058464,nan,altitude_hold,15.15437373103787,4.0,0.0
1.71,168.63369821540496,-6.433386441550359,912.0545361233065,113.28386187092146,-6.342986004898626,4.361922363640437,113.5451152562486,17.646905369615137,89.11854923202667,6.579267481818167,-14.170540345913675,282.4635734407642,-177.74717556554103,-86.78437761200216,9.183200882461543,-4.145511080320158,8022.108267846811,0.3551916716980649,119.61975224118376,2.2411507235451693,1.1212764931817696,90837.44926623405,282.2216455151985,-5.7791206423355455,4.2210403691347205,-0.25247554494649876,393.3521052631579,0.21110922060307516,0.84,nominal,15390.446215951013,nan,altitude_hold,15.15437373103787,4.0,0.0
1.74,172.0455096040055,-6.637317721078101,912.1818990936828,113.72704628668431,-6.797709317591363,4.245432345872685,114.00909439541867,17.640572092997044,98.59086580523962,3.5953717530706357,-19.959468293021303,299.222559914317,-199.292469096602,-86.58758717079209,14.424815982033616,-3.5874033130607983,8121.1843081278075,0.35738107094511445,120.35691112145913,2.33431919187479,1.1212624951745032,90836.0487960684,282.22081765589104,-6.063657072148766,4.031447840600569,-0.07924090629915276,393.31894736842105,0.21109142500157443,0.84,nominal,15444.485423178807,nan,altitude_hold,15.15437373103787,4.0,0.0
1.77,175.4658320475378,-6.859899011511929,912.3024901696174,114.0107481177426,-7.419376347794263,4.019702531153689,114.3225954927394,17.634239350246997,108.21316211387195,-0.33641430934206845,-25.75130168624772,315.96313246787696,-219.13317868277613,-83.02855623007528,20.02585261789837,-3.8526003085508598,8148.969998923635,0.3579945308064572,120.56334146918027,2.480834576805361,1.1212492415650843,90834.72280507369,282.2200338138975,-5.9090818358144315,4.171780895410704,-0.4967965430662103,393.28578947368425,0.21107362940007374,0.84,nominal,15481.459135320136,nan,altitude_hold,15.15437373103787,4.0,0.0
1.7999999999999998,178.88901511552328,-7.104074893296627,912.4120403864323,114.10610226618314,-8.139196059489946,3.65167389383007,114.45428698437793,17.627907141364993,117.89934079822089,-5.227982686925084,-31.39341795289704,332.85586969548456,-237.93451360349908,-76.71362218885548,25.996288721126376,-5.668959549362599,8063.151742047249,0.3561068506138426,119.92746808202342,2.3553765127495314,1.1212372015095022,90833.51823034532,282.21932173748814,-5.134782759753342,3.9762243681491105,-0.5227154815982065,393.25263157894733,0.21105583379857298,0.84,nominal,15497.597440406778,nan,altitude_hold,15.15437373103787,4.0,0.0
1.8299999999999998,182.31364996604108,-7.368438608055779,912.5080230815473,114.15449501726061,-8.812123825305074,3.199423170499229,114.53880812887053,17.621575466351036,127.58154781231109,-11.228439593407455,-36.961261906893085,350.33627759163727,-264.20811814626194,-69.12239033780763,32.27214118261274,-9.050469268979365,8037.438209915301,0.3555406471969996,119.73665324059372,2.2924514683424317,1.1212266526661323,90832.46284983028,282.21869784996994,-4.864630421995298,3.754368125947975,-0.4607938957338725,393.21947368421047,0.21103803819707223,0.84,nominal,15508.216088343765,nan,altitude_hold,15.100351459011819,4.0,0.0
1.8599999999999999,185.73765634381886,-7.651928447518664,912.5886114482303,114.13354592592545,-9.449661315429484,2.686278889430131,114.55556947994042,17.615244325205122,137.25374175966164,-18.42464619888522,-42.306113547200724,369.26184540611916,-290.8355720475905,-61.11037883405338,35.0,-13.634530804484411,8025.793250927481,0.35528472611954504,119.6503547730495,2.402148284620923,1.121217795773455,90831.57674576929,282.2181740255865,-4.656521679289407,4.506896803383733,-0.5295757623351566,393.18631578947367,0.21102024259557153,0.84,nominal,15510.926355895515,nan,altitude_hold,15.100351459011819,4.0,0.0
1.89,189.15815456827295,-7.9543081822078445,912.6514119400088,114.01660748180348,-10.07932448963935,2.0933497259487437,114.48039865803324,17.608913717927255,147.0392985541227,-26.82331712444745,-47.17592312785555,390.178291288049,-315.2836772831726,-53.6744869516226,35.0,-19.780690483073165,7958.952885918961,0.3538035376909535,119.15144411581903,2.635608466764353,1.121210893856363,90830.88623196408,282.21776582238994,-4.136149725965215,5.083882325833198,-0.5655519567796045,393.1531578947368,0.2110024469940708,0.84,nominal,15502.933807352594,nan,altitude_hold,15.100351459011819,4.0,0.0
1.92,192.57164783653903,-8.275271588525934,912.6932773756045,113.78310894220297,-10.69878021060297,1.395514519858346,114.29351354877124,17.602583644517434,157.29856614322424,-36.35396327296197,-51.172078295939365,413.6186696924551,-336.6703359605445,-48.2008474144184,35.0,-27.61111841938641,7940.526412591472,0.3533946349741431,119.0136793824073,2.927537114641002,1.1212062927676878,90830.42590892952,282.21749369705856,-4.145628161992496,5.19678413917361,-0.7020743698208292,393.12,0.2109846513925701,0.84,nominal,15481.967148237049,nan,altitude_hold,15.100351459011819,4.0,0.0
1.95,195.9739067307929,-8.61360405456705,912.7108362257128,113.40862980846198,-11.277748868037206,0.5852950036112411,113.9695025206504,17.596254104975657,168.9035603859764,-46.8624470076674,-53.49869222981774,440.48990664149323,-355.336422837422,-46.6862306877394,35.0,-29.999999999999996,7864.676620358927,0.3517031039918329,118.44399390919158,3.097999463315617,1.1212043630219386,90830.2328446628,282.21737956453285,-3.9132166956058234,4.928623815900247,-0.7994470178081923,393.08684210526314,0.21096685579106939,0.84,nominal,15445.159474475155,nan,altitude_hold,15.100351459011819,4.0,0.0
1.98,199.3619009716644,-8.96514066159525,912.7003413275806,112.93314136238342,-11.71788690093996,-0.34982993773892046,113.53997389635352,17.589925099301926,-176.46217343745138,-57.955527249964724,-52.66750004033855,468.07334421175455,-371.75683812652375,-41.70251824146833,35.0,-29.999999999999996,7830.243862291551,0.35093213152114056,118.18436573418035,3.1985133995634714,1.1212055164277466,90830.34823884285,282.2174477813707,-4.107832333334883,4.668551745761637,-1.012709132283318,393.0536842105263,0.21094906018956863,0.84,nominal,15396.195638472436,nan,altitude_hold,15.100351459011819,4.0,0.0
2.01,202.73374330525866,-9.32369106047917,912.6589581357022,112.39474445314177,-11.951679962797382,-1.3794397292844827,113.03682624962055,17.583596627496238,-154.21304295197535,-68.82222512524243,-44.254944085029884,492.4064077500718,-385.80932191593973,-30.50785687796756,35.0,-29.999999999999996,7795.166970036127,0.3501443425157478,117.91911609044166,3.226605384466092,1.1212100645144556,90830.80325913712,282.2177167721179,-4.380587365137678,4.421658799445124,-0.7848002934649472,393.0205263157895,0.21093126458806793,0.84,nominal,15338.789016094936,nan,altitude_hold,15.100351459011819,4.0,0.0
2.04,206.08901710365552,-9.681935440749237,912.5855915096639,111.84245994656224,-11.941479342335546,-2.445554201273386,112.50473550536961,17.577268689558597,-109.56653666193903,-76.69392748528112,-13.66754487434314,513.2938206380232,-396.7772227850177,-11.29214451631935,35.0,-29.999999999999996,7706.235318802982,0.34813974534252834,117.24412119948185,3.1920887031607252,1.121218127672401,90831.60995117799,282.2181936551872,-4.230507697463162,4.500407054061414,-0.738360634101169,392.9873684210526,0.2109134689865672,0.84,nominal,15278.065246544831,nan,altitude_hold,15.100351459011819,4.0,0.0
2.07,209.42881706971687,-10.032497749638408,912.4811464856434,111.32666553537793,-11.685410296305687,-3.4815008006817925,111.99239313830229,17.570941285489,-46.66868960111511,-74.48692687262115,35.0801226307025,520.0,-403.53361488591565,15.425673425766186,4.913442766116932,-29.999999999999996,7643.275127861664,0.3467124803744714,116.76359711060893,2.614394347894911,1.1212296064930238,90832.75837122116,282.2188725478433,-4.258591247561236,4.612630621596892,-0.6249492312215806,392.95421052631576,0.21089567338506648,0.84,nominal,15219.531295605466,nan,altitude_hold,15.100351459011819,4.0,0.0
2.1,212.76168997950342,-10.375627945528445,912.3471604570452,111.09576365955111,-11.437673196334552,-4.466200953274721,111.77225068056927,17.564614415287448,-11.398088647942046,-63.68850546201065,56.11784425153262,520.0,-436.53361488591565,46.85089295877731,-35.0,-29.999999999999996,7566.151887110182,0.34495602461230157,116.17224849616281,3.0361088762431163,1.1212443320900745,90834.23162511985,282.2197434570292,-3.902448589478994,4.565350683684004,-0.5539475263119777,392.9210526315789,0.21087787778356573,0.84,nominal,15193.58729219609,nan,altitude_hold,15.100351459011819,4.0,0.0
2.13,216.0814836134867,-10.715628532535412,912.1811734308027,110.65978779944336,-11.333352900232226,-5.532900874752901,111.37614877463163,17.55828807895394,8.304935561843429,-49.8586005218192,61.09929152654809,520.0,-469.5336148859156,79.85089295877731,-35.0,-29.999999999999996,7509.2655228035765,0.34365334373672607,115.73376056255361,3.0050798178134572,1.1212625749291296,90836.05677533356,282.2208223726998,-3.8557680081591363,4.629617183814662,-0.4659098423760495,392.8878947368421,0.21086008218206503,0.84,nominal,15147.76476235962,nan,altitude_hold,15.100351459011819,4.0,0.0
2.16,219.38920297673164,-11.044386670398806,911.9855957259116,110.25731210816461,-10.958604595446497,-6.51925682970435,110.99219160647388,17.551962276488478,23.073635265046796,-34.659247681431836,60.01448899682468,520.0,-502.5336148859156,112.8508929587773,-35.0,-29.999999999999996,7480.478324380097,0.3429899437119507,115.51060435731758,2.9406216157906564,1.1212840702293494,90838.20733506953,282.22209362778153,-3.9844707154924652,5.041231461335864,-0.5593891783874735,392.85473684210524,0.2108422865805643,0.84,nominal,15103.156841129616,nan,altitude_hold,15.100351459011819,4.0,0.0
2.19,222.68731317875336,-11.355001028349154,911.7653178152578,109.93700673405725,-10.353811931678287,-7.342597021791827,110.66734207608467,17.54563700789106,36.58375438383454,-19.18552985672036,55.65113183661944,520.0,-520.0,145.8508929587773,-35.0,-29.999999999999996,7379.050041356493,0.3406521545534652,114.72358529591207,2.8279507441587706,1.121308280625172,90840.62954602978,282.2235254342008,-3.4785064853151337,5.5170130907381445,-0.5206253535262015,392.8215789473684,0.21082449097906358,0.84,nominal,15064.993655045568,nan,altitude_hold,15.140338135541342,4.0,0.0
2.2199999999999998,225.97956873447654,-11.643064545654932,911.5272634129113,109.74185185743974,-9.602117243525932,-7.935146744883689,110.44655385534446,17.539312273161688,50.66477823018002,-4.409525490555357,48.75367871467658,520.0,-520.0,178.85089295877728,-35.0,-29.999999999999996,7344.9550403158255,0.3398593526056807,114.45690212531599,2.731648146853516,1.121334445256629,90843.24728892223,282.22507278781603,-3.5385916924141494,5.174492474488154,-0.8941696455016819,392.7884210526316,0.21080669537756289,0.84,nominal,15038.24946700898,nan,altitude_hold,15.140338135541342,4.0,0.0
2.25,229.269737092402,-11.90711751298141,911.2797496399799,109.67227859751594,-8.801765577549272,-8.250459097714515,110.33381098002708,17.532988072300363,66.56307884998857,8.955856070994303,38.92150181460081,520.0,-520.0,211.85089295877725,-35.0,-26.324910964372254,7331.824697787849,0.3395503521118628,114.35316372200255,2.571859335067887,1.1213616500656485,90845.96911566678,282.2266816273401,-3.5978406493553496,4.997762165116394,-0.7605209731316593,392.7552631578947,0.21078889977606213,0.84,nominal,15023.37647949508,nan,altitude_hold,15.140338135541342,4.0,0.0
2.28,232.5618749392774,-12.149609454702935,911.0302312536836,109.73792822917937,-8.08306472405081,-8.31727954320823,110.34910949511821,17.52666440530708,85.45322126942759,19.72852094503037,25.374477142557218,520.0,-520.0,244.85089295877725,-32.859050837740355,-22.852371628243123,7342.710100836037,0.33979718856317503,114.43662167762784,2.476557957377778,1.1213890757174247,90848.71305331742,282.228303496851,-3.6813578912419027,5.1494721335301215,-0.7869485255638601,392.7221052631579,0.21077110417456144,0.84,nominal,15022.617600506732,nan,altitude_hold,15.140338135541342,4.0,0.0
2.31,235.85923917085464,-12.375238637388033,910.784777669712,109.91214105257467,-7.52097275616995,-8.181786132388051,110.47255499116628,17.520341272181845,107.69224109298167,26.217429339639605,8.256368110275636,520.0,-505.62686500807354,277.85089295877725,-24.98924405557171,-22.68862105424037,7385.2555942157405,0.34077513895864103,114.76629940689884,2.6019297768195155,1.1214160550897647,90851.4123560767,282.22989894514683,-3.8646167696847913,5.436765348957954,-0.549625087979503,392.68894736842105,0.2107533085730607,0.84,nominal,15033.84024307281,nan,altitude_hold,15.140338135541342,4.0,0.0
2.34,239.1636169212628,-12.589329459802055,910.5490761329858,110.14592501360544,-7.136360747134086,-7.856717890872137,110.65613610565289,17.514018672924653,131.6649134247453,27.292210819192398,-10.420453153137812,520.0,-472.6268650080736,310.8508929587772,-18.559642408694693,-25.43955370648048,7426.09911131919,0.34171127869705553,115.08188503479433,2.7569668042826807,1.1214419630196302,90854.004474721,282.23143100513556,-4.006569949012638,5.568033326804303,-0.6701659926979786,392.6557894736842,0.21073551297155999,0.84,nominal,15051.826326375933,nan,altitude_hold,15.140338135541342,4.0,0.0
2.37,242.47475840071928,-12.800202866032972,910.3277026519874,110.37138264855018,-7.029113541030567,-7.379116033280862,110.8408854997018,17.507696607535507,154.68408316017175,22.950678933547767,-27.99442522927953,520.0,-439.6268650080736,343.8508929587772,-14.537777185230778,-29.999999999999996,7481.0797785013065,0.3429693159617241,115.50586259854299,2.8754583392586044,1.1214662964498932,90856.43907565523,282.23286993276207,-4.281582426233369,5.318553025439434,-0.7581625855337427,392.62263157894733,0.21071771737005923,0.84,nominal,15070.116114391114,nan,altitude_hold,15.140338135541342,4.0,0.0
2.4,245.79031215546385,-13.018859330655546,910.1212551741642,110.51845849148535,-7.288548820752489,-6.88158259410707,110.97210816347584,17.501375076014405,174.89340838573318,14.2355474684542,-42.63509318610207,520.0,-406.6268650080736,376.8508929587772,-14.509223915471907,-29.999999999999996,7457.965365377817,0.34243478846025316,115.32611756828804,2.9546304623918584,1.121488989574025,90858.70957236685,282.23421184136794,-3.9033964839728768,5.618499417538875,-0.4659296168785992,392.5894736842105,0.2106999217685585,0.84,nominal,15082.645002176807,nan,altitude_hold,15.140338135541342,4.0,0.0
2.4299999999999997,249.1067924267087,-13.254202612279661,909.9260024540715,110.54934237482851,-7.844776054137155,-6.508424003087067,111.01827414372184,17.49505407836135,-167.97894739222906,2.1511151375106445,-53.92400302409184,520.0,-384.39431877018257,403.09490379939564,-18.5840248313449,-29.999999999999996,7427.235685517872,0.34172454060668983,115.08717712773665,3.0642122733306563,1.121510452470997,90860.85699209322,282.23548098404854,-3.5310223008639414,6.091677413952496,-0.46657003068560404,392.5563157894737,0.2106821261670578,0.84,nominal,15085.854428891509,nan,altitude_hold,15.140338135541342,4.0,0.0
2.46,252.41944056190292,-13.512610969097747,909.7355179042775,110.4216045064744,-8.613611893936179,-6.349484993133867,110.93890666182733,17.488733614576336,-153.2234487515764,-12.66061094368877,-62.02268990117547,520.0,-381.59768849166966,424.9002338462516,-27.15444295410521,-29.999999999999996,7386.99068350094,0.34079352484018083,114.77387815786555,2.9647801830009244,1.1215313915359768,90862.95201034617,282.23671913362216,-3.2174023293441034,6.439222767202654,-0.6370948252809497,392.5231578947368,0.21066433056555708,0.84,nominal,15075.1783223168,nan,altitude_hold,15.140338135541342,4.0,0.0
2.4899999999999998,255.72388011638412,-13.795788653777677,909.5381636111626,110.14798514937354,-9.439256155997708,-6.578476437160847,110.74725523226043,17.48241368465937,-139.4812020005323,-29.62740712924155,-66.8527339586719,520.0,-393.6559872232533,446.1655686985495,-35.0,-29.999999999999996,7368.626247516469,0.34036558072482137,114.63001384023315,2.925932251004636,1.1215530860747804,90865.12262578719,282.23800193652744,-3.170864389926067,6.812860945629234,-0.6838092017162644,392.49,0.2106465349640564,0.84,nominal,15051.999702917125,nan,altitude_hold,15.140338135541342,4.0,0.0
2.52,259.01637143762196,-14.0999411242172,909.3228103933684,109.7497107079281,-10.13841568131741,-7.1784405931403406,110.45051598951603,17.476094288610447,-123.97385079160729,-48.17181335545175,-66.8446164174173,519.9151162208734,-419.0494131511576,469.5525336629612,-35.0,-29.999999999999996,7375.603460484241,0.34052224721428903,114.6830611517724,3.0124813725358535,1.1215767595452533,90867.4912516069,282.23940173244307,-3.4392994587255017,7.1439763867327315,-0.7153595136123957,392.45684210526315,0.21062873936255563,0.84,nominal,15017.068779719293,nan,altitude_hold,15.140338135541342,4.0,0.0
2.55,262.2944215867827,-14.418879050679523,909.0819073670311,109.26833830535644,-10.631264215410793,-8.030100877910288,110.07759106621617,17.46977542642957,-96.98400911923764,-66.65909302725991,-53.244445847788434,515.2522958467522,-452.0494131511576,497.3258400027994,-35.0,-29.999999999999996,7378.199907980567,0.34057721369135335,114.70189126415588,3.0491179162524054,1.1216032421225488,90870.14095376972,282.24096760211427,-3.790213992192058,7.229439495097186,-0.5948554265366953,392.4236842105263,0.2106109437610549,0.84,nominal,14973.586114351452,nan,altitude_hold,15.035712750239734,4.0,0.0
2.58,265.5574373140387,-14.743587532670903,908.81061947863,108.76719090853338,-10.823616066379314,-9.042929613372428,109.67783303328953,17.463457098116738,-23.04533592066196,-73.74539052437295,8.393771844862137,510.78261712267437,-485.0494131511576,520.0,-35.0,-29.999999999999996,7370.863161785564,0.3404022507231109,114.64332418535433,3.050807803114232,1.1216330654939892,90873.1249351623,282.24273097338886,-4.131045979871557,7.2677991742784265,-0.6894523524979024,392.3905263157895,0.2105931481595542,0.84,nominal,14927.001190949173,nan,altitude_hold,15.035712750239734,4.0,0.0
2.61,268.80666133250156,-15.063597656296475,908.5078642694068,108.30746728209681,-10.667004120852383,-10.09184030743749,109.29838830818858,17.45713930367195,25.765384282630034,-57.380730860333266,44.84856015498469,506.539813054881,-518.0494131511575,520.0,-35.0,-29.999999999999996,7294.672643327272,0.3386321551867617,114.04757519932657,2.9649978214780117,1.1216663488647933,90876.45512926369,282.2446988822488,-3.93162794869768,7.230139994192551,-0.6617213716018696,392.3573684210526,0.21057535255805349,0.84,nominal,14882.487490521366,nan,altitude_hold,15.035712750239734,4.0,0.0
2.6399999999999997,272.0457236124049,-15.368991983652911,908.1771039524251,107.96874266344568,-10.179810911881228,-11.025343899390807,109.00658764784285,17.45082204309521,44.71434915903573,-36.06128565307421,50.16325753022867,503.2322226021658,-520.0,520.0,-35.0,-26.519483573054522,7240.5309984268315,0.33736638383173395,113.62171010950402,2.811413615619882,1.1217027118386294,90880.09348203348,282.2468488243092,-3.8218646442389996,7.373364680533138,-0.7960158369485825,392.32421052631577,0.21055755695655273,0.84,nominal,14847.393071788472,nan,altitude_hold,15.035712750239734,4.0,0.0
2.67,275.2792910715783,-15.65361721243651,907.8251040132176,107.78558197244749,-9.487507626119921,-11.733331306919256,108.83664615217069,17.444505316386515,58.43733439784465,-14.583827117452046,47.440745949839716,499.76883011941715,-520.0,520.0,-35.0,-23.298506450998932,7231.743626822136,0.3371544191540535,113.55078271184114,2.6637402146839997,1.1217414108347405,90883.96559951422,282.24913682391406,-3.87888481041418,7.85736393759335,-0.5985864508736496,392.2910526315789,0.210539761355052,0.84,nominal,14825.430829097626,nan,altitude_hold,15.035712750239734,4.0,0.0
2.6999999999999997,278.51181152433213,-15.915062472193918,907.4604965531619,107.75068175846081,-8.714841991913623,-12.153582001857272,108.78358077317087,17.438189123545865,72.62450811751286,5.690939177390338,39.875608307547566,495.54711974212154,-520.0,520.0,-35.0,-22.522408490426187,7165.70107319657,0.33560398274519265,113.02908325349047,2.567850338964149,1.1217814969830262,90887.97654480726,282.2515067724044,-3.428771828421631,7.9408214582590535,-0.4364306295605743,392.2578947368421,0.2105219657535513,0.84,nominal,14816.08120143956,nan,altitude_hold,15.035712750239734,4.0,0.0
2.73,281.7467726369614,-16.15485878898481,907.093311799653,107.83203708764297,-7.9932105596964345,-12.239491783630015,108.81840283997923,17.431873464573258,90.48528987880934,23.06397429716688,27.150810933221635,491.08166036125374,-502.44642862213885,520.0,-35.0,-24.15171727224365,7153.30967796177,0.3353062319748325,112.92928032684655,2.536330548204571,1.1218218675950133,90892.01598704541,282.25389347330224,-3.2697621020331527,8.366175866618468,-0.33222309131969674,392.22473684210524,0.21050417015205058,0.84,nominal,14816.269024482066,nan,altitude_hold,15.035712750239734,4.0,0.0
2.76,284.9857935044838,-16.37893123719173,906.7327111790017,107.96736225074682,-7.469081606897254,-12.020020688372405,108.89085998734411,17.425558339468697,114.52699626943517,35.14006455897967,7.919521234840103,488.24693968164433,-469.7999423657929,520.0,-35.0,-27.36165170069,7223.649217300035,0.33694340355889557,113.48114182589404,2.578482033755384,1.1218615153875828,90895.98313795506,282.25623737733645,-3.738027945889998,8.915309436307641,-0.5558555958267667,392.1915789473684,0.21048637455054983,0.84,nominal,14820.620036475248,nan,altitude_hold,15.035712750239734,4.0,0.0
2.79,288.2280881768032,-16.59661789518579,906.3848837162382,108.07648907731453,-7.2562219331353965,-11.594248758783987,108.93854621896864,17.41924374823218,144.12795322408232,38.90307801193122,-16.768845868838653,488.63413981264614,-436.7999423657929,520.0,-34.00354312456234,-29.999999999999996,7247.220631085652,0.33748558999695283,113.66420319470696,2.667694728165844,1.1218997597958467,90899.80989770158,282.2584982558444,-3.866357308646716,9.138909472460089,-0.6603612026595617,392.1584210526316,0.21046857894904913,0.84,nominal,14822.40274604703,nan,altitude_hold,15.035712750239734,4.0,0.0
2.82,291.47109935393974,-16.818394332364687,906.051408827162,108.10037257121635,-7.392547905963184,-11.115829635870234,108.92154049163753,17.41292969086371,172.5815996759754,33.40705887158886,-39.892346738907975,491.82661672691466,-403.79994236579296,520.0,-35.0,-29.999999999999996,7240.027030492336,0.3373112467399479,113.605921085493,2.7214370134793926,1.1219364270430217,90903.47887449112,282.26066584262344,-3.801967746192367,9.217942173350812,-0.71087137093152,392.1252631578947,0.2104507833475484,0.84,nominal,14817.280039910605,nan,altitude_hold,15.035712750239734,4.0,0.0
2.85,294.7112825340236,-17.053379554947817,905.7289714902734,108.00610600279549,-7.832840752771041,-10.747911229622682,108.82182650527979,17.406616167363282,-164.97776591040818,21.39190995140479,-56.28746350336373,496.5409784633204,-370.79994236579296,520.0,-35.0,-29.999999999999996,7226.407508583707,0.3369872564804566,113.49722302050102,2.7979657842560828,1.1219718815274153,90907.0265273085,282.2627616853132,-3.720833590438085,9.287861297218463,-0.47210645282955566,392.0921052631579,0.2104329877460477,0.84,nominal,14803.261980237698,nan,altitude_hold,15.035712750239734,4.0,0.0
2.88,297.9447566215696,-17.307965273494705,905.4111509947732,107.78246958486635,-8.486190618229612,-10.594016516674472,108.63383159484498,17.4003031777309,-147.66951638571658,5.643192945215845,-66.39210317380606,500.0958436547664,-353.6293474608445,520.0,-35.0,-29.999999999999996,7209.429083955263,0.3365846746406157,113.36204839485643,2.8637881864401113,1.1220068291931289,90910.52349252594,282.26482751853393,-3.6409406449890698,9.790650240870768,-0.507651599706646,392.05894736842106,0.210415192144547,0.84,nominal,14779.70494739146,nan,altitude_hold,15.035712750239734,4.0,0.0
2.9099999999999997,301.1680053231249,-17.58516082581451,905.0893133275557,107.44162338517715,-9.23985174399339,-10.727922240583098,108.37050157442854,17.393990721966563,-132.9990209942959,-12.225608990911297,-71.48936102288425,501.7538410605538,-355.60561337112387,520.0,-35.0,-29.999999999999996,7144.5798184280375,0.3350609291386477,112.8492675926352,2.9050627498190367,1.122042219437248,90914.0647695092,282.26691946337087,-3.303368209494769,9.872646029062219,-0.47041466002654597,392.0257894736842,0.21039739654304623,0.84,nominal,14747.976920290283,nan,altitude_hold,15.128060759547358,4.0,0.0
2.94,304.3786929940101,-17.884207861161357,904.7539463553348,107.02292236284204,-9.968234511561581,-11.178899074029358,108.06590301694487,17.387678800070272,-118.04240642411618,-31.103985567906772,-71.41997477671534,500.5238587898015,-373.8962043836986,520.0,-35.0,-29.999999999999996,7096.237969407944,0.3339186790823987,112.46498949694023,2.9199562707971696,1.1220790983132822,90917.7550323588,282.2690993486903,-2.9817375427758694,10.702144929543248,-0.22061109839373522,391.99263157894734,0.2103796009415455,0.84,nominal,14711.724985459412,nan,altitude_hold,15.128060759547358,4.0,0.0
