time_s,x_m,y_m,altitude_m,vx_mps,vy_mps,vz_mps,speed_mps,mass_kg,roll_deg,pitch_deg,yaw_deg,p_dps,q_dps,r_dps,alpha_deg,beta_deg,qbar_pa,mach,airspeed_mps,load_factor_g,density_kgpm3,pressure_pa,temperature_k,wind_x_mps,wind_y_mps,wind_z_mps,thrust_n,mass_flow_kgps,propulsion_throttle_actual,propulsion_health,energy_j_per_kg,target_distance_m,guidance_mode,pitch_command_deg,heading_command_deg,roll_command_deg,elevator_command_deg,aileron_command_deg,rudder_command_deg,elevator_deg,aileron_deg,rudder_deg,throttle,elevator_saturated,aileron_saturated,rudder_saturated,elevator_failed,aileron_failed,rudder_failed,elevator_raw_rad,aileron_raw_rad,rudder_raw_rad,elevator_effective_rad,aileron_effective_rad,rudder_effective_rad,sensor_time_s,imu_valid,imu_ax_mps2,imu_ay_mps2,imu_az_mps2,gyro_p_rps,gyro_q_rps,gyro_r_rps,imu_accel_norm_mps2,imu_gyro_norm_rps,gps_valid,gps_latency_s,gps_x_m,gps_y_m,gps_z_m,gps_vx_mps,gps_vy_mps,gps_vz_mps,baro_valid,baro_alt_m,baro_bias_m,pitot_valid,pitot_airspeed_mps,pitot_qbar_pa,pitot_compressibility_factor,mag_valid,mag_heading_deg,mag_x_ut,mag_y_ut,mag_z_ut,radar_valid,radar_agl_m,optical_flow_valid,horizon_valid,horizon_roll_deg,horizon_pitch_deg
0.0,0.0,0.0,900.0,84.0,1.0,10.0,84.59905436823747,18.0,0.5000000000000002,7.000000000000002,0.5000000000000002,0.0,0.0,0.0,0.7027195106788418,-6.575927884762318,4245.2587978967495,0.25819853852765123,86.96693879077696,1.714136124610442,1.1226019692711875,90970.07887058289,282.29999999999995,-1.9676325000958201,10.199960284633255,0.6098277050743938,319.2,0.17131232378029196,0.84,nominal,12404.484999999999,nan,altitude_hold,15.25,4.0,0.0,-20.05352282957881,3.52499999999996,10.61546129795208,-2.6999999999999997,2.114999999999976,2.6999999999999997,0.84,0.0,0.0,0.0,0.0,0.0,0.0,-0.047123889803846894,0.03691371367967965,0.047123889803846894,-0.047123889803846894,0.03691371367967965,0.047123889803846894,0.0,1.0,16.85224990470911,1.440920986576299,0.15635926717474696,0.0003333831402736275,0.0027201108026021956,-0.001301384633203857,16.91446210675219,0.003033768128943114,1.0,0.18,1.8347711166656184,-0.49177120807065694,901.9719831810988,83.95613523520122,0.8313201125277895,9.679181518680478,1.0,898.2001442847273,0.0024,1.0,87.79444623154082,4138.270535302328,1.0,1.0,0.27545682687165446,18.720326376914336,-0.6508654652868338,-44.147666441320624,1.0,899.6589145189045,0.0,1.0,0.3105616510371684,7.095479288062197
0.03,2.534917747096986,0.031451836310459225,900.2932351078515,84.49725823656621,1.0483945436819742,9.774503595049893,85.0671893337603,17.994860630286592,0.6057095375663482,7.244332899883243,0.3311889142065799,2.825979473217362,-8.197941717918699,-5.504790836600361,1.180642235542249,-6.436718190671953,4326.080389227608,0.260649378023256,87.79213898436961,1.7390493033531829,1.1225697119109015,90966.85070204125,282.29809397179895,-2.3218051809443208,10.369162498531415,0.6622492368240069,324.87,0.17435537163691558,0.84,nominal,12447.074004643322,nan,altitude_hold,15.220420252283517,4.0,0.0,-1.3714700012994183,-1.8383251806962788,-5.512250094977924,-1.9028820007796508,-0.25699510841777684,0.0,0.84,0.0,0.0,0.0,0.0,0.0,0.0,-0.03321155619054221,-0.00448541080341,0.0,-0.03321155619054221,-0.00448541080341,0.0,0.03,1.0,17.040511835392344,1.3279729775639253,0.7160036510947276,0.05068889450314061,-0.1421393839894133,-0.09850618981007912,17.10716858716449,0.1802122025217486,1.0,0.18,1.8347711166656184,-0.49177120807065694,901.9719831810988,83.95613523520122,0.8313201125277895,9.679181518680478,1.0,898.2001442847273,0.0024,1.0,87.96369325338999,4307.287660766084,1.0,1.0,0.27545682687165446,18.720326376914336,-0.6508654652868338,-44.147666441320624,1.0,899.6589145189045,0.0,1.0,0.3105616510371684,7.095479288062197
0.06,5.08492157350565,0.0641284822138578,900.5801955381269,85.00012754695547,1.0892215301132857,9.565347675846823,85.54357931896577,17.989629969137486,0.7733279507484739,7.581084037335157,0.03283198120118,4.304184402864207,-11.342946232126915,-9.726387473137638,1.6576232471730916,-6.20532343681033,4311.700588260823,0.26022033926175364,87.64734023419744,1.7675323351040324,1.122538145483724,90963.69170001431,282.29622872900217,-1.6906756273211654,10.478617431996417,0.6996756919703497,330.53999999999996,0.17739841949353916,0.84,nominal,12490.526755924066,nan,altitude_hold,15.220420252283517,4.0,0.0,-0.3493184325327354,-2.916898015771947,-6.931294447649607,-0.9707438598315016,-1.8529368528302788,-2.6999999999999997,0.84,0.0,0.0,0.0,0.0,0.0,0.0,-0.01694267654757803,-0.032339848913429975,-0.047123889803846894,-0.01694267654757803,-0.032339848913429975,-0.047123889803846894,0.06,1.0,17.23558863791878,1.0094849651222415,1.0825310189334783,0.07524709925211427,-0.1954820925699936,-0.16941745349380424,17.299030290664156,0.2694023905048476,1.0,0.18,1.8347711166656184,-0.49177120807065694,901.9719831810988,83.95613523520122,0.8313201125277895,9.679181518680478,1.0,902.1979770975767,0.0048,1.0,86.82853207153205,4342.326583560605,1.0,1.0,0.3061584649953694,18.33542374538592,-0.5958335417731314,-44.35935442656369,1.0,899.6589145189045,0.0,1.0,0.765356529948669,7.856105416998127
0.09,7.650192641173543,0.09771961875736018,900.8614052225489,85.50903558892979,1.1197045514500794,9.373656147401986,86.02856697168171,17.984308016552678,0.9688988228480593,7.851629689523919,-0.34950612923945135,4.807814304354978,-9.209174892105562,-12.490725525391564,2.0062800249396826,-5.637401225345003,4366.462617758928,0.26187208397075407,88.2033948555261,1.795215864520081,1.1225072123130193,90960.59609121399,282.2944008660534,-1.7771605889095,10.26356143876428,0.5788450597255462,336.21,0.18044146735016278,0.84,nominal,12534.889667126272,nan,altitude_hold,15.220420252283517,4.0,0.0,-0.9673236528400322,-3.097826738202586,-7.392148777325156,-0.9686917356366199,-2.599870784053663,-5.3999999999999995,0.84,0.0,0.0,0.0,0.0,0.0,0.0,-0.016906860223717506,-0.045376305308142906,-0.09424777960769379,-0.016906860223717506,-0.045376305308142906,-0.09424777960769379,0.09,1.0,17.532250420900066,0.7210321562219033,1.3917191757983187,0.0824905348090656,-0.16215485012699535,-0.21872488096851608,17.60217527624757,0.2844986068638747,1.0,0.18,1.8347711166656184,-0.49177120807065694,901.9719831810988,83.95613523520122,0.8313201125277895,9.679181518680478,1.0,902.1979770975767,0.0048,1.0,87.9025710445267,4393.316282252806,1.0,1.0,0.3061584649953694,18.33542374538592,-0.5958335417731314,-44.35935442656369,1.0,900.8431624205509,0.0,1.0,0.765356529948669,7.856105416998127
0.12,10.230924445829192,0.13184000344106606,901.1372170935815,86.0243934885216,1.1373461561235294,9.193729034420704,86.52175729205456,17.978894772532172,1.1685188670191922,8.029657779784818,-0.7654129241082371,4.738782117596157,-6.189343186477616,-13.617646644030236,2.3429089404034547,-5.3696885746345195,4423.8332396583655,0.26359122776733873,88.78215258534568,1.8237901656993203,1.122476873537278,90957.55998541687,282.2926080888917,-1.8388571550457353,10.54487270488081,0.6019743668514349,341.88,0.18348451520678638,0.84,nominal,12580.144532463368,nan,altitude_hold,15.220420252283517,4.0,0.0,-1.9449052330721273,-2.787995253958723,-7.388103620992679,-1.554419834097924,-2.7127454659966985,-6.592862172595607,0.84,0.0,0.0,0.0,0.0,0.0,0.0,-0.027129744063312797,-0.04734634015019027,-0.11506715204198001,-0.027129744063312797,-0.04734634015019027,-0.11506715204198001,0.12,1.0,17.899272217871815,0.5704091997668875,1.6285839709990666,0.0816301986546135,-0.10952756843044449,-0.23833666709578546,17.982257876452877,0.2747073796988436,1.0,0.18,1.8347711166656184,-0.49177120807065694,901.9719831810988,83.95613523520122,0.8313201125277895,9.679181518680478,1.0,900.5990947941685,0.0072,1.0,88.8570477436063,4445.583992930928,1.0,1.0,-0.4958333335059472,17.944508033100064,-0.5140835078625574,-44.46284562931206,1.0,900.8431624205509,0.0,1.0,0.6130981873587757,7.994979079958043
0.15,12.827319462532476,0.16624516119947308,901.407905195046,86.54650055677612,1.1468385919469004,9.022936715486319,87.02313131778067,17.973390237075968,1.364625907210867,8.161076295583593,-1.1927996219644768,4.530723089653587,-4.691314513230152,-14.004067427900724,2.5765498234750144,-5.07542562592562,4457.370062572704,0.26459281006524665,89.11922535268933,1.853847125711852,1.122447098976288,90954.5803612807,282.29084861623215,-1.6472165867153234,10.771679760957285,0.56912004202041,347.55,0.18652756306341,0.84,nominal,12626.304525656848,nan,altitude_hold,15.220420252283517,4.0,0.0,-2.4137624584414246,-2.374295954897541,-7.035338314119624,-2.070025408704024,-2.5096757593372043,-6.858347857510018,0.84,0.0,0.0,0.0,0.0,0.0,0.0,-0.036128758981826506,-0.04380210515792304,-0.11970075136064871,-0.036128758981826506,-0.04380210515792304,-0.11970075136064871,0.15,1.0,18.070988302711672,0.4940073239958037,1.8400075832505804,0.07916580134326888,-0.08128346189276019,-0.24525768617046653,18.171138912553698,0.2702324146087674,1.0,0.18,1.8347711166656184,-0.49177120807065694,901.9719831810988,83.95613523520122,0.8313201125277895,9.679181518680478,1.0,900.5990947941685,0.0072,1.0,88.82673006222046,4444.75915223593,1.0,1.0,-0.4958333335059472,17.944508033100064,-0.5140835078625574,-44.46284562931206,1.0,900.8431624205509,0.0,1.0,0.6130981873587757,7.994979079958043
0.18,15.439605585604953,0.2007383539213558,901.6736660832258,87.07620410241594,1.1497730907294241,8.858696272657719,87.53321540248001,17.967794410184066,1.5570131524694015,8.289851236240462,-1.6226246254941559,4.363081078063193,-4.652607490635847,-14.066153208733118,2.992053941464957,-4.759663168923093,4523.3600267318525,0.2665485072742638,89.77766175692454,1.8832535645803217,1.1224178669760116,90951.65505078957,282.289121170459,-1.7956082063332994,10.990019094412036,0.7964952030856683,353.21999999999997,0.18957061092003358,0.84,nominal,12673.429956843547,nan,altitude_hold,15.220420252283517,4.0,0.0,-2.371707328191883,-2.010201904225413,-6.520544430207846,-2.2510345603967394,-2.2099914462701293,-6.655665801128715,0.84,0.0,0.0,0.0,0.0,0.0,0.0,-0.039287964655106256,-0.038571627178325116,-0.1161632821420822,-0.039287964655106256,-0.038571627178325116,-0.1161632821420822,0.18,1.0,18.276797205496646,0.46829953500679294,2.100059764959062,0.07785800620893239,-0.08074726517145091,-0.24708431606199263,18.40301256755908,0.27135336594065207,1.0,0.18,1.8347711166656184,-0.49177120807065694,901.9719831810988,83.95613523520122,0.8313201125277895,9.679181518680478,1.0,902.5580087853147,0.0096,1.0,90.90645565894825,4608.552110399604,1.0,1.0,-1.7624498070015355,17.707246243234092,-0.5223002894892642,-44.58932538059706,1.0,901.8029095561093,0.0,1.0,1.624836278859062,8.377038511673263
0.21,18.067956462036925,0.2351473224042285,901.9348688289697,87.6116958810657,1.1469656160957569,8.706758191462951,88.0507377793364,17.962107291856466,1.7478392210419038,8.399229334711874,-2.050864740114772,4.289243255418387,-4.051696185773837,-14.01261876451343,3.156810275389381,-4.222666263629935,4536.423880894395,0.2669373564085216,89.90836178576309,1.9147070687148615,1.1223891369098067,90948.77998738666,282.28742335261165,-1.4180705940170897,10.805747813536053,0.7116267444947615,358.89,0.1926136587766572,0.84,nominal,12721.425793144344,nan,altitude_hold,15.220420252283517,4.0,0.0,-2.5362797896299414,-1.7379799874312132,-5.77120139981297,-2.4221816979366606,-1.9267845709667797,-6.124987160339268,0.84,0.0,0.0,0.0,0.0,0.0,0.0,-0.04227504571054147,-0.03362873473999665,-0.10690119259029807,-0.04227504571054147,-0.03362873473999665,-0.10690119259029807,0.21,1.0,18.642519200605783,0.46056599991006997,2.1789634342191295,0.07421081422062338,-0.07037413150046784,-0.23951690559370611,18.77507722575043,0.2604383063163277,1.0,0.18,1.8347711166656184,-0.49177120807065694,901.9719831810988,83.95613523520122,0.8313201125277895,9.679181518680478,1.0,902.5580087853147,0.0096,1.0,89.55557115995195,4492.926160965827,1.0,1.0,-1.7624498070015355,17.707246243234092,-0.5223002894892642,-44.58932538059706,1.0,901.8029095561093,0.0,1.0,1.624836278859062,8.377038511673263
0.24,20.71261017488827,0.26927271030146555,902.1916887301571,88.15512376171145,1.1375129299079016,8.560663372914181,88.57711182067705,17.956328882093167,1.9373031272277288,8.496258103133096,-2.474382904324772,4.241524632916613,-3.681617957433191,-13.852964785651787,3.3433803740160433,-3.6220323492349906,4605.843696664134,0.26897622134159893,90.59481310795061,1.9449029794042854,1.1223608894675077,90945.95323778421,282.28575402325396,-1.5982320357009334,10.562932300191012,0.6286551239337785,364.56,0.19565670663328083,0.84,nominal,12770.430493531958,nan,altitude_hold,15.220420252283517,4.0,0.0,-2.6258970831893222,-1.4947253755041652,-4.924924242393642,-2.5444109290882575,-1.667549053689211,-5.404949409571893,0.84,0.0,0.0,0.0,0.0,0.0,0.0,-0.044408348236318056,-0.029104221425392426,-0.09433416310075304,-0.044408348236318056,-0.029104221425392426,-0.09433416310075304,0.24,1.0,18.901728632773587,0.33180870171587357,2.457449649910515,0.0750109880513912,-0.06781350010426475,-0.2392396304294725,19.063695893068388,0.25973240054499874,1.0,0.18,1.8347711166656184,-0.49177120807065694,901.9719831810988,83.95613523520122,0.8313201125277895,9.679181518680478,1.0,903.2132744040738,0.011999999999999999,1.0,90.41344065989317,4607.868955858828,1.0,1.0,-2.3227281083747866,17.624475028895088,-0.4787301484726965,-44.65943391533121,1.0,901.8029095561093,0.0,1.0,2.1327782428284587,8.613798382539988
0.27,23.37377828891973,0.3029164630969033,902.4443438318484,88.70560380104868,1.1214584265145917,8.42183672304213,89.11155451736101,17.950459180894168,2.1248322207412444,8.579037783351746,-2.891220919770399,4.1881801619130865,-3.2445803915424833,-13.634271514214555,3.5787631905125212,-3.5047124865416124,4656.790431439142,0.27046388190303106,91.09561223103783,1.9759171057921403,1.1223331006393211,90943.17239846296,282.284111765093,-1.5184049551298304,11.039444231004452,0.697047451186672,370.22999999999996,0.1986997544899044,0.84,nominal,12820.390398688898,nan,altitude_hold,15.220420252283517,4.0,0.0,-2.7459714500253365,-1.2507497852450093,-4.469033705140507,-2.6653472416505046,-1.41746949262269,-4.843399986913062,0.84,0.0,0.0,0.0,0.0,0.0,0.0,-0.04651908507575025,-0.024739509692839414,-0.0845332767626832,-0.04651908507575025,-0.024739509692839414,-0.0845332767626832,0.27,1.0,19.15884550771646,0.44181995043746136,2.6627762047306858,0.07275485624996603,-0.05748175743651859,-0.23703269764874768,19.34804752872061,0.25452292883075706,1.0,0.18,1.8347711166656184,-0.49177120807065694,901.9719831810988,83.95613523520122,0.8313201125277895,9.679181518680478,1.0,903.2132744040738,0.011999999999999999,1.0,90.91261728105462,4666.735331024121,1.0,1.0,-2.3227281083747866,17.624475028895088,-0.4787301484726965,-44.65943391533121,1.0,902.401199068914,0.0,1.0,2.1327782428284587,8.613798382539988
0.3,26.05167059739277,0.33595731949937385,902.6930816768281,89.26307694910138,1.1013618800823521,8.291261499323072,89.65408480187753,17.94449818825947,2.3147796735600736,8.640707901210144,-3.3071488432870257,4.256014704927201,-2.5850878120075103,-13.618181299043327,3.8159658078262164,-3.06675765992262,4713.346712097913,0.2721054001089646,91.64823359655549,2.006723241294644,1.1223057431734365,90940.43474154602,282.2824949691006,-1.53828166027973,11.009197200680884,0.7848112517512189,375.9,0.20174280234652803,0.84,nominal,12871.32257025719,nan,altitude_hold,15.220420252283517,4.0,0.0,-2.9572462890576725,-1.1114128012688251,-3.8295282600707456,-2.8404866700948053,-1.233835477810371,-4.235076950807672,0.84,0.0,0.0,0.0,0.0,0.0,0.0,-0.049575844752164304,-0.02153449151570841,-0.07391603686691581,-0.049575844752164304,-0.02153449151570841,-0.07391603686691581,0.3,1.0,19.403966864585783,0.34792772521789866,2.768753654907655,0.07919150400680279,-0.04325481091267254,-0.23774629375448642,19.603596113608415,0.25429426491359386,1.0,0.18,1.8347711166656184,-0.49177120807065694,901.9719831810988,83.95613523520122,0.8313201125277895,9.679181518680478,1.0,901.8281636276728,0.014399999999999998,1.0,91.71284327521812,4688.7196273854815,1.0,1.0,-4.296652424287323,17.486867859416495,-0.32619049500775865,-44.66422248983593,1.0,902.401199068914,0.0,1.0,1.8621434981508538,8.648455061708981
0.32999999999999996,28.74649109109931,0.36821043865014264,902.9381444882671,89.82734979021788,1.0751039716922928,8.168760381299142,90.20441932106867,17.938445904189074,2.5067621440721535,8.681664538517172,-3.722055450670542,4.316699695583877,-1.9391294658764868,-13.603042488041439,3.92181957411154,-2.7881068502989033,4799.203013141451,0.27457656530560864,92.48028957199315,2.03691087599625,1.1222787904055342,90937.73759802076,282.28090206082624,-1.7856561050862414,11.261622944976192,0.6924015513871429,381.57,0.20478585020315163,0.84,nominal,12923.216987171458,nan,altitude_hold,15.220420252283517,4.0,0.0,-3.175441998135227,-0.9643745907941345,-3.327042827720361,-3.0414598669190585,-1.072158945600629,-3.6902564769552852,0.84,0.0,0.0,0.0,0.0,0.0,0.0,-0.05308348874500613,-0.01871270370544175,-0.06440712576591598,-0.05308348874500613,-0.01871270370544175,-0.06440712576591598,0.32999999999999996,1.0,19.675600162120137,0.30603337366540956,2.950866035139272,0.07789477587559675,-0.03331397881328641,-0.2367474588414385,19.898002626463732,0.2514493518801752,1.0,0.18,1.8347711166656184,-0.49177120807065694,901.9719831810988,83.95613523520122,0.8313201125277895,9.679181518680478,1.0,901.8281636276728,0.014399999999999998,1.0,92.39737239041966,4809.915423923841,1.0,1.0,-4.296652424287323,17.486867859416495,-0.32619049500775865,-44.66422248983593,1.0,902.401199068914,0.0,1.0,1.8621434981508538,8.648455061708981
0.36,31.458462183425638,0.39951626262547485,903.179690318322,90.3990364108777,1.0435274658444067,8.051527668496348,90.762887962998,17.93230232868298,2.701891650662113,8.718258889757672,-4.1391016054135275,4.401560723226331,-1.8429517225638319,-13.672036086160318,4.233356510204261,-2.6610578107099405,4892.401239628532,0.2772338709847027,93.37503853611113,2.0675937637329085,1.1222522249307363,90935.07922552324,282.27933201293087,-2.087774470057682,11.752763823567387,0.9522395824445276,387.24,0.20782889805977525,0.84,nominal,12976.118025752034,nan,altitude_hold,15.220420252283517,4.0,0.0,-3.204820616476942,-0.8339535228139889,-2.9857003561091386,-3.1394763166537887,-0.929235691928645,-3.267522804447597,0.84,0.0,0.0,0.0,0.0,0.0,0.0,-0.0547941985139927,-0.01621822235120255,-0.057029031321609386,-0.0547941985139927,-0.01621822235120255,-0.057029031321609386,0.36,1.0,20.01205622343352,0.2739211424593479,3.3214351932319546,0.0773380992493019,-0.032523290240259614,-0.2369770423568487,20.287665189099272,0.25139026355001637,1.0,0.18,1.6732141174671735,-2.734186269715318,898.839492209881,83.89537078811607,0.9200989743198974,9.794453791573138,1.0,900.8647970249011,0.0168,1.0,92.86769978520816,4916.533519530117,1.0,1.0,-4.498635951863527,17.35804657390578,-0.39382051956288366,-44.78315034725487,1.0,903.0964932635324,0.0,1.0,2.9984246551884897,8.78763306666487
0.39,34.187755006799634,0.4297283947656915,903.4180492571674,90.97642744579983,1.0070710713405557,7.945297961515141,91.32826672307357,17.926067461741187,2.9022583306998273,8.731353630739621,-4.561375826068428,4.543740041075414,-1.116119696190513,-13.875024018823696,4.06095378343348,-2.249292723782136,4921.320425333671,0.278056044765738,93.65169757428069,2.098234863904095,1.1222260104253214,90932.45598856955,282.27778267982836,-1.7586078148099848,11.751370725553507,0.5012588228173671,392.90999999999997,0.21087194591639885,0.84,nominal,13029.930764068235,nan,altitude_hold,15.267407616851782,4.0,0.0,-3.887796777604387,-0.7485427177218592,-2.4603983725250997,-3.588468593224148,-0.8208199074045734,-2.7832481452940985,0.84,0.0,0.0,0.0,0.0,0.0,0.0,-0.06263059205617046,-0.01432600995012479,-0.04857684403540754,-0.06263059205617046,-0.01432600995012479,-0.04857684403540754,0.39,1.0,20.301311196259295,0.21756698564191967,3.0822434394698113,0.07676743184572066,-0.018912852854306845,-0.24197353589469917,20.535111304805707,0.25456261836463595,1.0,0.18,1.6732141174671735,-2.734186269715318,898.839492209881,83.89537078811607,0.9200989743198974,9.794453791573138,1.0,900.8647970249011,0.0168,1.0,93.5405047236015,4974.399990088815,1.0,1.0,-4.498635951863527,17.35804657390578,-0.39382051956288366,-44.78315034725487,1.0,903.0964932635324,0.0,1.0,2.9984246551884897,8.78763306666487
0.42,36.93467682255365,0.45864503996575395,903.6531067940386,91.56406052513373,0.9638881733354147,7.835251229044026,91.90373997875867,17.919741303363697,3.1069075703359608,8.799673828444947,-4.991542618645631,4.6365150000675595,-3.017021727905524,-14.032646433673978,4.256426407790463,-1.7419945390264542,5051.273480821912,0.28170732392808917,94.88122341555835,2.1075866990406733,1.1222001594639537,90929.86914489465,282.27625480583873,-2.4216348930488962,11.680644079650007,0.46729653060992826,394.7778947368421,0.21187443146760623,0.84,nominal,13084.9584507834,nan,altitude_hold,15.267407616851782,4.0,0.0,-2.8115543932272233,-0.6100181134046927,-1.8133118766376313,-3.122320073225993,-0.694338831004645,-2.2012863841002184,0.84,0.0,0.0,0.0,0.0,0.0,0.0,-0.05449476557890403,-0.012118498725479543,-0.038419695181869364,-0.05449476557890403,-0.012118498725479543,-0.038419695181869364,0.42,1.0,20.34917394017694,0.14153193716719215,3.379626026755374,0.0833147195732918,-0.051612239919210164,-0.24332690346515964,20.628397499988623,0.26232260245163297,1.0,0.18,1.6732141174671735,-2.734186269715318,898.839492209881,83.89537078811607,0.9200989743198974,9.794453791573138,1.0,905.7196307823184,0.0192,1.0,95.08099099089117,4992.130738434296,1.0,1.0,-4.191620227371226,17.236711251430417,-0.3461387835881181,-44.7433998394778,1.0,903.0964932635324,0.0,1.0,3.659795649408101,7.925752527604077
0.44999999999999996,39.699198817803975,0.48605548564988954,903.8851702552518,92.15073317501094,0.9136815228045186,7.735448707102876,92.479346912256,17.913385070419668,3.3130742832352595,8.835041947512957,-5.4229907163959155,4.667728657512576,-1.972882026618235,-14.123404065150424,4.487417088002433,-1.500876877393639,5106.618156269142,0.2832503715901123,95.40067900110854,2.1075598054903013,1.1221746382294369,90927.31530992972,282.2747463933408,-2.342334370297614,11.956802177251287,0.636207482743509,394.7447368421052,0.2118566358661055,0.84,nominal,13140.300307542362,nan,altitude_hold,15.267407616851782,4.0,0.0,-3.174622291390494,-0.4187732484710826,-1.3813410392867975,-3.153701404124694,-0.5289994814845075,-1.7093191772121659,0.84,0.0,0.0,0.0,0.0,0.0,0.0,-0.055042473126744186,-0.009232782693247437,-0.029833247609832723,-0.055042473126744186,-0.009232782693247437,-0.029833247609832723,0.44999999999999996,1.0,20.354571788499804,0.1744360127730861,3.6428774081018687,0.0821140987582595,-0.03488970374681589,-0.24558999330859785,20.678722794848895,0.26129382207725255,1.0,0.18,1.6732141174671735,-2.734186269715318,898.839492209881,83.89537078811607,0.9200989743198974,9.794453791573138,1.0,905.7196307823184,0.0192,1.0,95.62812694112355,5056.093924993079,1.0,1.0,-4.191620227371226,17.236711251430417,-0.3461387835881181,-44.7433998394778,1.0,903.6047831653923,0.0,1.0,3.659795649408101,7.925752527604077
0.48,42.481231048498536,0.5118014188694744,904.1144624378957,92.73440768981877,0.8581977739861606,7.6430727547958845,93.05279917410274,17.907029371343686,3.521811703091149,8.819450245559086,-5.857115370670672,4.737275139945398,-0.33359756503073446,-14.305052021651852,4.65852867691668,-1.5013177744213935,5146.586512321436,0.2843606253026437,95.7743672665898,2.107158818592088,1.1221494222030528,90924.79202964937,282.27325599415366,-2.070653933551899,12.621158172466911,0.8340729333614545,394.7115789473684,0.2118388402646048,0.84,nominal,13195.745810134536,nan,altitude_hold,15.267407616851782,4.0,0.0,-3.775816040248652,-0.26067584655886505,-1.1974174195451937,-3.5269701857990685,-0.36800530052912206,-1.4021781226119825,0.84,0.0,0.0,0.0,0.0,0.0,0.0,-0.06155724236186989,-0.00642290415902441,-0.024472624939011846,-0.06155724236186989,-0.00642290415902441,-0.024472624939011846,0.48,1.0,20.3259008183228,0.25877990099083154,3.7259237568825134,0.08669245349863217,-0.006034630266557026,-0.2478519445933706,20.666197496287356,0.26264535917236725,1.0,0.18,1.6732141174671735,-2.734186269715318,898.839492209881,83.89537078811607,0.9200989743198974,9.794453791573138,1.0,902.8512732402309,0.021599999999999998,1.0,95.89324838710944,5060.839488153184,1.0,1.0,-7.19711163054228,17.324062355677913,-0.2912944504157428,-44.865247483655324,1.0,903.6047831653923,0.0,1.0,3.5160733005604996,9.11855151765619
0.51,45.28071663752349,0.535762348574236,904.341101269571,93.31618630083189,0.7986976568253883,7.554627722511623,93.624894892888,17.900674206135747,3.737251114545552,8.789904460147387,-6.301300665758998,4.9149755036955804,0.05662105791281115,-14.664780717379076,4.662306640214036,-1.3182909088496892,5227.355856722415,0.2865872143913364,96.52404397572278,2.105405105063079,1.1221244984005174,90922.29800428802,282.2717828417478,-2.1828768210423295,13.059146037020213,0.735433210831727,394.67842105263156,0.21182104466310406,0.84,nominal,13251.3671326174,nan,altitude_hold,15.267407616851782,4.0,0.0,-3.951554073082717,-0.18972291506585848,-0.9196160672992286,-3.7817205181692573,-0.2610358692511639,-1.11264088942433,0.84,0.0,0.0,0.0,0.0,0.0,0.0,-0.06600347443227958,-0.004555935384238235,-0.019419246912772716,-0.06600347443227958,-0.004555935384238235,-0.019419246912772716,0.51,1.0,20.231018680609118,0.23724310330826673,3.8095430492844757,0.08703167133736868,0.0007402937141330903,-0.25452801299958244,20.587933830027094,0.26899734060409325,1.0,0.18,1.6732141174671735,-2.734186269715318,898.839492209881,83.89537078811607,0.9200989743198974,9.794453791573138,1.0,902.8512732402309,0.021599999999999998,1.0,96.08214268830517,5238.633202581259,1.0,1.0,-7.19711163054228,17.324062355677913,-0.2912944504157428,-44.865247483655324,1.0,903.6047831653923,0.0,1.0,3.5160733005604996,9.11855151765619
0.54,48.097615680771746,0.5577776549185367,904.5651042811293,93.89663477494186,0.7338435448100225,7.466767051940659,94.19590839635778,17.894319574795855,3.960472438365628,8.782094582868842,-6.758682836149564,5.111950294935137,-0.7516446486389403,-15.050753296316309,4.668962785733363,-0.597021506397563,5312.343593687268,0.28891144311585515,97.30660516789817,2.104210907763304,1.1220998648791065,90919.83303898897,282.27032682217265,-2.43272323890584,12.617688021869771,0.5382438047948799,394.6452631578947,0.21180324906160333,0.84,nominal,13307.187959206047,nan,altitude_hold,15.267407616851782,4.0,0.0,-3.6978596537476083,-0.12532132122422812,-0.1778837250754445,-3.7314039995162678,-0.17960714043500242,-0.5517865908149988,0.84,0.0,0.0,0.0,0.0,0.0,0.0,-0.06512528551364377,-0.003134735960682633,-0.00963049277807643,-0.06512528551364377,-0.003134735960682633,-0.00963049277807643,0.54,1.0,20.26321360365032,0.08468541708923064,3.9345098539725445,0.08232828889130411,-0.014295658008138524,-0.26293764013781024,20.64183530982732,0.27589584192389754,1.0,0.18,1.6732141174671735,-2.734186269715318,898.839492209881,83.89537078811607,0.9200989743198974,9.794453791573138,1.0,900.235646571311,0.023999999999999997,1.0,97.06089920782559,5197.2233668956105,1.0,1.0,-7.773696630099112,17.15483803356336,-0.23516608679139814,-44.8149629633918,1.0,904.9464174801839,0.0,1.0,4.443503219641134,8.601239252690489
0.57,50.93186501066789,0.5775822500109148,904.7865279850464,94.47497766320478,0.6601531697459371,7.3807901305711585,94.76514796918804,17.887965477324006,4.185394818603778,8.786091768665644,-7.221044725748533,5.143804481987727,-1.2147312937932808,-15.18345446863638,4.884693875436159,-0.1291742138496706,5350.325428133768,0.2899463084358026,97.65490325267841,2.105516824714251,1.1220755154097124,90917.39650998898,282.26888756809717,-2.228389700579856,12.522309231131798,0.7303673342205703,394.6121052631579,0.21178545346010264,0.84,nominal,13363.141439475607,nan,altitude_hold,15.267407616851782,4.0,0.0,-3.554809162400243,0.08601391077634137,0.4580076960952467,-3.6254470972466533,-0.020234509708196156,0.05408998133114849,0.84,0.0,0.0,0.0,0.0,0.0,0.0,-0.06327598870382514,-0.0003531588169347799,0.0009440482665708065,-0.06327598870382514,-0.0003531588169347799,0.0009440482665708065,0.57,1.0,20.19974451597896,0.08607381962113375,4.150350492198112,0.09084396359891521,-0.02485064928183477,-0.26465422370268776,20.621893618708622,0.2809128665899127,1.0,0.18,1.6732141174671735,-2.734186269715318,898.839492209881,83.89537078811607,0.9200989743198974,9.794453791573138,1.0,900.235646571311,0.023999999999999997,1.0,97.48184163497687,5336.471891911241,1.0,1.0,-7.773696630099112,17.15483803356336,-0.23516608679139814,-44.8149629633918,1.0,904.9464174801839,0.0,1.0,4.443503219641134,8.601239252690489
0.6,53.78336962080421,0.5949606855394964,905.0055862808343,95.05015367121051,0.5792811842860546,7.30194319293042,95.33197603115117,17.881611913720203,4.410360252457968,8.761161559648192,-7.6845954083081,5.141977622627759,-0.31576375639096704,-15.29031292886959,5.037542894858884,0.2530161663093077,5442.0620108652165,0.2924253274038188,98.4895968645122,2.104964020321919,1.1220514264567356,90914.98606178226,282.2674636891746,-2.485926180127443,12.631344969380677,0.8473652603645709,394.57894736842104,0.2117676578586019,0.84,nominal,13419.165859702935,nan,altitude_hold,15.267407616851782,4.0,0.0,-3.903632204276797,0.3244954833153507,1.0208894679570055,-3.7923581614647395,0.18660348610593194,0.6341696733066626,0.84,0.0,0.0,0.0,0.0,0.0,0.0,-0.06618913633243845,0.0032568452282480047,0.011068348815498058,-0.06618913633243845,0.0032568452282480047,0.011068348815498058,0.6,1.0,20.237235349456807,-0.04266500513024775,4.303584394404623,0.09029081308411115,-0.004516291161229716,-0.2671816621908167,20.68981279595661,0.28206181667196745,1.0,0.18,1.6732141174671735,-2.734186269715318,898.839492209881,83.89537078811607,0.9200989743198974,9.794453791573138,1.0,905.5308003392502,0.026399999999999996,1.0,98.55273477721839,5580.250272693411,1.0,1.0,-7.499872704586543,17.201768640008257,-0.25792186603958517,-44.858775476187596,1.0,904.9464174801839,0.0,1.0,4.8684703572034325,8.510888129245494
0.63,56.652033935349614,0.6097163250627133,905.2224409018637,95.62214381818026,0.49185465077389734,7.228487367644563,95.89623214186486,17.875258883984444,4.636160078618671,8.715908092723508,-8.150776722366066,5.165821809607105,0.292475421605647,-15.430216700809009,5.070817518154188,0.9883872644680517,5572.854300407433,0.2959223624545616,99.66715834375728,2.102832296814381,1.122027580222625,90912.5999130854,282.26605413413785,-3.1426989382959114,12.18719382667262,0.7271544913175496,394.54578947368424,0.2117498622571012,0.84,nominal,13475.243319573477,nan,altitude_hold,15.267407616851782,4.0,0.0,-4.163089445829089,0.54036304894613,1.8732245806754304,-4.014796932083349,0.39885922381005073,1.3776026177279235,0.84,0.0,0.0,0.0,0.0,0.0,0.0,-0.0700714252638216,0.006961406707434347,0.024043701463445068,-0.0700714252638216,0.006961406707434347,0.024043701463445068,0.63,1.0,20.20535907230845,-0.1823375563188434,4.447576497931018,0.09309069669938207,0.007421685301155967,-0.27107318627881233,20.689869959241165,0.2867082690541614,1.0,0.18,1.6732141174671735,-2.734186269715318,898.839492209881,83.89537078811607,0.9200989743198974,9.794453791573138,1.0,905.5308003392502,0.026399999999999996,1.0,99.45730145047673,5505.592642959955,1.0,1.0,-7.499872704586543,17.201768640008257,-0.25792186603958517,-44.858775476187596,1.0,905.57327608019,0.0,1.0,4.8684703572034325,8.510888129245494
0.6599999999999999,59.537767343481335,0.6215849082384624,905.4371629741079,96.19111360439064,0.3956194391916345,7.157402408137327,96.457841881443,17.86890638811673,4.859801004092567,8.680700494855413,-8.616926899307932,5.104800418070381,-0.10181109792246194,-15.40415250873108,5.109108506006448,1.3759730608225713,5626.509453670333,0.2973473763181728,100.1468578587601,2.102740068826728,1.1220039688744399,90910.23727974553,282.26465844066826,-3.0414873785956544,12.245646426361846,0.6874022893224219,394.5126315789473,0.21173206665560043,0.84,nominal,13531.362984492765,nan,altitude_hold,15.267407616851782,4.0,0.0,-4.063613497483783,0.8293561472630855,2.5105578762285012,-4.04408687132361,0.6571573778818716,2.0573757728282698,0.84,0.0,0.0,0.0,0.0,0.0,0.0,-0.07058263114127324,0.011469559947811219,0.0359079811866162,-0.07058263114127324,0.011469559947811219,0.0359079811866162,0.6599999999999999,1.0,20.0766732176312,-0.14007116032112524,4.582829909339461,0.09197812159139843,-0.002222793583504635,-0.2667710149119097,20.593561066397427,0.28219087522442554,1.0,0.18,1.6732141174671735,-2.734186269715318,898.839492209881,83.89537078811607,0.9200989743198974,9.794453791573138,1.0,904.0839170457331,0.028799999999999996,1.0,99.9935605054802,5614.353332448576,1.0,1.0,-8.743641223008394,17.11681418768218,-0.2501228560304009,-44.78017685198887,1.0,905.57327608019,0.0,1.0,4.74318561026131,7.993627976514312
0.69,62.44051431624378,0.6303763535080354,905.6498067309981,96.7582324254149,0.2930481756524356,7.088125229675046,97.0179516305896,17.86255442611706,5.083690993655433,8.653807681304997,-9.085638782723366,5.108558649078547,-0.44551317806006824,-15.464982591349349,5.154890426002265,2.114224522111488,5644.204473249587,0.29781841114121405,100.30525721476577,2.103743289709112,1.121980586437358,90907.89756355714,282.2632762562485,-2.690687717721911,11.655719403976512,0.6115049813251566,394.4794736842105,0.21171427105409973,0.84,nominal,13587.632146476253,nan,altitude_hold,15.267407616851782,4.0,0.0,-3.9789815557057557,1.061800966729015,3.4101503853300925,-4.005023681952897,0.8999435311901577,2.8690405403293635,0.84,0.0,0.0,0.0,0.0,0.0,0.0,-0.06990084987042426,0.015706977701292535,0.05007420380194455,-0.06990084987042426,0.015706977701292535,0.05007420380194455,0.69,1.0,20.03369630480939,-0.3214211644562841,4.5439733711575965,0.08900174012681585,-0.005792023161485013,-0.2682366107834215,20.54507223633159,0.28267602771101974,1.0,0.18,1.6732141174671735,-2.734186269715318,898.839492209881,83.89537078811607,0.9200989743198974,9.794453791573138,1.0,904.0839170457331,0.028799999999999996,1.0,99.7919785150708,5566.551804226034,1.0,1.0,-8.743641223008394,17.11681418768218,-0.2501228560304009,-44.78017685198887,1.0,905.57327608019,0.0,1.0,4.74318561026131,7.993627976514312
0.72,65.36021875270723,0.6358273218119634,905.8604124175681,97.3234812154484,0.18169894346426535,7.020189552334397,97.57651393522161,17.856202997985438,5.305176207098985,8.623142671430365,-9.551815015161269,5.04885293687643,-0.37293410321508813,-15.392472750564618,5.233667603208587,2.609825074114318,5729.513227776941,0.300064467809592,101.06148415608222,2.1037553894636107,1.1219574284751783,90905.58032028773,282.2619073192858,-2.892249113689258,11.535328866232947,0.5916545711408979,394.44631578947366,0.211696475452599,0.84,nominal,13644.044049309992,nan,altitude_hold,15.267407616851782,4.0,0.0,-4.038833397055804,1.3456080675511204,4.15483968948984,-4.025309511014641,1.1673422530067354,3.64052002982565,0.84,0.0,0.0,0.0,0.0,0.0,0.0,-0.07025490437904844,0.020373965812616208,0.06353906100525976,-0.07025490437904844,0.020373965812616208,0.06353906100525976,0.72,1.0,20.023373698771405,-0.34928636239314553,4.798123977713551,0.08858272091492429,-0.0013705530512847482,-0.2671074033073588,20.5931903538309,0.28141631395844446,1.0,0.18,32.67247289302497,-4.618433739909429,906.0958219820262,90.02035055972215,0.9103445208299292,8.322284685334264,1.0,906.1169847363537,0.031199999999999995,1.0,100.81564119165333,5680.687398899148,1.0,1.0,-8.101615713885884,17.154087230856558,-0.17082436694914138,-44.85729928083465,1.0,905.722077334798,0.0,1.0,5.572623180631578,8.83106126898611
0.75,68.29679128509332,0.6377248650089383,906.0690939452616,97.88575107953665,0.06325143989916382,6.956050923115544,98.13261898876762,17.84985210372186,5.525399040075386,8.581887269678212,-10.01635059144543,5.024596504267812,-0.07586049786454778,-15.371858946897257,5.127505231866427,3.135656583152368,5793.31204865149,0.3017342803996563,101.62363158355849,2.104008950674369,1.121934482452005,90903.28429524679,282.2605508893558,-2.8869467313814114,11.35648725034341,0.27109040940143725,394.4131578947368,0.21167867985109828,0.84,nominal,13700.507934935617,nan,altitude_hold,15.158562670269607,4.0,0.0,-3.2158486618543196,1.595949835242989,4.899228852633272,-3.5396330015184483,1.4245068023484877,4.395745323510224,0.84,0.0,0.0,0.0,0.0,0.0,0.0,-0.061778250188746366,0.024862333918037202,0.0767202289743967,-0.061778250188746366,0.024862333918037202,0.0767202289743967,0.75,1.0,20.08547334480726,-0.38189547570568894,4.791575311222601,0.08712646672943436,0.0011913420715382573,-0.2680599360904386,20.65263367230546,0.2818662268479441,1.0,0.18,32.67247289302497,-4.618433739909429,906.0958219820262,90.02035055972215,0.9103445208299292,8.322284685334264,1.0,906.1169847363537,0.031199999999999995,1.0,101.57921289827956,5843.999882325163,1.0,1.0,-8.101615713885884,17.154087230856558,-0.17082436694914138,-44.85729928083465,1.0,905.722077334798,0.0,1.0,5.572623180631578,8.83106126898611
0.78,71.25019045978993,0.6358518674674274,906.275843318831,98.44663915655396,-0.06243325138369771,6.891645785646122,98.68758503867868,17.84350174332633,5.743692751235164,8.467753190610743,-10.473404569064952,5.018024041165848,2.306777973008346,-15.367645462358858,5.139774224867602,3.7721539963696737,5891.946015720231,0.30429583367398483,102.48611472766186,2.1004363742783316,1.1219117492370145,90901.00957509971,282.25920701842756,-3.225860481770199,10.977978319818723,0.24214643570223168,394.38,0.21166088424959756,0.84,nominal,13757.149719265832,nan,altitude_hold,15.158562670269607,4.0,0.0,-5.036405611386021,1.8208132104732588,5.700586681605907,-4.4376965674389925,1.6622906472233505,5.178650138367634,0.84,0.0,0.0,0.0,0.0,0.0,0.0,-0.077452416306261,0.029012444919155,0.09038449572337513,-0.077452416306261,0.029012444919155,0.09038449572337513,0.78,1.0,20.058774696802,-0.5187177298800683,4.733205977932514,0.08724253947167786,0.03956637760457476,-0.2686044237790497,20.616176882484595,0.2851755519042444,1.0,0.18,32.67247289302497,-4.618433739909429,906.0958219820262,90.02035055972215,0.9103445208299292,8.322284685334264,1.0,905.0442176640253,0.0336,1.0,101.57924933749923,5883.882039946466,1.0,1.0,-11.28073760597294,17.16948440721184,-0.1457716241854141,-44.82097215548383,1.0,905.722077334798,0.0,1.0,5.639324836948136,7.987312263101706
0.8099999999999999,74.2203576008618,0.6299702367917765,906.4805838531581,99.00557136906218,-0.1960543558550281,6.824684477569729,99.24070695860291,17.83715191679884,5.9607930053858,8.426961285156345,-10.93570298630608,4.972934499664002,-0.20156960851897524,-15.30206181633708,5.157519652920202,4.183463820255135,5997.102331826908,0.30700308350178657,103.39766629194587,2.1001967347723025,1.1218892372520761,90898.7570022416,282.25787620495447,-3.5650878755851383,11.000884551840038,0.1190289662579356,394.34684210526314,0.21164308864809683,0.84,nominal,13813.896776465223,nan,altitude_hold,15.158562670269607,4.0,0.0,-4.201268501010074,2.091206230928357,6.398496798568764,-4.295839727581641,1.9196399974463547,5.910558134488312,0.84,0.0,0.0,0.0,0.0,0.0,0.0,-0.0749765473842759,0.03350403840841443,0.10315870007735485,-0.0749765473842759,0.03350403840841443,0.10315870007735485,0.8099999999999999,1.0,19.957086058416806,-0.6223988216935593,4.873599924351453,0.08173382572866619,-0.003474687982997301,-0.26773176791830217,20.55297157247434,0.27995140877924296,1.0,0.18,32.67247289302497,-4.618433739909429,906.0958219820262,90.02035055972215,0.9103445208299292,8.322284685334264,1.0,905.0442176640253,0.0336,1.0,103.180051560674,6040.832638186785,1.0,1.0,-11.28073760597294,17.16948440721184,-0.1457716241854141,-44.82097215548383,1.0,906.1025748099339,0.0,1.0,5.639324836948136,7.987312263101706
0.84,77.20720435673593,0.6198815291213267,906.6834063917275,99.56155852913737,-0.33629025568166204,6.760751285649123,99.79140637265976,17.830802624139398,6.179060884730037,8.426842459252926,-11.40345755803148,4.990644268838202,-1.6269839385477811,-15.337527941508597,5.324792436423084,4.631569484283714,6055.637678227555,0.30850149978097513,103.90208550008404,2.103517088433973,1.1218669364986589,90896.52557590303,282.25655785845373,-3.524046737098866,10.891455942788085,0.20796001297394,394.31368421052633,0.21162529304659614,0.84,nominal,13870.689220208094,nan,altitude_hold,15.158562670269607,4.0,0.0,-3.7238903130482406,2.3079125093099564,7.076390242272911,-3.9526700788616007,2.1526035045645155,6.610057399159071,0.84,0.0,0.0,0.0,0.0,0.0,0.0,-0.06898710712119885,0.037570018644619584,0.11536726536113885,-0.06898710712119885,0.037570018644619584,0.11536726536113885,0.84,1.0,19.96646468121032,-0.6967035114441424,5.132461180842492,0.08843705371835074,-0.03250455349099343,-0.26618911313301596,20.627342665058258,0.28237263043463134,1.0,0.18,32.67247289302497,-4.618433739909429,906.0958219820262,90.02035055972215,0.9103445208299292,8.322284685334264,1.0,908.4772832494821,0.036,1.0,103.53544769734548,6010.420050971073,1.0,1.0,-11.013031760411621,17.18319564441821,-0.08766447548629114,-44.74746821994844,1.0,906.1025748099339,0.0,1.0,5.96503264692081,8.271492219286333
0.87,80.21060589643677,0.6053659110751354,906.8845485347932,100.11338465669495,-0.4838539348730423,6.704738102189842,100.3388131037467,17.824453865348,6.39831341993539,8.38573586409816,-11.869406600654754,5.037813573671901,-0.3210616022211806,-15.422498559459699,5.358600349177288,5.321778117135783,6129.987153443469,0.31039334929896445,104.53901082319774,2.103539330624212,1.1218448208431004,90894.31268085672,282.2552504345238,-3.6491627205917525,10.37152720230882,0.07908748994771136,394.2805263157895,0.2116074974450954,0.84,nominal,13927.438065423035,nan,altitude_hold,15.158562670269607,4.0,0.0,-4.223130679812562,2.4921493711251657,7.902659520768102,-4.1149464394321775,2.3563310245009057,7.38561867212449,0.84,0.0,0.0,0.0,0.0,0.0,0.0,-0.07181936391130891,0.04112573464443198,0.1289033631253439,-0.07181936391130891,0.04112573464443198,0.1289033631253439,0.87,1.0,19.92180021514191,-0.773011424418575,5.24472632450917,0.0888450878095185,-0.005058678506123173,-0.2707650921396738,20.615111561505298,0.28501363998502843,1.0,0.18,32.67247289302497,-4.618433739909429,906.0958219820262,90.02035055972215,0.9103445208299292,8.322284685334264,1.0,908.4772832494821,0.036,1.0,103.98173948620445,6154.738471751094,1.0,1.0,-11.013031760411621,17.18319564441821,-0.08766447548629114,-44.74746821994844,1.0,906.1025748099339,0.0,1.0,5.96503264692081,8.271492219286333
0.8999999999999999,83.23047190318756,0.5861580508143097,907.0840500625477,100.66220022502624,-0.6402620086941876,6.650050925149649,100.88365411150676,17.818105640424648,6.615614152034279,8.329548032715305,-12.332516661782291,4.999554923567988,0.13004902659432177,-15.387016894769964,5.276368891125335,6.108197951831351,6237.5186965396715,0.3131077365363989,105.45296135534066,2.1016195407176963,1.1218228859032846,90892.11787837355,282.2539536745934,-4.052986828785645,9.70705701879337,-0.27740516201193294,394.2473684210526,0.21158970184359466,0.84,nominal,13984.211632990951,nan,altitude_hold,15.158562670269607,4.0,0.0,-4.429481305618374,2.750688836304632,8.87103470836618,-4.303667359143895,2.592945711583141,8.276868293869505,0.84,0.0,0.0,0.0,0.0,0.0,0.0,-0.07511316532767026,0.045255439992593086,0.14445860348194844,-0.07511316532767026,0.045255439992593086,0.14445860348194844,0.8999999999999999,1.0,19.952434571767647,-0.8917720950655431,5.176025943339023,0.08651215688779913,-4.635838349649783e-05,-0.2693407949942659,20.63216293499848,0.28289365366975283,1.0,0.18,32.67247289302497,-4.618433739909429,906.0958219820262,90.02035055972215,0.9103445208299292,8.322284685334264,1.0,909.4334560876446,0.0384,1.0,105.18887106960553,6295.290956772793,1.0,1.0,-13.03393999524274,17.15515212849429,-0.07800633639410204,-44.868327638591786,1.0,906.997603177455,0.0,1.0,6.643601653364504,7.6716094268331
0.9299999999999999,86.26672785434134,0.5619812463645925,907.2818512983197,101.2085317051259,-0.8058934816572407,6.593374525732617,101.426273429757,17.81175794936934,6.828306181305431,8.301590657301631,-12.793636270135867,4.8667430314386655,-0.8547447354660241,-15.21367886546862,5.516635854422292,6.808887190022583,6330.291830802141,0.3154314069969292,106.23531881026996,2.106033880906403,1.121801138232345,90889.94182390414,282.2526679665609,-4.352511827515228,9.104189965152592,-0.08489599116084384,394.21421052631575,0.21157190624209393,0.84,nominal,14041.04003795858,nan,altitude_hold,15.158562670269607,4.0,0.0,-4.115518443108649,3.0924563314150664,9.844500019111317,-4.190778009522748,2.8926520834822966,9.217447329014592,0.84,0.0,0.0,0.0,0.0,0.0,0.0,-0.07314287448634622,0.05048630297143995,0.16087480452046168,-0.07314287448634622,0.05048630297143995,0.16087480452046168,0.9299999999999999,1.0,19.855500603895972,-1.011801666325932,5.585610159424889,0.08467493066996182,-0.015892000344139023,-0.26418160461573337,20.650997256703217,0.2778746475953584,1.0,0.18,32.67247289302497,-4.618433739909429,906.0958219820262,90.02035055972215,0.9103445208299292,8.322284685334264,1.0,909.4334560876446,0.0384,1.0,106.1497785890355,6295.310063970908,1.0,1.0,-13.03393999524274,17.15515212849429,-0.07800633639410204,-44.868327638591786,1.0,906.997603177455,0.0,1.0,6.643601653364504,7.6716094268331
0.96,89.31919912441087,0.532560666508625,907.4782502156029,101.74904233565097,-0.9806859951989173,6.546630576107567,101.96414925425161,17.805410792182077,7.035070582261383,8.247457017266766,-13.245488618964103,4.724508747256936,-0.007561014917447307,-15.013865921575032,5.802469540250383,7.237538312472935,6403.225989289184,0.31724708775061916,106.84658706865605,2.110742505100053,1.121779545061364,90887.7812383833,282.25139137359855,-4.452778109226112,8.944715515716206,0.31342054747008796,394.1810526315789,0.2115541106405932,0.84,nominal,14097.66544904849,nan,altitude_hold,15.158562670269607,4.0,0.0,-4.452833855484614,3.4304508951275556,10.56634853399608,-4.348011517099867,3.215331370469452,10.026788052003486,0.84,0.0,0.0,0.0,0.0,0.0,0.0,-0.07588711688802642,0.05611811895735351,0.17500046490708923,-0.07588711688802642,0.05611811895735351,0.17500046490708923,0.96,1.0,19.753712142322364,-1.0790200615622516,6.010860383137262,0.08466762535915955,-0.001646115391938294,-0.2614839510218072,20.676166720177047,0.27485482190024874,1.0,0.18,32.67247289302497,-4.618433739909429,906.0958219820262,90.02035055972215,0.9103445208299292,8.322284685334264,1.0,910.6802585238028,0.040799999999999996,1.0,106.96144861226855,6380.8601179849975,1.0,1.0,-13.116111952192771,17.163823566314004,0.06425155985187056,-44.88683873442719,1.0,906.997603177455,0.0,1.0,6.952610333495164,8.184864224487276
0.99,92.38772336900726,0.49768294259304907,907.6735441807399,102.28414148654618,-1.1625907971858642,6.509798837902185,102.49768142700326,17.79906416886286,7.239452684292625,8.157042573444508,-13.691180349000524,4.6931993686113085,1.1634762285778324,-14.965024039406993,5.718589095497995,8.020051992825394,6441.347738410634,0.3181938158804533,107.16519745606855,2.109027589014622,1.121758073690164,90885.63284968497,282.2501219628252,-4.278984778970085,8.159642856904092,0.04639214975737088,394.1478947368421,0.2115363150390925,0.84,nominal,14154.124110995777,nan,altitude_hold,15.158562670269607,4.0,0.0,-4.927110611994439,3.665198625222254,11.514491512243712,-4.695470974036611,3.485251723321133,10.919410128147621,0.84,0.0,0.0,0.0,0.0,0.0,0.0,-0.08195142842876403,0.06082911783276021,0.19057965911179195,-0.08195142842876403,0.06082911783276021,0.19057965911179195,0.99,1.0,19.760287614478482,-1.1969825229523752,5.862676761159644,0.07751547788455476,0.019558368426878886,-0.25998073673372496,20.646372867237638,0.2719947840672737,1.0,0.18,32.67247289302497,-4.618433739909429,906.0958219820262,90.02035055972215,0.9103445208299292,8.322284685334264,1.0,910.6802585238028,0.040799999999999996,1.0,106.77387468000785,6371.316528909483,1.0,1.0,-13.116111952192771,17.163823566314004,0.06425155985187056,-44.88683873442719,1.0,907.8288144651553,0.0,1.0,6.952610333495164,8.184864224487276
1.02,95.4722612720979,0.4570827706411464,907.8675847851447,102.81793010302097,-1.3533390650634236,6.468020146827399,103.03006144768864,17.792718079411685,7.440187310653514,8.105575606611344,-14.136078789660436,4.593565322641272,-0.17403859855631867,-14.779812234668091,5.716120089825699,8.646519380992824,6537.911619532008,0.3205737702317769,107.96650630367941,2.110230151273286,1.121736740429661,90883.49828967621,282.2488606988965,-4.566625737453663,7.674643437259994,-0.1515857556546046,394.11473684210523,0.21151851943759178,0.84,nominal,14210.736431290487,nan,altitude_hold,15.158562670269607,4.0,0.0,-4.5018501147033785,3.963682579446181,12.425968144902223,-4.5792984584366705,3.772310236996162,11.823344938200382,0.84,0.0,0.0,0.0,0.0,0.0,0.0,-0.07992383553122061,0.06583923404227063,0.20635629777060216,-0.07992383553122061,0.06583923404227063,0.20635629777060216,1.02,1.0,19.779551551486744,-1.3801882199808688,5.983143951009211,0.0824838136412062,-0.0020912983941212986,-0.2543300044392798,20.710711978080177,0.2673793264256879,1.0,0.18,32.67247289302497,-4.618433739909429,906.0958219820262,90.02035055972215,0.9103445208299292,8.322284685334264,1.0,910.1855908442991,0.043199999999999995,1.0,108.4318887489549,6558.124194360603,1.0,1.0,-14.665931715709554,17.112920822186123,0.04135931496105415,-44.838707494147535,1.0,907.8288144651553,0.0,1.0,7.602633978872357,7.73838879494058
1.05,98.57270794403625,0.41051711267717866,908.0604314366841,103.34822239794543,-1.5521885987989237,6.428221717982088,103.55957897131954,17.786372523828557,7.637409353985175,8.068433240942474,-14.577816041603397,4.502655761910475,-0.6852496572511098,-14.614651200356155,5.726996641319015,9.108157778076988,6601.780366422113,0.3221395641562781,108.49361139893458,2.111815663010067,1.1217155387425446,90881.37690406712,282.24760719566154,-4.561146415926483,7.455235888436079,-0.30216762302547095,394.0815789473684,0.21150072383609106,0.84,nominal,14267.32402830704,nan,altitude_hold,15.158562670269607,4.0,0.0,-4.356411134896925,4.249690743572763,13.174849065151504,-4.445566064312823,4.058738540942122,12.634247414371055,0.84,0.0,0.0,0.0,0.0,0.0,0.0,-0.07758976493718475,0.0708383510170307,0.22050921589235525,-0.07758976493718475,0.0708383510170307,0.22050921589235525,1.05,1.0,19.67271007931234,-1.414825743198772,5.990653929911928,0.07867510310049361,-0.01112947606058715,-0.25426884272854433,20.613228477273143,0.26639497267735684,1.0,0.18,32.67247289302497,-4.618433739909429,906.0958219820262,90.02035055972215,0.9103445208299292,8.322284685334264,1.0,910.1855908442991,0.043199999999999995,1.0,108.81598051203929,6549.698295746615,1.0,1.0,-14.665931715709554,17.112920822186123,0.04135931496105415,-44.838707494147535,1.0,907.8288144651553,0.0,1.0,7.602633978872357,7.73838879494058
1.08,101.68897398872257,0.3577837468980356,908.252143166441,103.87553482287694,-1.7577788593047694,6.390390991898103,104.08676005278612,17.780027502113473,7.833292206121683,8.01795167775659,-15.016426558759472,4.48374722451298,-0.2811088771057988,-14.571366159583775,5.9891734394882885,9.581833864193046,6696.442137154146,0.32444465959425145,109.26970490574058,2.11809812262164,1.121694462133342,90879.26804276662,282.2463610694181,-4.842686556011664,7.16424339772492,0.017458445286692516,394.04842105263157,0.21148292823459033,0.84,nominal,14323.937688926315,nan,altitude_hold,15.158562670269607,4.0,0.0,-4.540539234199355,4.4681319822825785,13.865098197435785,-4.502549966244742,4.304374605746396,13.372757884209893,0.84,0.0,0.0,0.0,0.0,0.0,0.0,-0.0785843216465303,0.07512550910950745,0.23339865515149325,-0.0785843216465303,0.07512550910950745,0.23339865515149325,1.08,1.0,19.657279494901047,-1.4973836358729447,6.476314285351256,0.07430154153430489,-0.008807969180723674,-0.2565766672957983,20.75074556772074,0.2672637004834016,1.0,0.18,63.34794199647679,6.754481867337345,905.86735188453,97.01107837792115,0.11419430873690643,7.180644021706118,1.0,907.3017473309633,0.045599999999999995,1.0,109.36658755044128,6709.526072137083,1.0,1.0,-15.138768646892853,17.17414243617936,0.061300435718747534,-44.83371553889039,1.0,908.556297741376,0.0,1.0,7.422388446499691,7.819665470683793
1.1099999999999999,104.82087223514716,0.29864317641785176,908.443035115271,104.3966082141533,-1.9713523493394605,6.363064960998628,104.60892233649363,17.773683014266435,8.028284878652036,7.927535550977482,-15.44988671920444,4.495688105832406,1.0107240417776857,-14.588078831083767,6.024941139205297,9.999358049249658,6795.7041311491475,0.3268442268622602,110.0776131174785,2.118044080218996,1.1216734759511204,90877.16823856524,282.2451202717507,-5.12943799833213,7.0152661812435175,0.009577880067306137,394.0152631578947,0.2114651326330896,0.84,nominal,14380.29620651445,nan,altitude_hold,15.16198972173205,4.0,0.0,-5.087962170536223,4.654398241351125,14.463280259644858,-4.853797288819631,4.514388787109234,14.027071309470871,0.84,0.0,0.0,0.0,0.0,0.0,0.0,-0.0847147439142767,0.07879094805016948,0.24481857876229918,-0.0847147439142767,0.07879094805016948,0.24481857876229918,1.1099999999999999,1.0,19.61293933755744,-1.5532799835433129,6.540218804391077,0.07814750541878926,0.015000465812105788,-0.2534776135533351,20.732933467681196,0.26567451355079913,1.0,0.18,63.34794199647679,6.754481867337345,905.86735188453,97.01107837792115,0.11419430873690643,7.180644021706118,1.0,907.3017473309633,0.045599999999999995,1.0,110.22439072514632,6735.801127580225,1.0,1.0,-15.138768646892853,17.17414243617936,0.061300435718747534,-44.83371553889039,1.0,908.556297741376,0.0,1.0,7.422388446499691,7.819665470683793
1.14,107.96829877809137,0.23288524750054224,908.6331373847488,104.91421809814017,-2.191930963910318,6.336742315929225,105.1282646278971,17.767339060287444,8.224378059539221,7.858686469017296,-15.888565792746656,4.528371449557581,0.22449770389055085,-14.663152012783332,6.047487578858195,10.589130181749463,6897.545183990803,0.3292879669514542,110.90039568176117,2.120261020417198,1.1216525768827883,90875.07715984955,282.24388460699913,-5.453237821707952,6.543925722257306,-0.11362543407691525,393.9821052631579,0.2114473370315889,0.84,nominal,14436.623168570726,nan,altitude_hold,15.16198972173205,4.0,0.0,-4.843992868918539,4.830947453325968,15.220539791055403,-4.847914636878976,4.704323986839275,14.743152398421591,0.84,0.0,0.0,0.0,0.0,0.0,0.0,-0.08461207226916344,0.08210594265089173,0.2573165514757556,-0.08461207226916344,0.08210594265089173,0.2573165514757556,1.14,1.0,19.64496135871812,-1.7075940910867562,6.648958411041972,0.075593280637888,0.004289987195320207,-0.25875765228592623,20.8098301847278,0.26960762356479984,1.0,0.18,63.34794199647679,6.754481867337345,905.86735188453,97.01107837792115,0.11419430873690643,7.180644021706118,1.0,909.5360006189422,0.047999999999999994,1.0,110.33001457475342,6879.983054608354,1.0,1.0,-15.224182584477676,17.206962760274077,0.17128767605450804,-44.84334724587179,1.0,908.556297741376,0.0,1.0,8.351250154474887,7.735205735152164
1.17,111.13112739806262,0.1602502379106145,908.8225200689104,105.42762066570837,-2.4211669863309253,6.312756138720836,105.64419595451118,17.760995640176496,8.419300847577997,7.804180494711655,-16.32916809509242,4.496216090712732,-0.3081114766690829,-14.65960653069421,6.17835820183728,10.759021554028662,6978.13535182916,0.33120985908905204,111.54742357003558,2.124766531711977,1.1216317572189396,90872.9940351374,282.2426536195521,-5.559302590584117,6.830620865515939,0.056959406154468845,393.94894736842105,0.21142954143008816,0.84,nominal,14492.852435871357,nan,altitude_hold,15.16198972173205,4.0,0.0,-4.706144084888944,5.0639649184054845,15.652169838333894,-4.762852305684957,4.9201085457790015,15.288562862368972,0.84,0.0,0.0,0.0,0.0,0.0,0.0,-0.08312745452040593,0.08587209367935372,0.26683575984646724,-0.08312745452040593,0.08587209367935372,0.26683575984646724,1.17,1.0,19.602518972644845,-1.764294714770276,6.9349526870166525,0.07974381396338331,-0.008349549761890923,-0.2539499388837033,20.867799469149276,0.26630689496460586,1.0,0.18,63.34794199647679,6.754481867337345,905.86735188453,97.01107837792115,0.11419430873690643,7.180644021706118,1.0,909.5360006189422,0.047999999999999994,1.0,111.99573127334388,6865.446356593466,1.0,1.0,-15.224182584477676,17.206962760274077,0.17128767605450804,-44.84334724587179,1.0,908.6865165873457,0.0,1.0,8.351250154474887,7.735205735152164
1.2,114.30922297070475,0.08057318509323998,909.0113865591806,105.93651908807136,-2.6559017605791504,6.295549675670498,106.15664763159202,17.754652753933595,8.617162105167516,7.725446607989324,-16.773255519235157,4.595388228011976,0.4229372610886805,-14.894220319228165,6.254551491962364,11.113359119017844,7021.951698452343,0.3322518780396572,111.89811943421655,2.1273608308347924,1.121610994596972,90870.91662683511,282.2414259873653,-5.395098336604137,6.755860923664513,0.14097270439417794,393.91578947368424,0.21141174582858746,0.84,nominal,14548.973432189581,nan,altitude_hold,15.16198972173205,4.0,0.0,-5.029701131236501,5.180260705149786,16.11803474927869,-4.922961601015883,5.076199841401473,15.7862459945148,0.84,0.0,0.0,0.0,0.0,0.0,0.0,-0.08592188888697859,0.08859640072166966,0.27552196913404997,-0.08592188888697859,0.08859640072166966,0.27552196913404997,1.2,1.0,19.549475891951715,-1.8520747350196387,7.102950219356712,0.08232367686561326,0.006386358472828302,-0.25657651879315696,20.882147645602906,0.2695356810205888,1.0,0.18,63.34794199647679,6.754481867337345,905.86735188453,97.01107837792115,0.11419430873690643,7.180644021706118,1.0,908.6239824439369,0.05039999999999999,1.0,112.45106727460828,6899.903242964898,1.0,1.0,-15.942294791471504,17.15220715301541,0.17446350810522088,-44.77220448959588,1.0,908.6865165873457,0.0,1.0,8.139304137942803,8.56327969877579
1.23,117.50248204866831,-0.006355097779410082,909.1997978616764,106.44196926545213,-2.8976094290883356,6.280376749863421,106.66645252201474,17.748310401558737,8.818211112652373,7.643171280727442,-17.224054753157777,4.692341094730265,0.4537409751613813,-15.135418514012656,6.075140314579358,11.331899318008732,7061.722034776176,0.3331952389887931,112.21558769769396,2.1226179883731393,1.1215902823080426,90868.8442636181,282.2402013138991,-5.145928965587352,7.0151775238497835,-0.21698775766439907,393.8826315789473,0.2113939502270867,0.84,nominal,14605.07024451582,nan,altitude_hold,15.16198972173205,4.0,0.0,-5.112878981471293,5.303840508990965,16.481985667780346,-5.036912029289129,5.212784241955168,16.20368979847413,0.84,0.0,0.0,0.0,0.0,0.0,0.0,-0.08791069904440436,0.09098024821819442,0.28280773795519,-0.08791069904440436,0.09098024821819442,0.28280773795519,1.23,1.0,19.541341619543957,-1.8373528339834917,6.916316510434037,0.0814269174687496,0.00817866339221407,-0.26209798238317245,20.81046207561885,0.27457710354775666,1.0,0.18,63.34794199647679,6.754481867337345,905.86735188453,97.01107837792115,0.11419430873690643,7.180644021706118,1.0,908.6239824439369,0.05039999999999999,1.0,112.5434402056069,7100.934871975572,1.0,1.0,-15.942294791471504,17.15220715301541,0.17446350810522088,-44.77220448959588,1.0,908.6865165873457,0.0,1.0,8.139304137942803,8.56327969877579
