time_s,sensor_time_s,imu_valid,imu_ax_mps2,imu_ay_mps2,imu_az_mps2,gyro_p_rps,gyro_q_rps,gyro_r_rps,imu_accel_norm_mps2,imu_gyro_norm_rps,gps_valid,gps_latency_s,gps_x_m,gps_y_m,gps_z_m,gps_vx_mps,gps_vy_mps,gps_vz_mps,baro_valid,baro_alt_m,baro_bias_m,pitot_valid,pitot_airspeed_mps,pitot_qbar_pa,pitot_compressibility_factor,mag_valid,mag_heading_deg,mag_x_ut,mag_y_ut,mag_z_ut,radar_valid,radar_agl_m,optical_flow_valid,horizon_valid,horizon_roll_deg,horizon_pitch_deg
0.0,0.0,1.0,16.85224990470911,1.440920986576299,0.15635926717474696,0.0003333831402736275,0.0027201108026021956,-0.001301384633203857,16.91446210675219,0.003033768128943114,1.0,0.18,1.8347711166656184,-0.49177120807065694,901.9719831810988,83.95613523520122,0.8313201125277895,9.679181518680478,1.0,898.2001442847273,0.0024,1.0,87.79444623154082,4138.270535302328,1.0,1.0,0.27545682687165446,18.720326376914336,-0.6508654652868338,-44.147666441320624,1.0,899.6589145189045,0.0,1.0,0.3105616510371684,7.095479288062197
0.03,0.03,1.0,17.040511835392344,1.3279729775639253,0.7160036510947276,0.05068889450314061,-0.1421393839894133,-0.09850618981007912,17.10716858716449,0.1802122025217486,1.0,0.18,1.8347711166656184,-0.49177120807065694,901.9719831810988,83.95613523520122,0.8313201125277895,9.679181518680478,1.0,898.2001442847273,0.0024,1.0,87.96369325338999,4307.287660766084,1.0,1.0,0.27545682687165446,18.720326376914336,-0.6508654652868338,-44.147666441320624,1.0,899.6589145189045,0.0,1.0,0.3105616510371684,7.095479288062197
0.06,0.06,1.0,17.23558863791878,1.0094849651222415,1.0825310189334783,0.07524709925211427,-0.1954820925699936,-0.16941745349380424,17.299030290664156,0.2694023905048476,1.0,0.18,1.8347711166656184,-0.49177120807065694,901.9719831810988,83.95613523520122,0.8313201125277895,9.679181518680478,1.0,902.1979770975767,0.0048,1.0,86.82853207153205,4342.326583560605,1.0,1.0,0.3061584649953694,18.33542374538592,-0.5958335417731314,-44.35935442656369,1.0,899.6589145189045,0.0,1.0,0.765356529948669,7.856105416998127
0.09,0.09,1.0,17.532250420900066,0.7210321562219033,1.3917191757983187,0.0824905348090656,-0.16215485012699535,-0.21872488096851608,17.60217527624757,0.2844986068638747,1.0,0.18,1.8347711166656184,-0.49177120807065694,901.9719831810988,83.95613523520122,0.8313201125277895,9.679181518680478,1.0,902.1979770975767,0.0048,1.0,87.9025710445267,4393.316282252806,1.0,1.0,0.3061584649953694,18.33542374538592,-0.5958335417731314,-44.35935442656369,1.0,900.8431624205509,0.0,1.0,0.765356529948669,7.856105416998127
0.12,0.12,1.0,17.899272217871815,0.5704091997668875,1.6285839709990666,0.0816301986546135,-0.10952756843044449,-0.23833666709578546,17.982257876452877,0.2747073796988436,1.0,0.18,1.8347711166656184,-0.49177120807065694,901.9719831810988,83.95613523520122,0.8313201125277895,9.679181518680478,1.0,900.5990947941685,0.0072,1.0,88.8570477436063,4445.583992930928,1.0,1.0,-0.4958333335059472,17.944508033100064,-0.5140835078625574,-44.46284562931206,1.0,900.8431624205509,0.0,1.0,0.6130981873587757,7.994979079958043
0.15,0.15,1.0,18.070988302711672,0.4940073239958037,1.8400075832505804,0.07916580134326888,-0.08128346189276019,-0.24525768617046653,18.171138912553698,0.2702324146087674,1.0,0.18,1.8347711166656184,-0.49177120807065694,901.9719831810988,83.95613523520122,0.8313201125277895,9.679181518680478,1.0,900.5990947941685,0.0072,1.0,88.82673006222046,4444.75915223593,1.0,1.0,-0.4958333335059472,17.944508033100064,-0.5140835078625574,-44.46284562931206,1.0,900.8431624205509,0.0,1.0,0.6130981873587757,7.994979079958043
0.18,0.18,1.0,18.276797205496646,0.46829953500679294,2.100059764959062,0.07785800620893239,-0.08074726517145091,-0.24708431606199263,18.40301256755908,0.27135336594065207,1.0,0.18,1.8347711166656184,-0.49177120807065694,901.9719831810988,83.95613523520122,0.8313201125277895,9.679181518680478,1.0,902.5580087853147,0.0096,1.0,90.90645565894825,4608.552110399604,1.0,1.0,-1.7624498070015355,17.707246243234092,-0.5223002894892642,-44.58932538059706,1.0,901.8029095561093,0.0,1.0,1.624836278859062,8.377038511673263
0.21,0.21,1.0,18.642519200605783,0.46056599991006997,2.1789634342191295,0.07421081422062338,-0.07037413150046784,-0.23951690559370611,18.77507722575043,0.2604383063163277,1.0,0.18,1.8347711166656184,-0.49177120807065694,901.9719831810988,83.95613523520122,0.8313201125277895,9.679181518680478,1.0,902.5580087853147,0.0096,1.0,89.55557115995195,4492.926160965827,1.0,1.0,-1.7624498070015355,17.707246243234092,-0.5223002894892642,-44.58932538059706,1.0,901.8029095561093,0.0,1.0,1.624836278859062,8.377038511673263
0.24,0.24,1.0,18.901728632773587,0.33180870171587357,2.457449649910515,0.0750109880513912,-0.06781350010426475,-0.2392396304294725,19.063695893068388,0.25973240054499874,1.0,0.18,1.8347711166656184,-0.49177120807065694,901.9719831810988,83.95613523520122,0.8313201125277895,9.679181518680478,1.0,903.2132744040738,0.011999999999999999,1.0,90.41344065989317,4607.868955858828,1.0,1.0,-2.3227281083747866,17.624475028895088,-0.4787301484726965,-44.65943391533121,1.0,901.8029095561093,0.0,1.0,2.1327782428284587,8.613798382539988
0.27,0.27,1.0,19.15884550771646,0.44181995043746136,2.6627762047306858,0.07275485624996603,-0.05748175743651859,-0.23703269764874768,19.34804752872061,0.25452292883075706,1.0,0.18,1.8347711166656184,-0.49177120807065694,901.9719831810988,83.95613523520122,0.8313201125277895,9.679181518680478,1.0,903.2132744040738,0.011999999999999999,1.0,90.91261728105462,4666.735331024121,1.0,1.0,-2.3227281083747866,17.624475028895088,-0.4787301484726965,-44.65943391533121,1.0,902.401199068914,0.0,1.0,2.1327782428284587,8.613798382539988
0.3,0.3,1.0,19.403966864585783,0.34792772521789866,2.768753654907655,0.07919150400680279,-0.04325481091267254,-0.23774629375448642,19.603596113608415,0.25429426491359386,1.0,0.18,1.8347711166656184,-0.49177120807065694,901.9719831810988,83.95613523520122,0.8313201125277895,9.679181518680478,1.0,901.8281636276728,0.014399999999999998,1.0,91.71284327521812,4688.7196273854815,1.0,1.0,-4.296652424287323,17.486867859416495,-0.32619049500775865,-44.66422248983593,1.0,902.401199068914,0.0,1.0,1.8621434981508538,8.648455061708981
0.32999999999999996,0.32999999999999996,1.0,19.675600162120137,0.30603337366540956,2.950866035139272,0.07789477587559675,-0.03331397881328641,-0.2367474588414385,19.898002626463732,0.2514493518801752,1.0,0.18,1.8347711166656184,-0.49177120807065694,901.9719831810988,83.95613523520122,0.8313201125277895,9.679181518680478,1.0,901.8281636276728,0.014399999999999998,1.0,92.39737239041966,4809.915423923841,1.0,1.0,-4.296652424287323,17.486867859416495,-0.32619049500775865,-44.66422248983593,1.0,902.401199068914,0.0,1.0,1.8621434981508538,8.648455061708981
0.36,0.36,1.0,20.01205622343352,0.2739211424593479,3.3214351932319546,0.0773380992493019,-0.032523290240259614,-0.2369770423568487,20.287665189099272,0.25139026355001637,1.0,0.18,1.6732141174671735,-2.734186269715318,898.839492209881,83.89537078811607,0.9200989743198974,9.794453791573138,1.0,900.8647970249011,0.0168,1.0,92.86769978520816,4916.533519530117,1.0,1.0,-4.498635951863527,17.35804657390578,-0.39382051956288366,-44.78315034725487,1.0,903.0964932635324,0.0,1.0,2.9984246551884897,8.78763306666487
0.39,0.39,1.0,20.301311196259295,0.21756698564191967,3.0822434394698113,0.07676743184572066,-0.018912852854306845,-0.24197353589469917,20.535111304805707,0.25456261836463595,1.0,0.18,1.6732141174671735,-2.734186269715318,898.839492209881,83.89537078811607,0.9200989743198974,9.794453791573138,1.0,900.8647970249011,0.0168,1.0,93.5405047236015,4974.399990088815,1.0,1.0,-4.498635951863527,17.35804657390578,-0.39382051956288366,-44.78315034725487,1.0,903.0964932635324,0.0,1.0,2.9984246551884897,8.78763306666487
0.42,0.42,1.0,20.34917394017694,0.14153193716719215,3.379626026755374,0.0833147195732918,-0.051612239919210164,-0.24332690346515964,20.628397499988623,0.26232260245163297,1.0,0.18,1.6732141174671735,-2.734186269715318,898.839492209881,83.89537078811607,0.9200989743198974,9.794453791573138,1.0,905.7196307823184,0.0192,1.0,95.08099099089117,4992.130738434296,1.0,1.0,-4.191620227371226,17.236711251430417,-0.3461387835881181,-44.7433998394778,1.0,903.0964932635324,0.0,1.0,3.659795649408101,7.925752527604077
0.44999999999999996,0.44999999999999996,1.0,20.354571788499804,0.1744360127730861,3.6428774081018687,0.0821140987582595,-0.03488970374681589,-0.24558999330859785,20.678722794848895,0.26129382207725255,1.0,0.18,1.6732141174671735,-2.734186269715318,898.839492209881,83.89537078811607,0.9200989743198974,9.794453791573138,1.0,905.7196307823184,0.0192,1.0,95.62812694112355,5056.093924993079,1.0,1.0,-4.191620227371226,17.236711251430417,-0.3461387835881181,-44.7433998394778,1.0,903.6047831653923,0.0,1.0,3.659795649408101,7.925752527604077
0.48,0.48,1.0,20.3259008183228,0.25877990099083154,3.7259237568825134,0.08669245349863217,-0.006034630266557026,-0.2478519445933706,20.666197496287356,0.26264535917236725,1.0,0.18,1.6732141174671735,-2.734186269715318,898.839492209881,83.89537078811607,0.9200989743198974,9.794453791573138,1.0,902.8512732402309,0.021599999999999998,1.0,95.89324838710944,5060.839488153184,1.0,1.0,-7.19711163054228,17.324062355677913,-0.2912944504157428,-44.865247483655324,1.0,903.6047831653923,0.0,1.0,3.5160733005604996,9.11855151765619
0.51,0.51,1.0,20.231018680609118,0.23724310330826673,3.8095430492844757,0.08703167133736868,0.0007402937141330903,-0.25452801299958244,20.587933830027094,0.26899734060409325,1.0,0.18,1.6732141174671735,-2.734186269715318,898.839492209881,83.89537078811607,0.9200989743198974,9.794453791573138,1.0,902.8512732402309,0.021599999999999998,1.0,96.08214268830517,5238.633202581259,1.0,1.0,-7.19711163054228,17.324062355677913,-0.2912944504157428,-44.865247483655324,1.0,903.6047831653923,0.0,1.0,3.5160733005604996,9.11855151765619
0.54,0.54,1.0,20.26321360365032,0.08468541708923064,3.9345098539725445,0.08232828889130411,-0.014295658008138524,-0.26293764013781024,20.64183530982732,0.27589584192389754,1.0,0.18,1.6732141174671735,-2.734186269715318,898.839492209881,83.89537078811607,0.9200989743198974,9.794453791573138,1.0,900.235646571311,0.023999999999999997,1.0,97.06089920782559,5197.2233668956105,1.0,1.0,-7.773696630099112,17.15483803356336,-0.23516608679139814,-44.8149629633918,1.0,904.9464174801839,0.0,1.0,4.443503219641134,8.601239252690489
0.57,0.57,1.0,20.19974451597896,0.08607381962113375,4.150350492198112,0.09084396359891521,-0.02485064928183477,-0.26465422370268776,20.621893618708622,0.2809128665899127,1.0,0.18,1.6732141174671735,-2.734186269715318,898.839492209881,83.89537078811607,0.9200989743198974,9.794453791573138,1.0,900.235646571311,0.023999999999999997,1.0,97.48184163497687,5336.471891911241,1.0,1.0,-7.773696630099112,17.15483803356336,-0.23516608679139814,-44.8149629633918,1.0,904.9464174801839,0.0,1.0,4.443503219641134,8.601239252690489
0.6,0.6,1.0,20.237235349456807,-0.04266500513024775,4.303584394404623,0.09029081308411115,-0.004516291161229716,-0.2671816621908167,20.68981279595661,0.28206181667196745,1.0,0.18,1.6732141174671735,-2.734186269715318,898.839492209881,83.89537078811607,0.9200989743198974,9.794453791573138,1.0,905.5308003392502,0.026399999999999996,1.0,98.55273477721839,5580.250272693411,1.0,1.0,-7.499872704586543,17.201768640008257,-0.25792186603958517,-44.858775476187596,1.0,904.9464174801839,0.0,1.0,4.8684703572034325,8.510888129245494
0.63,0.63,1.0,20.20535907230845,-0.1823375563188434,4.447576497931018,0.09309069669938207,0.007421685301155967,-0.27107318627881233,20.689869959241165,0.2867082690541614,1.0,0.18,1.6732141174671735,-2.734186269715318,898.839492209881,83.89537078811607,0.9200989743198974,9.794453791573138,1.0,905.5308003392502,0.026399999999999996,1.0,99.45730145047673,5505.592642959955,1.0,1.0,-7.499872704586543,17.201768640008257,-0.25792186603958517,-44.858775476187596,1.0,905.57327608019,0.0,1.0,4.8684703572034325,8.510888129245494
0.6599999999999999,0.6599999999999999,1.0,20.0766732176312,-0.14007116032112524,4.582829909339461,0.09197812159139843,-0.002222793583504635,-0.2667710149119097,20.593561066397427,0.28219087522442554,1.0,0.18,1.6732141174671735,-2.734186269715318,898.839492209881,83.89537078811607,0.9200989743198974,9.794453791573138,1.0,904.0839170457331,0.028799999999999996,1.0,99.9935605054802,5614.353332448576,1.0,1.0,-8.743641223008394,17.11681418768218,-0.2501228560304009,-44.78017685198887,1.0,905.57327608019,0.0,1.0,4.74318561026131,7.993627976514312
0.69,0.69,1.0,20.03369630480939,-0.3214211644562841,4.5439733711575965,0.08900174012681585,-0.005792023161485013,-0.2682366107834215,20.54507223633159,0.28267602771101974,1.0,0.18,1.6732141174671735,-2.734186269715318,898.839492209881,83.89537078811607,0.9200989743198974,9.794453791573138,1.0,904.0839170457331,0.028799999999999996,1.0,99.7919785150708,5566.551804226034,1.0,1.0,-8.743641223008394,17.11681418768218,-0.2501228560304009,-44.78017685198887,1.0,905.57327608019,0.0,1.0,4.74318561026131,7.993627976514312
0.72,0.72,1.0,20.023373698771405,-0.34928636239314553,4.798123977713551,0.08858272091492429,-0.0013705530512847482,-0.2671074033073588,20.5931903538309,0.28141631395844446,1.0,0.18,32.67247289302497,-4.618433739909429,906.0958219820262,90.02035055972215,0.9103445208299292,8.322284685334264,1.0,906.1169847363537,0.031199999999999995,1.0,100.81564119165333,5680.687398899148,1.0,1.0,-8.101615713885884,17.154087230856558,-0.17082436694914138,-44.85729928083465,1.0,905.722077334798,0.0,1.0,5.572623180631578,8.83106126898611
0.75,0.75,1.0,20.08547334480726,-0.38189547570568894,4.791575311222601,0.08712646672943436,0.0011913420715382573,-0.2680599360904386,20.65263367230546,0.2818662268479441,1.0,0.18,32.67247289302497,-4.618433739909429,906.0958219820262,90.02035055972215,0.9103445208299292,8.322284685334264,1.0,906.1169847363537,0.031199999999999995,1.0,101.57921289827956,5843.999882325163,1.0,1.0,-8.101615713885884,17.154087230856558,-0.17082436694914138,-44.85729928083465,1.0,905.722077334798,0.0,1.0,5.572623180631578,8.83106126898611
0.78,0.78,1.0,20.058774696802,-0.5187177298800683,4.733205977932514,0.08724253947167786,0.03956637760457476,-0.2686044237790497,20.616176882484595,0.2851755519042444,1.0,0.18,32.67247289302497,-4.618433739909429,906.0958219820262,90.02035055972215,0.9103445208299292,8.322284685334264,1.0,905.0442176640253,0.0336,1.0,101.57924933749923,5883.882039946466,1.0,1.0,-11.28073760597294,17.16948440721184,-0.1457716241854141,-44.82097215548383,1.0,905.722077334798,0.0,1.0,5.639324836948136,7.987312263101706
0.8099999999999999,0.8099999999999999,1.0,19.957086058416806,-0.6223988216935593,4.873599924351453,0.08173382572866619,-0.003474687982997301,-0.26773176791830217,20.55297157247434,0.27995140877924296,1.0,0.18,32.67247289302497,-4.618433739909429,906.0958219820262,90.02035055972215,0.9103445208299292,8.322284685334264,1.0,905.0442176640253,0.0336,1.0,103.180051560674,6040.832638186785,1.0,1.0,-11.28073760597294,17.16948440721184,-0.1457716241854141,-44.82097215548383,1.0,906.1025748099339,0.0,1.0,5.639324836948136,7.987312263101706
0.84,0.84,1.0,19.96646468121032,-0.6967035114441424,5.132461180842492,0.08843705371835074,-0.03250455349099343,-0.26618911313301596,20.627342665058258,0.28237263043463134,1.0,0.18,32.67247289302497,-4.618433739909429,906.0958219820262,90.02035055972215,0.9103445208299292,8.322284685334264,1.0,908.4772832494821,0.036,1.0,103.53544769734548,6010.420050971073,1.0,1.0,-11.013031760411621,17.18319564441821,-0.08766447548629114,-44.74746821994844,1.0,906.1025748099339,0.0,1.0,5.96503264692081,8.271492219286333
0.87,0.87,1.0,19.92180021514191,-0.773011424418575,5.24472632450917,0.0888450878095185,-0.005058678506123173,-0.2707650921396738,20.615111561505298,0.28501363998502843,1.0,0.18,32.67247289302497,-4.618433739909429,906.0958219820262,90.02035055972215,0.9103445208299292,8.322284685334264,1.0,908.4772832494821,0.036,1.0,103.98173948620445,6154.738471751094,1.0,1.0,-11.013031760411621,17.18319564441821,-0.08766447548629114,-44.74746821994844,1.0,906.1025748099339,0.0,1.0,5.96503264692081,8.271492219286333
0.8999999999999999,0.8999999999999999,1.0,19.952434571767647,-0.8917720950655431,5.176025943339023,0.08651215688779913,-4.635838349649783e-05,-0.2693407949942659,20.63216293499848,0.28289365366975283,1.0,0.18,32.67247289302497,-4.618433739909429,906.0958219820262,90.02035055972215,0.9103445208299292,8.322284685334264,1.0,909.4334560876446,0.0384,1.0,105.18887106960553,6295.290956772793,1.0,1.0,-13.03393999524274,17.15515212849429,-0.07800633639410204,-44.868327638591786,1.0,906.997603177455,0.0,1.0,6.643601653364504,7.6716094268331
0.9299999999999999,0.9299999999999999,1.0,19.855500603895972,-1.011801666325932,5.585610159424889,0.08467493066996182,-0.015892000344139023,-0.26418160461573337,20.650997256703217,0.2778746475953584,1.0,0.18,32.67247289302497,-4.618433739909429,906.0958219820262,90.02035055972215,0.9103445208299292,8.322284685334264,1.0,909.4334560876446,0.0384,1.0,106.1497785890355,6295.310063970908,1.0,1.0,-13.03393999524274,17.15515212849429,-0.07800633639410204,-44.868327638591786,1.0,906.997603177455,0.0,1.0,6.643601653364504,7.6716094268331
0.96,0.96,1.0,19.753712142322364,-1.0790200615622516,6.010860383137262,0.08466762535915955,-0.001646115391938294,-0.2614839510218072,20.676166720177047,0.27485482190024874,1.0,0.18,32.67247289302497,-4.618433739909429,906.0958219820262,90.02035055972215,0.9103445208299292,8.322284685334264,1.0,910.6802585238028,0.040799999999999996,1.0,106.96144861226855,6380.8601179849975,1.0,1.0,-13.116111952192771,17.163823566314004,0.06425155985187056,-44.88683873442719,1.0,906.997603177455,0.0,1.0,6.952610333495164,8.184864224487276
0.99,0.99,1.0,19.760287614478482,-1.1969825229523752,5.862676761159644,0.07751547788455476,0.019558368426878886,-0.25998073673372496,20.646372867237638,0.2719947840672737,1.0,0.18,32.67247289302497,-4.618433739909429,906.0958219820262,90.02035055972215,0.9103445208299292,8.322284685334264,1.0,910.6802585238028,0.040799999999999996,1.0,106.77387468000785,6371.316528909483,1.0,1.0,-13.116111952192771,17.163823566314004,0.06425155985187056,-44.88683873442719,1.0,907.8288144651553,0.0,1.0,6.952610333495164,8.184864224487276
1.02,1.02,1.0,19.779551551486744,-1.3801882199808688,5.983143951009211,0.0824838136412062,-0.0020912983941212986,-0.2543300044392798,20.710711978080177,0.2673793264256879,1.0,0.18,32.67247289302497,-4.618433739909429,906.0958219820262,90.02035055972215,0.9103445208299292,8.322284685334264,1.0,910.1855908442991,0.043199999999999995,1.0,108.4318887489549,6558.124194360603,1.0,1.0,-14.665931715709554,17.112920822186123,0.04135931496105415,-44.838707494147535,1.0,907.8288144651553,0.0,1.0,7.602633978872357,7.73838879494058
1.05,1.05,1.0,19.67271007931234,-1.414825743198772,5.990653929911928,0.07867510310049361,-0.01112947606058715,-0.25426884272854433,20.613228477273143,0.26639497267735684,1.0,0.18,32.67247289302497,-4.618433739909429,906.0958219820262,90.02035055972215,0.9103445208299292,8.322284685334264,1.0,910.1855908442991,0.043199999999999995,1.0,108.81598051203929,6549.698295746615,1.0,1.0,-14.665931715709554,17.112920822186123,0.04135931496105415,-44.838707494147535,1.0,907.8288144651553,0.0,1.0,7.602633978872357,7.73838879494058
1.08,1.08,1.0,19.657279494901047,-1.4973836358729447,6.476314285351256,0.07430154153430489,-0.008807969180723674,-0.2565766672957983,20.75074556772074,0.2672637004834016,1.0,0.18,63.34794199647679,6.754481867337345,905.86735188453,97.01107837792115,0.11419430873690643,7.180644021706118,1.0,907.3017473309633,0.045599999999999995,1.0,109.36658755044128,6709.526072137083,1.0,1.0,-15.138768646892853,17.17414243617936,0.061300435718747534,-44.83371553889039,1.0,908.556297741376,0.0,1.0,7.422388446499691,7.819665470683793
1.1099999999999999,1.1099999999999999,1.0,19.61293933755744,-1.5532799835433129,6.540218804391077,0.07814750541878926,0.015000465812105788,-0.2534776135533351,20.732933467681196,0.26567451355079913,1.0,0.18,63.34794199647679,6.754481867337345,905.86735188453,97.01107837792115,0.11419430873690643,7.180644021706118,1.0,907.3017473309633,0.045599999999999995,1.0,110.22439072514632,6735.801127580225,1.0,1.0,-15.138768646892853,17.17414243617936,0.061300435718747534,-44.83371553889039,1.0,908.556297741376,0.0,1.0,7.422388446499691,7.819665470683793
1.14,1.14,1.0,19.64496135871812,-1.7075940910867562,6.648958411041972,0.075593280637888,0.004289987195320207,-0.25875765228592623,20.8098301847278,0.26960762356479984,1.0,0.18,63.34794199647679,6.754481867337345,905.86735188453,97.01107837792115,0.11419430873690643,7.180644021706118,1.0,909.5360006189422,0.047999999999999994,1.0,110.33001457475342,6879.983054608354,1.0,1.0,-15.224182584477676,17.206962760274077,0.17128767605450804,-44.84334724587179,1.0,908.556297741376,0.0,1.0,8.351250154474887,7.735205735152164
1.17,1.17,1.0,19.602518972644845,-1.764294714770276,6.9349526870166525,0.07974381396338331,-0.008349549761890923,-0.2539499388837033,20.867799469149276,0.26630689496460586,1.0,0.18,63.34794199647679,6.754481867337345,905.86735188453,97.01107837792115,0.11419430873690643,7.180644021706118,1.0,909.5360006189422,0.047999999999999994,1.0,111.99573127334388,6865.446356593466,1.0,1.0,-15.224182584477676,17.206962760274077,0.17128767605450804,-44.84334724587179,1.0,908.6865165873457,0.0,1.0,8.351250154474887,7.735205735152164
1.2,1.2,1.0,19.549475891951715,-1.8520747350196387,7.102950219356712,0.08232367686561326,0.006386358472828302,-0.25657651879315696,20.882147645602906,0.2695356810205888,1.0,0.18,63.34794199647679,6.754481867337345,905.86735188453,97.01107837792115,0.11419430873690643,7.180644021706118,1.0,908.6239824439369,0.05039999999999999,1.0,112.45106727460828,6899.903242964898,1.0,1.0,-15.942294791471504,17.15220715301541,0.17446350810522088,-44.77220448959588,1.0,908.6865165873457,0.0,1.0,8.139304137942803,8.56327969877579
1.23,1.23,1.0,19.541341619543957,-1.8373528339834917,6.916316510434037,0.0814269174687496,0.00817866339221407,-0.26209798238317245,20.81046207561885,0.27457710354775666,1.0,0.18,63.34794199647679,6.754481867337345,905.86735188453,97.01107837792115,0.11419430873690643,7.180644021706118,1.0,908.6239824439369,0.05039999999999999,1.0,112.5434402056069,7100.934871975572,1.0,1.0,-15.942294791471504,17.15220715301541,0.17446350810522088,-44.77220448959588,1.0,908.6865165873457,0.0,1.0,8.139304137942803,8.56327969877579
1.26,1.26,1.0,19.61177665761203,-1.9439852860288613,6.938985459492369,0.08451894547120552,-0.019717945578039697,-0.268930635767875,20.893788111958045,0.282587926804909,1.0,0.18,63.34794199647679,6.754481867337345,905.86735188453,97.01107837792115,0.11419430873690643,7.180644021706118,1.0,916.1957654151001,0.05279999999999999,1.0,112.59485420571878,6913.982224929555,1.0,1.0,-16.889366049721996,17.09497296852423,0.24701243362237435,-44.88101899986234,1.0,909.4741985525644,0.0,1.0,8.68954451157262,8.07699952910753
1.29,1.29,1.0,19.545592995864684,-2.0318041634923416,7.215699875899043,0.08437063742058223,-0.013155561720328862,-0.26913336817691275,20.933818534080896,0.28235481778992616,1.0,0.18,63.34794199647679,6.754481867337345,905.86735188453,97.01107837792115,0.11419430873690643,7.180644021706118,1.0,916.1957654151001,0.05279999999999999,1.0,112.67624826468432,7192.374828996845,1.0,1.0,-16.889366049721996,17.09497296852423,0.24701243362237435,-44.88101899986234,1.0,909.4741985525644,0.0,1.0,8.68954451157262,8.07699952910753
1.3199999999999998,1.3199999999999998,1.0,19.50396609836832,-2.200608766763637,7.2739042783099706,0.0892894622027324,0.004907740899829459,-0.27218641183864023,20.932201412194413,0.2864998023922301,1.0,0.18,63.34794199647679,6.754481867337345,905.86735188453,97.01107837792115,0.11419430873690643,7.180644021706118,1.0,914.0320306130019,0.05519999999999999,1.0,113.4789868597156,7327.538352525034,1.0,1.0,-18.976755615660537,17.148790894676342,0.2723785716722638,-44.78141961584156,1.0,909.4741985525644,0.0,1.0,9.1985103150523,7.401963168242483
1.3499999999999999,1.3499999999999999,1.0,19.465910305867745,-2.2267018973198724,7.401317779142245,0.08139847465561574,-0.006639190344783019,-0.2796074298793558,20.944196576700264,0.29129041413756485,1.0,0.18,63.34794199647679,6.754481867337345,905.86735188453,97.01107837792115,0.11419430873690643,7.180644021706118,1.0,914.0320306130019,0.05519999999999999,1.0,114.55790061334967,7284.501917226933,1.0,1.0,-18.976755615660537,17.148790894676342,0.2723785716722638,-44.78141961584156,1.0,909.6636249132874,0.0,1.0,9.1985103150523,7.401963168242483
1.38,1.38,1.0,19.462252632287147,-2.4434931567336933,7.691424983574391,0.08394012263281066,-0.01306775137663367,-0.28007865872327276,21.069123251998995,0.29267860425025993,1.0,0.18,63.34794199647679,6.754481867337345,905.86735188453,97.01107837792115,0.11419430873690643,7.180644021706118,1.0,911.6572073222832,0.05759999999999999,1.0,114.4937533791265,7321.974065184648,1.0,1.0,-19.489358973878073,17.102378655837082,0.34303144299611676,-44.805577375206546,1.0,909.6636249132874,0.0,1.0,9.746134900920916,7.0489673824860555
1.41,1.41,1.0,19.4364069560388,-2.440438394634519,7.852425808601083,0.082306475109196,-0.008001144558547682,-0.28146001548842586,21.104270799967104,0.2933566336013086,1.0,0.18,63.34794199647679,6.754481867337345,905.86735188453,97.01107837792115,0.11419430873690643,7.180644021706118,1.0,911.6572073222832,0.05759999999999999,1.0,115.67003933597492,7422.7281344892335,1.0,1.0,-19.489358973878073,17.102378655837082,0.34303144299611676,-44.805577375206546,1.0,909.6636249132874,0.0,1.0,9.746134900920916,7.0489673824860555
1.44,1.44,1.0,19.375840395705175,-2.6278904648819177,8.086656127358527,0.08347771138542119,-0.010088602461910677,-0.28679606561022186,21.15946612411105,0.29886835136441736,1.0,0.18,100.67234228659949,-4.684343270605497,906.0935972417005,103.69907849418144,-1.7069129870532986,6.349472392758705,1.0,909.8015544326644,0.05999999999999999,1.0,115.78272927055905,7366.584083399805,1.0,1.0,-20.925773674704804,17.10750114427485,0.4674468625614284,-44.86921047962614,1.0,910.8281820563273,0.0,1.0,10.218366524436302,6.668557667405368
1.47,1.47,1.0,19.364964826817726,-2.848342853489587,8.145555422045922,0.08861971905530705,0.0024249297717237536,-0.28096242729824367,21.200589446723754,0.29461707425599115,1.0,0.18,100.67234228659949,-4.684343270605497,906.0935972417005,103.69907849418144,-1.7069129870532986,6.349472392758705,1.0,909.8015544326644,0.05999999999999999,1.0,115.67282714777446,7587.551727571273,1.0,1.0,-20.925773674704804,17.10750114427485,0.4674468625614284,-44.86921047962614,1.0,910.8281820563273,0.0,1.0,10.218366524436302,6.668557667405368
1.5,1.5,1.0,19.27114787952366,-3.0312097669147473,8.53981791908093,0.08058666310335254,-0.013142483063949757,-0.2798435221360636,21.29539535525378,0.2915121472816133,1.0,0.18,100.67234228659949,-4.684343270605497,906.0935972417005,103.69907849418144,-1.7069129870532986,6.349472392758705,1.0,915.273218017385,0.06239999999999999,1.0,116.83823357555079,7632.669274622373,1.0,1.0,-23.812314074674216,17.07172194617524,0.5259151452596161,-44.82904104392361,1.0,910.8281820563273,0.0,1.0,10.688297167760602,7.618580887922734
1.53,1.53,1.0,19.135065961291176,-3.123768207294025,8.561253460324052,0.08441839966275747,0.0033800063420615658,-0.269809046140875,21.194427049764183,0.2827274518400048,1.0,0.18,100.67234228659949,-4.684343270605497,906.0935972417005,103.69907849418144,-1.7069129870532986,6.349472392758705,1.0,915.273218017385,0.06239999999999999,1.0,117.08852378401903,7816.491438298108,1.0,1.0,-23.812314074674216,17.07172194617524,0.5259151452596161,-44.82904104392361,1.0,911.1294966454014,0.0,1.0,10.688297167760602,7.618580887922734
1.56,1.56,1.0,19.200889864829843,-3.2353734620781096,8.816282803819744,0.08184432820081791,-0.008799029353740929,-0.26257184430034974,21.374486087795713,0.2751724739059092,1.0,0.18,100.67234228659949,-4.684343270605497,906.0935972417005,103.69907849418144,-1.7069129870532986,6.349472392758705,1.0,910.5427583786442,0.0648,1.0,118.20131472075548,7984.887929515884,1.0,1.0,-20.974907806610812,17.042193136793642,0.5220007135866602,-44.8851397254521,1.0,911.1294966454014,0.0,1.0,10.577111838913362,6.8890942921283855
1.5899999999999999,1.5899999999999999,1.0,19.17789383709063,-3.347758827814058,8.7754842609663,0.08088988854943276,-0.0007521336395552615,-0.24911688862118353,21.354349093577937,0.2619216752597054,1.0,0.18,100.67234228659949,-4.684343270605497,906.0935972417005,103.69907849418144,-1.7069129870532986,6.349472392758705,1.0,910.5427583786442,0.0648,1.0,118.43389670181504,7815.070249739901,1.0,1.0,-20.974907806610812,17.042193136793642,0.5220007135866602,-44.8851397254521,1.0,911.1294966454014,0.0,1.0,10.577111838913362,6.8890942921283855
1.6199999999999999,1.6199999999999999,1.0,19.147851262146663,-3.567793118749825,8.833476497100463,0.08764558863506242,-0.0005054964480162441,-0.23117252827083348,21.38690400035303,0.24723014088289244,1.0,0.18,100.67234228659949,-4.684343270605497,906.0935972417005,103.69907849418144,-1.7069129870532986,6.349472392758705,1.0,908.5197648507813,0.0672,1.0,119.1420718115426,7981.750049804898,1.0,1.0,-24.346930976522103,17.068499908748464,0.4819748293970196,-44.85476644487416,1.0,911.4715211377941,0.0,1.0,10.87039707017784,6.607390069229613
1.65,1.65,1.0,19.172205061164096,-3.50702711365544,9.137480931468486,0.08892109349273696,-0.013833472247652136,-0.2045275844359936,21.52594350675925,0.2234499018070787,1.0,0.18,100.67234228659949,-4.684343270605497,906.0935972417005,103.69907849418144,-1.7069129870532986,6.349472392758705,1.0,908.5197648507813,0.0672,1.0,119.69088366135475,7938.696376210567,1.0,1.0,-24.346930976522103,17.068499908748464,0.4819748293970196,-44.85476644487416,1.0,911.4715211377941,0.0,1.0,10.87039707017784,6.607390069229613
1.68,1.68,1.0,19.099356846693382,-3.5849277282005754,9.296160477884554,0.09003622735409676,-0.00034392453764399335,-0.17150595592434628,21.541952984916144,0.19370320967338153,1.0,0.18,100.67234228659949,-4.684343270605497,906.0935972417005,103.69907849418144,-1.7069129870532986,6.349472392758705,1.0,910.1335814485728,0.0696,1.0,120.35731419554065,8048.582532081341,1.0,1.0,-25.040013555596435,17.031337600670593,0.49936207734883037,-44.82146190914424,1.0,911.4715211377941,0.0,1.0,11.153247080530996,6.683875204011309
1.71,1.71,1.0,19.118548943262738,-3.744286881610952,9.477791183239777,0.0919763425911541,0.0165421495507188,-0.1456923504692027,21.66488226741226,0.1730882760138441,1.0,0.18,100.67234228659949,-4.684343270605497,906.0935972417005,103.69907849418144,-1.7069129870532986,6.349472392758705,1.0,910.1335814485728,0.0696,1.0,120.99646928779777,8180.123027489413,1.0,1.0,-25.040013555596435,17.031337600670593,0.49936207734883037,-44.82146190914424,1.0,912.2496607854436,0.0,1.0,11.153247080530996,6.683875204011309
1.74,1.74,1.0,19.018476856560262,-3.7281825847504706,9.750352980614633,0.09388998337108563,0.01713160372700598,-0.11452688429400809,21.694957722368017,0.1490812800111906,1.0,0.18,100.67234228659949,-4.684343270605497,906.0935972417005,103.69907849418144,-1.7069129870532986,6.349472392758705,1.0,914.9151625344134,0.072,1.0,121.22290687240854,8391.337373305847,1.0,1.0,-24.496058053942246,17.060354373819337,0.4031268118872422,-44.90004897438203,1.0,912.2496607854436,0.0,1.0,12.462850591858599,7.016199267469785
1.77,1.77,1.0,19.138398999640117,-3.7709026043836116,9.490659185249552,0.09958536652596142,0.02029050329103398,-0.08044872716912428,21.692640099622142,0.12961846879610073,1.0,0.18,100.67234228659949,-4.684343270605497,906.0935972417005,103.69907849418144,-1.7069129870532986,6.349472392758705,1.0,914.9151625344134,0.072,1.0,121.19247485466937,8226.767292301505,1.0,1.0,-24.496058053942246,17.060354373819337,0.4031268118872422,-44.90004897438203,1.0,912.2496607854436,0.0,1.0,12.462850591858599,7.016199267469785
1.7999999999999998,1.7999999999999998,1.0,19.09660980676919,-3.7688875484253557,9.5297591200747,0.1028394243745565,-0.007066384946648378,-0.049336441061351835,21.67259394607198,0.11428020571605822,1.0,0.18,141.05078927368058,-1.374347595536805,909.2269037494614,109.46173701989751,-4.783114326821655,6.11128031714587,1.0,911.958712208563,0.0744,1.0,120.99780734103783,8144.024813026344,1.0,1.0,-23.843123089490096,17.04904685244273,0.1947193365745534,-44.82951848372262,1.0,912.7719080295009,0.0,1.0,13.340825692956074,6.608477625144844
1.8299999999999998,1.8299999999999998,1.0,19.081174720886054,-3.731394773131611,9.569729291423972,0.1027371830668866,0.013677039362612012,-0.018122453993982164,21.67012354355814,0.10521603266142196,1.0,0.18,141.05078927368058,-1.374347595536805,909.2269037494614,109.46173701989751,-4.783114326821655,6.11128031714587,1.0,911.958712208563,0.0744,1.0,120.97401071520886,8237.993612898326,1.0,1.0,-23.843123089490096,17.04904685244273,0.1947193365745534,-44.82951848372262,1.0,912.7719080295009,0.0,1.0,13.340825692956074,6.608477625144844
1.8599999999999999,1.8599999999999999,1.0,19.128202176606102,-3.5077847258590547,9.241147616076647,0.10722132611261088,0.06629581189167207,0.013767388434323595,21.531174641765546,0.12681123149005522,1.0,0.18,141.05078927368058,-1.374347595536805,909.2269037494614,109.46173701989751,-4.783114326821655,6.11128031714587,1.0,910.9067434353113,0.0768,1.0,121.40317137961053,8191.958072798852,1.0,1.0,-24.25504216752939,17.051495401663963,-0.17799987628929526,-44.790837850257795,1.0,912.7719080295009,0.0,1.0,13.411313479867871,6.105572280138193
1.89,1.89,1.0,19.091624548999672,-3.3468710193764815,9.276297950712818,0.11840992806246387,-0.008760244177286531,0.029382560972262568,21.488168307482795,0.12231511693610189,1.0,0.18,141.05078927368058,-1.374347595536805,909.2269037494614,109.46173701989751,-4.783114326821655,6.11128031714587,1.0,910.9067434353113,0.0768,1.0,121.64249248128408,8375.98925037251,1.0,1.0,-24.25504216752939,17.051495401663963,-0.17799987628929526,-44.790837850257795,1.0,913.6017132245677,0.0,1.0,13.411313479867871,6.105572280138193
1.92,1.92,1.0,19.082700852648422,-3.2424769905089352,9.315985710693447,0.12574121474703626,0.0011981883993888462,0.03224399281192881,21.481404018999623,0.12981511396581075,1.0,0.18,141.05078927368058,-1.374347595536805,909.2269037494614,109.46173701989751,-4.783114326821655,6.11128031714587,1.0,906.5702581909029,0.07919999999999999,1.0,122.13375851309982,8387.91186067338,1.0,1.0,-24.16832240717001,17.181082447078943,-0.5209199457206216,-44.823810469632605,1.0,913.6017132245677,0.0,1.0,13.287960247130888,6.1760557600785715
1.95,1.95,1.0,19.08584402027457,-3.1501366793196213,9.242610720182402,0.13101942609235873,0.027513837107392008,0.035491187064519016,21.438718618179497,0.13850171697560948,1.0,0.18,141.05078927368058,-1.374347595536805,909.2269037494614,109.46173701989751,-4.783114326821655,6.11128031714587,1.0,906.5702581909029,0.07919999999999999,1.0,122.61484969573729,8394.624435903084,1.0,1.0,-24.16832240717001,17.181082447078943,-0.5209199457206216,-44.823810469632605,1.0,913.6017132245677,0.0,1.0,13.287960247130888,6.1760557600785715
1.98,1.98,1.0,19.057214594009395,-3.208605570832982,9.26275091320713,0.14123065121057438,0.009265776696313533,0.03562874614010198,21.43061203679038,0.14594985101282115,1.0,0.18,141.05078927368058,-1.374347595536805,909.2269037494614,109.46173701989751,-4.783114326821655,6.11128031714587,1.0,912.8527566951024,0.08159999999999999,1.0,122.63987993742514,8461.649181996778,1.0,1.0,-23.31228398984436,17.18802572204512,-0.8155801027572567,-44.7719278064552,1.0,914.095006763148,0.0,1.0,13.274934981511738,6.3990975187781105
2.01,2.01,1.0,18.995094310632314,-3.1699704313688604,9.77740777893734,0.14509598917564898,0.0037318216031646543,0.0315636290214919,21.597685600109873,0.1485363095150282,1.0,0.18,141.05078927368058,-1.374347595536805,909.2269037494614,109.46173701989751,-4.783114326821655,6.11128031714587,1.0,912.8527566951024,0.08159999999999999,1.0,123.91503779899115,8571.737883462622,1.0,1.0,-23.31228398984436,17.18802572204512,-0.8155801027572567,-44.7719278064552,1.0,914.095006763148,0.0,1.0,13.274934981511738,6.3990975187781105
2.04,2.04,1.0,18.933875259486143,-2.971681092457842,9.728545126067912,0.14904121123013336,0.033334343517066385,0.022324635091256727,21.493420182162556,0.15434652712198219,1.0,0.18,141.05078927368058,-1.374347595536805,909.2269037494614,109.46173701989751,-4.783114326821655,6.11128031714587,1.0,914.0419840528494,0.08399999999999999,1.0,123.77154545049972,8737.985616289421,1.0,1.0,-23.696725308347148,17.22927645397546,-1.3711545662406581,-44.77002049023801,1.0,914.095006763148,0.0,1.0,14.537614741410993,5.844888624540914
2.07,2.07,1.0,18.889275761096865,-3.009613971845176,9.877996229457843,0.1509785782052003,0.010226461093775957,0.01020499874388986,21.527594490501503,0.1516682352463069,1.0,0.18,141.05078927368058,-1.374347595536805,909.2269037494614,109.46173701989751,-4.783114326821655,6.11128031714587,1.0,914.0419840528494,0.08399999999999999,1.0,124.70730317575615,8699.63080907113,1.0,1.0,-23.696725308347148,17.22927645397546,-1.3711545662406581,-44.77002049023801,1.0,914.1395940083593,0.0,1.0,14.537614741410993,5.844888624540914
2.1,2.1,1.0,18.945718235387115,-2.9285692519688604,9.971135261349765,0.1619186888064172,0.007156269376755115,-0.007187976828771734,21.60880134848738,0.16223606561758397,1.0,0.18,141.05078927368058,-1.374347595536805,909.2269037494614,109.46173701989751,-4.783114326821655,6.11128031714587,1.0,915.9531547972468,0.08639999999999999,1.0,125.24276516938305,8816.380325529824,1.0,1.0,-23.238290262161403,17.30897525541253,-1.7495623209599935,-44.75162867952077,1.0,914.1395940083593,0.0,1.0,14.839848099101932,5.3458670676835345
2.13,2.13,1.0,18.839792070311308,-2.869398819674505,10.059034450696792,0.17125249046268673,0.011441498402248363,-0.02807213924171957,21.54890690775797,0.17391483081372833,1.0,0.18,141.05078927368058,-1.374347595536805,909.2269037494614,109.46173701989751,-4.783114326821655,6.11128031714587,1.0,915.9531547972468,0.08639999999999999,1.0,125.24766928755207,8742.92743983617,1.0,1.0,-23.238290262161403,17.30897525541253,-1.7495623209599935,-44.75162867952077,1.0,914.1395940083593,0.0,1.0,14.839848099101932,5.3458670676835345
2.16,2.16,1.0,18.878747818955866,-2.8442198059936676,10.1123734081218,0.18269025599552394,0.009988729950375306,-0.056996108115185753,21.604555109092768,0.19163522823846751,1.0,0.18,190.00436705828406,-6.7630541423863,913.4058541307007,115.2037335087007,-9.07437232322746,6.781018722952416,1.0,913.6763894211925,0.08879999999999999,1.0,125.59993018810633,8805.022247913817,1.0,1.0,-25.62589539706921,17.34210345458531,-2.1099517755438617,-44.668515781259345,1.0,915.1593180340582,0.0,1.0,15.787336468965226,6.537389302551532
2.19,2.19,1.0,18.888375076231043,-2.753933569050341,10.170860598416503,0.18740538440422075,-0.011149820101311915,-0.09361258650057185,21.62871398015956,0.2097818222423297,1.0,0.18,190.00436705828406,-6.7630541423863,913.4058541307007,115.2037335087007,-9.07437232322746,6.781018722952416,1.0,913.6763894211925,0.08879999999999999,1.0,125.94927973194348,8849.30579115502,1.0,1.0,-25.62589539706921,17.34210345458531,-2.1099517755438617,-44.668515781259345,1.0,915.1593180340582,0.0,1.0,15.787336468965226,6.537389302551532
2.2199999999999998,2.2199999999999998,1.0,18.85204938171475,-2.8314532399658843,9.874814465872594,0.19369728472578204,0.03554468317795993,-0.12843317041967522,21.469253691643114,0.23511091398829523,1.0,0.18,190.00436705828406,-6.7630541423863,913.4058541307007,115.2037335087007,-9.07437232322746,6.781018722952416,1.0,914.5850533717918,0.09119999999999999,1.0,126.54347092295644,8950.203779163521,1.0,1.0,-24.221678696693292,17.349596290071524,-2.532626177594315,-44.71094573892703,1.0,915.1593180340582,0.0,1.0,16.664589105732002,6.092717508202919
2.25,2.25,1.0,18.72355823079745,-2.9394369493798154,10.599533675300082,0.20363924804211533,-0.0572755286004482,-0.15782950259995174,21.715479191932715,0.2639310163860381,1.0,0.18,190.00436705828406,-6.7630541423863,913.4058541307007,115.2037335087007,-9.07437232322746,6.781018722952416,1.0,914.5850533717918,0.09119999999999999,1.0,126.60032390336869,8999.601643483966,1.0,1.0,-24.221678696693292,17.349596290071524,-2.532626177594315,-44.71094573892703,1.0,915.381819116579,0.0,1.0,16.664589105732002,6.092717508202919
2.28,2.28,1.0,18.728685920387793,-3.0758192609250057,10.658339446316178,0.20874931098845664,-0.012516497323794654,-0.19079042600313084,21.767511115956932,0.2830793602470305,1.0,0.18,190.00436705828406,-6.7630541423863,913.4058541307007,115.2037335087007,-9.07437232322746,6.781018722952416,1.0,915.5563687903215,0.09359999999999999,1.0,128.33165871497667,9065.88192843417,1.0,1.0,-25.107732503920573,17.221886266866893,-2.8810374758206283,-44.59861741558843,1.0,915.381819116579,0.0,1.0,17.000054766654856,5.74894868245457
2.31,2.31,1.0,18.631170533389685,-3.1760404163227696,11.009619452621996,0.21577130457908414,-0.017754710473744325,-0.211895013597609,21.87280203041934,0.30293890871147156,1.0,0.18,190.00436705828406,-6.7630541423863,913.4058541307007,115.2037335087007,-9.07437232322746,6.781018722952416,1.0,915.5563687903215,0.09359999999999999,1.0,128.23600032851425,9164.764105011864,1.0,1.0,-25.107732503920573,17.221886266866893,-2.8810374758206283,-44.59861741558843,1.0,915.381819116579,0.0,1.0,17.000054766654856,5.74894868245457
2.34,2.34,1.0,18.621011688769382,-3.3089113120765226,11.24038434439606,0.2137774866435468,-0.028940005023989135,-0.24078734689321415,22.0008456790692,0.32329071145069016,1.0,0.18,190.00436705828406,-6.7630541423863,913.4058541307007,115.2037335087007,-9.07437232322746,6.781018722952416,1.0,917.643711286303,0.09599999999999999,1.0,128.8943008782349,9475.564808692456,1.0,1.0,-26.95675973703196,17.24060260260296,-3.26818585309673,-44.60662343530279,1.0,916.6009511540253,0.0,1.0,17.83355060716731,5.324767794126154
2.37,2.37,1.0,18.593155747426398,-3.4681988274728233,11.680619811124014,0.21002159833625497,-0.0435454576332998,-0.2616462171258357,22.229951032941166,0.33832531915963465,1.0,0.18,190.00436705828406,-6.7630541423863,913.4058541307007,115.2037335087007,-9.07437232322746,6.781018722952416,1.0,917.643711286303,0.09599999999999999,1.0,129.37012404873383,9440.841113446717,1.0,1.0,-26.95675973703196,17.24060260260296,-3.26818585309673,-44.60662343530279,1.0,916.6009511540253,0.0,1.0,17.83355060716731,5.324767794126154
2.4,2.4,1.0,18.49917523857415,-3.5349490810869284,11.90468608666019,0.20609190230409297,-0.03352131730223926,-0.27288834363830144,22.28086399436236,0.34360675051962075,1.0,0.18,190.00436705828406,-6.7630541423863,913.4058541307007,115.2037335087007,-9.07437232322746,6.781018722952416,1.0,915.8072554700811,0.09839999999999999,1.0,129.6968101620751,9175.67987565343,1.0,1.0,-26.164235860760158,17.213974086429083,-3.5489126949857166,-44.638014935884755,1.0,916.6009511540253,0.0,1.0,19.35979185274512,5.793189631138212
2.4299999999999997,2.4299999999999997,1.0,18.514306386718356,-3.573853881384185,11.947407398398747,0.20378971381134714,-0.02976973362904207,-0.2762826030518104,22.322466621994938,0.3445991312303894,1.0,0.18,190.00436705828406,-6.7630541423863,913.4058541307007,115.2037335087007,-9.07437232322746,6.781018722952416,1.0,915.8072554700811,0.09839999999999999,1.0,129.0075206332944,9420.534611195248,1.0,1.0,-26.164235860760158,17.213974086429083,-3.5489126949857166,-44.638014935884755,1.0,917.1834073870895,0.0,1.0,19.35979185274512,5.793189631138212
2.46,2.46,1.0,18.51361550452434,-3.679960866620294,12.018754185094217,0.20517245217864993,-0.05038152054846407,-0.2803622488920236,22.377366314893727,0.3510513115622397,1.0,0.18,190.00436705828406,-6.7630541423863,913.4058541307007,115.2037335087007,-9.07437232322746,6.781018722952416,1.0,919.7817745240183,0.10079999999999999,1.0,129.71627487388432,9285.758471241883,1.0,1.0,-27.794042553515805,17.20196534778472,-3.7930879259496333,-44.66009309536533,1.0,917.1834073870895,0.0,1.0,19.036605913225838,5.574278226210681
2.4899999999999998,2.4899999999999998,1.0,18.431702615179972,-3.7398059540913597,12.142071178538076,0.2076445064832174,-0.05330561636841755,-0.28140700481254094,22.38623912972821,0.3537621123956624,1.0,0.18,190.00436705828406,-6.7630541423863,913.4058541307007,115.2037335087007,-9.07437232322746,6.781018722952416,1.0,919.7817745240183,0.10079999999999999,1.0,130.59946377024693,9399.399441659943,1.0,1.0,-27.794042553515805,17.20196534778472,-3.7930879259496333,-44.66009309536533,1.0,917.1834073870895,0.0,1.0,19.036605913225838,5.574278226210681
2.52,2.52,1.0,18.438891545050417,-3.8680971032557903,12.438517123065344,0.19853927489249054,-0.039329670442839755,-0.27627270289906025,22.575907619210735,0.34247813509643316,1.0,0.18,232.27009779155512,-11.259517868078984,918.6837498745765,120.14073457461642,-13.905168408234552,6.616838154490946,1.0,919.6072435651654,0.10319999999999999,1.0,130.62124210572708,9804.551175530925,1.0,1.0,-29.078315664842236,17.119418050982734,-4.071655766647979,-44.698539475313844,1.0,917.8392348760916,0.0,1.0,19.825203928338073,4.571968510141216
2.55,2.55,1.0,18.380997971008505,-3.988498217501974,13.03686687170482,0.20396741627078452,-0.04640718074528161,-0.27142566312175737,22.8851284084619,0.3426780178622353,1.0,0.18,232.27009779155512,-11.259517868078984,918.6837498745765,120.14073457461642,-13.905168408234552,6.616838154490946,1.0,919.6072435651654,0.10319999999999999,1.0,131.53489537887165,9796.574780962275,1.0,1.0,-29.078315664842236,17.119418050982734,-4.071655766647979,-44.698539475313844,1.0,917.8392348760916,0.0,1.0,19.825203928338073,4.571968510141216
2.58,2.58,1.0,18.291673975021887,-4.241869401465342,12.779022300800762,0.20274485993578978,0.031122330906059266,-0.26336468197147556,22.713040390752273,0.33381886318982296,1.0,0.18,232.27009779155512,-11.259517868078984,918.6837498745765,120.14073457461642,-13.905168408234552,6.616838154490946,1.0,918.4326960798957,0.10559999999999999,1.0,131.86661461773605,9917.492956312832,1.0,1.0,-29.386033286793204,17.178590402878505,-4.332608677724295,-44.65772423249522,1.0,917.8392348760916,0.0,1.0,20.65346331797747,5.251323929258869
2.61,2.61,1.0,18.322215779792348,-4.387237738306334,13.511463132523167,0.1936693718083633,-0.09877243460480355,-0.23883366396334874,23.184285238825538,0.3229633701467769,1.0,0.18,232.27009779155512,-11.259517868078984,918.6837498745765,120.14073457461642,-13.905168408234552,6.616838154490946,1.0,918.4326960798957,0.10559999999999999,1.0,133.21676582409316,9758.320099956587,1.0,1.0,-29.386033286793204,17.178590402878505,-4.332608677724295,-44.65772423249522,1.0,918.2468273676784,0.0,1.0,20.65346331797747,5.251323929258869
2.6399999999999997,2.6399999999999997,1.0,18.288144926746824,-4.455691812931853,13.486213885569503,0.19676146793196045,-0.020331054744814062,-0.21582623668949358,23.155720661660506,0.29276166329170533,1.0,0.18,232.27009779155512,-11.259517868078984,918.6837498745765,120.14073457461642,-13.905168408234552,6.616838154490946,1.0,919.7103607321479,0.10799999999999998,1.0,133.79194474720242,9950.86542290041,1.0,1.0,-30.685258335822304,17.062809229663692,-4.6874183350665914,-44.67925619374277,1.0,918.2468273676784,0.0,1.0,21.474208874634442,4.812978092343899
2.67,2.67,1.0,18.203810312062796,-4.378409989813459,13.680206013793613,0.1980766675932732,-0.028700185020775832,-0.19155150235787136,23.188299215257185,0.27703798461698426,1.0,0.18,232.27009779155512,-11.259517868078984,918.6837498745765,120.14073457461642,-13.905168408234552,6.616838154490946,1.0,919.7103607321479,0.10799999999999998,1.0,134.51263066733378,9764.248544363343,1.0,1.0,-30.685258335822304,17.062809229663692,-4.6874183350665914,-44.67925619374277,1.0,918.2468273676784,0.0,1.0,21.474208874634442,4.812978092343899
2.6999999999999997,2.6999999999999997,1.0,18.20223747178846,-4.351799338013863,13.863047325239647,0.20150787955726704,-0.028102863867011274,-0.1692509732094631,23.29042051143671,0.26465276951799355,1.0,0.18,232.27009779155512,-11.259517868078984,918.6837498745765,120.14073457461642,-13.905168408234552,6.616838154490946,1.0,921.0570191292586,0.11039999999999998,1.0,133.0527120062417,10087.866752102753,1.0,1.0,-30.16407788544545,17.0913552734481,-5.002865937972491,-44.58995808656026,1.0,918.8417176234667,0.0,1.0,22.04962683467972,5.2053534454011965
2.73,2.73,1.0,18.087195397168045,-4.360934567140003,13.933822491975468,0.20479628002896655,-0.010571097333509484,-0.14493446047462757,23.244693950923402,0.2511160334299839,1.0,0.18,232.27009779155512,-11.259517868078984,918.6837498745765,120.14073457461642,-13.905168408234552,6.616838154490946,1.0,921.0570191292586,0.11039999999999998,1.0,133.5518889715778,10081.158979818034,1.0,1.0,-30.16407788544545,17.0913552734481,-5.002865937972491,-44.58995808656026,1.0,918.8417176234667,0.0,1.0,22.04962683467972,5.2053534454011965
2.76,2.76,1.0,18.153880561578735,-4.3470744414098785,14.001840751691205,0.20074860144304404,-0.024876798151937784,-0.12736071394774492,23.334780480624747,0.23903892470664628,1.0,0.18,232.27009779155512,-11.259517868078984,918.6837498745765,120.14073457461642,-13.905168408234552,6.616838154490946,1.0,918.1308063978951,0.11279999999999998,1.0,135.2732858865756,10261.883307765045,1.0,1.0,-30.317838313453535,17.076824193072085,-5.395255561868269,-44.52893464631155,1.0,918.8417176234667,0.0,1.0,23.687649259322704,5.269720717671612
2.79,2.79,1.0,18.063218029504263,-4.408848452627772,14.10903595797685,0.20602642727062506,-0.02831142831807383,-0.11367049175307269,23.340580239641213,0.23700085738809673,1.0,0.18,232.27009779155512,-11.259517868078984,918.6837498745765,120.14073457461642,-13.905168408234552,6.616838154490946,1.0,918.1308063978951,0.11279999999999998,1.0,135.94886557243592,10367.59493334953,1.0,1.0,-30.317838313453535,17.076824193072085,-5.395255561868269,-44.52893464631155,1.0,919.5569906750974,0.0,1.0,23.687649259322704,5.269720717671612
2.82,2.82,1.0,18.07269302342568,-4.327044662583509,14.139501907256662,0.1998108914438139,-0.009843717760760814,-0.09868211786547475,23.351039865845085,0.2230682664686767,1.0,0.18,232.27009779155512,-11.259517868078984,918.6837498745765,120.14073457461642,-13.905168408234552,6.616838154490946,1.0,919.8431902226758,0.11519999999999998,1.0,136.76614106922509,10411.556276124824,1.0,1.0,-32.648566012754415,17.059003386059498,-5.787892272919894,-44.556830717619626,1.0,919.5569906750974,0.0,1.0,23.91222863722918,4.47736547974133
2.85,2.85,1.0,17.9846796240729,-4.306725448810382,14.495026702046752,0.2028660006796364,-0.014389710012209152,-0.08695782702967828,23.496859031900886,0.22118621491338278,1.0,0.18,232.27009779155512,-11.259517868078984,918.6837498745765,120.14073457461642,-13.905168408234552,6.616838154490946,1.0,919.8431902226758,0.11519999999999998,1.0,136.65929899240885,10295.962898441492,1.0,1.0,-32.648566012754415,17.059003386059498,-5.787892272919894,-44.556830717619626,1.0,919.5569906750974,0.0,1.0,23.91222863722918,4.47736547974133
2.88,2.88,1.0,17.969874435155035,-4.118886732771044,14.255388915551512,0.2027702981482729,0.0008263018560941349,-0.07761011382084175,23.30445726178288,0.21711703377022468,1.0,0.18,270.5015201915688,-15.323042838500077,917.3651212085255,124.89131103610241,-18.35370140725211,7.046455277535641,1.0,918.6460861848451,0.11759999999999998,1.0,137.53901017009142,10501.949886818147,1.0,1.0,-31.88607939917869,16.98166259289843,-6.2263636881634765,-44.472932732737625,1.0,920.2455313074072,0.0,1.0,25.12026464743678,4.514233076992792
2.9099999999999997,2.9099999999999997,1.0,18.123190959404702,-4.10989003208771,14.43730857660235,0.2054508704920991,-0.02790105185564574,-0.07910737593726985,23.53246960187005,0.22191553755492932,1.0,0.18,270.5015201915688,-15.323042838500077,917.3651212085255,124.89131103610241,-18.35370140725211,7.046455277535641,1.0,918.6460861848451,0.11759999999999998,1.0,137.20117491972064,10432.923310835882,1.0,1.0,-31.88607939917869,16.98166259289843,-6.2263636881634765,-44.472932732737625,1.0,920.2455313074072,0.0,1.0,25.12026464743678,4.514233076992792
2.94,2.94,1.0,17.934985711207794,-3.845941682528725,14.432687473518639,0.2083345247436744,-0.028707255016933775,-0.08132920681042992,23.340039579977184,0.22548130869585092,1.0,0.18,270.5015201915688,-15.323042838500077,917.3651212085255,124.89131103610241,-18.35370140725211,7.046455277535641,1.0,927.3006510807121,0.11999999999999998,1.0,137.35219450416915,10536.791988155255,1.0,1.0,-35.277051974368895,16.999774038568006,-6.759580058415873,-44.371944954385995,1.0,920.2455313074072,0.0,1.0,25.49183033182381,5.229206290013102
2.9699999999999998,2.9699999999999998,1.0,17.898909641956685,-3.863493919340149,14.692552788635066,0.21357502209727092,-0.013351809241563642,-0.10503719106274576,23.476981472977663,0.23838072988441122,1.0,0.18,270.5015201915688,-15.323042838500077,917.3651212085255,124.89131103610241,-18.35370140725211,7.046455277535641,1.0,927.3006510807121,0.11999999999999998,1.0,138.16051067643969,10496.534152037586,1.0,1.0,-35.277051974368895,16.999774038568006,-6.759580058415873,-44.371944954385995,1.0,920.537544790986,0.0,1.0,25.49183033182381,5.229206290013102
3.0,3.0,1.0,17.916272203453094,-3.8035369055036297,14.520149954959171,0.21186632674698713,-0.025909771116963166,-0.12177327592921215,23.37294284796536,0.24573845319592655,1.0,0.18,270.5015201915688,-15.323042838500077,917.3651212085255,124.89131103610241,-18.35370140725211,7.046455277535641,1.0,922.7528357278643,0.12239999999999998,1.0,138.2500387721037,10611.36888777155,1.0,1.0,-33.17910108657562,16.980646278979876,-7.204924744888156,-44.37691314154496,1.0,920.537544790986,0.0,1.0,25.91962413162566,3.9435639845311368
3.03,3.03,1.0,17.967194641177283,-3.6955841213019345,14.488980158430513,0.2085514579846975,-0.0600215968689988,-0.14678190713549358,23.375371040968776,0.2619947155585019,1.0,0.18,270.5015201915688,-15.323042838500077,917.3651212085255,124.89131103610241,-18.35370140725211,7.046455277535641,1.0,922.7528357278643,0.12239999999999998,1.0,137.9042510245505,10692.792399709311,1.0,1.0,-33.17910108657562,16.980646278979876,-7.204924744888156,-44.37691314154496,1.0,920.537544790986,0.0,1.0,25.91962413162566,3.9435639845311368
3.06,3.06,1.0,17.899826092386093,-3.7827724794879845,14.649665711167758,0.21709010815071436,-0.05204240466126316,-0.17337795432146444,23.437701406456263,0.282659586755007,1.0,0.18,270.5015201915688,-15.323042838500077,917.3651212085255,124.89131103610241,-18.35370140725211,7.046455277535641,1.0,924.6603133670285,0.12479999999999998,1.0,139.06035233653446,10645.18599852494,1.0,1.0,-34.88883256308541,16.923712156155457,-7.552434492521482,-44.266050342668194,1.0,922.184541204691,0.0,1.0,27.029907168345304,4.499597813596171
3.09,3.09,1.0,17.915493061727403,-3.772083373290649,14.817969274422088,0.21501436065578203,-0.07270086320828154,-0.20016282617477082,23.553465096192863,0.30262476399282906,1.0,0.18,270.5015201915688,-15.323042838500077,917.3651212085255,124.89131103610241,-18.35370140725211,7.046455277535641,1.0,924.6603133670285,0.12479999999999998,1.0,138.33733936031666,10775.633047206973,1.0,1.0,-34.88883256308541,16.923712156155457,-7.552434492521482,-44.266050342668194,1.0,922.184541204691,0.0,1.0,27.029907168345304,4.499597813596171
3.12,3.12,1.0,17.81286890195142,-3.8596207625113808,15.284955566114071,0.21405390370190625,-0.0741131259537828,-0.2297119073237163,23.787072909599416,0.3226133746374534,1.0,0.18,270.5015201915688,-15.323042838500077,917.3651212085255,124.89131103610241,-18.35370140725211,7.046455277535641,1.0,921.7026896302758,0.12719999999999998,1.0,138.4265692291626,10659.397937123027,1.0,1.0,-34.88552889507915,16.870885050930802,-7.948855980701189,-44.269259264209914,1.0,922.184541204691,0.0,1.0,27.010507107517192,3.38521793168738
3.15,3.15,1.0,17.697478507830855,-4.153374850705575,15.62414777461433,0.20928772772181764,-0.0717657528751027,-0.2529731170330788,23.970090985822196,0.3360759946829344,1.0,0.18,270.5015201915688,-15.323042838500077,917.3651212085255,124.89131103610241,-18.35370140725211,7.046455277535641,1.0,921.7026896302758,0.12719999999999998,1.0,140.62750683646044,11044.456354341104,1.0,1.0,-34.88552889507915,16.870885050930802,-7.948855980701189,-44.269259264209914,1.0,922.6430398607754,0.0,1.0,27.010507107517192,3.38521793168738
3.1799999999999997,3.1799999999999997,1.0,17.618877653825617,-4.324268138910631,16.15744787282595,0.206125232741619,-0.11104229468852109,-0.2731312072476025,24.293770116652563,0.3597480495499757,1.0,0.18,270.5015201915688,-15.323042838500077,917.3651212085255,124.89131103610241,-18.35370140725211,7.046455277535641,1.0,919.2103355618196,0.1296,1.0,140.17168272320606,11210.419481033727,1.0,1.0,-33.63025017902311,16.718527143379536,-8.21865930664025,-44.286034422920245,1.0,922.6430398607754,0.0,1.0,28.340535280321202,4.762411707355387
3.21,3.21,1.0,17.604220951869017,-4.438925960942198,16.24826454809172,0.2039458699346765,-0.0791900737477886,-0.2750607973316815,24.364292721803455,0.35145899884955645,1.0,0.18,270.5015201915688,-15.323042838500077,917.3651212085255,124.89131103610241,-18.35370140725211,7.046455277535641,1.0,919.2103355618196,0.1296,1.0,141.07185216381458,10993.822455997084,1.0,1.0,-33.63025017902311,16.718527143379536,-8.21865930664025,-44.286034422920245,1.0,922.6430398607754,0.0,1.0,28.340535280321202,4.762411707355387
3.2399999999999998,3.2399999999999998,1.0,17.55916663598618,-4.615421780691342,16.591602832905444,0.20346945365694624,-0.11269241531572347,-0.27918966648087906,24.59487214296684,0.36338171240563577,1.0,0.18,311.5645540561862,-21.36526918358212,921.9622455085765,128.62952173534805,-24.149899113577803,8.551283787492027,1.0,923.920120279925,0.132,1.0,140.77453263821457,11148.341297398489,1.0,1.0,-36.508026496218484,16.575408477414964,-8.43171191427611,-44.214904676509335,1.0,923.342007926935,0.0,1.0,28.819206523561835,3.446365020944357
3.27,3.27,1.0,17.499923644027003,-4.88069613671356,17.421591127981984,0.202673895579157,-0.09508924832471263,-0.27219951073386006,25.17102222310978,0.3524361598076206,1.0,0.18,311.5645540561862,-21.36526918358212,921.9622455085765,128.62952173534805,-24.149899113577803,8.551283787492027,1.0,923.920120279925,0.132,1.0,140.81875658832118,11097.29627644588,1.0,1.0,-36.508026496218484,16.575408477414964,-8.43171191427611,-44.214904676509335,1.0,923.342007926935,0.0,1.0,28.819206523561835,3.446365020944357
3.3,3.3,1.0,17.491630452972945,-5.195838065062299,17.252065274349352,0.20116937664768253,0.006960598088320893,-0.2548702091415562,25.111503844495886,0.3247712911179572,1.0,0.18,311.5645540561862,-21.36526918358212,921.9622455085765,128.62952173534805,-24.149899113577803,8.551283787492027,1.0,922.716463234001,0.13440000000000002,1.0,140.97414034468926,11205.485602101708,1.0,1.0,-36.72018776713252,16.56387240844177,-8.812258977286069,-44.171232064111145,1.0,923.342007926935,0.0,1.0,30.178805841573492,3.79800342882676
3.33,3.33,1.0,17.39441505546611,-5.291083477744746,18.327365900944212,0.19618844062103066,-0.14069233617196716,-0.22649852177969673,25.81576224629794,0.3310374873926294,1.0,0.18,311.5645540561862,-21.36526918358212,921.9622455085765,128.62952173534805,-24.149899113577803,8.551283787492027,1.0,922.716463234001,0.13440000000000002,1.0,141.8028398019588,11231.577735448087,1.0,1.0,-36.72018776713252,16.56387240844177,-8.812258977286069,-44.171232064111145,1.0,924.4414992481386,0.0,1.0,30.178805841573492,3.79800342882676
