time_s,x_m,y_m,altitude_m,vx_mps,vy_mps,vz_mps,speed_mps,mass_kg,roll_deg,pitch_deg,yaw_deg,p_dps,q_dps,r_dps,alpha_deg,beta_deg,qbar_pa,mach,airspeed_mps,load_factor_g,density_kgpm3,pressure_pa,temperature_k,wind_x_mps,wind_y_mps,wind_z_mps,thrust_n,mass_flow_kgps,propulsion_throttle_actual,propulsion_health,energy_j_per_kg,target_distance_m,guidance_mode,pitch_command_deg,heading_command_deg,roll_command_deg
0.0,0.0,0.0,900.0,84.0,1.0,10.0,84.59905436823747,18.0,0.5000000000000002,7.000000000000002,0.5000000000000002,0.0,0.0,0.0,0.7027195106788418,-6.575927884762318,4245.2587978967495,0.25819853852765123,86.96693879077696,1.714136124610442,1.1226019692711875,90970.07887058289,282.29999999999995,-1.9676325000958201,10.199960284633255,0.6098277050743938,319.2,0.17131232378029196,0.84,nominal,12404.484999999999,nan,altitude_hold,15.25,4.0,0.0
0.03,2.534917747096986,0.031451836310459225,900.2932351078515,84.49725823656621,1.0483945436819742,9.774503595049893,85.0671893337603,17.994860630286592,0.6057095375663482,7.244332899883243,0.3311889142065799,2.825979473217362,-8.197941717918699,-5.504790836600361,1.180642235542249,-6.436718190671953,4326.080389227608,0.260649378023256,87.79213898436961,1.7390493033531829,1.1225697119109015,90966.85070204125,282.29809397179895,-2.3218051809443208,10.369162498531415,0.6622492368240069,324.87,0.17435537163691558,0.84,nominal,12447.074004643322,nan,altitude_hold,15.220420252283517,4.0,0.0
0.06,5.08492157350565,0.0641284822138578,900.5801955381269,85.00012754695547,1.0892215301132857,9.565347675846823,85.54357931896577,17.989629969137486,0.7733279507484739,7.581084037335157,0.03283198120118,4.304184402864207,-11.342946232126915,-9.726387473137638,1.6576232471730916,-6.20532343681033,4311.700588260823,0.26022033926175364,87.64734023419744,1.7675323351040324,1.122538145483724,90963.69170001431,282.29622872900217,-1.6906756273211654,10.478617431996417,0.6996756919703497,330.53999999999996,0.17739841949353916,0.84,nominal,12490.526755924066,nan,altitude_hold,15.220420252283517,4.0,0.0
0.09,7.650192641173543,0.09771961875736018,900.8614052225489,85.50903558892979,1.1197045514500794,9.373656147401986,86.02856697168171,17.984308016552678,0.9688988228480593,7.851629689523919,-0.34950612923945135,4.807814304354978,-9.209174892105562,-12.490725525391564,2.0062800249396826,-5.637401225345003,4366.462617758928,0.26187208397075407,88.2033948555261,1.795215864520081,1.1225072123130193,90960.59609121399,282.2944008660534,-1.7771605889095,10.26356143876428,0.5788450597255462,336.21,0.18044146735016278,0.84,nominal,12534.889667126272,nan,altitude_hold,15.220420252283517,4.0,0.0
0.12,10.230924445829192,0.13184000344106606,901.1372170935815,86.0243934885216,1.1373461561235294,9.193729034420704,86.52175729205456,17.978894772532172,1.1685188670191922,8.029657779784818,-0.7654129241082371,4.738782117596157,-6.189343186477616,-13.617646644030236,2.3429089404034547,-5.3696885746345195,4423.8332396583655,0.26359122776733873,88.78215258534568,1.8237901656993203,1.122476873537278,90957.55998541687,282.2926080888917,-1.8388571550457353,10.54487270488081,0.6019743668514349,341.88,0.18348451520678638,0.84,nominal,12580.144532463368,nan,altitude_hold,15.220420252283517,4.0,0.0
0.15,12.827319462532476,0.16624516119947308,901.407905195046,86.54650055677612,1.1468385919469004,9.022936715486319,87.02313131778067,17.973390237075968,1.364625907210867,8.161076295583593,-1.1927996219644768,4.530723089653587,-4.691314513230152,-14.004067427900724,2.5765498234750144,-5.07542562592562,4457.370062572704,0.26459281006524665,89.11922535268933,1.853847125711852,1.122447098976288,90954.5803612807,282.29084861623215,-1.6472165867153234,10.771679760957285,0.56912004202041,347.55,0.18652756306341,0.84,nominal,12626.304525656848,nan,altitude_hold,15.220420252283517,4.0,0.0
0.18,15.439605585604953,0.2007383539213558,901.6736660832258,87.07620410241594,1.1497730907294241,8.858696272657719,87.53321540248001,17.967794410184066,1.5570131524694015,8.289851236240462,-1.6226246254941559,4.363081078063193,-4.652607490635847,-14.066153208733118,2.992053941464957,-4.759663168923093,4523.3600267318525,0.2665485072742638,89.77766175692454,1.8832535645803217,1.1224178669760116,90951.65505078957,282.289121170459,-1.7956082063332994,10.990019094412036,0.7964952030856683,353.21999999999997,0.18957061092003358,0.84,nominal,12673.429956843547,nan,altitude_hold,15.220420252283517,4.0,0.0
0.21,18.067956462036925,0.2351473224042285,901.9348688289697,87.6116958810657,1.1469656160957569,8.706758191462951,88.0507377793364,17.962107291856466,1.7478392210419038,8.399229334711874,-2.050864740114772,4.289243255418387,-4.051696185773837,-14.01261876451343,3.156810275389381,-4.222666263629935,4536.423880894395,0.2669373564085216,89.90836178576309,1.9147070687148615,1.1223891369098067,90948.77998738666,282.28742335261165,-1.4180705940170897,10.805747813536053,0.7116267444947615,358.89,0.1926136587766572,0.84,nominal,12721.425793144344,nan,altitude_hold,15.220420252283517,4.0,0.0
0.24,20.71261017488827,0.26927271030146555,902.1916887301571,88.15512376171145,1.1375129299079016,8.560663372914181,88.57711182067705,17.956328882093167,1.9373031272277288,8.496258103133096,-2.474382904324772,4.241524632916613,-3.681617957433191,-13.852964785651787,3.3433803740160433,-3.6220323492349906,4605.843696664134,0.26897622134159893,90.59481310795061,1.9449029794042854,1.1223608894675077,90945.95323778421,282.28575402325396,-1.5982320357009334,10.562932300191012,0.6286551239337785,364.56,0.19565670663328083,0.84,nominal,12770.430493531958,nan,altitude_hold,15.220420252283517,4.0,0.0
0.27,23.37377828891973,0.3029164630969033,902.4443438318484,88.70560380104868,1.1214584265145917,8.42183672304213,89.11155451736101,17.950459180894168,2.1248322207412444,8.579037783351746,-2.891220919770399,4.1881801619130865,-3.2445803915424833,-13.634271514214555,3.5787631905125212,-3.5047124865416124,4656.790431439142,0.27046388190303106,91.09561223103783,1.9759171057921403,1.1223331006393211,90943.17239846296,282.284111765093,-1.5184049551298304,11.039444231004452,0.697047451186672,370.22999999999996,0.1986997544899044,0.84,nominal,12820.390398688898,nan,altitude_hold,15.220420252283517,4.0,0.0
0.3,26.05167059739277,0.33595731949937385,902.6930816768281,89.26307694910138,1.1013618800823521,8.291261499323072,89.65408480187753,17.94449818825947,2.3147796735600736,8.640707901210144,-3.3071488432870257,4.256014704927201,-2.5850878120075103,-13.618181299043327,3.8159658078262164,-3.06675765992262,4713.346712097913,0.2721054001089646,91.64823359655549,2.006723241294644,1.1223057431734365,90940.43474154602,282.2824949691006,-1.53828166027973,11.009197200680884,0.7848112517512189,375.9,0.20174280234652803,0.84,nominal,12871.32257025719,nan,altitude_hold,15.220420252283517,4.0,0.0
0.32999999999999996,28.74649109109931,0.36821043865014264,902.9381444882671,89.82734979021788,1.0751039716922928,8.168760381299142,90.20441932106867,17.938445904189074,2.5067621440721535,8.681664538517172,-3.722055450670542,4.316699695583877,-1.9391294658764868,-13.603042488041439,3.92181957411154,-2.7881068502989033,4799.203013141451,0.27457656530560864,92.48028957199315,2.03691087599625,1.1222787904055342,90937.73759802076,282.28090206082624,-1.7856561050862414,11.261622944976192,0.6924015513871429,381.57,0.20478585020315163,0.84,nominal,12923.216987171458,nan,altitude_hold,15.220420252283517,4.0,0.0
0.36,31.458462183425638,0.39951626262547485,903.179690318322,90.3990364108777,1.0435274658444067,8.051527668496348,90.762887962998,17.93230232868298,2.701891650662113,8.718258889757672,-4.1391016054135275,4.401560723226331,-1.8429517225638319,-13.672036086160318,4.233356510204261,-2.6610578107099405,4892.401239628532,0.2772338709847027,93.37503853611113,2.0675937637329085,1.1222522249307363,90935.07922552324,282.27933201293087,-2.087774470057682,11.752763823567387,0.9522395824445276,387.24,0.20782889805977525,0.84,nominal,12976.118025752034,nan,altitude_hold,15.220420252283517,4.0,0.0
0.39,34.187755006799634,0.4297283947656915,903.4180492571674,90.97642744579983,1.0070710713405557,7.945297961515141,91.32826672307357,17.926067461741187,2.9022583306998273,8.731353630739621,-4.561375826068428,4.543740041075414,-1.116119696190513,-13.875024018823696,4.06095378343348,-2.249292723782136,4921.320425333671,0.278056044765738,93.65169757428069,2.098234863904095,1.1222260104253214,90932.45598856955,282.27778267982836,-1.7586078148099848,11.751370725553507,0.5012588228173671,392.90999999999997,0.21087194591639885,0.84,nominal,13029.930764068235,nan,altitude_hold,15.267407616851782,4.0,0.0
0.42,36.93467682255365,0.45864503996575395,903.6531067940386,91.56406052513373,0.9638881733354147,7.835251229044026,91.90373997875867,17.919741303363697,3.1069075703359608,8.799673828444947,-4.991542618645631,4.6365150000675595,-3.017021727905524,-14.032646433673978,4.256426407790463,-1.7419945390264542,5051.273480821912,0.28170732392808917,94.88122341555835,2.1075866990406733,1.1222001594639537,90929.86914489465,282.27625480583873,-2.4216348930488962,11.680644079650007,0.46729653060992826,394.7778947368421,0.21187443146760623,0.84,nominal,13084.9584507834,nan,altitude_hold,15.267407616851782,4.0,0.0
0.44999999999999996,39.699198817803975,0.48605548564988954,903.8851702552518,92.15073317501094,0.9136815228045186,7.735448707102876,92.479346912256,17.913385070419668,3.3130742832352595,8.835041947512957,-5.4229907163959155,4.667728657512576,-1.972882026618235,-14.123404065150424,4.487417088002433,-1.500876877393639,5106.618156269142,0.2832503715901123,95.40067900110854,2.1075598054903013,1.1221746382294369,90927.31530992972,282.2747463933408,-2.342334370297614,11.956802177251287,0.636207482743509,394.7447368421052,0.2118566358661055,0.84,nominal,13140.300307542362,nan,altitude_hold,15.267407616851782,4.0,0.0
0.48,42.481231048498536,0.5118014188694744,904.1144624378957,92.73440768981877,0.8581977739861606,7.6430727547958845,93.05279917410274,17.907029371343686,3.521811703091149,8.819450245559086,-5.857115370670672,4.737275139945398,-0.33359756503073446,-14.305052021651852,4.65852867691668,-1.5013177744213935,5146.586512321436,0.2843606253026437,95.7743672665898,2.107158818592088,1.1221494222030528,90924.79202964937,282.27325599415366,-2.070653933551899,12.621158172466911,0.8340729333614545,394.7115789473684,0.2118388402646048,0.84,nominal,13195.745810134536,nan,altitude_hold,15.267407616851782,4.0,0.0
0.51,45.28071663752349,0.535762348574236,904.341101269571,93.31618630083189,0.7986976568253883,7.554627722511623,93.624894892888,17.900674206135747,3.737251114545552,8.789904460147387,-6.301300665758998,4.9149755036955804,0.05662105791281115,-14.664780717379076,4.662306640214036,-1.3182909088496892,5227.355856722415,0.2865872143913364,96.52404397572278,2.105405105063079,1.1221244984005174,90922.29800428802,282.2717828417478,-2.1828768210423295,13.059146037020213,0.735433210831727,394.67842105263156,0.21182104466310406,0.84,nominal,13251.3671326174,nan,altitude_hold,15.267407616851782,4.0,0.0
0.54,48.097615680771746,0.5577776549185367,904.5651042811293,93.89663477494186,0.7338435448100225,7.466767051940659,94.19590839635778,17.894319574795855,3.960472438365628,8.782094582868842,-6.758682836149564,5.111950294935137,-0.7516446486389403,-15.050753296316309,4.668962785733363,-0.597021506397563,5312.343593687268,0.28891144311585515,97.30660516789817,2.104210907763304,1.1220998648791065,90919.83303898897,282.27032682217265,-2.43272323890584,12.617688021869771,0.5382438047948799,394.6452631578947,0.21180324906160333,0.84,nominal,13307.187959206047,nan,altitude_hold,15.267407616851782,4.0,0.0
0.57,50.93186501066789,0.5775822500109148,904.7865279850464,94.47497766320478,0.6601531697459371,7.3807901305711585,94.76514796918804,17.887965477324006,4.185394818603778,8.786091768665644,-7.221044725748533,5.143804481987727,-1.2147312937932808,-15.18345446863638,4.884693875436159,-0.1291742138496706,5350.325428133768,0.2899463084358026,97.65490325267841,2.105516824714251,1.1220755154097124,90917.39650998898,282.26888756809717,-2.228389700579856,12.522309231131798,0.7303673342205703,394.6121052631579,0.21178545346010264,0.84,nominal,13363.141439475607,nan,altitude_hold,15.267407616851782,4.0,0.0
0.6,53.78336962080421,0.5949606855394964,905.0055862808343,95.05015367121051,0.5792811842860546,7.30194319293042,95.33197603115117,17.881611913720203,4.410360252457968,8.761161559648192,-7.6845954083081,5.141977622627759,-0.31576375639096704,-15.29031292886959,5.037542894858884,0.2530161663093077,5442.0620108652165,0.2924253274038188,98.4895968645122,2.104964020321919,1.1220514264567356,90914.98606178226,282.2674636891746,-2.485926180127443,12.631344969380677,0.8473652603645709,394.57894736842104,0.2117676578586019,0.84,nominal,13419.165859702935,nan,altitude_hold,15.267407616851782,4.0,0.0
0.63,56.652033935349614,0.6097163250627133,905.2224409018637,95.62214381818026,0.49185465077389734,7.228487367644563,95.89623214186486,17.875258883984444,4.636160078618671,8.715908092723508,-8.150776722366066,5.165821809607105,0.292475421605647,-15.430216700809009,5.070817518154188,0.9883872644680517,5572.854300407433,0.2959223624545616,99.66715834375728,2.102832296814381,1.122027580222625,90912.5999130854,282.26605413413785,-3.1426989382959114,12.18719382667262,0.7271544913175496,394.54578947368424,0.2117498622571012,0.84,nominal,13475.243319573477,nan,altitude_hold,15.267407616851782,4.0,0.0
0.6599999999999999,59.537767343481335,0.6215849082384624,905.4371629741079,96.19111360439064,0.3956194391916345,7.157402408137327,96.457841881443,17.86890638811673,4.859801004092567,8.680700494855413,-8.616926899307932,5.104800418070381,-0.10181109792246194,-15.40415250873108,5.109108506006448,1.3759730608225713,5626.509453670333,0.2973473763181728,100.1468578587601,2.102740068826728,1.1220039688744399,90910.23727974553,282.26465844066826,-3.0414873785956544,12.245646426361846,0.6874022893224219,394.5126315789473,0.21173206665560043,0.84,nominal,13531.362984492765,nan,altitude_hold,15.267407616851782,4.0,0.0
0.69,62.44051431624378,0.6303763535080354,905.6498067309981,96.7582324254149,0.2930481756524356,7.088125229675046,97.0179516305896,17.86255442611706,5.083690993655433,8.653807681304997,-9.085638782723366,5.108558649078547,-0.44551317806006824,-15.464982591349349,5.154890426002265,2.114224522111488,5644.204473249587,0.29781841114121405,100.30525721476577,2.103743289709112,1.121980586437358,90907.89756355714,282.2632762562485,-2.690687717721911,11.655719403976512,0.6115049813251566,394.4794736842105,0.21171427105409973,0.84,nominal,13587.632146476253,nan,altitude_hold,15.267407616851782,4.0,0.0
0.72,65.36021875270723,0.6358273218119634,905.8604124175681,97.3234812154484,0.18169894346426535,7.020189552334397,97.57651393522161,17.856202997985438,5.305176207098985,8.623142671430365,-9.551815015161269,5.04885293687643,-0.37293410321508813,-15.392472750564618,5.233667603208587,2.609825074114318,5729.513227776941,0.300064467809592,101.06148415608222,2.1037553894636107,1.1219574284751783,90905.58032028773,282.2619073192858,-2.892249113689258,11.535328866232947,0.5916545711408979,394.44631578947366,0.211696475452599,0.84,nominal,13644.044049309992,nan,altitude_hold,15.267407616851782,4.0,0.0
0.75,68.29679128509332,0.6377248650089383,906.0690939452616,97.88575107953665,0.06325143989916382,6.956050923115544,98.13261898876762,17.84985210372186,5.525399040075386,8.581887269678212,-10.01635059144543,5.024596504267812,-0.07586049786454778,-15.371858946897257,5.127505231866427,3.135656583152368,5793.31204865149,0.3017342803996563,101.62363158355849,2.104008950674369,1.121934482452005,90903.28429524679,282.2605508893558,-2.8869467313814114,11.35648725034341,0.27109040940143725,394.4131578947368,0.21167867985109828,0.84,nominal,13700.507934935617,nan,altitude_hold,15.158562670269607,4.0,0.0
0.78,71.25019045978993,0.6358518674674274,906.275843318831,98.44663915655396,-0.06243325138369771,6.891645785646122,98.68758503867868,17.84350174332633,5.743692751235164,8.467753190610743,-10.473404569064952,5.018024041165848,2.306777973008346,-15.367645462358858,5.139774224867602,3.7721539963696737,5891.946015720231,0.30429583367398483,102.48611472766186,2.1004363742783316,1.1219117492370145,90901.00957509971,282.25920701842756,-3.225860481770199,10.977978319818723,0.24214643570223168,394.38,0.21166088424959756,0.84,nominal,13757.149719265832,nan,altitude_hold,15.158562670269607,4.0,0.0
0.8099999999999999,74.2203576008618,0.6299702367917765,906.4805838531581,99.00557136906218,-0.1960543558550281,6.824684477569729,99.24070695860291,17.83715191679884,5.9607930053858,8.426961285156345,-10.93570298630608,4.972934499664002,-0.20156960851897524,-15.30206181633708,5.157519652920202,4.183463820255135,5997.102331826908,0.30700308350178657,103.39766629194587,2.1001967347723025,1.1218892372520761,90898.7570022416,282.25787620495447,-3.5650878755851383,11.000884551840038,0.1190289662579356,394.34684210526314,0.21164308864809683,0.84,nominal,13813.896776465223,nan,altitude_hold,15.158562670269607,4.0,0.0
0.84,77.20720435673593,0.6198815291213267,906.6834063917275,99.56155852913737,-0.33629025568166204,6.760751285649123,99.79140637265976,17.830802624139398,6.179060884730037,8.426842459252926,-11.40345755803148,4.990644268838202,-1.6269839385477811,-15.337527941508597,5.324792436423084,4.631569484283714,6055.637678227555,0.30850149978097513,103.90208550008404,2.103517088433973,1.1218669364986589,90896.52557590303,282.25655785845373,-3.524046737098866,10.891455942788085,0.20796001297394,394.31368421052633,0.21162529304659614,0.84,nominal,13870.689220208094,nan,altitude_hold,15.158562670269607,4.0,0.0
0.87,80.21060589643677,0.6053659110751354,906.8845485347932,100.11338465669495,-0.4838539348730423,6.704738102189842,100.3388131037467,17.824453865348,6.39831341993539,8.38573586409816,-11.869406600654754,5.037813573671901,-0.3210616022211806,-15.422498559459699,5.358600349177288,5.321778117135783,6129.987153443469,0.31039334929896445,104.53901082319774,2.103539330624212,1.1218448208431004,90894.31268085672,282.2552504345238,-3.6491627205917525,10.37152720230882,0.07908748994771136,394.2805263157895,0.2116074974450954,0.84,nominal,13927.438065423035,nan,altitude_hold,15.158562670269607,4.0,0.0
0.8999999999999999,83.23047190318756,0.5861580508143097,907.0840500625477,100.66220022502624,-0.6402620086941876,6.650050925149649,100.88365411150676,17.818105640424648,6.615614152034279,8.329548032715305,-12.332516661782291,4.999554923567988,0.13004902659432177,-15.387016894769964,5.276368891125335,6.108197951831351,6237.5186965396715,0.3131077365363989,105.45296135534066,2.1016195407176963,1.1218228859032846,90892.11787837355,282.2539536745934,-4.052986828785645,9.70705701879337,-0.27740516201193294,394.2473684210526,0.21158970184359466,0.84,nominal,13984.211632990951,nan,altitude_hold,15.158562670269607,4.0,0.0
0.9299999999999999,86.26672785434134,0.5619812463645925,907.2818512983197,101.2085317051259,-0.8058934816572407,6.593374525732617,101.426273429757,17.81175794936934,6.828306181305431,8.301590657301631,-12.793636270135867,4.8667430314386655,-0.8547447354660241,-15.21367886546862,5.516635854422292,6.808887190022583,6330.291830802141,0.3154314069969292,106.23531881026996,2.106033880906403,1.121801138232345,90889.94182390414,282.2526679665609,-4.352511827515228,9.104189965152592,-0.08489599116084384,394.21421052631575,0.21157190624209393,0.84,nominal,14041.04003795858,nan,altitude_hold,15.158562670269607,4.0,0.0
0.96,89.31919912441087,0.532560666508625,907.4782502156029,101.74904233565097,-0.9806859951989173,6.546630576107567,101.96414925425161,17.805410792182077,7.035070582261383,8.247457017266766,-13.245488618964103,4.724508747256936,-0.007561014917447307,-15.013865921575032,5.802469540250383,7.237538312472935,6403.225989289184,0.31724708775061916,106.84658706865605,2.110742505100053,1.121779545061364,90887.7812383833,282.25139137359855,-4.452778109226112,8.944715515716206,0.31342054747008796,394.1810526315789,0.2115541106405932,0.84,nominal,14097.66544904849,nan,altitude_hold,15.158562670269607,4.0,0.0
0.99,92.38772336900726,0.49768294259304907,907.6735441807399,102.28414148654618,-1.1625907971858642,6.509798837902185,102.49768142700326,17.79906416886286,7.239452684292625,8.157042573444508,-13.691180349000524,4.6931993686113085,1.1634762285778324,-14.965024039406993,5.718589095497995,8.020051992825394,6441.347738410634,0.3181938158804533,107.16519745606855,2.109027589014622,1.121758073690164,90885.63284968497,282.2501219628252,-4.278984778970085,8.159642856904092,0.04639214975737088,394.1478947368421,0.2115363150390925,0.84,nominal,14154.124110995777,nan,altitude_hold,15.158562670269607,4.0,0.0
1.02,95.4722612720979,0.4570827706411464,907.8675847851447,102.81793010302097,-1.3533390650634236,6.468020146827399,103.03006144768864,17.792718079411685,7.440187310653514,8.105575606611344,-14.136078789660436,4.593565322641272,-0.17403859855631867,-14.779812234668091,5.716120089825699,8.646519380992824,6537.911619532008,0.3205737702317769,107.96650630367941,2.110230151273286,1.121736740429661,90883.49828967621,282.2488606988965,-4.566625737453663,7.674643437259994,-0.1515857556546046,394.11473684210523,0.21151851943759178,0.84,nominal,14210.736431290487,nan,altitude_hold,15.158562670269607,4.0,0.0
1.05,98.57270794403625,0.41051711267717866,908.0604314366841,103.34822239794543,-1.5521885987989237,6.428221717982088,103.55957897131954,17.786372523828557,7.637409353985175,8.068433240942474,-14.577816041603397,4.502655761910475,-0.6852496572511098,-14.614651200356155,5.726996641319015,9.108157778076988,6601.780366422113,0.3221395641562781,108.49361139893458,2.111815663010067,1.1217155387425446,90881.37690406712,282.24760719566154,-4.561146415926483,7.455235888436079,-0.30216762302547095,394.0815789473684,0.21150072383609106,0.84,nominal,14267.32402830704,nan,altitude_hold,15.158562670269607,4.0,0.0
1.08,101.68897398872257,0.3577837468980356,908.252143166441,103.87553482287694,-1.7577788593047694,6.390390991898103,104.08676005278612,17.780027502113473,7.833292206121683,8.01795167775659,-15.016426558759472,4.48374722451298,-0.2811088771057988,-14.571366159583775,5.9891734394882885,9.581833864193046,6696.442137154146,0.32444465959425145,109.26970490574058,2.11809812262164,1.121694462133342,90879.26804276662,282.2463610694181,-4.842686556011664,7.16424339772492,0.017458445286692516,394.04842105263157,0.21148292823459033,0.84,nominal,14323.937688926315,nan,altitude_hold,15.158562670269607,4.0,0.0
1.1099999999999999,104.82087223514716,0.29864317641785176,908.443035115271,104.3966082141533,-1.9713523493394605,6.363064960998628,104.60892233649363,17.773683014266435,8.028284878652036,7.927535550977482,-15.44988671920444,4.495688105832406,1.0107240417776857,-14.588078831083767,6.024941139205297,9.999358049249658,6795.7041311491475,0.3268442268622602,110.0776131174785,2.118044080218996,1.1216734759511204,90877.16823856524,282.2451202717507,-5.12943799833213,7.0152661812435175,0.009577880067306137,394.0152631578947,0.2114651326330896,0.84,nominal,14380.29620651445,nan,altitude_hold,15.16198972173205,4.0,0.0
1.14,107.96829877809137,0.23288524750054224,908.6331373847488,104.91421809814017,-2.191930963910318,6.336742315929225,105.1282646278971,17.767339060287444,8.224378059539221,7.858686469017296,-15.888565792746656,4.528371449557581,0.22449770389055085,-14.663152012783332,6.047487578858195,10.589130181749463,6897.545183990803,0.3292879669514542,110.90039568176117,2.120261020417198,1.1216525768827883,90875.07715984955,282.24388460699913,-5.453237821707952,6.543925722257306,-0.11362543407691525,393.9821052631579,0.2114473370315889,0.84,nominal,14436.623168570726,nan,altitude_hold,15.16198972173205,4.0,0.0
1.17,111.13112739806262,0.1602502379106145,908.8225200689104,105.42762066570837,-2.4211669863309253,6.312756138720836,105.64419595451118,17.760995640176496,8.419300847577997,7.804180494711655,-16.32916809509242,4.496216090712732,-0.3081114766690829,-14.65960653069421,6.17835820183728,10.759021554028662,6978.13535182916,0.33120985908905204,111.54742357003558,2.124766531711977,1.1216317572189396,90872.9940351374,282.2426536195521,-5.559302590584117,6.830620865515939,0.056959406154468845,393.94894736842105,0.21142954143008816,0.84,nominal,14492.852435871357,nan,altitude_hold,15.16198972173205,4.0,0.0
1.2,114.30922297070475,0.08057318509323998,909.0113865591806,105.93651908807136,-2.6559017605791504,6.295549675670498,106.15664763159202,17.754652753933595,8.617162105167516,7.725446607989324,-16.773255519235157,4.595388228011976,0.4229372610886805,-14.894220319228165,6.254551491962364,11.113359119017844,7021.951698452343,0.3322518780396572,111.89811943421655,2.1273608308347924,1.121610994596972,90870.91662683511,282.2414259873653,-5.395098336604137,6.755860923664513,0.14097270439417794,393.91578947368424,0.21141174582858746,0.84,nominal,14548.973432189581,nan,altitude_hold,15.16198972173205,4.0,0.0
1.23,117.50248204866831,-0.006355097779410082,909.1997978616764,106.44196926545213,-2.8976094290883356,6.280376749863421,106.66645252201474,17.748310401558737,8.818211112652373,7.643171280727442,-17.224054753157777,4.692341094730265,0.4537409751613813,-15.135418514012656,6.075140314579358,11.331899318008732,7061.722034776176,0.3331952389887931,112.21558769769396,2.1226179883731393,1.1215902823080426,90868.8442636181,282.2402013138991,-5.145928965587352,7.0151775238497835,-0.21698775766439907,393.8826315789473,0.2113939502270867,0.84,nominal,14605.07024451582,nan,altitude_hold,15.16198972173205,4.0,0.0
1.26,120.71089744577013,-0.10068660841533263,909.3875372831791,106.94717990339392,-3.1443836878640847,6.257980716754992,107.17625091743359,17.741968583051925,9.025070630661533,7.604927445489884,-17.691867012254438,4.826448758572228,-1.1375972926967892,-15.466692475328383,6.106125773376307,12.005490437557759,7058.489920988228,0.3331227644098257,112.1909367156347,2.1275681680973677,1.1215696441708756,90866.77932858239,282.23898100765933,-4.644804252806158,6.338176135910756,-0.3840379825922783,393.8494736842105,0.211376154625586,0.84,nominal,14661.419672856431,nan,altitude_hold,15.16198972173205,4.0,0.0
1.29,123.93436301885144,-0.20270787636705523,909.5746366905344,107.44885243604374,-3.4007089317240875,6.236646911840934,107.68340854451063,17.735627298413156,9.230543323377056,7.553738454807935,-18.160126076109727,4.7903198572352474,-0.769799470138659,-15.547118561133615,6.21293765078165,12.307585614023397,7136.236802368981,0.33495615035629783,112.80815158643937,2.131924427920215,1.121549076679312,90864.72147082766,282.2377648615115,-4.740827690261688,6.4062486496327065,-0.3191383579662423,393.81631578947366,0.21135835902408526,0.84,nominal,14717.73834878322,nan,altitude_hold,15.16198972173205,4.0,0.0
1.3199999999999998,127.17273181520994,-0.31262730741533395,909.7612533421759,107.94562654528353,-3.663981034942625,6.22055505471852,108.18677531226737,17.729286547642435,9.436275272219056,7.474393433405094,-18.629484813667485,4.811794192065296,0.09425311368834302,-15.734634084929898,6.240701490709261,12.88231852842021,7257.048594822838,0.3377833596001931,113.76006832193636,2.1340920830383405,1.121528562543623,90862.66896036909,282.23655185327584,-5.207317477876352,5.992368276741827,-0.45172502588411306,393.7831578947368,0.21134056342258453,0.84,nominal,14773.89937132156,nan,altitude_hold,15.16198972173205,4.0,0.0
1.3499999999999999,130.4258468527877,-0.43072624215406863,909.9474381268082,108.43716791925861,-3.936631157957823,6.206159487741838,108.68593684010173,17.722946330739756,9.640776806750933,7.408221531147988,-19.102797350730242,4.773410269211483,-0.41719460993406476,-15.79353374665039,6.293110541556514,13.145815204297824,7319.436575919692,0.3392360166358476,114.24905518478009,2.1369705859596695,1.121508096167671,90860.62123722858,282.23534165217575,-5.172171752975641,6.139439493626046,-0.44495696576569554,393.75,0.21132276782108383,0.84,nominal,14829.852477511553,nan,altitude_hold,15.16198972173205,4.0,0.0
1.38,133.6935882283304,-0.5571936569794228,910.1332712416994,108.9247125180904,-4.215580494178473,6.194437163040671,109.18211926784714,17.716606647705124,9.847832569394937,7.347626315514378,-19.58359317066029,4.843826784170817,-0.6993730791758308,-16.006502726337782,6.387149332572466,13.806928841697259,7369.6276565974695,0.3404009681963695,114.64114619649794,2.1434056546184554,1.1214876687339594,90858.57741913303,282.2341337369289,-5.108586836431753,5.4936538327818605,-0.49359755224940993,393.71684210526314,0.2113049722195831,0.84,nominal,14885.72602833161,nan,altitude_hold,15.16198972173205,4.0,0.0
1.41,136.97579137200287,-0.6923297933795001,910.3188592794393,109.40677145574867,-4.504537880002574,6.186267924660769,109.67407356672079,17.710267498538535,10.053047731580769,7.2746620227499035,-20.063026345312917,4.80677976998885,-0.34348254381249926,-16.03310487434633,6.468697221260317,13.94425198867357,7458.0997702312925,0.342441969505657,115.32827359420347,2.1467008958055023,1.12146726852408,90856.53633358279,282.2329274146836,-5.262786716952078,5.898517362164602,-0.39245234036548843,393.68368421052634,0.2112871766180824,0.84,nominal,14941.379647711956,nan,altitude_hold,15.16198972173205,4.0,0.0
1.44,140.27231573964798,-0.836301517107892,910.5043309986492,109.88414558817034,-4.799057457613066,6.182390640329054,110.16250885919999,17.703928883239993,10.262299706509296,7.196206273148654,-20.55051005253457,4.928489235072057,-0.26871213211872336,-16.32871894112737,6.660245690678739,14.532702593217065,7534.356319727148,0.3441920575726958,115.91742408961022,2.156927621595979,1.121446881383794,90854.49656438954,282.23172184850876,-5.408182008517977,5.379421518735754,-0.21502842023559904,393.6505263157895,0.21126938101658166,0.84,nominal,14996.88647666456,nan,altitude_hold,15.16198972173205,4.0,0.0
1.47,143.58293748927156,-0.9894346159077008,910.6899090316508,110.35405832078632,-5.104436626660292,6.185934433389934,110.64510493445835,17.697590801809493,10.470968063580678,7.103441249846707,-21.035687418117615,4.942692636434557,0.1541079889830258,-16.34141596035318,6.612410835493019,15.150565143645261,7597.150047167326,0.34562726664732235,116.4005268168527,2.158100980623958,1.1214264828412237,90852.45566309811,282.23051559129425,-5.428271012329043,4.852394944070037,-0.47712511241720434,393.6173684210526,0.21125158541508093,0.84,nominal,15051.986819383888,nan,altitude_hold,15.158596041374494,4.0,0.0
1.5,146.90753106971982,-1.1520245941941964,910.8755042843716,110.81978601494218,-5.419665942883191,6.1865084240250425,111.12457261024923,17.69125325424704,10.67607934867748,7.037766809458821,-21.517032004494585,4.862039344618803,-0.7698294516187808,-16.054244901954124,6.831673753436667,15.661623524484897,7671.697943892948,0.34732278179894044,116.97129328030768,2.1714506322052136,1.1214060826897772,90850.41460956038,282.2293092221516,-5.5571594345358,4.439480952928462,-0.2545506506754341,393.58421052631576,0.2112337898135802,0.84,nominal,15106.972582995608,nan,altitude_hold,15.158596041374494,4.0,0.0
1.53,150.24585580217996,-1.3243730086691574,911.0614157156404,111.27749108200429,-5.744947149165366,6.197047708960839,111.59788456578998,17.684916240552635,10.876344110505798,6.942754072246491,-21.97977697503559,4.798272205553306,0.2486268452283542,-15.632441323044361,6.780451888303082,16.117503736711292,7763.526457566542,0.34939921797067464,117.6703431007579,2.1719744347418484,1.121385648069433,90848.37011612486,282.2281007978483,-5.782221336892012,4.192533677026365,-0.4797665526801923,393.5510526315789,0.21121599421207948,0.84,nominal,15161.504352207477,nan,altitude_hold,15.158596041374494,4.0,0.0
1.56,153.59777931243985,-1.506736855986516,911.2475726552569,111.73078367532968,-6.078794910578619,6.20523132055101,112.06794663957103,17.678579760726272,11.073733720375262,6.87338909530546,-22.42871112339716,4.779769593585876,-0.5584119254850108,-15.024406286474512,6.898377990467277,16.4219520641946,7849.5713259594295,0.3513340751578008,118.32170885548751,2.1815955912815466,1.121365186749259,90846.3229601299,282.22689077774083,-5.963786851649806,4.153610740946503,-0.37600940861532167,393.5178947368421,0.21119819861057876,0.84,nominal,15215.898340384545,nan,altitude_hold,15.158596041374494,4.0,0.0
1.5899999999999999,156.96309569149486,-1.699379842164186,911.4341643790972,112.17721263516663,-6.421432872588999,6.219724128009271,112.53286987792099,17.672243814767956,11.269556274997521,6.793895227825729,-22.849850465370952,4.857076619008761,-0.10094747726240548,-14.18760592548134,6.898882683100051,16.578379471016024,7855.1529578189275,0.35146293453248206,118.36485157031555,2.1826776040554043,1.1213446779266807,90844.2710603249,282.22567793153587,-5.5121833061976915,4.339406304822511,-0.38697780393048203,393.48473684210524,0.21118040300907803,0.84,nominal,15269.93924958882,nan,altitude_hold,15.158596041374494,4.0,0.0
1.6199999999999999,160.3417204268074,-1.9024742041753278,911.6211396496315,112.62082451041766,-6.769812067038064,6.232509017810017,112.99612664815723,17.665908402677683,11.466584250674435,6.723616416793941,-23.243042420126798,5.025114868239332,-0.26880518723212765,-13.221790649443172,6.821965047433395,17.05802962577818,7940.138621152345,0.3533630743797746,119.00451991747084,2.1850178551300616,1.121324127235244,90842.21498040171,282.22446259227735,-5.700494521093185,3.8901842213113427,-0.732094528948467,393.45157894736843,0.21116260740757734,0.84,nominal,15324.011767888253,nan,altitude_hold,15.158596041374494,4.0,0.0
1.65,163.73350833781421,-2.116311279272982,911.8084147128716,113.05959703356092,-7.127902503255151,6.242502108002854,113.45593112770926,17.659573524455457,11.65911623300285,6.678305622168399,-23.59394311272738,5.052875113764211,-0.8488007575911425,-11.683814882418275,6.90372787946217,17.12450117101143,8030.3323151852055,0.35536839766916434,119.67960837224642,2.1929874547163246,1.1213035438820347,90840.15564157005,282.2232453043663,-5.888899685809358,4.1320138018525885,-0.6624289661064112,393.4184210526316,0.2111448118060766,0.84,nominal,15377.910144171736,nan,altitude_hold,15.158596041374494,4.0,0.0
1.68,167.13828706663566,-2.3410712893060626,911.996169805297,113.4926242940481,-7.49200033443602,6.25850308084677,113.91169693659258,17.653239180101274,11.848746198252663,6.6120284842346155,-23.890344454779953,5.177678512213533,0.16377712056403762,-10.057964533238524,7.011148316168741,17.21463523153903,8071.34923019365,0.3562788565582011,119.98596980462708,2.1993305560033636,1.1212829080591133,90838.09106212544,282.22202489626557,-5.735198072953967,4.1667016146108535,-0.48197111929481484,393.3852631578947,0.21112701620457588,0.84,nominal,15431.564588108173,nan,altitude_hold,15.158596041374494,4.0,0.0
1.71,170.55592425866627,-2.5769113559282606,912.1845189404373,113.92123973435366,-7.861335554073267,6.278304504679264,114.3646211324083,17.646905369615137,12.036535031276813,6.539465448951274,-24.131725855571684,5.338223398581728,0.7123784652011041,-8.320647866541222,7.128509951761895,17.24795177139753,8137.58716894764,0.3577418579992622,120.4784114468386,2.2064939466676083,1.1212622072379463,90836.01998868558,282.2208006268871,-5.772497087978765,4.214114390714831,-0.25166478245152224,393.3521052631579,0.21110922060307516,0.84,nominal,15485.107596046884,nan,altitude_hold,15.158596041374494,4.0,0.0
1.74,173.9862824424243,-2.8239698411647782,912.3736143106694,114.34527279193527,-8.235282841217254,6.303179007734698,114.81459558322926,17.640572092997044,12.223423668169863,6.473687997395643,-24.319277793448656,5.5211952728485105,0.8384129597368426,-6.533522953187569,7.242114747314417,17.351969853426883,8234.351705859559,0.3598666559949533,121.19372577079851,2.2161061934599946,1.1212414246947013,90833.94074816201,282.2195715069806,-6.057837177119601,4.0240897817059125,-0.07789134758287092,393.31894736842105,0.21109142500157443,0.84,nominal,15538.52438424997,nan,altitude_hold,15.158596041374494,4.0,0.0
1.77,177.4291998478959,-3.082410929016533,912.5636468286517,114.76391351571878,-8.614702928391829,6.334417266078672,115.26098122994016,17.634239350246997,12.407631920984928,6.407961507747635,-24.44691386704608,5.663017952583565,1.2387228414040965,-4.5977061530159276,7.003619166826272,17.283083091601082,8280.408559465717,0.3608758169044156,121.53331894324499,2.2039912071703913,1.1212205394510386,90831.85124184599,282.21833629561377,-5.902369750717996,4.165151932343177,-0.4972008265184438,393.28578947368425,0.21107362940007374,0.84,nominal,15591.739184216505,nan,altitude_hold,15.158596041374494,4.0,0.0
1.7999999999999998,180.88473943385077,-3.3522425228228636,912.7543074844723,115.18465286516245,-8.994386460211022,6.355355194019983,115.70995541916763,17.627907141364993,12.592608887994759,6.400657747809815,-24.53014216668633,5.856450406666173,-0.35903476717577226,-2.7443098582552645,7.01720744118242,17.248201722523802,8234.89743504783,0.35988687321346086,121.20000305866837,2.207104572468584,1.1211995854719097,90829.75486794217,282.2170970013509,-5.1236497978404785,3.968557958066878,-0.5232437750393513,393.25263157894733,0.21105583379857298,0.84,nominal,15645.45892104548,nan,altitude_hold,15.158596041374494,4.0,0.0
1.8299999999999998,184.35289836928433,-3.6334931446735212,912.9456222008722,115.60529784778502,-9.375020728355258,6.377157213330062,116.15999327761563,17.621575466351036,12.776885198475483,6.366276428797833,-24.551636009694068,6.062891031362967,0.9617239033556609,-0.9462981879611746,7.054784101975047,17.184365513585252,8256.780001295712,0.3603688920054336,121.36206635129386,2.2112220974000696,1.1211785599113733,90827.65134181657,282.2158534556943,-4.851561452381945,3.745088201456653,-0.4608935517274021,393.21947368421047,0.21103803819707223,0.84,nominal,15699.510205084036,nan,altitude_hold,15.111596443758081,4.0,0.0
1.8599999999999999,187.83364213235998,-3.926195533370618,913.1376717994423,116.02479210252152,-9.756746289903232,6.401653285669307,116.61015241130937,17.615244325205122,12.95996382740761,6.266798869985134,-24.504977806666048,6.273739729073211,3.5769187196078183,0.7685104194894746,6.850215080717191,16.635322116342852,8303.182260245458,0.3613842922064826,121.70375529870955,2.1914085746825847,1.1211574538903892,90825.53977525617,282.2146051333036,-4.6416365208089925,4.503859182130185,-0.5303153142210447,393.18631578947367,0.21102024259557153,0.84,nominal,15753.7853718464,nan,altitude_hold,15.111596443758081,4.0,0.0
1.89,191.32714156616015,-4.230145662336434,913.3301103639791,116.44998112667263,-10.131670965527181,6.414618817895261,117.06577721749005,17.608913717927255,13.15607942922296,6.2942403883534785,-24.456255342113618,6.714862338005003,-0.5263260979023304,1.7792628651006528,6.79701851020483,16.12124753759754,8305.60118341774,0.3614411384369176,121.72262970696143,2.1907589439607165,1.1211363054273955,90823.42397192372,282.2133542826341,-4.115696714193755,5.085981695517695,-0.5667103562846677,393.1531578947368,0.2110024469940708,0.84,nominal,15808.906824568421,nan,altitude_hold,15.111596443758081,4.0,0.0
1.92,194.83346182171385,-4.545194252481963,913.5230161374997,116.87734185179028,-10.501619671517627,6.43019245068625,117.52422911475878,17.602583644517434,13.366739046536301,6.303724304738028,-24.392229141746178,7.256154019064295,0.17891894687112717,2.137276830938996,6.746157225685752,15.851176512813137,8374.257026674544,0.3629361757820459,122.22584230847873,2.1891177879098374,1.1211151059257385,90821.30307182713,282.21210039510623,-4.125783125712413,5.198308227029883,-0.7051097627019046,393.12,0.2109846513925701,0.84,nominal,15864.572700713969,nan,altitude_hold,15.111596443758081,4.0,0.0
1.95,198.3526140592949,-4.871281174337515,913.7164151771797,117.30507458603489,-10.86956406185174,6.446634655998899,117.98384230443521,17.596254104975657,13.589140661791946,6.278711996974738,-24.319586759747835,7.678740721663849,1.3717472191684663,2.1462289286295912,6.711290457955399,15.74057059034255,8402.709331490832,0.36355646317596496,122.4344635086938,2.185729721373078,1.121093852524134,90819.17678877994,282.2108433013483,-3.8899243816448394,4.922770948753444,-0.804036678339186,393.08684210526314,0.21096685579106939,0.84,nominal,15920.590605356207,nan,altitude_hold,15.111596443758081,4.0,0.0
1.98,201.88462739036086,-5.208380496187775,913.9102357890049,117.73377770219875,-11.236644061675362,6.460687060841191,118.44511412083513,17.589925099301926,13.820559515469153,6.27530681626212,-24.256362175844476,7.944396241318188,0.6065888040398577,2.008321836566009,6.664772748962333,15.666083983531417,8491.770327661467,0.3654823546305433,123.08276887665139,2.1857030193013123,1.1210725531035115,90817.04591129157,282.20958346737143,-4.089329344441342,4.65409004451079,-1.0215020180675556,393.0536842105263,0.21094906018956863,0.84,nominal,15977.020343349071,nan,altitude_hold,15.111596443758081,4.0,0.0
2.01,205.42947610729186,-5.556506457250925,914.1044962185249,118.16162389770022,-11.604198702104977,6.475347650666327,118.90650493920208,17.583596627496238,14.059739344926907,6.282888641341209,-24.203106512805658,8.166828842373052,0.17980827869009114,1.773458202105019,6.8462424552620815,15.547896021052487,8588.72383147041,0.36756717472191797,123.78459268449888,2.1983613522962906,1.1210512056608848,90814.91023903863,282.2083207745796,-4.3692868463370615,4.397454255690832,-0.7874617866193011,393.0205263157895,0.21093126458806793,0.84,nominal,16033.68131626964,nan,altitude_hold,15.111596443758081,4.0,0.0
2.04,208.98702186740667,-5.915716748800114,914.2995450501564,118.58485867049333,-11.97367638497298,6.5016277210508635,119.36502333219758,17.577268689558597,14.307519827888548,6.2407091305753175,-24.14940597684904,8.454603339411486,1.799119355968609,1.380590891845541,6.832940252340414,15.289176151514658,8633.462663886241,0.36852761442797005,124.10775856171183,2.1941232863783573,1.1210297718929634,90812.76594011739,282.20705295717397,-4.214808563298796,4.474455456285677,-0.739671983743405,392.9873684210526,0.2109134689865672,0.84,nominal,16090.220031014152,nan,altitude_hold,15.111596443758081,4.0,0.0
2.07,212.5572942583519,-6.285948367791452,914.4953400758201,119.00907969817463,-12.341053966377924,6.526500855455924,119.82511371588095,17.570941285489,14.571195635648953,6.227144291708133,-24.126067043588034,8.873687164829033,0.6307225431868916,0.636188238887651,6.893795237874181,15.04025593015115,8704.050160347875,0.3700354803200869,124.61527630641847,2.198752469589076,1.1210082564416597,90810.61347903217,282.2057802895072,-4.244133492872438,4.585313151465884,-0.6226685507964613,392.95421052631576,0.21089567338506648,0.84,nominal,16147.164665266442,nan,altitude_hold,15.111596443758081,4.0,0.0
2.1,216.14024256894666,-6.66718828746509,914.6920449631444,119.43161035315865,-12.707997322454629,6.55682957747843,120.28464058891444,17.564614415287448,14.852870130309798,6.205633395147985,-24.134258673825926,9.3596012144037,0.62458611259027,-0.44464821420592093,6.9368002419829855,14.879884059617616,8716.956365790918,0.370314128666852,124.70883301773537,2.200830149692148,1.1209866413259302,90808.45105703607,282.20450170773955,-3.8754499213067723,4.530337702383622,-0.5496269717585353,392.9210526315789,0.21087787778356573,0.84,nominal,16204.262123539982,nan,altitude_hold,15.111596443758081,4.0,0.0
2.13,219.73584984528645,-7.059437822547785,914.889716702027,119.8535758779931,-13.074984502756507,6.589057962753694,120.74456739466872,17.55828807895394,15.15198362844638,6.170548975391732,-24.179198353274113,9.80899913972917,0.7441111292610398,-1.7412370509094364,6.987131240570563,14.722022285050747,8776.560953108017,0.3715824800736025,125.1356844937735,2.2037773922595054,1.1209649202879444,90806.27804822235,282.2032168414368,-3.828254775821757,4.590542478886609,-0.4588818998674765,392.8878947368421,0.21086008218206503,0.84,nominal,16261.628517958783,nan,altitude_hold,15.111596443758081,4.0,0.0
2.16,223.3440604673426,-7.462725394639058,915.088446271499,120.27368740187116,-13.442919069709092,6.624318982398572,121.20376873818047,17.551962276488478,15.469007378961898,6.132873177082851,-24.27077528584582,10.240365579458782,0.40990218855341126,-3.258894098225545,6.928525164444747,14.48356670684968,8870.690174477577,0.37357428334257947,125.80616464007028,2.200939521688167,1.12094308333547,90804.09345310321,282.2019250992352,-3.964036872654152,5.0124335443004915,-0.5575253784926484,392.85473684210524,0.2108422865805643,0.84,nominal,16319.128889797563,nan,altitude_hold,15.111596443758081,4.0,0.0
2.19,226.9648485459135,-7.877047974418132,915.2882207630563,120.69293595236385,-13.810752659302466,6.659149718576887,121.66291938299138,17.54563700789106,15.80743979950013,6.109395534452873,-24.424460287338235,10.734856586247476,-0.6194340291165132,-5.116054888904551,6.929922338589017,14.217166834594218,8873.39687287962,0.3736357911326648,125.82658872316767,2.204462344944476,1.1209211318920926,90801.8974142543,282.2006265650401,-3.43556792265389,5.5008105277647115,-0.5177913241517139,392.8215789473684,0.21082449097906358,0.84,nominal,16376.844206542155,nan,altitude_hold,15.048912188039488,4.0,0.0
2.2199999999999998,230.59818930051566,-8.302413265793012,915.4891240086989,121.11135848673824,-14.178843045829336,6.696774854755543,122.12226471072657,17.539312273161688,16.167036046781224,5.990547156441604,-24.62031495490505,11.298498116596681,2.0203142652104584,-7.33219389986128,6.790242523431177,14.477980402592104,8944.263393419847,0.37512938878658436,126.32928437273469,2.191451221263115,1.1208990567516215,90799.68901084602,282.19932069394343,-3.501640391662102,5.129515417187962,-0.9108459377586088,392.7884210526316,0.21080669537756289,0.84,nominal,16434.805186998292,nan,altitude_hold,15.048912188039488,4.0,0.0
2.25,234.244069950964,-8.738965865160493,915.6907796720358,121.52935501494437,-14.551753312249367,6.721855444561458,122.58189505561792,17.532988072300363,16.546054266551906,6.0053569417371016,-24.914218229693237,11.610280516920643,-3.2175048521689598,-9.209859958610965,7.03799469544767,14.648642513543829,9014.541769561183,0.3766048670299812,126.82587468213738,2.217805199651676,1.1208768992703633,90797.47238031833,282.19800993213175,-3.5667025851072287,4.9329657533192455,-0.7697788731059805,392.7552631578947,0.21078889977606213,0.84,nominal,16493.019482184034,nan,altitude_hold,15.048912188039488,4.0,0.0
2.28,237.90218686504033,-9.187006773345914,915.8936839548021,121.93723046921153,-14.934696939514055,6.763476092209909,123.0344584091247,17.52666440530708,16.936727765959564,5.933257628578462,-25.233821722012717,11.914572661466407,-0.7506786028519972,-10.83894228887009,7.08938425265711,14.737718092336173,9096.755437466192,0.3783229557747576,127.4041624438791,2.2210317274508844,1.1208546049317492,90795.24206899633,282.19669105429375,-3.6571306100287067,5.082925673697543,-0.7977313536150322,392.7221052631579,0.21077110417456144,0.84,nominal,16550.587773768675,nan,altitude_hold,15.048912188039488,4.0,0.0
2.31,241.572386948824,-9.646726994553218,916.0978573737681,122.34000279278904,-15.324007373576796,6.805780632200685,123.4836836806333,17.520341272181845,17.341944744787956,5.85549084534236,-25.599917426558434,12.25406515369155,-1.1001336992347162,-12.363628543027907,7.263820579602484,14.779506398521923,9194.789858084316,0.38036075957096194,128.0901127224162,2.2350816221852656,1.1208321714877871,90792.99785218608,282.1953639270705,-3.852441868295789,5.37564171432707,-0.5473421967732186,392.68894736842105,0.2107533085730607,0.84,nominal,16607.961120683816,nan,altitude_hold,15.048912188039488,4.0,0.0
2.34,245.25442642658942,-10.11836525284956,916.3035483209005,122.73464925884734,-15.721275276544764,6.856364904413245,123.92724625648567,17.514018672924653,17.753693970455007,5.778106579223341,-26.01304564343385,12.32935363084732,-1.6711690497042295,-13.840359325618701,7.304184440784437,14.98066618323507,9285.757308348548,0.3822424126670216,128.72347240957444,2.242592351051265,1.1208095716535742,90790.73700055199,282.1940269359141,-4.00340058110058,5.502950492812001,-0.6756542429813512,392.6557894736842,0.21073551297155999,0.84,nominal,16664.84937449898,nan,altitude_hold,15.048912188039488,4.0,0.0
2.37,248.94809586352827,-10.602191336067346,916.5108065557272,123.12231456462845,-16.127536107259534,6.9086078275558185,124.36611526761317,17.507696607535507,18.16309593055072,5.707587738453936,-26.46665454301166,12.13376963525833,-2.4025166077086033,-15.03636716974886,7.441648389121492,15.388086447863675,9386.598713017112,0.3843171663577373,129.42185491617067,2.2610641120692705,1.1207867999697347,90788.45896818745,282.19267975738774,-4.294393865780092,5.227839365759736,-0.7690793964036037,392.62263157894733,0.21071771737005923,0.84,nominal,16721.366014488343,nan,altitude_hold,15.048912188039488,4.0,0.0
2.4,252.6530739699344,-11.098600661926449,916.7198254249971,123.49927021353794,-16.54697752863678,6.967295642331789,124.79749763988589,17.501375076014405,18.563219621213253,5.612033160111462,-26.931753453317878,11.808522790279385,-1.837405830222531,-15.645726108896548,7.619895754667427,15.468612003821955,9398.525974936294,0.3845661244525022,129.50538177546738,2.274916319472707,1.120763835201578,90786.16163107939,282.1913211347375,-3.8932291683003784,5.535426448013689,-0.4598467872903263,392.5894736842105,0.2106999217685585,0.84,nominal,16777.15818459271,nan,altitude_hold,15.048912188039488,4.0,0.0
2.4299999999999997,256.36912789349606,-11.607862107817803,916.930758196675,123.86846411872108,-16.97538152971183,7.03109238926486,125.22378464731271,17.49505407836135,18.961487869908105,5.505990599068694,-27.4039733203873,11.750823859273767,-1.6921922025080751,-15.971216255362316,7.627809128563042,15.523486429856302,9418.58063974665,0.3849811167448172,129.64481843680096,2.2757311861972274,1.1207406605191417,90783.8433058925,282.18995007172157,-3.4993841722524817,6.026055944000164,-0.4618405065743574,392.5563157894737,0.2106821261670578,0.84,nominal,16832.517140567696,nan,altitude_hold,15.048912188039488,4.0,0.0
2.46,260.0961168011805,-12.130178986089899,917.1435170314484,124.23296358948065,-17.41056260906982,7.091961159113162,125.64733521118517,17.488733614576336,19.362976032500757,5.432764085958439,-27.890989842518394,11.835654988132719,-2.9988213950286813,-16.065975686514008,7.6184891590687,15.664517824821411,9446.06252635049,0.3855473291423835,129.8351758880047,2.2800379447734467,1.1207172855828689,90781.50495932749,282.18856713929557,-3.1688421730346774,6.382418535346476,-0.6441124303043181,392.5231578947368,0.21066433056555708,0.84,nominal,16887.73189413242,nan,altitude_hold,15.048912188039488,4.0,0.0
2.4899999999999998,263.83387110626046,-12.665782117020575,917.3580609245049,124.5918101693325,-17.853437697689227,7.151463101884554,126.06747329661951,17.48241368465937,19.76349766420996,5.355757145122218,-28.372961604813202,11.84043367982133,-2.937065511259549,-15.93093547076697,7.674527238706139,15.789379763065162,9514.009177732234,0.3869365134830026,130.30266935772113,2.2891805973169035,1.1206937149072782,90779.14704329231,282.1871726039907,-3.1231399296293962,6.76615207284453,-0.6941065076397833,392.49,0.2106465349640564,0.84,nominal,16942.71333986223,nan,altitude_hold,15.048912188039488,4.0,0.0
2.52,267.5821663203568,-13.214912622022455,917.5744637040617,124.9431738032107,-18.30435016672932,7.213425985225159,126.48272383803995,17.476094288610447,20.16006218237642,5.262738962874676,-28.84290725512612,11.769356504084696,-2.4106506992655325,-15.71923792614905,7.743605790534559,15.947636574167666,9628.841853753354,0.38926974181448526,131.08806812446957,2.3001133324785346,1.1206699403909592,90776.7687476508,282.1857659859236,-3.413467760040917,7.10415509966108,-0.7277345934517315,392.45684210526315,0.21062873936255563,0.84,nominal,16997.271329228377,nan,altitude_hold,15.048912188039488,4.0,0.0
2.55,271.3407377621955,-13.777835457022844,917.7928269167696,125.28571472795517,-18.764094500012956,7.278773756930616,126.89200961725116,17.46977542642957,20.552178858174,5.177202268628935,-29.306294392565285,11.665290151577976,-2.677636413725816,-15.413504307013405,7.930140600100281,16.184268856094015,9747.351069096316,0.3916631070988737,131.89371129323047,2.3306246401077018,1.1206459508879691,90774.36895772653,282.184346625041,-3.791229217324767,7.178990725774949,-0.5984052696370865,392.4236842105263,0.2106109437610549,0.84,nominal,17051.26407843562,nan,altitude_hold,14.969743751881355,4.0,0.0
2.58,275.1091922035655,-14.354931821299287,918.0135275472841,125.61514804566656,-19.236545475881456,7.356687683816176,127.2923051643641,17.463457098116738,20.933349988345892,4.96605510410749,-29.702755745865442,11.537479176666713,1.9198043725672442,-14.803265280222307,7.87949938563536,16.454927626248626,9864.172153779797,0.3940084032882892,132.68315946585736,2.3183733548088346,1.120621704994167,90771.94353201249,282.1829120709426,-4.157020414053671,7.203755827372885,-0.7003319945293427,392.3905263157895,0.2105931481595542,0.84,nominal,17104.30283695037,nan,altitude_hold,14.969743751881355,4.0,0.0
2.61,278.88739596016154,-14.946411614783468,918.2362102184453,125.94012521986754,-19.715993116139366,7.422755705375529,127.68998718463894,17.45713930367195,21.314048526741136,4.9672124459498805,-30.14915508262352,11.401735757307941,-5.378388095589273,-13.814223045481958,8.085361479306927,16.66321139605174,9892.533888736138,0.3945797473808655,132.87522000375466,2.3564464092850805,1.1205972417626133,90769.49637752313,282.1814646335801,-3.9393901857953995,7.1474040532923455,-0.6700473661031527,392.3573684210526,0.21057535255805349,0.84,nominal,17157.187544545344,nan,altitude_hold,14.969743751881355,4.0,0.0
2.6399999999999997,282.6749614006295,-15.552647431982441,918.4613465903519,126.2521813489332,-20.207860573299104,7.504545730221741,128.07922989669638,17.45082204309521,21.685060794710395,4.858993848862551,-30.510410855103384,11.335782676560406,-1.040780527458506,-12.484970861901372,8.052289583098998,16.786091791366996,9941.57924612844,0.39556205568728986,133.20566814391353,2.351681476806578,1.1205725093903935,90767.02231258151,282.1800012471627,-3.8190584660816898,7.287792897148622,-0.8148075429813045,392.32421052631577,0.21055755695655273,0.84,nominal,17209.173530005675,nan,altitude_hold,14.969743751881355,4.0,0.0
2.67,286.4717692724838,-16.17379855979248,918.6887463924556,126.56026239514406,-20.705037593668035,7.579993403456788,128.46655167505418,17.444505316386515,22.05199588664909,4.779140717224842,-30.834551721036476,11.323503657792012,-1.5400707786851018,-10.983282316955014,8.135986522008285,16.674830288969794,10025.458747885332,0.39723274492086785,133.76792301048832,2.363504602931882,1.1205475287928088,90764.5234298204,282.178523148449,-3.879489922511398,7.797989300619354,-0.5995970332432037,392.2910526315789,0.210539761355052,0.84,nominal,17261.086444449258,nan,altitude_hold,14.969743751881355,4.0,0.0
2.6999999999999997,290.2776164024151,-16.810017833216083,918.9185652281852,126.86157099771023,-21.207309114120058,7.660627857654604,128.84988698110055,17.438189123545865,22.419083741710082,4.715210985495335,-31.122019518889516,11.44327522078229,-1.6411252901935622,-9.645720488847617,8.235585024575796,16.65771366141218,10015.375302242439,0.3970384530893538,133.70214143221997,2.373885227938347,1.1205222828894814,90761.99802104328,282.1770293260168,-3.3891609797596494,7.872856015164232,-0.42351952770498547,392.2578947368421,0.2105219657535513,0.84,nominal,17312.659435216174,nan,altitude_hold,14.969743751881355,4.0,0.0
2.73,294.0923532670147,-17.46145332212512,919.1508929064329,127.15789548665259,-21.714516296967897,7.7442559415879595,129.23089453646355,17.431873464573258,22.783230650866976,4.6347927623304646,-31.360329549480788,11.490825825167748,-0.5679696292889914,-8.33945989073038,8.230640934405027,16.49059863080011,10064.669826626328,0.3980199402592751,134.03229720568115,2.372808697320206,1.1204967618287764,90759.44510119686,282.17551919610816,-3.2172093376958335,8.320458916495975,-0.31111494986143895,392.22473684210524,0.21050417015205058,0.84,nominal,17364.103155268152,nan,altitude_hold,14.969743751881355,4.0,0.0
2.76,297.9159030694724,-18.128160224340164,919.3856975536793,127.45166008192271,-22.223563407168154,7.826821574881524,129.61123239949316,17.425558339468697,23.1474183908337,4.580227219696283,-31.575628402703682,11.56313039825787,-1.116401770346847,-7.2961734368870585,8.11530901598854,16.35659356905752,10222.68242841743,0.40113787712147725,135.08188993853025,2.3711715322341407,1.1204709691262924,90756.86502239239,282.17399296590105,-3.7277898770602276,8.90206172801034,-0.5555622011244714,392.1915789473684,0.21048637455054983,0.84,nominal,17415.629532972504,nan,altitude_hold,14.969743751881355,4.0,0.0
2.79,301.74815039945827,-18.81021698949787,919.622935443802,127.74157766619547,-22.73522550525691,7.907929670756315,129.989755346724,17.41924374823218,23.51187861534666,4.549804680706518,-31.773875738539353,11.622757387315074,-1.6775354392745667,-6.450349816745127,8.103741201431676,16.28482919838133,10313.20681718256,0.4029158366124977,135.68024133920585,2.3780720456993865,1.1204449095994746,90754.25826696263,282.17245091961524,-3.865030387122224,9.128068097381197,-0.6687321132738622,392.1584210526316,0.21046857894904913,0.84,nominal,17467.088507420543,nan,altitude_hold,14.969743751881355,4.0,0.0
2.82,305.58895048706245,-19.50774070784965,919.8626704411473,128.02666958680604,-23.25079061172595,7.991166578177184,130.365969995393,17.41292969086371,23.873868457278007,4.497236571187992,-31.93845903461888,11.6336833387493,-0.5930662934606773,-5.712203271574972,8.092248334516922,16.224331212040347,10366.51294755061,0.4039616376557471,136.03203489939864,2.378105076194441,1.1204185762475591,90751.62413505922,282.1708926421325,-3.7910496545167565,9.197326170051298,-0.7222214083156557,392.1252631578947,0.2104507833475484,0.84,nominal,17518.41432350153,nan,altitude_hold,14.969743751881355,4.0,0.0
2.85,309.43822048280117,-20.220810361260682,920.104857099587,128.30899985795722,-23.768988447034452,8.072888614656359,130.74148456755862,17.406616167363282,24.234679082099554,4.461023179539669,-32.089454987200675,11.633984088982448,-0.9429936704724242,-5.074124929075645,8.215783987669512,16.092575269711173,10413.850198080214,0.40488884076661463,136.34388552103653,2.393938732780158,1.120391974077166,90748.96312794542,282.16931842885265,-3.698771992247668,9.258348453083181,-0.4593038001866341,392.0921052631579,0.2104329877460477,0.84,nominal,17569.81419034025,nan,altitude_hold,14.969743751881355,4.0,0.0
2.88,313.29578916295213,-20.949548648863356,920.3497118363109,128.5856226716993,-24.291276253422478,8.161824557464387,131.1142396538055,17.4003031777309,24.59537395716932,4.401382930854815,-32.215862529775244,11.697648878004884,0.07378007893703839,-4.6470710503155725,8.102996237366165,15.822970271119797,10482.12304750665,0.40621991258666507,136.79173017893146,2.3807335424722718,1.120365079332005,90746.27286975707,282.16772687306394,-3.6078719221531395,9.794932807825743,-0.4977241746331063,392.05894736842106,0.210415192144547,0.84,nominal,17621.01942157733,nan,altitude_hold,14.969743751881355,4.0,0.0
2.9099999999999997,317.16169071114575,-21.693901254252562,920.5970689508972,128.86338493978803,-24.81175351297355,8.24523715287832,131.48908329681117,17.393990721966563,24.962686595924854,4.389065096096321,-32.36468060093085,11.8636322471957,-1.7001903870091142,-4.662752370785195,8.135159024514083,15.68950831652818,10490.980479174816,0.4063975904704437,136.85117207267126,2.3865084560606276,1.120337910228178,90743.5551831151,282.1661190518191,-3.234157401758884,9.869277863094304,-0.4558356361114321,392.0257894736842,0.21039739654304623,0.84,nominal,17672.662759345192,nan,altitude_hold,14.98952318187212,4.0,0.0
