time_s,x_m,y_m,altitude_m,vx_mps,vy_mps,vz_mps,speed_mps,mass_kg,roll_deg,pitch_deg,yaw_deg,p_dps,q_dps,r_dps,alpha_deg,beta_deg,qbar_pa,mach,airspeed_mps,load_factor_g,density_kgpm3,pressure_pa,temperature_k,wind_x_mps,wind_y_mps,wind_z_mps,thrust_n,mass_flow_kgps,propulsion_throttle_actual,propulsion_health,energy_j_per_kg,target_distance_m,guidance_mode,pitch_command_deg,heading_command_deg,roll_command_deg,elevator_command_deg,aileron_command_deg,rudder_command_deg,elevator_deg,aileron_deg,rudder_deg,throttle,elevator_saturated,aileron_saturated,rudder_saturated,elevator_failed,aileron_failed,rudder_failed,elevator_raw_rad,aileron_raw_rad,rudder_raw_rad,elevator_effective_rad,aileron_effective_rad,rudder_effective_rad,sensor_time_s,imu_valid,imu_ax_mps2,imu_ay_mps2,imu_az_mps2,gyro_p_rps,gyro_q_rps,gyro_r_rps,imu_accel_norm_mps2,imu_gyro_norm_rps,gps_valid,gps_latency_s,gps_x_m,gps_y_m,gps_z_m,gps_vx_mps,gps_vy_mps,gps_vz_mps,baro_valid,baro_alt_m,baro_bias_m,pitot_valid,pitot_airspeed_mps,pitot_qbar_pa,pitot_compressibility_factor,mag_valid,mag_heading_deg,mag_x_ut,mag_y_ut,mag_z_ut,radar_valid,radar_agl_m,optical_flow_valid,optical_flow_x_radps,optical_flow_y_radps,optical_flow_quality,horizon_valid,horizon_roll_deg,horizon_pitch_deg
0.0,0.0,0.0,20.0,85.0,0.0,8.0,85.37564055396598,18.0,0.0,6.000000000000002,0.0,0.0,0.0,0.0,0.623294571949261,-0.06711018850271284,4455.9528551248095,0.2509446755827931,85.37569911866022,1.746019585183223,1.2226496753673843,101084.96761777384,288.02,0.0,0.1,0.0,326.8,0.17539118863220368,0.86,nominal,3840.633,nan,pitch_program,13.0,0.0,0.0,-20.05352282957881,-0.0,0.0,-2.6999999999999997,0.0,0.0,0.86,0.0,0.0,0.0,0.0,0.0,0.0,-0.047123889803846894,0.0,0.0,-0.047123889803846894,0.0,0.0,0.0,1.0,17.089473733673106,-0.02973773807099401,0.17662175509873101,0.0016677683591043149,0.0011681274632859406,0.0012765720485123657,17.090412285001868,0.00240324973008537,1.0,0.0,-1.885154541229685,1.8645638091475825,21.162662438547994,85.32748210022089,0.18147237523479218,7.846341299741817,1.0,20.771163472887363,0.0,1.0,85.62705682436835,4465.525352623238,1.0,1.0,-0.8198733225718878,19.523475325297145,-0.00615746722134172,-43.81279554351524,1.0,20.39618647858491,1.0,-0.0077448575321814855,4.273240466216326,0.95,1.0,0.17459483210835952,5.697481511065039
0.03,2.565307560933383,1.2217430333078664e-05,20.23295089077774,85.51025203111277,0.00040724767776928884,7.765029692591357,85.86209226845746,17.994738264341034,0.000673747383345809,6.26558332753372,-0.001374797989615718,0.01756243361475289,-8.852793703250093,-0.04551240426293013,1.0768886693990771,-0.06510171809935367,4506.77464880038,0.2523751634672366,85.86215002704955,1.7743113335796261,1.2226223199868234,101082.17454514118,288.0184858192099,0.0,0.1,0.0,332.605,0.1785066900092231,0.86,nominal,3884.5669122115964,nan,pitch_program,12.985,0.0,0.0,-0.5455312201452301,-0.004788127875420492,-0.007134557937816902,-1.407318732087138,0.0,0.0,0.86,0.0,0.0,0.0,0.0,0.0,0.0,-0.02456234549991253,0.0,0.0,-0.02456234549991253,0.0,0.0,0.03,1.0,17.396244479696893,-0.010824585734829955,0.6886282541675013,0.00227870121700718,-0.15518965861156028,0.0009052063149970115,17.40987214316862,0.1552090268563067,1.0,0.0,-1.885154541229685,1.8645638091475825,21.162662438547994,85.32748210022089,0.18147237523479218,7.846341299741817,1.0,20.771163472887363,0.0,1.0,85.44847029073749,4493.7730199296575,1.0,1.0,-0.8198733225718878,19.523475325297145,-0.00615746722134172,-43.81279554351524,1.0,20.39618647858491,1.0,-0.0077448575321814855,4.273240466216326,0.95,1.0,0.17459483210835952,5.697481511065039
0.06,5.14610279332312,3.6098463717247685e-05,20.459392944229453,86.02650774632457,0.0007960344461389675,7.548068448390386,86.35701113959247,17.98938306364076,0.002020689479837296,6.57713211104879,-0.004100422884598769,0.0347369605127723,-10.384987158646082,-0.09004031867784736,1.5627716627554202,-0.06178977149160727,4558.7802424276815,0.2538305279368844,86.35706811695734,1.8034948466591951,1.222595729386636,101079.45957312656,288.01701394586246,0.0,0.1,0.0,338.40999999999997,0.18162219138624247,0.86,nominal,3929.4047922983764,nan,pitch_program,12.97,0.0,0.0,0.1697651899405778,-0.009205791367391612,-0.013519569004628034,-0.4610683788705086,0.0,0.0,0.86,0.0,0.0,0.0,0.0,0.0,0.0,-0.00804716128812303,0.0,0.0,-0.00804716128812303,0.0,0.0,0.06,1.0,17.704005520007758,-0.0357156743497916,1.2236155388168186,-0.0028398648926588497,-0.18272117719737893,-0.0019183912123168978,17.746276286835315,0.18275331366037664,1.0,0.0,-1.885154541229685,1.8645638091475825,21.162662438547994,85.32748210022089,0.18147237523479218,7.846341299741817,1.0,20.526029305832235,0.0,1.0,85.93810144655563,4525.844478454378,1.0,1.0,0.0725533958588471,19.05163326837083,-0.026694326149309312,-44.01670170914568,1.0,20.444379186459432,1.0,-0.00015378532105336023,4.219132041602078,0.9488515176394263,1.0,-0.15705021316647355,6.398144486116751
0.09,7.7425545492138514,7.044028552277052e-05,20.679880260885593,86.54839186302436,0.0011447273935174277,7.349577221871277,86.85988959655815,17.983934397899173,0.004022861586788246,6.769857752802997,-0.008117078151137347,0.051179692801134505,-6.424201120690086,-0.13264272572655222,1.916016123120113,-0.05725485391462907,4611.93088311428,0.25530927861793284,86.85994584260798,1.833254811996703,1.222569838463434,101076.81605335145,288.01558077830424,0.0,0.1,0.0,344.215,0.18473769276326188,0.86,nominal,3975.1205581235495,nan,pitch_program,12.955,0.0,0.0,-1.1038909878281002,-0.01316793741340867,-0.01904042789734508,-0.8467619442450636,0.0,0.0,0.86,0.0,0.0,0.0,0.0,0.0,0.0,-0.01477878390766501,0.0,0.0,-0.01477878390766501,0.0,0.0,0.09,1.0,17.977928047162976,0.0012041313682986162,1.4143950494266107,0.0012944011564939304,-0.11381446668299829,0.00022980794256292122,18.03348029845443,0.11382205898849188,1.0,0.0,-1.885154541229685,1.8645638091475825,21.162662438547994,85.32748210022089,0.18147237523479218,7.846341299741817,1.0,20.526029305832235,0.0,1.0,87.2304434445118,4643.934213558263,1.0,1.0,0.0725533958588471,19.05163326837083,-0.026694326149309312,-44.01670170914568,1.0,20.444379186459432,1.0,-0.00015378532105336023,4.219132041602078,0.9488515176394263,1.0,-0.15705021316647355,6.398144486116751
0.12,10.354871067217294,0.00011337552741571075,20.89472138156692,87.07721726678145,0.0014311747297646744,7.161370689377615,87.37120234450937,17.978392267116273,0.006637427966096754,6.867809070600483,-0.013338183679734284,0.06648874804711748,-3.2650607839979657,-0.17250212735531345,2.1662877728069043,-0.051596454709033235,4666.291839890564,0.2568128116668576,87.37125793354616,1.8633098382071789,1.2225446109534035,101074.24028216228,288.0141843110198,0.0,0.1,0.0,350.02,0.1878531941402813,0.86,nominal,4021.7707189991424,nan,pitch_program,12.94,0.0,0.0,-2.1499816310609483,-0.016590351396159886,-0.023600546617148707,-1.6286937563345945,0.0,0.0,0.86,0.0,0.0,0.0,0.0,0.0,0.0,-0.028426068554712927,0.0,0.0,-0.028426068554712927,0.0,0.0,0.12,1.0,18.243748750616977,-0.0030254724588755413,1.529084430628855,0.002941644333063235,-0.056309718083801266,-0.005848402991769782,18.307716319222166,0.05668898869810221,1.0,0.0,-1.885154541229685,1.8645638091475825,21.162662438547994,85.32748210022089,0.18147237523479218,7.846341299741817,1.0,20.83529655732889,0.0,1.0,87.2635643206756,4712.610003571058,1.0,1.0,-1.908460013037832,18.840833586036233,-0.005317375127170606,-44.081409785580014,1.0,20.159613397690396,1.0,-0.014860624364417168,4.181138572627053,0.9477631965460827,1.0,0.2899946626142533,7.474548969865008
0.15,12.983287108746325,0.0001623940471375142,21.104092353144516,87.6138680509677,0.0016339506573934482,6.979032385919814,87.8913919025401,17.972756671292064,0.009807535461777353,6.952659703702889,-0.0196598846399972,0.08031723673224374,-2.8283849462123873,-0.20878680273525618,2.398276853715593,-0.04493670403438889,4721.9264138390035,0.25834242826918874,87.89144693185884,1.8938987709551331,1.2225200261534905,101071.73014477247,288.01282339970453,0.0,0.1,0.0,355.825,0.1909686955173007,0.86,nominal,4069.4088325579096,nan,pitch_program,12.925,0.0,0.0,-2.2504886369390875,-0.019394882951889764,-0.02708167990764659,-2.0017706846972905,0.0,0.0,0.86,0.0,0.0,0.0,0.0,0.0,0.0,-0.03493748931786899,0.0,0.0,-0.03493748931786899,0.0,0.0,0.15,1.0,18.542975866172313,-0.026246263753822836,1.689676739726385,0.0012687560266606223,-0.04949776972835917,-0.005272934401120488,18.619818751120597,0.04979400352588027,1.0,0.0,-1.885154541229685,1.8645638091475825,21.162662438547994,85.32748210022089,0.18147237523479218,7.846341299741817,1.0,20.83529655732889,0.0,1.0,87.5396643283035,4739.75920147133,1.0,1.0,-1.908460013037832,18.840833586036233,-0.005317375127170606,-44.081409785580014,1.0,20.159613397690396,1.0,-0.014860624364417168,4.181138572627053,0.9477631965460827,1.0,0.2899946626142533,7.474548969865008
0.18,15.628035020259851,0.0002143722537698998,21.308198113786478,88.15826371711758,0.0017326068877461865,6.803525354732049,88.42040161564104,17.967027610426545,0.013468316345227608,7.050153873574927,-0.02695368773368122,0.09239039389295757,-3.2498553960537953,-0.24065379380371835,2.6371499494553583,-0.037422441325626776,4778.8453353826835,0.2598979624625718,88.42045620414927,1.9249649840159313,1.222496059970302,101069.28318030493,288.01149671226034,0.0,0.1,0.0,361.63,0.19408419689432013,0.86,nominal,4118.045751968193,nan,pitch_program,12.91,0.0,0.0,-2.043497958088828,-0.02152142566930316,-0.029392758019569868,-2.026807048732213,0.0,0.0,0.86,0.0,0.0,0.0,0.0,0.0,0.0,-0.035374456303006285,0.0,0.0,-0.035374456303006285,0.0,0.0,0.18,1.0,18.748351896414825,-0.03951367489207594,1.9094872717176496,0.0017522645783197186,-0.05928945619053886,-0.005087195096081063,18.845381444883426,0.05953309668132384,1.0,0.0,-1.885154541229685,1.8645638091475825,21.162662438547994,85.32748210022089,0.18147237523479218,7.846341299741817,1.0,20.08230530461684,0.0,1.0,88.03086637616704,4843.146987764626,1.0,1.0,-0.569848787389592,18.729985170194336,0.03056334149763826,-44.22119728834879,1.0,21.36183193514368,1.0,0.004991311376282403,4.138844749292004,0.9467295047155339,1.0,-0.49059164484273227,6.692411911077207
0.21,18.289338771076686,0.00026561143737605976,21.50729298474369,88.71012502722782,0.0017079727868719986,6.6364956985736425,88.95802021414791,17.961205084519715,0.017543087380277628,7.138844298403283,-0.035060529102895276,0.10245085119604862,-2.956420548015548,-0.2673591334379824,2.860451113662349,-0.02922020542975304,4837.042636262507,0.2614787939618224,88.95807450044201,1.956226722111165,1.222472682514171,101066.89633615133,288.01020259559914,0.0,0.1,0.0,367.435,0.19719969827133954,0.86,nominal,4167.679174959211,nan,pitch_program,12.895,0.0,0.0,-2.091593040440231,-0.02292643227709606,-0.03049611748509924,-2.065678643757024,0.0,0.0,0.86,0.0,0.0,0.0,0.0,0.0,0.0,-0.036052893621691076,0.0,0.0,-0.036052893621691076,0.0,0.0,0.21,1.0,19.03918308008718,0.06702184565612937,2.109462802403605,0.0006036343134137256,-0.0498892673343344,-0.0036306434157388247,19.155803757597788,0.05002484323966706,1.0,0.0,18.158497985039517,-0.8504500598803318,22.528518517074513,88.79108612428186,-0.10525842170360344,6.6960732002225525,1.0,20.08230530461684,0.0,1.0,88.81121608561213,4833.564000734234,1.0,1.0,-0.569848787389592,18.729985170194336,0.03056334149763826,-44.22119728834879,1.0,21.36183193514368,1.0,0.004991311376282403,4.138844749292004,0.9467295047155339,1.0,-0.49059164484273227,6.692411911077207
0.24,20.967424081116214,0.0003118985137750199,21.701621628148008,89.26951033465096,0.0015429025466320038,6.477621446810666,89.50421809823872,17.955289093571576,0.021941367368283726,7.202144291481844,-0.0437997462214506,0.11024768624267425,-2.1100994492449403,-0.2883019477826616,3.0518862161382154,-0.02051018141852706,4896.531949217813,0.2630848364404344,89.5042722376791,1.9875056072915094,1.2224498650319866,101064.56667582119,288.00893945941704,0.0,0.1,0.0,373.24,0.20031519964835895,0.86,nominal,4218.322736428219,nan,pitch_program,12.88,0.0,0.0,-2.347370798866991,-0.023576744959362638,-0.030375014549845133,-2.234693936823004,0.0,0.0,0.86,0.0,0.0,0.0,0.0,0.0,0.0,-0.03900276697191557,0.0,0.0,-0.03900276697191557,0.0,0.0,0.24,1.0,19.34001994740245,-0.05463693405409094,2.3113678183774566,0.00232565889618793,-0.03678421150629052,-0.0038744421452700695,19.477725173960085,0.037060736735499186,1.0,0.0,18.158497985039517,-0.8504500598803318,22.528518517074513,88.79108612428186,-0.10525842170360344,6.6960732002225525,1.0,22.18547230661942,0.0,1.0,89.45723627867608,4891.127640072993,1.0,1.0,-1.0312072813876179,18.642359350774147,-0.00965450358466441,-44.29550776559856,1.0,21.59793018399087,1.0,0.012422424005344766,4.126184950705703,0.94574594592963,1.0,-0.5709734153151653,7.158879237164811
0.27,23.662524772080914,0.00034858451548625284,21.89138905922535,89.83668969882339,0.001222866723707766,6.325581035911391,90.05911277033528,17.949279637582126,0.02656298574742575,7.244947286315837,-0.05298056438512528,0.11557378820428597,-1.4268949408114175,-0.3029944403831916,3.217281633593616,-0.011483246051257471,4957.343308600259,0.26471643583857635,90.05916693156017,2.0188619425775114,1.2224275834280098,101062.29173840825,288.007705971115,0.0,0.1,0.0,379.045,0.20343070102537836,0.86,nominal,4270.003087007635,nan,pitch_program,12.865,0.0,0.0,-2.55750192293603,-0.02345108356133147,-0.029014591284213628,-2.4283787284908196,0.0,0.0,0.86,0.0,0.0,0.0,0.0,0.0,0.0,-0.04238320429755823,0.0,0.0,-0.04238320429755823,0.0,0.0,0.27,1.0,19.5524089092432,-0.02569807933871967,2.454909552154086,0.003924401150794116,-0.022792005446840992,-0.007378809449207647,19.705936553607188,0.024275981248322375,1.0,0.0,18.158497985039517,-0.8504500598803318,22.528518517074513,88.79108612428186,-0.10525842170360344,6.6960732002225525,1.0,22.18547230661942,0.0,1.0,90.12873075284628,4961.8116244909315,1.0,1.0,-1.0312072813876179,18.642359350774147,-0.00965450358466441,-44.29550776559856,1.0,21.59793018399087,1.0,0.012422424005344766,4.126184950705703,0.94574594592963,1.0,-0.5709734153151653,7.158879237164811
0.3,26.374880402325672,0.0003706701774888727,22.076776220983174,90.41185434149189,0.0007361887334206625,6.1795720585940845,90.6227924797977,17.943176716551363,0.03130277294810848,7.2776865697326505,-0.062404140894477274,0.11828983637842261,-1.091466688135185,-0.31104887298112616,3.3676523095399724,-0.0023389189524060136,5019.504109635181,0.26637385203821856,90.62284684117316,2.050381572147976,1.2224058164347917,101060.06935183056,288.0065009545636,0.0,0.1,0.0,384.84999999999997,0.20654620240239774,0.86,nominal,4322.744475945743,nan,pitch_program,12.850000000000001,0.0,0.0,-2.651518399358209,-0.022545826866149164,-0.026422941711304868,-2.562262531011253,0.0,0.0,0.86,0.0,0.0,0.0,0.0,0.0,0.0,-0.04471991746662968,0.0,0.0,-0.04471991746662968,0.0,0.0,0.3,1.0,19.933203181974598,-0.02259595339297142,2.5963240970601293,0.0014161730970728096,-0.02130680077026783,-0.004309141512000919,20.101591939146687,0.021784260507880644,1.0,0.0,18.158497985039517,-0.8504500598803318,22.528518517074513,88.79108612428186,-0.10525842170360344,6.6960732002225525,1.0,22.08313853993758,0.0,1.0,90.39906418639032,5033.652716759318,1.0,1.0,-0.0945043631589571,18.477125273472133,-0.004087060617894823,-44.293766294373945,1.0,21.913765601494756,1.0,-9.867283823039846e-05,4.091606548320097,0.9448080594475421,1.0,0.5239303719523819,7.872062322033315
0.32999999999999996,29.104732366486076,0.00037289940886512133,22.257959815148553,90.99506547201345,7.430771254162089e-05,6.039453138846017,91.1952681583746,17.93698033047929,0.036052525821645996,7.303482248212811,-0.07186196200202598,0.11831800517840096,-0.8600396233319539,-0.3122064621558463,3.5062680700039475,0.00671844438182534,5083.033651710609,0.2680571176402314,91.19532290428226,2.0820326950367614,1.2223845432845228,101057.89739507083,288.0053232612015,0.0,0.1,0.0,390.655,0.20966170377941715,0.86,nominal,4376.564488860153,nan,pitch_program,12.835,0.0,0.0,-2.7129978110129156,-0.02087666298561101,-0.022648735211359215,-2.6527036990122506,0.0,0.0,0.86,0.0,0.0,0.0,0.0,0.0,0.0,-0.04629841362759642,0.0,0.0,-0.04629841362759642,0.0,0.0,0.32999999999999996,1.0,20.17260821799167,-0.055566595678963174,2.7886857284609436,0.0012315259589867388,-0.014517639611642725,-0.004472282489594214,20.364527444928893,0.015240729206567747,1.0,0.0,18.158497985039517,-0.8504500598803318,22.528518517074513,88.79108612428186,-0.10525842170360344,6.6960732002225525,1.0,22.08313853993758,0.0,1.0,90.88959646701134,5073.149573713275,1.0,1.0,-0.0945043631589571,18.477125273472133,-0.004087060617894823,-44.293766294373945,1.0,21.913765601494756,1.0,-9.867283823039846e-05,4.091606548320097,0.9448080594475421,1.0,0.5239303719523819,7.872062322033315
0.36,31.85232332628916,0.00034986607600463423,22.43511377421365,91.58636532676941,-0.0007677777620162373,5.905131968836636,91.7765378401655,17.930690479365907,0.040702330172202955,7.320491644479487,-0.08113979965208809,0.11563314177823812,-0.5671852152434251,-0.30636645740975466,3.631403387941249,0.01548473271283834,5147.950100001033,0.26976622732008393,91.77659315687679,2.11373681729988,1.222363743536108,101055.77378051811,288.0041717604676,0.0,0.1,0.0,396.46,0.21277720515643656,0.86,nominal,4431.479757457558,nan,pitch_program,12.82,0.0,0.0,-2.8008767133715877,-0.018476110144508995,-0.017771998098416286,-2.7416075076278528,0.0,0.0,0.86,0.0,0.0,0.0,0.0,0.0,0.0,-0.04785007780550159,0.0,0.0,-0.04785007780550159,0.0,0.0,0.36,1.0,20.5619102273057,0.036829905614211636,2.8762636876467926,0.00030653167428355724,-0.010411752339349807,-0.005099829170399419,20.762138652812283,0.011597706928981783,1.0,0.0,18.158497985039517,-0.8504500598803318,22.528518517074513,88.79108612428186,-0.10525842170360344,6.6960732002225525,1.0,22.9981450493953,0.0,1.0,91.39172230129998,5125.461121659477,1.0,1.0,0.16589589503884147,18.55910231091219,0.06029891763672726,-44.330598474307116,1.0,22.233176202373045,1.0,0.0029119316118660374,4.087005772234715,0.9439122155644659,1.0,-0.0845263251376464,7.106555256524774
0.39,34.617898455826364,0.00029613202662312054,22.608402447878813,92.18583765124018,-0.0017911349793837904,5.776289122172124,92.36662916168318,17.924307163211214,0.04514318315392759,7.328199627895647,-0.09002582873333777,0.11026693671315697,-0.257152795313958,-0.2935915160775276,3.742802039384922,0.02376092803533276,5214.275241936479,0.27150126272998326,92.36668523292852,2.1454643476489634,1.222343397875044,101053.69653563053,288.00304538408875,0.0,0.1,0.0,402.265,0.21589270653345596,0.86,nominal,4487.509781211441,nan,pitch_program,12.805,0.0,0.0,-2.899961338628776,-0.01539189210954389,-0.011890953401359386,-2.836619806228407,0.0,0.0,0.86,0.0,0.0,0.0,0.0,0.0,0.0,-0.049508355245969256,0.0,0.0,-0.049508355245969256,0.0,0.0,0.39,1.0,20.830866308052318,-0.045802538702024526,3.0277232500900797,-0.0022756892035697743,-0.004376695633557978,-0.00298382476571256,21.04980278044516,0.005765191779336497,1.0,0.0,18.158497985039517,-0.8504500598803318,22.528518517074513,88.79108612428186,-0.10525842170360344,6.6960732002225525,1.0,22.9981450493953,0.0,1.0,91.54380707131169,5181.331033973341,1.0,1.0,0.16589589503884147,18.55910231091219,0.06029891763672726,-44.330598474307116,1.0,22.233176202373045,1.0,0.0029119316118660374,4.087005772234715,0.9439122155644659,1.0,-0.0845263251376464,7.106555256524774
0.42,37.40170582485672,0.00020634921155357093,22.77797890974498,92.7935789676785,-0.0029927605023183203,5.6525487288722145,92.96558295261572,17.91783038201521,0.04927020309323486,7.328436974134957,-0.0983168460343015,0.10231535328521764,-0.008137380970438772,-0.2741031321970467,3.8425845824749456,0.03135746585329722,5282.03273139292,0.2732623442608867,92.9656399551564,2.1553247316979065,1.2223234883121032,101051.66382321644,288.00194313708664,0.0,0.1,0.0,404.1773684210526,0.21691906078826353,0.86,nominal,4544.6754737350875,nan,pitch_program,12.79,0.0,0.0,-2.981862213791936,-0.011687436001672333,-0.005123328245645442,-2.9237652507665244,0.0,0.0,0.86,0.0,0.0,0.0,0.0,0.0,0.0,-0.051029330181273515,0.0,0.0,-0.051029330181273515,0.0,0.0,0.42,1.0,20.873154821113815,-0.036052178726273226,3.177052425840221,0.0017413886973861796,0.0010589269552807197,-0.003778990033450046,21.11358695395728,0.004293544755201605,1.0,0.0,38.98874521930497,0.8563761347696678,23.106528852009184,92.81384623904557,-0.017291542419513282,5.640911624670303,1.0,23.17691830578048,0.0,1.0,93.15534127535967,5284.131538542668,1.0,1.0,0.9167960773630197,18.490491309804145,0.021354559321863534,-44.255027279432795,1.0,22.711950191990386,1.0,0.010064163002239317,4.062627971065963,0.9430550527256375,1.0,0.4524980654557917,6.957519975840071
0.44999999999999996,40.203801803674445,7.57146442139976e-05,22.943963418577567,93.40319929392425,-0.004354485577985777,5.532816961086243,93.56692642609865,17.911322810191564,0.05298533130575968,7.323020826655529,-0.10582171579646787,0.09193940641565222,0.18031676800170102,-0.24828132612709916,3.9330565809369884,0.03810072751239764,5350.501671309875,0.2750304460725822,93.56698451763887,2.1543053679779707,1.2223040007119594,101049.67419959433,288.00086423777924,0.0,0.1,0.0,404.14342105263154,0.21690084148196515,0.86,nominal,4602.3882792722725,nan,pitch_program,12.775,0.0,0.0,-3.045724306437777,-0.007442045934267856,0.0023877751351917406,-2.996940684169276,0.0,0.0,0.86,0.0,0.0,0.0,0.0,0.0,0.0,-0.052306482425725366,0.0,0.0,-0.052306482425725366,0.0,0.0,0.44999999999999996,1.0,20.901121257921144,0.025201844637999495,3.3040097911329154,0.004878028652359223,0.005204706038763804,-0.0036838208821437335,21.160670728292107,0.008028366258143694,1.0,0.0,38.98874521930497,0.8563761347696678,23.106528852009184,92.81384623904557,-0.017291542419513282,5.640911624670303,1.0,23.17691830578048,0.0,1.0,93.14747022568554,5387.176503856515,1.0,1.0,0.9167960773630197,18.490491309804145,0.021354559321863534,-44.255027279432795,1.0,22.711950191990386,1.0,0.010064163002239317,4.062627971065963,0.9430550527256375,1.0,0.4524980654557917,6.957519975840071
0.48,43.02414740638886,-0.00010000984576647026,23.106458327666285,94.01152009048053,-0.005857482999348929,5.416496969623944,94.16742740170231,17.904815784947104,0.05619966006151921,7.3126302769963205,-0.11236515642749448,0.079362327020496,0.34614536811065405,-0.2166680269549679,4.0152109710351995,0.043835450427219605,5419.315283830981,0.27679606757073444,94.16748671888548,2.1533504717866454,1.2222849230424917,101047.72643584464,287.99980802087015,0.0,0.1,0.0,404.1094736842105,0.2168826221756668,0.86,nominal,4660.349141286447,nan,pitch_program,12.76,0.0,0.0,-3.104447647589662,-0.0027497188427183126,0.010475533976905878,-3.061444862221508,0.0,0.0,0.86,0.0,0.0,0.0,0.0,0.0,0.0,-0.053432292714029474,0.0,0.0,-0.053432292714029474,0.0,0.0,0.48,1.0,20.85353941725059,0.0013249514248042608,3.398481307693199,0.00045917803926163363,0.006278624927039397,-0.0009181347387147505,21.128648399295695,0.006361992364394618,1.0,0.0,38.98874521930497,0.8563761347696678,23.106528852009184,92.81384623904557,-0.017291542419513282,5.640911624670303,1.0,24.50204958127797,0.0,1.0,94.01956441972662,5362.1768906218085,1.0,1.0,-0.45392568364953795,18.47869992929533,-0.013841079214817878,-44.269309150020334,1.0,23.258700005226743,1.0,0.00046979881985291603,4.080526905540631,0.9422338541808343,1.0,0.6929458511523072,7.6618703946943025
0.51,45.86270521085888,-0.00032454423360295254,23.265560550223345,94.61859348233376,-0.007484479594549409,5.303407418568691,94.76710620695293,17.898309306281835,0.05883578390714901,7.297545472529329,-0.11779292034196108,0.06486563550350742,0.50264641312878,-0.17996160571127637,4.089504898280437,0.04842787086694356,5488.474068291965,0.2785592685274328,94.76716686561764,2.152442366768278,1.222266243911154,101045.81936837395,287.9987738564235,0.0,0.1,0.0,404.0755263157895,0.21686440286936848,0.86,nominal,4718.559418789796,nan,pitch_program,12.745,0.0,0.0,-3.1625325053743265,0.002283091684028557,0.0189566622210336,-3.122097448113199,0.0,0.0,0.86,0.0,0.0,0.0,0.0,0.0,0.0,-0.05449088003768815,0.0,0.0,-0.05449088003768815,0.0,0.0,0.51,1.0,20.79921457468838,0.05598833612369758,3.5741944241638923,0.001838270957550596,0.009716271442155944,-0.005067758250862581,21.10415426875561,0.011111586049714725,1.0,0.0,38.98874521930497,0.8563761347696678,23.106528852009184,92.81384623904557,-0.017291542419513282,5.640911624670303,1.0,24.50204958127797,0.0,1.0,93.77677498362284,5484.033214492602,1.0,1.0,-0.45392568364953795,18.47869992929533,-0.013841079214817878,-44.269309150020334,1.0,23.258700005226743,1.0,0.00046979881985291603,4.080526905540631,0.9422338541808343,1.0,0.6929458511523072,7.6618703946943025
0.54,48.71943938996064,-0.0006009949821836767,23.421361237436244,95.22447263672557,-0.009215024952690807,5.193356240429995,95.36598567046426,17.891803374195753,0.06083006695569042,7.278335852711286,-0.1219767570640356,0.04878463110292174,0.6401758573189665,-0.13900314131286673,4.156686567751178,0.05177032687080102,5557.978878435951,0.2803201160487324,95.3660477628395,2.151575381286593,1.222247952602707,101043.95190276514,287.99776115195664,0.0,0.1,0.0,404.0415789473684,0.2168461835630701,0.86,nominal,4777.0207036287,nan,pitch_program,12.73,0.0,0.0,-3.216287296638713,0.007539707629340519,0.027636350564234233,-3.1786113572285077,0.0,0.0,0.86,0.0,0.0,0.0,0.0,0.0,0.0,-0.05547723382492312,0.0,0.0,-0.05547723382492312,0.0,0.0,0.54,1.0,20.81015564185049,-0.02555635112830404,3.659645934778263,0.003436203533700547,0.012705940385236156,-0.0032124348628672066,21.12951110019027,0.013548732543908154,1.0,0.0,38.98874521930497,0.8563761347696678,23.106528852009184,92.81384623904557,-0.017291542419513282,5.640911624670303,1.0,23.598457244582654,0.0,1.0,95.02040257462009,5541.763757201088,1.0,1.0,0.4791012945806623,18.51841496125003,-0.005015960678989324,-44.21452371237961,1.0,23.61523178939404,1.0,-0.0107982038023487,4.049865625368363,0.9414465969064094,1.0,0.06724662914871612,7.158176392874436
0.57,51.59431556181738,-0.0009317735984682104,23.57394640481126,95.82920572855791,-0.011025953876151122,5.086172245833876,95.96408672129499,17.885297988688862,0.06213454459449105,7.255714033424056,-0.12481809371061452,0.03150221211245442,0.7539594033224892,-0.09475955131991275,4.2176300958886594,0.05378449691680536,5627.830415056063,0.28207867164244216,95.96415031376563,2.150748612864458,1.2222300390056158,101042.12300626075,287.99676934836873,0.0,0.1,0.0,404.0076315789474,0.21682796425677175,0.86,nominal,4835.734411636854,nan,pitch_program,12.715,0.0,0.0,-3.2636444371963544,0.012895445766705952,0.0363106092527142,-3.2296312052092153,0.0,0.0,0.86,0.0,0.0,0.0,0.0,0.0,0.0,-0.05636769815605345,0.0,0.0,-0.05636769815605345,0.0,0.0,0.57,1.0,20.78427580389972,-0.002168414214991605,3.719983502297105,0.00395616921941811,0.015847816499673997,-0.00646647356419117,21.114554284946536,0.017567579316923373,1.0,0.0,38.98874521930497,0.8563761347696678,23.106528852009184,92.81384623904557,-0.017291542419513282,5.640911624670303,1.0,23.598457244582654,0.0,1.0,96.35137841730872,5659.035156330326,1.0,1.0,0.4791012945806623,18.51841496125003,-0.005015960678989324,-44.21452371237961,1.0,23.61523178939404,1.0,-0.0107982038023487,4.049865625368363,0.9414465969064094,1.0,0.06724662914871612,7.158176392874436
0.6,54.48730056566593,-0.001318531249310182,23.723397877802476,96.43283346161844,-0.01289192169473239,4.981715766373937,96.56142618879872,17.878793149761158,0.06271839757319199,7.230220789903252,-0.12625085740356914,0.013440470951139354,0.8497226734221521,-0.048303538103406686,4.273014716883731,0.054424044427250684,5698.028958887287,0.2838349847552098,96.56149132029374,2.149957818389685,1.2222124935009773,101040.33169642139,287.99579791379426,0.0,0.1,0.0,403.9736842105263,0.21680974495047337,0.86,nominal,4894.701573605763,nan,pitch_program,12.7,0.0,0.0,-3.3063073833836634,0.018220362615550066,0.044770178764840754,-3.2756369121138844,0.0,0.0,0.86,0.0,0.0,0.0,0.0,0.0,0.0,-0.05717064921624741,0.0,0.0,-0.05717064921624741,0.0,0.0,0.6,1.0,20.774988938475413,0.022554077804734243,3.8707058897690882,-0.0019542683469116044,0.01936999862302848,-0.00034088362798267036,21.132511402227955,0.01947131770260278,1.0,0.0,38.98874521930497,0.8563761347696678,23.106528852009184,92.81384623904557,-0.017291542419513282,5.640911624670303,1.0,23.92599293174737,0.0,1.0,96.61523119085655,5725.702207006906,1.0,1.0,-2.2146637889767202,18.587557618280975,-0.04755080123553964,-44.29958347614257,1.0,23.301080585073922,1.0,-0.00212134034786655,4.054264283365245,0.9406915053054938,1.0,0.0315191699457819,7.17533195073836
0.63,57.39836231488139,-0.0017621111428839148,23.869793828187355,97.03539164051521,-0.014785996452457758,4.879865012829324,97.15801836182796,17.872288857412645,0.06256904960500882,7.202231905411038,-0.12624388951127494,-0.0049490900650252315,0.9329625292641465,-0.0007896214380251189,4.323340517111376,0.053676547373644586,5768.574540532942,0.2855890973587875,97.15808504286501,2.14919695030473,1.2221953068995048,101038.57703469043,287.99484634011674,0.0,0.1,0.0,403.9397368421053,0.21679152564417503,0.86,nominal,4953.922979643842,nan,pitch_program,12.685,0.0,0.0,-3.3459918132354836,0.02338243560420637,0.05280644718908691,-3.317849852786844,0.0,0.0,0.86,0.0,0.0,0.0,0.0,0.0,0.0,-0.05790740401793959,0.0,0.0,-0.05790740401793959,0.0,0.0,0.63,1.0,20.743358436708753,0.033576784060430485,3.975354335164,0.0009111842471673714,0.014298296267565895,0.0017981517255002658,21.12087802919924,0.014439698144881505,1.0,0.0,57.72046268829861,-1.4422868749656994,24.34009063206133,97.24627475587342,0.09627217458738417,4.846221177165299,1.0,23.92599293174737,0.0,1.0,97.37600827308187,5768.935356838642,1.0,1.0,-2.2146637889767202,18.587557618280975,-0.04755080123553964,-44.29958347614257,1.0,23.301080585073922,1.0,-0.00212134034786655,4.054264283365245,0.9406915053054938,1.0,0.0315191699457819,7.17533195073836
0.6599999999999999,60.32746971106488,-0.002262520591508207,24.013209029854536,97.6369132061163,-0.016680314954143075,4.7805067222393705,97.75387635880723,17.86578511164332,0.06169284804659331,7.172101074595113,-0.12480268518159332,-0.023196367447423184,1.0044121447551464,0.04657353601093704,4.369077347769367,0.051564607563631036,5839.467094797413,0.28734104797968757,97.75394457123438,2.148461931634894,1.2221784704114496,101036.858123322,287.99391414130594,0.0,0.1,0.0,403.9057894736842,0.21677330633787664,0.86,nominal,5013.399307919109,nan,pitch_program,12.67,0.0,0.0,-3.3827583320943178,0.02825088949220181,0.060217300233219265,-3.356794940371328,0.0,0.036130380139931556,0.86,0.0,0.0,0.0,0.0,0.0,0.0,-0.0585871240237664,0.0,0.0006305940934389753,-0.0585871240237664,0.0,0.0006305940934389753,0.6599999999999999,1.0,20.64189387456737,0.008798740957423681,4.000210623887209,0.0007093137773341714,0.013874851119127072,0.003195404665140242,21.025925548764896,0.014255708701662567,1.0,0.0,57.72046268829861,-1.4422868749656994,24.34009063206133,97.24627475587342,0.09627217458738417,4.846221177165299,1.0,23.954206386991068,0.0,1.0,98.41648359731158,5695.8503857637925,1.0,1.0,-1.7951383082908867,18.680738492252267,0.011260339547878168,-44.22762586888337,1.0,24.053880173520888,1.0,-0.002443062460232401,4.04901371049409,0.9399669774253636,1.0,0.005146120664443147,7.626055702464342
0.69,63.27459255616774,-0.002815548309276832,24.153715185610857,98.23742817009531,-0.018434257258954166,4.683538525210673,98.34901202561015,17.859281912453184,0.06020277944828195,7.14018770686861,-0.12267275452491898,-0.04082450052980086,1.0638532846940874,0.06931301983010772,4.4106923565475435,0.048906772951457296,5910.706430269697,0.28909087106546405,98.34908160865083,2.147751330790688,1.2221619756081965,101035.17410145862,287.9930008512935,0.0,0.1,0.0,403.8718421052631,0.21675508703157828,0.86,nominal,5073.131114231775,nan,pitch_program,12.655,0.0,0.0,-3.4163372936457543,0.032876100328508545,0.06317099677350856,-3.3925203523359837,0.0,0.05235475012007775,0.86,0.0,0.0,0.0,0.0,0.0,0.0,-0.05921065008918102,0.0,0.0009137627686542533,-0.05921065008918102,0.0,0.0009137627686542533,0.69,1.0,20.676034417128754,0.02583901494255616,4.1743490006682435,-0.0009559460679673308,0.019274256919694182,0.0033008837522150083,21.093227739072223,0.019578218668634753,1.0,0.0,57.72046268829861,-1.4422868749656994,24.34009063206133,97.24627475587342,0.09627217458738417,4.846221177165299,1.0,23.954206386991068,0.0,1.0,97.59606898180742,5919.708675275716,1.0,1.0,-1.7951383082908867,18.680738492252267,0.011260339547878168,-44.22762586888337,1.0,24.053880173520888,1.0,-0.002443062460232401,4.04901371049409,0.9399669774253636,1.0,0.005146120664443147,7.626055702464342
0.72,66.23970143121025,-0.00341837297679339,24.29138132191236,98.8369625014171,-0.020094155583885262,4.588871210050159,98.94343484670443,17.852779259842237,0.05817215056376197,7.106809204242008,-0.12023971006822522,-0.05763036025096928,1.1126993246115306,0.07932608231884164,4.448599716488244,0.046054617119420604,5982.292129407293,0.2908385946854596,98.94350568933348,2.1470632364534628,1.2221458143758877,101033.52414039546,287.99210602140755,0.0,0.1,0.0,403.8378947368421,0.21673686772527995,0.86,nominal,5133.118724272555,nan,pitch_program,12.64,0.0,0.0,-3.447043231086807,0.03714649731094967,0.06384408025715833,-3.4252340795864775,0.0,0.05924834820232611,0.86,0.0,0.0,0.0,0.0,0.0,0.0,-0.05978161234030153,0.0,0.001034078752498654,-0.05978161234030153,0.0,0.001034078752498654,0.72,1.0,20.612745430653003,-0.01471223481963168,4.267497442456019,0.001502963652852819,0.019543243932393033,-0.0007584148694297435,21.049869953520574,0.019615618171676005,1.0,0.0,57.72046268829861,-1.4422868749656994,24.34009063206133,97.24627475587342,0.09627217458738417,4.846221177165299,1.0,23.548190707455426,0.0,1.0,98.82351048439382,5964.7922584316675,1.0,1.0,0.1672548567853736,18.626462777078327,0.001233575351436398,-44.19592824468292,1.0,24.869069695992042,1.0,-0.001399732976352536,4.066417105326856,0.9392715466952191,1.0,-0.38635867717010297,6.75893107674323
0.75,69.22276760170288,-0.00406882876927755,24.426274126687357,99.43553901642126,-0.021681859749471982,4.496426825833248,99.53715258027704,17.84627715381048,0.05565497700436252,7.072226954827509,-0.1177172733275608,-0.0735284856905801,1.1528239954118575,0.0822932955170211,4.4831483841943145,0.04320407589102974,6054.223591172741,0.2925842417572106,99.53722459543113,2.146395443691471,1.2221299788757318,101031.90743952709,287.9912292181765,0.0,0.1,0.0,403.80394736842106,0.21671864841898159,0.86,nominal,5193.362293059155,nan,pitch_program,12.625,0.0,0.0,-3.475384644898365,0.041018922677539524,0.0632880807017277,-3.45532441877361,0.0,0.061672187701967064,0.86,0.0,0.0,0.0,0.0,0.0,0.0,-0.06030678783215886,0.0,0.0010763827323072806,-0.06030678783215886,0.0,0.0010763827323072806,0.75,1.0,20.56365400302018,0.005835423954966173,4.269632572325544,-9.298607837072157e-05,0.023863648456027595,0.0027884461204387917,21.002229936622534,0.02402618978969052,1.0,0.0,57.72046268829861,-1.4422868749656994,24.34009063206133,97.24627475587342,0.09627217458738417,4.846221177165299,1.0,23.548190707455426,0.0,1.0,99.9578350431471,6037.702295923801,1.0,1.0,0.1672548567853736,18.626462777078327,0.001233575351436398,-44.19592824468292,1.0,24.869069695992042,1.0,-0.001399732976352536,4.066417105326856,0.9392715466952191,1.0,-0.38635867717010297,6.75893107674323
0.78,72.22376294177435,-0.00476508444474603,24.558458200095007,100.03317800238239,-0.023208522515616017,4.406135780255032,100.13017163875172,17.83977559435791,0.0526949311918697,7.036670786748447,-0.11523369412107844,-0.0885010395055409,1.1852827953408125,0.08103859296231439,4.5146485977520365,0.040472786840610495,6126.500072866136,0.2943278312082231,100.13024475207472,2.1457462184406424,1.2221144615145374,101030.32322333817,287.99037002169933,0.0,0.1,0.0,403.77,0.21670042911268322,0.86,nominal,5253.861840310901,nan,pitch_program,12.61,0.0,0.0,-3.5016019654149453,0.04448518005662769,0.06203492188747192,-3.483090946758411,0.0,0.06188982821326997,0.86,0.0,0.0,0.0,0.0,0.0,0.0,-0.06079140516734079,0.0,0.0010801812758152404,-0.06079140516734079,0.0,0.0010801812758152404,0.78,1.0,20.56790482091249,-0.07187840027480814,4.38337646911534,-0.0007609391573332214,0.01995023107574114,0.0011605246942777711,21.029927829085274,0.019998439087655293,1.0,0.0,57.72046268829861,-1.4422868749656994,24.34009063206133,97.24627475587342,0.09627217458738417,4.846221177165299,1.0,23.507535282949945,0.0,1.0,100.1713387950305,6213.855522288766,1.0,1.0,-0.0920334871367499,18.75361707287055,0.028134162469881378,-44.22596716442444,1.0,24.365760052412977,1.0,0.02263394946453587,4.0670814107450175,0.9386038544997625,1.0,-0.3114249665622809,6.516772698637329
0.8099999999999999,75.24265986500149,-0.005505509139447941,24.68799628252214,100.6298974409045,-0.024680823156730352,4.317936080904454,100.72249718959894,17.83327458148453,0.04932912659363557,7.000352096589813,-0.11287158310655422,-0.10257260685081132,1.2106921429136417,0.07706915732289195,4.543385704274526,0.03793588794077685,6199.1206982794565,0.2960693782919428,100.72257133469834,2.1451144609734434,1.22209925491792,101028.7707386673,287.9895280241636,0.0,0.1,0.0,403.73605263157896,0.21668220980638486,0.86,nominal,5314.617258798379,nan,pitch_program,12.595,0.0,0.0,-3.5257925060661326,0.047555932375138055,0.06037439153010512,-3.508711882343044,0.0,0.06098056620337106,0.86,0.0,0.0,0.0,0.0,0.0,0.0,-0.06123857485073401,0.0,0.001064311659979203,-0.06123857485073401,0.0,0.001064311659979203,0.8099999999999999,1.0,20.603363500163912,-0.023556134291750214,4.541030364862198,-0.0006630665240827847,0.020579066371742543,0.004113205833823186,21.097869541400378,0.02099657334374686,1.0,0.0,57.72046268829861,-1.4422868749656994,24.34009063206133,97.24627475587342,0.09627217458738417,4.846221177165299,1.0,23.507535282949945,0.0,1.0,99.90294287343428,6150.41101678553,1.0,1.0,-0.0920334871367499,18.75361707287055,0.028134162469881378,-44.22596716442444,1.0,24.365760052412977,1.0,0.02263394946453587,4.0670814107450175,0.9386038544997625,1.0,-0.3114249665622809,6.516772698637329
0.84,78.27943125732878,-0.00628862077299483,24.81494948056319,101.22571307757666,-0.02610372111822962,4.231773268035074,101.314133142717,17.82677411519034,0.045589612540517875,6.963458967592961,-0.11068642370679674,-0.11579650198151953,1.2298304741981025,0.07127985059153788,4.5696155374655,0.035642798520685456,6272.084451829407,0.2978088945595931,101.31420825927829,2.1444992747542844,1.2220843519037474,101027.2492519951,287.9887028283763,0.0,0.1,0.0,403.7021052631579,0.2166639905000865,0.86,nominal,5375.628311553658,nan,pitch_program,12.58,0.0,0.0,-3.548123406370876,0.050252616660870504,0.058481168872011775,-3.532358796759743,0.0,0.05948092780455549,0.86,0.0,0.0,0.0,0.0,0.0,0.0,-0.06165129136524272,0.0,0.0010381380323305355,-0.06165129136524272,0.0,0.0010381380323305355,0.84,1.0,20.49111908094262,0.04766093448410635,4.529111075924566,-0.0007549085548529909,0.025261212330418423,0.0011853658273469087,20.985735152529426,0.025300273268747828,1.0,0.0,77.8734543815723,0.1041212246806928,24.9198506571068,101.23468842443533,-0.009060702142366008,4.179554559032109,1.0,25.96126489806443,0.0,1.0,101.0728366994482,6290.330462348059,1.0,1.0,-0.36316321550979613,18.69047119567617,0.053694558128634606,-44.160827623638276,1.0,24.643313554785994,1.0,-0.022286037507239433,4.073047609648085,0.9379626262985921,1.0,0.6052320222411088,7.402712050230035
0.87,81.33405041626598,-0.007113069275855195,24.939377468925446,101.82063863123982,-0.027481616762012186,4.147599612075217,101.90508225331489,17.82027419547534,0.04150389641637675,6.9261542416071284,-0.10871539311073451,-0.12824641911289325,1.2435401203223415,0.06427386638747688,4.593563146692189,0.03362533645181524,6345.390186847045,0.29954638816658197,101.90515828640974,2.1438998967884797,1.2220697454584213,101025.75804702211,287.98789404645197,0.0,0.1,0.0,403.66815789473685,0.21664577119378817,0.86,nominal,5436.894640583074,nan,pitch_program,12.565,0.0,0.0,-3.568798299898444,0.0526030835616675,0.056472850113902885,-3.5542224986429636,0.0,0.023792371121822194,0.86,0.0,0.0,0.0,0.0,0.0,0.0,-0.062032884949779404,0.0,0.0004152552129322142,-0.062032884949779404,0.0,0.0004152552129322142,0.87,1.0,20.454720092760727,-0.01068211555958339,4.645102319083566,-0.0030011133148713292,0.021308393086922953,0.0025455922316856795,20.975525350644684,0.021668741008317543,1.0,0.0,77.8734543815723,0.1041212246806928,24.9198506571068,101.23468842443533,-0.009060702142366008,4.179554559032109,1.0,25.96126489806443,0.0,1.0,101.66642103368815,6284.061710176929,1.0,1.0,-0.36316321550979613,18.69047119567617,0.053694558128634606,-44.160827623638276,1.0,24.643313554785994,1.0,-0.022286037507239433,4.073047609648085,0.9379626262985921,1.0,0.6052320222411088,7.402712050230035
0.8999999999999999,84.40649099170575,-0.007981082044676891,25.06133865878618,102.41468584799235,-0.028933758960723182,4.065372995357751,102.4953460996974,17.813774822339525,0.03700886783129865,6.888581487482772,-0.10626487435064082,-0.1400106052568378,1.2524804490417232,0.0802329695331171,4.615429039268408,0.03112820897230817,6419.036632633146,0.30128186413863217,102.49542311171044,2.1433153417771083,1.2220554287170848,101024.2964226475,287.98710129871785,0.0,0.1,0.0,403.6342105263158,0.2166275518874898,0.86,nominal,5498.415762806563,nan,pitch_program,12.55,0.0,0.0,-3.5879634940086733,0.05446510127237321,0.058154772916977134,-3.5744670958623894,0.0,0.04440981219891516,0.86,0.0,0.0,0.0,0.0,0.0,0.0,-0.062386219826998476,0.0,0.0007750974430634124,-0.062386219826998476,0.0,0.0007750974430634124,0.8999999999999999,1.0,20.485617162709378,-0.015022732386111917,4.67634854821943,-0.001996224696949589,0.021810927453625114,0.005226608395768601,21.012590796092123,0.022517080289209967,1.0,0.0,77.8734543815723,0.1041212246806928,24.9198506571068,101.23468842443533,-0.009060702142366008,4.179554559032109,1.0,25.04742649988601,0.0,1.0,101.96476343998059,6553.190865105435,1.0,1.0,-2.1239792629416754,18.91093998585511,-0.019311868232605656,-44.08872174871942,1.0,25.201602169559475,1.0,-0.0057361681478065195,4.075578389630199,0.9373466533530346,1.0,0.22508350565527102,6.669331858111808
0.9299999999999999,87.49672695585822,-0.00888883958730434,25.180890357151615,103.00786547174893,-0.030258584754248304,3.985056612181173,103.08492586615255,17.8072759957829,0.03219283361478831,6.850867339359869,-0.1038461086399533,-0.15089067390833058,1.2571864279914173,0.07928749320885432,4.6353934733469755,0.028767661638591447,6493.022435509713,0.30301532542174386,103.08500372288454,2.1427454204975196,1.2220413949449063,101022.86369105753,287.9863242126785,0.0,0.1,0.0,403.6002631578947,0.21660933258119142,0.86,nominal,5560.191148836044,nan,pitch_program,12.535000000000002,0.0,0.0,-3.6057427777699935,0.05605250393893823,0.05698719703580107,-3.5932325050069522,0.0,0.017763924879566063,0.86,0.0,0.0,0.0,0.0,0.0,0.0,-0.06271373800205494,0.0,0.000310038977225365,-0.06271373800205494,0.0,0.000310038977225365,0.9299999999999999,1.0,20.42803764606167,-0.040800945077632336,4.740903217992718,-0.0034257155214551496,0.023084956743965147,-9.109108858761095e-05,20.97099306443083,0.023337931619813714,1.0,0.0,77.8734543815723,0.1041212246806928,24.9198506571068,101.23468842443533,-0.009060702142366008,4.179554559032109,1.0,25.04742649988601,0.0,1.0,102.97105162902562,6455.323306104523,1.0,1.0,-2.1239792629416754,18.91093998585511,-0.019311868232605656,-44.08872174871942,1.0,25.201602169559475,1.0,-0.0057361681478065195,4.075578389630199,0.9373466533530346,1.0,0.22508350565527102,6.669331858111808
0.96,90.60473254033536,-0.00983739691473123,25.29808889727182,103.600186149238,-0.03161857758089632,3.906618004006854,103.67382135390035,17.800777715805463,0.027020985458169663,6.813124864835022,-0.10095338025098254,-0.1609244543265133,1.2581318350912647,0.09508948662883593,4.653618594015552,0.02594989409578801,6567.346115715128,0.3047467719432315,103.67390008018391,2.1421894524600478,1.222027637521744,101021.45917615965,287.98556242216773,0.0,0.1,0.0,403.56631578947366,0.21659111327489305,0.86,nominal,5622.220120544653,nan,pitch_program,12.520000000000001,0.0,0.0,-3.622233282644485,0.057161156996935525,0.05845884899204837,-3.6106329715894723,0.0,0.042180879347055444,0.86,0.0,0.0,0.0,0.0,0.0,0.0,-0.06301743343530317,0.0,0.0007361952259925934,-0.06301743343530317,0.0,0.0007361952259925934,0.96,1.0,20.400860011366802,0.03710754638357084,4.889008066586408,0.0030020699339596848,0.021558954923600934,-7.4942422610349e-05,20.978533458002506,0.021767098512501578,1.0,0.0,77.8734543815723,0.1041212246806928,24.9198506571068,101.23468842443533,-0.009060702142366008,4.179554559032109,1.0,25.015662982723146,0.0,1.0,103.17500974891433,6581.748508503412,1.0,1.0,0.22011015439083026,18.938280417866103,0.0389773673047644,-44.13955689780411,1.0,25.44723677621004,1.0,0.0026795786077036194,4.07305113475611,0.9367547777568205,1.0,-0.2582702816555845,6.595815326438826
0.99,93.7304822152728,-0.010822160345627071,25.412989770457248,104.19165583124787,-0.03282544769652803,3.8300291061809433,104.26203213692614,17.794279982407215,0.021598115708092572,6.775451973185665,-0.09820309170685616,-0.16991656320532858,1.2558016118416437,0.09049966989252808,4.670248512838811,0.023385892417229937,6642.0061222719405,0.3064762019647688,104.26211157659793,2.1416473753974334,1.2220141499266608,101020.08221200084,287.984815566492,0.0,0.1,0.0,403.53236842105264,0.21657289396859472,0.86,nominal,5684.501968793164,nan,pitch_program,12.505,0.0,0.0,-3.6375549511634806,0.057992021369583924,0.05653611320567012,-3.6267861593338773,0.034795212821750354,0.016872351738822178,0.86,0.0,0.0,0.0,0.0,0.0,0.0,-0.06329935974613583,0.0006072910276716905,0.0002944780903970374,-0.06329935974613583,0.0006072910276716905,0.0002944780903970374,0.99,1.0,20.473999966217605,0.01881308534271197,4.957088878840083,-0.004371662169530707,0.02224379968544623,0.005172987476908485,21.06555858983043,0.02325205053338341,1.0,0.0,77.8734543815723,0.1041212246806928,24.9198506571068,101.23468842443533,-0.009060702142366008,4.179554559032109,1.0,25.015662982723146,0.0,1.0,103.57499620289825,6598.228048816453,1.0,1.0,0.22011015439083026,18.938280417866103,0.0389773673047644,-44.13955689780411,1.0,25.44723677621004,1.0,0.0026795786077036194,4.07305113475611,0.9367547777568205,1.0,-0.2582702816555845,6.595815326438826
1.02,96.87395063561995,-0.011843850243571189,25.525647728666677,104.78228067823825,-0.0340563299314706,3.7552652736476415,104.8495566096594,17.787782795588157,0.01681998266485088,6.737935236103596,-0.09511426439346826,-0.14715739841304054,1.2505921571096636,0.10182655431266972,4.685412667038849,0.020423314006486268,6717.000797621308,0.30820361131922097,104.84963677814129,2.141118763127132,1.222000925725868,101018.73214153641,287.98408328976365,0.0,0.1,0.0,403.49842105263156,0.21655467466229633,0.86,nominal,5747.035853919416,nan,pitch_program,12.49,0.0,0.0,-3.651793329253918,0.04942852830517757,0.057167756787724566,-3.641790461285902,0.013918085128700141,0.006748940695528872,0.86,0.0,0.0,0.0,0.0,0.0,0.0,-0.06356123421716207,0.0002429164110686762,0.00011779123615881495,-0.06356123421716207,0.0002429164110686762,0.00011779123615881495,1.02,1.0,20.35690516687358,-0.009367960318745674,5.049503734440221,-0.0038371098512354623,0.022742739956909033,0.0027513741013028763,20.973820913126215,0.023227692356395525,1.0,0.0,77.8734543815723,0.1041212246806928,24.9198506571068,101.23468842443533,-0.009060702142366008,4.179554559032109,1.0,25.355058313613732,0.0,1.0,105.02128798378159,6838.05267943049,1.0,1.0,0.11204828629673873,18.942587892030144,-0.0008495816414972705,-44.084712250029305,1.0,25.584538064448616,1.0,-0.0013808205853688311,4.121273944664516,0.9361858806783333,1.0,-0.21819838761969632,6.392726060893152
1.05,100.03511262195266,-0.012901413734009945,25.63611688545882,105.37206621109033,-0.03525211634795854,3.682305226404746,105.43639292050217,17.781286155348287,0.01214863409873642,6.700650192306114,-0.0915490833858629,-0.14180679997240292,1.2428646343500236,0.1177089112302,4.699226261813147,0.016999885233487996,6792.32842009709,0.30992899444871186,105.43647377691359,2.1406033501780923,1.221987958560856,101017.40831541781,287.9833652402445,0.0,0.1,0.0,403.46447368421053,0.216536455355998,0.86,nominal,5809.8209016980445,nan,pitch_program,12.475,0.0,0.0,-3.665034034017623,0.046098820981366743,0.0583706934759962,-3.6557366049249347,0.005567234051480057,0.03772199236380927,0.86,0.0,0.0,0.0,0.0,0.0,0.0,-0.06380464034161926,9.716656442747048e-05,0.0006583729671606304,-0.06380464034161926,9.716656442747048e-05,0.0006583729671606304,1.05,1.0,20.389523267102167,0.02211727388117508,5.0927174848457595,-0.003436943611520718,0.02321283571233631,0.001838221806840617,21.01592062256513,0.023537786272456326,1.0,0.0,100.96228048240505,-0.5272227271940404,25.097933882641676,105.48284816473276,-0.13938491600654046,3.6689026199844768,1.0,25.355058313613732,0.0,1.0,105.07862192377704,6694.55622136672,1.0,1.0,0.11204828629673873,18.942587892030144,-0.0008495816414972705,-44.084712250029305,1.0,25.584538064448616,1.0,-0.0013808205853688311,4.121273944664516,0.9361858806783333,1.0,-0.21819838761969632,6.392726060893152
1.08,103.21394313709878,-0.013989033498267224,25.744450801483197,105.9610171715374,-0.036253992141909316,3.611130534145973,106.02253882129702,17.774790061687607,0.007493527137003968,6.663662887741373,-0.08831328035297224,-0.14261947573776423,1.2329285404440808,0.10691607124167302,4.7117928781865785,0.014013331905368789,6867.987200189189,0.31165234435945344,106.02262017565809,2.140101156470552,1.221975242138351,101016.11009096677,287.9826610697903,0.0,0.1,0.0,403.43052631578945,0.21651823604969964,0.86,nominal,5872.856187509082,nan,pitch_program,12.46,0.0,0.0,-3.6773499571777943,0.04478103940327987,0.055191787470924014,-3.668704616276651,0.0022268936205920233,0.015088796945523708,0.86,0.0,0.0,0.0,0.0,0.0,0.0,-0.0640309748371427,3.88666257709882e-05,0.00026334918686425217,-0.0640309748371427,3.88666257709882e-05,0.00026334918686425217,1.08,1.0,20.30156150870493,-0.025609676947587992,5.236533788331026,-0.002429069715464316,0.02166852789574211,0.0034493760617219666,20.966052123936336,0.022075408853888083,1.0,0.0,100.96228048240505,-0.5272227271940404,25.097933882641676,105.48284816473276,-0.13938491600654046,3.6689026199844768,1.0,26.16226471978141,0.0,1.0,105.83873449378814,6859.549565295706,1.0,1.0,0.638131851988897,19.029160060919224,0.004639944273706696,-44.01603280535999,1.0,25.689092381913973,1.0,-0.009424088083049793,4.114523569817329,0.935638872996292,1.0,-0.800752738519684,6.735719660168661
1.1099999999999999,106.41041724385092,-0.01510693681214164,25.850702557924876,106.54913689173777,-0.037263443795813846,3.5417252147226073,106.60799115655037,17.768294514606115,0.002749880037695443,6.627031396398309,-0.08498586672253026,-0.14528625695824943,1.2210595970637412,0.11005946686133089,4.723205584739084,0.01094120422643247,6943.975268766299,0.313373652396363,106.60807301102427,2.1396119595888448,1.2219627702216795,101014.83683129353,287.9819704333735,0.0,0.1,0.0,403.3965789473684,0.21650001674340127,0.86,nominal,5936.140681457235,nan,pitch_program,12.445,0.0,0.0,-3.6888023689733704,0.04390656944975727,0.05433582772433354,-3.6807632678946827,0.0008907574482368094,0.006035518778209484,0.86,0.0,0.0,0.0,0.0,0.0,0.0,-0.06424143801122831,1.5546650308395282e-05,0.00010533967474570088,-0.06424143801122831,1.5546650308395282e-05,0.00010533967474570088,1.1099999999999999,1.0,20.336175149754887,-0.05420974361147262,5.28673593685411,-0.003489255412663239,0.021985649572259024,0.004745244140772086,21.012199677421574,0.02276095411894029,1.0,0.0,100.96228048240505,-0.5272227271940404,25.097933882641676,105.48284816473276,-0.13938491600654046,3.6689026199844768,1.0,26.16226471978141,0.0,1.0,107.12796271656849,6986.482552429647,1.0,1.0,0.638131851988897,19.029160060919224,0.004639944273706696,-44.01603280535999,1.0,25.689092381913973,1.0,-0.009424088083049793,4.114523569817329,0.935638872996292,1.0,-0.800752738519684,6.735719660168661
1.14,109.62451009457165,-0.016253801255994953,25.954924826100964,107.13642835735793,-0.03822881479511048,3.474075605869611,107.19274669458221,17.761799514103814,-0.0020947878371863765,6.590805823317309,-0.08145496437804153,-0.14794300109264702,1.2075198121762665,0.11690773663924688,4.73354758974341,0.007700154466538334,7020.2907077148975,0.3150929089767969,107.1928290031186,2.1391356525671372,1.2219505366225842,101013.58790446068,287.98129298863034,0.0,0.1,0.0,403.3626315789474,0.21648179743710294,0.86,nominal,5999.673335510316,nan,pitch_program,12.43,0.0,0.0,-3.6994555757321397,0.042972428181240564,0.05402227961326546,-3.6919786525971574,0.0003563029792947238,0.0024142075112837933,0.86,0.0,0.0,0.0,0.0,0.0,0.0,-0.06443718340116429,6.218660123358113e-06,4.213586989828035e-05,-0.06443718340116429,6.218660123358113e-06,4.213586989828035e-05,1.14,1.0,20.28508968119207,0.003036933792757044,5.307975634138788,-0.001369051075575279,0.01767756143648671,0.00398856031909047,20.968058515980513,0.018173582272279696,1.0,0.0,100.96228048240505,-0.5272227271940404,25.097933882641676,105.48284816473276,-0.13938491600654046,3.6689026199844768,1.0,26.673925713151505,0.0,1.0,106.9691272559404,6958.025798514586,1.0,1.0,-0.841330599758179,19.098190691407993,0.10112853646775205,-44.08581197886062,1.0,26.009308713160575,1.0,-0.0005984138860198667,4.12407259464633,0.9351126879347476,1.0,-0.20482062976830354,6.885603898159066
1.17,112.85619690993016,-0.017427562354199302,26.057169925675144,107.72289384528385,-0.039125369940144976,3.408169985805963,107.77680182603774,17.7553050601807,-0.00701313550261867,6.555029625301578,-0.07773932628289172,-0.14976758296782908,1.1925301902862961,0.12313529546129225,4.742893656339109,0.004319209312533891,7096.931544168683,0.31681010348750566,107.77688452039708,2.1386721563234725,1.2219385351943837,101012.3626827847,287.9806283954831,0.0,0.1,0.0,403.3286842105263,0.21646357813080455,0.86,nominal,6063.453051376129,nan,pitch_program,12.415,0.0,0.0,-3.7093624744461295,0.041766810503789935,0.05352597265039692,-3.7024089457065408,0.00014252119171788953,0.0009656830045135175,0.86,0.0,0.0,0.0,0.0,0.0,0.0,-0.06461922635787111,2.4874640493432455e-06,1.6854347959312142e-05,-0.06461922635787111,2.4874640493432455e-06,1.6854347959312142e-05,1.17,1.0,20.19541013881188,-0.028651330186696425,5.335760225686812,-0.0034774094923163213,0.02304427274154138,0.0010586161659329346,20.888411829518503,0.023329199539430696,1.0,0.0,100.96228048240505,-0.5272227271940404,25.097933882641676,105.48284816473276,-0.13938491600654046,3.6689026199844768,1.0,26.673925713151505,0.0,1.0,107.84441315874403,7017.086895332475,1.0,1.0,-0.841330599758179,19.098190691407993,0.10112853646775205,-44.08581197886062,1.0,26.009308713160575,1.0,-0.0005984138860198667,4.12407259464633,0.9351126879347476,1.0,-0.20482062976830354,6.885603898159066
1.2,116.10545296052008,-0.018625780450006183,26.1574898761191,108.30853501966398,-0.039940603193562726,3.34399834813193,108.36015263144415,17.748811152836776,-0.011960161571267877,6.519740498190156,-0.07391421152152546,-0.15038436812872616,1.176283285058136,0.12686953638543752,4.751311115690336,0.0008756713776541823,7173.895756299821,0.318525224441427,108.3602356329595,2.138221409223218,1.221926759825921,101011.16054221772,287.97997631580523,0.0,0.1,0.0,403.2947368421053,0.21644535882450622,0.86,nominal,6127.47868724858,nan,pitch_program,12.4,0.0,0.0,-3.718568926604289,0.04020342884734171,0.0525610469050789,-3.7121049342451897,5.7008476687155806e-05,0.000386273201805407,0.86,0.0,0.0,0.0,0.0,0.0,0.0,-0.06478845328210617,9.949856197372982e-07,6.741739183724857e-06,-0.06478845328210617,9.949856197372982e-07,6.741739183724857e-06,1.2,1.0,20.16837622053847,0.05966604488406272,5.533231553972474,-0.0027494661066841232,0.020077356607749106,0.001196728097326566,20.91371824520858,0.02030004853111101,1.0,0.0,100.96228048240505,-0.5272227271940404,25.097933882641676,105.48284816473276,-0.13938491600654046,3.6689026199844768,1.0,26.845442770813307,0.0,1.0,107.76173458559148,7202.272388666655,1.0,1.0,1.989512262506732,19.13338212363528,0.12555036890356341,-44.02159331293629,1.0,26.40237058912682,1.0,-0.00394149742875239,4.130038774388459,0.9346062753097022,1.0,-0.12966441488921443,6.121266067299943
1.23,119.37225355065254,-0.019845832375212438,26.255936442211027,108.89335300441537,-0.040668397506875155,3.2815522030642543,108.94279493075351,17.74231779207204,-0.01688321199591346,6.484970840042068,-0.07007928901591395,-0.1496256066264097,1.158956635892982,0.12730016687533502,4.758860463940129,-0.0025328828829084115,7251.181278089239,0.32023825960675306,108.94287815641604,2.1377833492732954,1.2219152044362103,101009.98086180078,287.9793364131256,0.0,0.1,0.0,403.26078947368416,0.2164271395182078,0.86,nominal,6191.749062773115,nan,pitch_program,12.385,0.0,0.0,-3.727118379718851,0.0382547540796027,0.051031883090568206,-3.7211130015293867,2.2803390674862322e-05,0.00015450928072216282,0.86,0.0,0.0,0.0,0.0,0.0,0.0,-0.06494567371545659,3.9799424789491925e-07,2.696695673489943e-06,-0.06494567371545659,3.9799424789491925e-07,2.696695673489943e-06,1.23,1.0,20.216574244915822,-0.0025820658906483013,5.531179970470464,-0.002352473279942088,0.021070767103406912,0.0047975830631606636,20.959576158238306,0.021737712853627966,1.0,0.0,100.96228048240505,-0.5272227271940404,25.097933882641676,105.48284816473276,-0.13938491600654046,3.6689026199844768,1.0,26.845442770813307,0.0,1.0,109.27862183170745,7293.576167068834,1.0,1.0,1.989512262506732,19.13338212363528,0.12555036890356341,-44.02159331293629,1.0,26.40237058912682,1.0,-0.00394149742875239,4.130038774388459,0.9346062753097022,1.0,-0.12966441488921443,6.121266067299943
1.26,122.65657400409226,-0.021085033984070287,26.352561173513166,109.47734844799056,-0.0413067202952616,3.220824376737957,109.52472432795105,17.735824977886494,-0.021727131408700678,6.450748326116693,-0.06634342343929357,-0.14743632194719145,1.1407087426362363,0.12412061322189152,4.765596079613528,-0.0058020824475062995,7328.786004086181,0.3219491961314975,109.52480769422849,2.1373579117107524,1.2219038629697974,101008.82302318975,287.97870835237217,0.0,0.1,0.0,403.22684210526313,0.21640892021190947,0.86,nominal,6256.262963589069,nan,pitch_program,12.37,0.0,0.0,-3.7350502140064656,0.035925017667176165,0.04893208294565951,-3.7294753290156337,9.121356269944928e-06,6.180371228886513e-05,0.86,0.0,0.0,0.0,0.0,0.0,0.0,-0.06509162386322162,1.591976991579677e-07,1.0786782693959773e-06,-0.06509162386322162,1.591976991579677e-07,1.0786782693959773e-06,1.26,1.0,20.206867035176092,0.009997161981424368,5.595336212591623,-0.00400149123856948,0.020510216554168268,0.002000848058046023,20.967244994335168,0.020992482182500785,1.0,0.0,120.34747225370712,-1.009764235970643,28.26904827167006,109.52299869136952,-0.14495570314241069,3.1850379853707445,1.0,25.626730667322274,0.0,1.0,110.12427598974692,7439.229385421695,1.0,1.0,0.896566371999817,19.231508614381426,0.06761067167669815,-43.94386186611528,1.0,26.726300282161244,1.0,-0.002681303530014926,4.141839441283397,0.9341185970662171,1.0,-0.1836603739271478,6.3211306419315125
