time_s,sensor_time_s,imu_valid,imu_ax_mps2,imu_ay_mps2,imu_az_mps2,gyro_p_rps,gyro_q_rps,gyro_r_rps,imu_accel_norm_mps2,imu_gyro_norm_rps,gps_valid,gps_latency_s,gps_x_m,gps_y_m,gps_z_m,gps_vx_mps,gps_vy_mps,gps_vz_mps,baro_valid,baro_alt_m,baro_bias_m,pitot_valid,pitot_airspeed_mps,pitot_qbar_pa,pitot_compressibility_factor,mag_valid,mag_heading_deg,mag_x_ut,mag_y_ut,mag_z_ut,radar_valid,radar_agl_m,optical_flow_valid,optical_flow_x_radps,optical_flow_y_radps,optical_flow_quality,horizon_valid,horizon_roll_deg,horizon_pitch_deg
0.0,0.0,1.0,17.089473733673106,-0.02973773807099401,0.17662175509873101,0.0016677683591043149,0.0011681274632859406,0.0012765720485123657,17.090412285001868,0.00240324973008537,1.0,0.0,-1.885154541229685,1.8645638091475825,21.162662438547994,85.32748210022089,0.18147237523479218,7.846341299741817,1.0,20.771163472887363,0.0,1.0,85.62705682436835,4465.525352623238,1.0,1.0,-0.8198733225718878,19.523475325297145,-0.00615746722134172,-43.81279554351524,1.0,20.39618647858491,1.0,-0.0077448575321814855,4.273240466216326,0.95,1.0,0.17459483210835952,5.697481511065039
0.03,0.03,1.0,17.396244479696893,-0.010824585734829955,0.6886282541675013,0.00227870121700718,-0.15518965861156028,0.0009052063149970115,17.40987214316862,0.1552090268563067,1.0,0.0,-1.885154541229685,1.8645638091475825,21.162662438547994,85.32748210022089,0.18147237523479218,7.846341299741817,1.0,20.771163472887363,0.0,1.0,85.44847029073749,4493.7730199296575,1.0,1.0,-0.8198733225718878,19.523475325297145,-0.00615746722134172,-43.81279554351524,1.0,20.39618647858491,1.0,-0.0077448575321814855,4.273240466216326,0.95,1.0,0.17459483210835952,5.697481511065039
0.06,0.06,1.0,17.704005520007758,-0.0357156743497916,1.2236155388168186,-0.0028398648926588497,-0.18272117719737893,-0.0019183912123168978,17.746276286835315,0.18275331366037664,1.0,0.0,-1.885154541229685,1.8645638091475825,21.162662438547994,85.32748210022089,0.18147237523479218,7.846341299741817,1.0,20.526029305832235,0.0,1.0,85.93810144655563,4525.844478454378,1.0,1.0,0.0725533958588471,19.05163326837083,-0.026694326149309312,-44.01670170914568,1.0,20.444379186459432,1.0,-0.00015378532105336023,4.219132041602078,0.9488515176394263,1.0,-0.15705021316647355,6.398144486116751
0.09,0.09,1.0,17.977928047162976,0.0012041313682986162,1.4143950494266107,0.0012944011564939304,-0.11381446668299829,0.00022980794256292122,18.03348029845443,0.11382205898849188,1.0,0.0,-1.885154541229685,1.8645638091475825,21.162662438547994,85.32748210022089,0.18147237523479218,7.846341299741817,1.0,20.526029305832235,0.0,1.0,87.2304434445118,4643.934213558263,1.0,1.0,0.0725533958588471,19.05163326837083,-0.026694326149309312,-44.01670170914568,1.0,20.444379186459432,1.0,-0.00015378532105336023,4.219132041602078,0.9488515176394263,1.0,-0.15705021316647355,6.398144486116751
0.12,0.12,1.0,18.243748750616977,-0.0030254724588755413,1.529084430628855,0.002941644333063235,-0.056309718083801266,-0.005848402991769782,18.307716319222166,0.05668898869810221,1.0,0.0,-1.885154541229685,1.8645638091475825,21.162662438547994,85.32748210022089,0.18147237523479218,7.846341299741817,1.0,20.83529655732889,0.0,1.0,87.2635643206756,4712.610003571058,1.0,1.0,-1.908460013037832,18.840833586036233,-0.005317375127170606,-44.081409785580014,1.0,20.159613397690396,1.0,-0.014860624364417168,4.181138572627053,0.9477631965460827,1.0,0.2899946626142533,7.474548969865008
0.15,0.15,1.0,18.542975866172313,-0.026246263753822836,1.689676739726385,0.0012687560266606223,-0.04949776972835917,-0.005272934401120488,18.619818751120597,0.04979400352588027,1.0,0.0,-1.885154541229685,1.8645638091475825,21.162662438547994,85.32748210022089,0.18147237523479218,7.846341299741817,1.0,20.83529655732889,0.0,1.0,87.5396643283035,4739.75920147133,1.0,1.0,-1.908460013037832,18.840833586036233,-0.005317375127170606,-44.081409785580014,1.0,20.159613397690396,1.0,-0.014860624364417168,4.181138572627053,0.9477631965460827,1.0,0.2899946626142533,7.474548969865008
0.18,0.18,1.0,18.748351896414825,-0.03951367489207594,1.9094872717176496,0.0017522645783197186,-0.05928945619053886,-0.005087195096081063,18.845381444883426,0.05953309668132384,1.0,0.0,-1.885154541229685,1.8645638091475825,21.162662438547994,85.32748210022089,0.18147237523479218,7.846341299741817,1.0,20.08230530461684,0.0,1.0,88.03086637616704,4843.146987764626,1.0,1.0,-0.569848787389592,18.729985170194336,0.03056334149763826,-44.22119728834879,1.0,21.36183193514368,1.0,0.004991311376282403,4.138844749292004,0.9467295047155339,1.0,-0.49059164484273227,6.692411911077207
0.21,0.21,1.0,19.03918308008718,0.06702184565612937,2.109462802403605,0.0006036343134137256,-0.0498892673343344,-0.0036306434157388247,19.155803757597788,0.05002484323966706,1.0,0.0,18.158497985039517,-0.8504500598803318,22.528518517074513,88.79108612428186,-0.10525842170360344,6.6960732002225525,1.0,20.08230530461684,0.0,1.0,88.81121608561213,4833.564000734234,1.0,1.0,-0.569848787389592,18.729985170194336,0.03056334149763826,-44.22119728834879,1.0,21.36183193514368,1.0,0.004991311376282403,4.138844749292004,0.9467295047155339,1.0,-0.49059164484273227,6.692411911077207
0.24,0.24,1.0,19.34001994740245,-0.05463693405409094,2.3113678183774566,0.00232565889618793,-0.03678421150629052,-0.0038744421452700695,19.477725173960085,0.037060736735499186,1.0,0.0,18.158497985039517,-0.8504500598803318,22.528518517074513,88.79108612428186,-0.10525842170360344,6.6960732002225525,1.0,22.18547230661942,0.0,1.0,89.45723627867608,4891.127640072993,1.0,1.0,-1.0312072813876179,18.642359350774147,-0.00965450358466441,-44.29550776559856,1.0,21.59793018399087,1.0,0.012422424005344766,4.126184950705703,0.94574594592963,1.0,-0.5709734153151653,7.158879237164811
0.27,0.27,1.0,19.5524089092432,-0.02569807933871967,2.454909552154086,0.003924401150794116,-0.022792005446840992,-0.007378809449207647,19.705936553607188,0.024275981248322375,1.0,0.0,18.158497985039517,-0.8504500598803318,22.528518517074513,88.79108612428186,-0.10525842170360344,6.6960732002225525,1.0,22.18547230661942,0.0,1.0,90.12873075284628,4961.8116244909315,1.0,1.0,-1.0312072813876179,18.642359350774147,-0.00965450358466441,-44.29550776559856,1.0,21.59793018399087,1.0,0.012422424005344766,4.126184950705703,0.94574594592963,1.0,-0.5709734153151653,7.158879237164811
0.3,0.3,1.0,19.933203181974598,-0.02259595339297142,2.5963240970601293,0.0014161730970728096,-0.02130680077026783,-0.004309141512000919,20.101591939146687,0.021784260507880644,1.0,0.0,18.158497985039517,-0.8504500598803318,22.528518517074513,88.79108612428186,-0.10525842170360344,6.6960732002225525,1.0,22.08313853993758,0.0,1.0,90.39906418639032,5033.652716759318,1.0,1.0,-0.0945043631589571,18.477125273472133,-0.004087060617894823,-44.293766294373945,1.0,21.913765601494756,1.0,-9.867283823039846e-05,4.091606548320097,0.9448080594475421,1.0,0.5239303719523819,7.872062322033315
0.32999999999999996,0.32999999999999996,1.0,20.17260821799167,-0.055566595678963174,2.7886857284609436,0.0012315259589867388,-0.014517639611642725,-0.004472282489594214,20.364527444928893,0.015240729206567747,1.0,0.0,18.158497985039517,-0.8504500598803318,22.528518517074513,88.79108612428186,-0.10525842170360344,6.6960732002225525,1.0,22.08313853993758,0.0,1.0,90.88959646701134,5073.149573713275,1.0,1.0,-0.0945043631589571,18.477125273472133,-0.004087060617894823,-44.293766294373945,1.0,21.913765601494756,1.0,-9.867283823039846e-05,4.091606548320097,0.9448080594475421,1.0,0.5239303719523819,7.872062322033315
0.36,0.36,1.0,20.5619102273057,0.036829905614211636,2.8762636876467926,0.00030653167428355724,-0.010411752339349807,-0.005099829170399419,20.762138652812283,0.011597706928981783,1.0,0.0,18.158497985039517,-0.8504500598803318,22.528518517074513,88.79108612428186,-0.10525842170360344,6.6960732002225525,1.0,22.9981450493953,0.0,1.0,91.39172230129998,5125.461121659477,1.0,1.0,0.16589589503884147,18.55910231091219,0.06029891763672726,-44.330598474307116,1.0,22.233176202373045,1.0,0.0029119316118660374,4.087005772234715,0.9439122155644659,1.0,-0.0845263251376464,7.106555256524774
0.39,0.39,1.0,20.830866308052318,-0.045802538702024526,3.0277232500900797,-0.0022756892035697743,-0.004376695633557978,-0.00298382476571256,21.04980278044516,0.005765191779336497,1.0,0.0,18.158497985039517,-0.8504500598803318,22.528518517074513,88.79108612428186,-0.10525842170360344,6.6960732002225525,1.0,22.9981450493953,0.0,1.0,91.54380707131169,5181.331033973341,1.0,1.0,0.16589589503884147,18.55910231091219,0.06029891763672726,-44.330598474307116,1.0,22.233176202373045,1.0,0.0029119316118660374,4.087005772234715,0.9439122155644659,1.0,-0.0845263251376464,7.106555256524774
0.42,0.42,1.0,20.873154821113815,-0.036052178726273226,3.177052425840221,0.0017413886973861796,0.0010589269552807197,-0.003778990033450046,21.11358695395728,0.004293544755201605,1.0,0.0,38.98874521930497,0.8563761347696678,23.106528852009184,92.81384623904557,-0.017291542419513282,5.640911624670303,1.0,23.17691830578048,0.0,1.0,93.15534127535967,5284.131538542668,1.0,1.0,0.9167960773630197,18.490491309804145,0.021354559321863534,-44.255027279432795,1.0,22.711950191990386,1.0,0.010064163002239317,4.062627971065963,0.9430550527256375,1.0,0.4524980654557917,6.957519975840071
0.44999999999999996,0.44999999999999996,1.0,20.901121257921144,0.025201844637999495,3.3040097911329154,0.004878028652359223,0.005204706038763804,-0.0036838208821437335,21.160670728292107,0.008028366258143694,1.0,0.0,38.98874521930497,0.8563761347696678,23.106528852009184,92.81384623904557,-0.017291542419513282,5.640911624670303,1.0,23.17691830578048,0.0,1.0,93.14747022568554,5387.176503856515,1.0,1.0,0.9167960773630197,18.490491309804145,0.021354559321863534,-44.255027279432795,1.0,22.711950191990386,1.0,0.010064163002239317,4.062627971065963,0.9430550527256375,1.0,0.4524980654557917,6.957519975840071
0.48,0.48,1.0,20.85353941725059,0.0013249514248042608,3.398481307693199,0.00045917803926163363,0.006278624927039397,-0.0009181347387147505,21.128648399295695,0.006361992364394618,1.0,0.0,38.98874521930497,0.8563761347696678,23.106528852009184,92.81384623904557,-0.017291542419513282,5.640911624670303,1.0,24.50204958127797,0.0,1.0,94.01956441972662,5362.1768906218085,1.0,1.0,-0.45392568364953795,18.47869992929533,-0.013841079214817878,-44.269309150020334,1.0,23.258700005226743,1.0,0.00046979881985291603,4.080526905540631,0.9422338541808343,1.0,0.6929458511523072,7.6618703946943025
0.51,0.51,1.0,20.79921457468838,0.05598833612369758,3.5741944241638923,0.001838270957550596,0.009716271442155944,-0.005067758250862581,21.10415426875561,0.011111586049714725,1.0,0.0,38.98874521930497,0.8563761347696678,23.106528852009184,92.81384623904557,-0.017291542419513282,5.640911624670303,1.0,24.50204958127797,0.0,1.0,93.77677498362284,5484.033214492602,1.0,1.0,-0.45392568364953795,18.47869992929533,-0.013841079214817878,-44.269309150020334,1.0,23.258700005226743,1.0,0.00046979881985291603,4.080526905540631,0.9422338541808343,1.0,0.6929458511523072,7.6618703946943025
0.54,0.54,1.0,20.81015564185049,-0.02555635112830404,3.659645934778263,0.003436203533700547,0.012705940385236156,-0.0032124348628672066,21.12951110019027,0.013548732543908154,1.0,0.0,38.98874521930497,0.8563761347696678,23.106528852009184,92.81384623904557,-0.017291542419513282,5.640911624670303,1.0,23.598457244582654,0.0,1.0,95.02040257462009,5541.763757201088,1.0,1.0,0.4791012945806623,18.51841496125003,-0.005015960678989324,-44.21452371237961,1.0,23.61523178939404,1.0,-0.0107982038023487,4.049865625368363,0.9414465969064094,1.0,0.06724662914871612,7.158176392874436
0.57,0.57,1.0,20.78427580389972,-0.002168414214991605,3.719983502297105,0.00395616921941811,0.015847816499673997,-0.00646647356419117,21.114554284946536,0.017567579316923373,1.0,0.0,38.98874521930497,0.8563761347696678,23.106528852009184,92.81384623904557,-0.017291542419513282,5.640911624670303,1.0,23.598457244582654,0.0,1.0,96.35137841730872,5659.035156330326,1.0,1.0,0.4791012945806623,18.51841496125003,-0.005015960678989324,-44.21452371237961,1.0,23.61523178939404,1.0,-0.0107982038023487,4.049865625368363,0.9414465969064094,1.0,0.06724662914871612,7.158176392874436
0.6,0.6,1.0,20.774988938475413,0.022554077804734243,3.8707058897690882,-0.0019542683469116044,0.01936999862302848,-0.00034088362798267036,21.132511402227955,0.01947131770260278,1.0,0.0,38.98874521930497,0.8563761347696678,23.106528852009184,92.81384623904557,-0.017291542419513282,5.640911624670303,1.0,23.92599293174737,0.0,1.0,96.61523119085655,5725.702207006906,1.0,1.0,-2.2146637889767202,18.587557618280975,-0.04755080123553964,-44.29958347614257,1.0,23.301080585073922,1.0,-0.00212134034786655,4.054264283365245,0.9406915053054938,1.0,0.0315191699457819,7.17533195073836
0.63,0.63,1.0,20.743358436708753,0.033576784060430485,3.975354335164,0.0009111842471673714,0.014298296267565895,0.0017981517255002658,21.12087802919924,0.014439698144881505,1.0,0.0,57.72046268829861,-1.4422868749656994,24.34009063206133,97.24627475587342,0.09627217458738417,4.846221177165299,1.0,23.92599293174737,0.0,1.0,97.37600827308187,5768.935356838642,1.0,1.0,-2.2146637889767202,18.587557618280975,-0.04755080123553964,-44.29958347614257,1.0,23.301080585073922,1.0,-0.00212134034786655,4.054264283365245,0.9406915053054938,1.0,0.0315191699457819,7.17533195073836
0.6599999999999999,0.6599999999999999,1.0,20.64189387456737,0.008798740957423681,4.000210623887209,0.0007093137773341714,0.013874851119127072,0.003195404665140242,21.025925548764896,0.014255708701662567,1.0,0.0,57.72046268829861,-1.4422868749656994,24.34009063206133,97.24627475587342,0.09627217458738417,4.846221177165299,1.0,23.954206386991068,0.0,1.0,98.41648359731158,5695.8503857637925,1.0,1.0,-1.7951383082908867,18.680738492252267,0.011260339547878168,-44.22762586888337,1.0,24.053880173520888,1.0,-0.002443062460232401,4.04901371049409,0.9399669774253636,1.0,0.005146120664443147,7.626055702464342
0.69,0.69,1.0,20.676034417128754,0.02583901494255616,4.1743490006682435,-0.0009559460679673308,0.019274256919694182,0.0033008837522150083,21.093227739072223,0.019578218668634753,1.0,0.0,57.72046268829861,-1.4422868749656994,24.34009063206133,97.24627475587342,0.09627217458738417,4.846221177165299,1.0,23.954206386991068,0.0,1.0,97.59606898180742,5919.708675275716,1.0,1.0,-1.7951383082908867,18.680738492252267,0.011260339547878168,-44.22762586888337,1.0,24.053880173520888,1.0,-0.002443062460232401,4.04901371049409,0.9399669774253636,1.0,0.005146120664443147,7.626055702464342
0.72,0.72,1.0,20.612745430653003,-0.01471223481963168,4.267497442456019,0.001502963652852819,0.019543243932393033,-0.0007584148694297435,21.049869953520574,0.019615618171676005,1.0,0.0,57.72046268829861,-1.4422868749656994,24.34009063206133,97.24627475587342,0.09627217458738417,4.846221177165299,1.0,23.548190707455426,0.0,1.0,98.82351048439382,5964.7922584316675,1.0,1.0,0.1672548567853736,18.626462777078327,0.001233575351436398,-44.19592824468292,1.0,24.869069695992042,1.0,-0.001399732976352536,4.066417105326856,0.9392715466952191,1.0,-0.38635867717010297,6.75893107674323
0.75,0.75,1.0,20.56365400302018,0.005835423954966173,4.269632572325544,-9.298607837072157e-05,0.023863648456027595,0.0027884461204387917,21.002229936622534,0.02402618978969052,1.0,0.0,57.72046268829861,-1.4422868749656994,24.34009063206133,97.24627475587342,0.09627217458738417,4.846221177165299,1.0,23.548190707455426,0.0,1.0,99.9578350431471,6037.702295923801,1.0,1.0,0.1672548567853736,18.626462777078327,0.001233575351436398,-44.19592824468292,1.0,24.869069695992042,1.0,-0.001399732976352536,4.066417105326856,0.9392715466952191,1.0,-0.38635867717010297,6.75893107674323
0.78,0.78,1.0,20.56790482091249,-0.07187840027480814,4.38337646911534,-0.0007609391573332214,0.01995023107574114,0.0011605246942777711,21.029927829085274,0.019998439087655293,1.0,0.0,57.72046268829861,-1.4422868749656994,24.34009063206133,97.24627475587342,0.09627217458738417,4.846221177165299,1.0,23.507535282949945,0.0,1.0,100.1713387950305,6213.855522288766,1.0,1.0,-0.0920334871367499,18.75361707287055,0.028134162469881378,-44.22596716442444,1.0,24.365760052412977,1.0,0.02263394946453587,4.0670814107450175,0.9386038544997625,1.0,-0.3114249665622809,6.516772698637329
0.8099999999999999,0.8099999999999999,1.0,20.603363500163912,-0.023556134291750214,4.541030364862198,-0.0006630665240827847,0.020579066371742543,0.004113205833823186,21.097869541400378,0.02099657334374686,1.0,0.0,57.72046268829861,-1.4422868749656994,24.34009063206133,97.24627475587342,0.09627217458738417,4.846221177165299,1.0,23.507535282949945,0.0,1.0,99.90294287343428,6150.41101678553,1.0,1.0,-0.0920334871367499,18.75361707287055,0.028134162469881378,-44.22596716442444,1.0,24.365760052412977,1.0,0.02263394946453587,4.0670814107450175,0.9386038544997625,1.0,-0.3114249665622809,6.516772698637329
0.84,0.84,1.0,20.49111908094262,0.04766093448410635,4.529111075924566,-0.0007549085548529909,0.025261212330418423,0.0011853658273469087,20.985735152529426,0.025300273268747828,1.0,0.0,77.8734543815723,0.1041212246806928,24.9198506571068,101.23468842443533,-0.009060702142366008,4.179554559032109,1.0,25.96126489806443,0.0,1.0,101.0728366994482,6290.330462348059,1.0,1.0,-0.36316321550979613,18.69047119567617,0.053694558128634606,-44.160827623638276,1.0,24.643313554785994,1.0,-0.022286037507239433,4.073047609648085,0.9379626262985921,1.0,0.6052320222411088,7.402712050230035
0.87,0.87,1.0,20.454720092760727,-0.01068211555958339,4.645102319083566,-0.0030011133148713292,0.021308393086922953,0.0025455922316856795,20.975525350644684,0.021668741008317543,1.0,0.0,77.8734543815723,0.1041212246806928,24.9198506571068,101.23468842443533,-0.009060702142366008,4.179554559032109,1.0,25.96126489806443,0.0,1.0,101.66642103368815,6284.061710176929,1.0,1.0,-0.36316321550979613,18.69047119567617,0.053694558128634606,-44.160827623638276,1.0,24.643313554785994,1.0,-0.022286037507239433,4.073047609648085,0.9379626262985921,1.0,0.6052320222411088,7.402712050230035
0.8999999999999999,0.8999999999999999,1.0,20.485617162709378,-0.015022732386111917,4.67634854821943,-0.001996224696949589,0.021810927453625114,0.005226608395768601,21.012590796092123,0.022517080289209967,1.0,0.0,77.8734543815723,0.1041212246806928,24.9198506571068,101.23468842443533,-0.009060702142366008,4.179554559032109,1.0,25.04742649988601,0.0,1.0,101.96476343998059,6553.190865105435,1.0,1.0,-2.1239792629416754,18.91093998585511,-0.019311868232605656,-44.08872174871942,1.0,25.201602169559475,1.0,-0.0057361681478065195,4.075578389630199,0.9373466533530346,1.0,0.22508350565527102,6.669331858111808
0.9299999999999999,0.9299999999999999,1.0,20.42803764606167,-0.040800945077632336,4.740903217992718,-0.0034257155214551496,0.023084956743965147,-9.109108858761095e-05,20.97099306443083,0.023337931619813714,1.0,0.0,77.8734543815723,0.1041212246806928,24.9198506571068,101.23468842443533,-0.009060702142366008,4.179554559032109,1.0,25.04742649988601,0.0,1.0,102.97105162902562,6455.323306104523,1.0,1.0,-2.1239792629416754,18.91093998585511,-0.019311868232605656,-44.08872174871942,1.0,25.201602169559475,1.0,-0.0057361681478065195,4.075578389630199,0.9373466533530346,1.0,0.22508350565527102,6.669331858111808
0.96,0.96,1.0,20.400860011366802,0.03710754638357084,4.889008066586408,0.0030020699339596848,0.021558954923600934,-7.4942422610349e-05,20.978533458002506,0.021767098512501578,1.0,0.0,77.8734543815723,0.1041212246806928,24.9198506571068,101.23468842443533,-0.009060702142366008,4.179554559032109,1.0,25.015662982723146,0.0,1.0,103.17500974891433,6581.748508503412,1.0,1.0,0.22011015439083026,18.938280417866103,0.0389773673047644,-44.13955689780411,1.0,25.44723677621004,1.0,0.0026795786077036194,4.07305113475611,0.9367547777568205,1.0,-0.2582702816555845,6.595815326438826
0.99,0.99,1.0,20.473999966217605,0.01881308534271197,4.957088878840083,-0.004371662169530707,0.02224379968544623,0.005172987476908485,21.06555858983043,0.02325205053338341,1.0,0.0,77.8734543815723,0.1041212246806928,24.9198506571068,101.23468842443533,-0.009060702142366008,4.179554559032109,1.0,25.015662982723146,0.0,1.0,103.57499620289825,6598.228048816453,1.0,1.0,0.22011015439083026,18.938280417866103,0.0389773673047644,-44.13955689780411,1.0,25.44723677621004,1.0,0.0026795786077036194,4.07305113475611,0.9367547777568205,1.0,-0.2582702816555845,6.595815326438826
1.02,1.02,1.0,20.35690516687358,-0.009367960318745674,5.049503734440221,-0.0038371098512354623,0.022742739956909033,0.0027513741013028763,20.973820913126215,0.023227692356395525,1.0,0.0,77.8734543815723,0.1041212246806928,24.9198506571068,101.23468842443533,-0.009060702142366008,4.179554559032109,1.0,25.355058313613732,0.0,1.0,105.02128798378159,6838.05267943049,1.0,1.0,0.11204828629673873,18.942587892030144,-0.0008495816414972705,-44.084712250029305,1.0,25.584538064448616,1.0,-0.0013808205853688311,4.121273944664516,0.9361858806783333,1.0,-0.21819838761969632,6.392726060893152
1.05,1.05,1.0,20.389523267102167,0.02211727388117508,5.0927174848457595,-0.003436943611520718,0.02321283571233631,0.001838221806840617,21.01592062256513,0.023537786272456326,1.0,0.0,100.96228048240505,-0.5272227271940404,25.097933882641676,105.48284816473276,-0.13938491600654046,3.6689026199844768,1.0,25.355058313613732,0.0,1.0,105.07862192377704,6694.55622136672,1.0,1.0,0.11204828629673873,18.942587892030144,-0.0008495816414972705,-44.084712250029305,1.0,25.584538064448616,1.0,-0.0013808205853688311,4.121273944664516,0.9361858806783333,1.0,-0.21819838761969632,6.392726060893152
1.08,1.08,1.0,20.30156150870493,-0.025609676947587992,5.236533788331026,-0.002429069715464316,0.02166852789574211,0.0034493760617219666,20.966052123936336,0.022075408853888083,1.0,0.0,100.96228048240505,-0.5272227271940404,25.097933882641676,105.48284816473276,-0.13938491600654046,3.6689026199844768,1.0,26.16226471978141,0.0,1.0,105.83873449378814,6859.549565295706,1.0,1.0,0.638131851988897,19.029160060919224,0.004639944273706696,-44.01603280535999,1.0,25.689092381913973,1.0,-0.009424088083049793,4.114523569817329,0.935638872996292,1.0,-0.800752738519684,6.735719660168661
1.1099999999999999,1.1099999999999999,1.0,20.336175149754887,-0.05420974361147262,5.28673593685411,-0.003489255412663239,0.021985649572259024,0.004745244140772086,21.012199677421574,0.02276095411894029,1.0,0.0,100.96228048240505,-0.5272227271940404,25.097933882641676,105.48284816473276,-0.13938491600654046,3.6689026199844768,1.0,26.16226471978141,0.0,1.0,107.12796271656849,6986.482552429647,1.0,1.0,0.638131851988897,19.029160060919224,0.004639944273706696,-44.01603280535999,1.0,25.689092381913973,1.0,-0.009424088083049793,4.114523569817329,0.935638872996292,1.0,-0.800752738519684,6.735719660168661
1.14,1.14,1.0,20.28508968119207,0.003036933792757044,5.307975634138788,-0.001369051075575279,0.01767756143648671,0.00398856031909047,20.968058515980513,0.018173582272279696,1.0,0.0,100.96228048240505,-0.5272227271940404,25.097933882641676,105.48284816473276,-0.13938491600654046,3.6689026199844768,1.0,26.673925713151505,0.0,1.0,106.9691272559404,6958.025798514586,1.0,1.0,-0.841330599758179,19.098190691407993,0.10112853646775205,-44.08581197886062,1.0,26.009308713160575,1.0,-0.0005984138860198667,4.12407259464633,0.9351126879347476,1.0,-0.20482062976830354,6.885603898159066
1.17,1.17,1.0,20.19541013881188,-0.028651330186696425,5.335760225686812,-0.0034774094923163213,0.02304427274154138,0.0010586161659329346,20.888411829518503,0.023329199539430696,1.0,0.0,100.96228048240505,-0.5272227271940404,25.097933882641676,105.48284816473276,-0.13938491600654046,3.6689026199844768,1.0,26.673925713151505,0.0,1.0,107.84441315874403,7017.086895332475,1.0,1.0,-0.841330599758179,19.098190691407993,0.10112853646775205,-44.08581197886062,1.0,26.009308713160575,1.0,-0.0005984138860198667,4.12407259464633,0.9351126879347476,1.0,-0.20482062976830354,6.885603898159066
1.2,1.2,1.0,20.16837622053847,0.05966604488406272,5.533231553972474,-0.0027494661066841232,0.020077356607749106,0.001196728097326566,20.91371824520858,0.02030004853111101,1.0,0.0,100.96228048240505,-0.5272227271940404,25.097933882641676,105.48284816473276,-0.13938491600654046,3.6689026199844768,1.0,26.845442770813307,0.0,1.0,107.76173458559148,7202.272388666655,1.0,1.0,1.989512262506732,19.13338212363528,0.12555036890356341,-44.02159331293629,1.0,26.40237058912682,1.0,-0.00394149742875239,4.130038774388459,0.9346062753097022,1.0,-0.12966441488921443,6.121266067299943
1.23,1.23,1.0,20.216574244915822,-0.0025820658906483013,5.531179970470464,-0.002352473279942088,0.021070767103406912,0.0047975830631606636,20.959576158238306,0.021737712853627966,1.0,0.0,100.96228048240505,-0.5272227271940404,25.097933882641676,105.48284816473276,-0.13938491600654046,3.6689026199844768,1.0,26.845442770813307,0.0,1.0,109.27862183170745,7293.576167068834,1.0,1.0,1.989512262506732,19.13338212363528,0.12555036890356341,-44.02159331293629,1.0,26.40237058912682,1.0,-0.00394149742875239,4.130038774388459,0.9346062753097022,1.0,-0.12966441488921443,6.121266067299943
1.26,1.26,1.0,20.206867035176092,0.009997161981424368,5.595336212591623,-0.00400149123856948,0.020510216554168268,0.002000848058046023,20.967244994335168,0.020992482182500785,1.0,0.0,120.34747225370712,-1.009764235970643,28.26904827167006,109.52299869136952,-0.14495570314241069,3.1850379853707445,1.0,25.626730667322274,0.0,1.0,110.12427598974692,7439.229385421695,1.0,1.0,0.896566371999817,19.231508614381426,0.06761067167669815,-43.94386186611528,1.0,26.726300282161244,1.0,-0.002681303530014926,4.141839441283397,0.9341185970662171,1.0,-0.1836603739271478,6.3211306419315125
1.29,1.29,1.0,20.19608222044177,-0.04633155138015332,5.678369646647295,-0.005900025922289309,0.018431056229590473,0.001679216284567696,20.979222233235024,0.019425084477354762,1.0,0.0,120.34747225370712,-1.009764235970643,28.26904827167006,109.52299869136952,-0.14495570314241069,3.1850379853707445,1.0,25.626730667322274,0.0,1.0,110.0218037629575,7336.07861662002,1.0,1.0,0.896566371999817,19.231508614381426,0.06761067167669815,-43.94386186611528,1.0,26.726300282161244,1.0,-0.002681303530014926,4.141839441283397,0.9341185970662171,1.0,-0.1836603739271478,6.3211306419315125
1.3199999999999998,1.3199999999999998,1.0,20.076593112212603,0.03981803318935018,5.746987520774533,-0.0030229372842629993,0.021440818349533448,0.0020949930712721243,20.882984509716223,0.02175398440035654,1.0,0.0,120.34747225370712,-1.009764235970643,28.26904827167006,109.52299869136952,-0.14495570314241069,3.1850379853707445,1.0,26.387259315748462,0.0,1.0,111.21503735681793,7374.120435999984,1.0,1.0,1.633125942346258,19.197870979632643,0.01805048658400167,-43.91019091163187,1.0,26.537697310636542,1.0,0.010232790987146436,4.1486420119890735,0.9336486238658206,1.0,-0.7528570165819833,6.50202836905512
1.3499999999999999,1.3499999999999999,1.0,20.11968414057702,-0.07823328733896787,5.832930553911239,-0.0050095488281633425,0.02052390836456515,0.001748649003180913,20.94829084222829,0.02119868315143999,1.0,0.0,120.34747225370712,-1.009764235970643,28.26904827167006,109.52299869136952,-0.14495570314241069,3.1850379853707445,1.0,26.387259315748462,0.0,1.0,110.49917995881657,7545.183639103305,1.0,1.0,1.633125942346258,19.197870979632643,0.01805048658400167,-43.91019091163187,1.0,26.537697310636542,1.0,0.010232790987146436,4.1486420119890735,0.9336486238658206,1.0,-0.7528570165819833,6.50202836905512
1.38,1.38,1.0,20.0486402466421,0.021903149177149153,5.8836417367338445,-0.001563465541854197,0.018655622100452934,0.0035290006486290923,20.894154579055307,0.019050735052314857,1.0,0.0,120.34747225370712,-1.009764235970643,28.26904827167006,109.52299869136952,-0.14495570314241069,3.1850379853707445,1.0,26.56385275108069,0.0,1.0,111.80398200970238,7754.167707735221,1.0,1.0,-0.04597731307952122,19.259484746975026,0.018755340163182643,-43.95465920829223,1.0,26.899863704739815,1.0,-0.0035344842396382936,4.178501907290475,0.9331953325221479,1.0,-0.10465676174593255,6.8986161020966446
1.41,1.41,1.0,20.114802450488902,-0.07004065618051789,5.889128453082987,-0.005872364094361182,0.014727717398286131,0.00038164380602316334,20.959294292810153,0.01585988561797336,1.0,0.0,120.34747225370712,-1.009764235970643,28.26904827167006,109.52299869136952,-0.14495570314241069,3.1850379853707445,1.0,26.56385275108069,0.0,1.0,112.43428970891624,7651.063262457682,1.0,1.0,-0.04597731307952122,19.259484746975026,0.018755340163182643,-43.95465920829223,1.0,26.899863704739815,1.0,-0.0035344842396382936,4.178501907290475,0.9331953325221479,1.0,-0.10465676174593255,6.8986161020966446
1.44,1.44,1.0,20.120955072139726,0.034271155608218654,5.9712882141455115,-0.0022177393329783023,0.017289372774276526,0.002398681826056733,20.988337010434275,0.01759529633679377,1.0,0.0,120.34747225370712,-1.009764235970643,28.26904827167006,109.52299869136952,-0.14495570314241069,3.1850379853707445,1.0,27.210709545542517,0.0,1.0,113.36261238351534,7685.6263597584,1.0,1.0,1.379149129174676,19.321517686963777,0.09902890036006962,-43.91570896717711,1.0,26.705303919043835,1.0,0.003917216695846603,4.198271708981694,0.932757704118111,1.0,-0.34815961614556074,5.875076615586609
1.47,1.47,1.0,19.98284729240644,-0.008039969537328273,6.096187579605802,-0.0014439066982164877,0.017675291489766362,-2.5437689456147346e-05,20.892050008519643,0.017734188531686654,1.0,0.0,145.78972832400484,-1.2690915375433454,26.774581507045486,113.81704678575107,-0.1653487039745819,3.20625548991081,1.0,27.210709545542517,0.0,1.0,113.37802944422302,7936.331288513242,1.0,1.0,1.379149129174676,19.321517686963777,0.09902890036006962,-43.91570896717711,1.0,26.705303919043835,1.0,0.003917216695846603,4.198271708981694,0.932757704118111,1.0,-0.34815961614556074,5.875076615586609
1.5,1.5,1.0,20.015711603962295,-0.05209142242592783,6.118452742653558,-0.001029038144847126,0.017603852800311705,0.0013964768517178321,20.93004750337099,0.01768911248525421,1.0,0.0,145.78972832400484,-1.2690915375433454,26.774581507045486,113.81704678575107,-0.1653487039745819,3.20625548991081,1.0,26.968126306686674,0.0,1.0,114.40112758876712,8055.614600754023,1.0,1.0,-1.2531519722673126,19.413074724752963,0.0926836735204985,-43.864682202703705,1.0,27.058699556663353,1.0,-0.0016468624807253287,4.198154723010134,0.9323347226716281,1.0,0.2967680550273278,6.278620353864483
1.53,1.53,1.0,19.981992535998526,0.0019501449824815952,6.258429276154081,0.0023342243464886557,0.01443862983281116,0.0004395613120453441,20.939149135444563,0.014632697936325066,1.0,0.0,145.78972832400484,-1.2690915375433454,26.774581507045486,113.81704678575107,-0.1653487039745819,3.20625548991081,1.0,26.968126306686674,0.0,1.0,114.83927598593912,7947.843595502774,1.0,1.0,-1.2531519722673126,19.413074724752963,0.0926836735204985,-43.864682202703705,1.0,27.058699556663353,1.0,-0.0016468624807253287,4.198154723010134,0.9323347226716281,1.0,0.2967680550273278,6.278620353864483
1.56,1.56,1.0,19.977748319251067,0.06765604291339689,6.256183584345007,0.0006315548472549018,0.017194461174342188,-0.002435776304043606,20.934536973348838,0.01737761096366219,1.0,0.0,145.78972832400484,-1.2690915375433454,26.774581507045486,113.81704678575107,-0.1653487039745819,3.20625548991081,1.0,27.198493160329605,0.0,1.0,115.14281001178551,8029.461041859281,1.0,1.0,0.7363604464123894,19.382966444107176,-0.01720812622740317,-43.864829873412695,1.0,27.32050323828401,1.0,-0.0006428620919704496,4.216651651311647,0.9319253742390692,1.0,-0.18625249836462657,5.279635564557848
1.5899999999999999,1.5899999999999999,1.0,19.88297093261324,-0.023184037702170562,6.3549460290497795,-0.00040061841251159947,0.013045744593068984,0.0004477938138787432,20.87386906251169,0.013059573744949718,1.0,0.0,145.78972832400484,-1.2690915375433454,26.774581507045486,113.81704678575107,-0.1653487039745819,3.20625548991081,1.0,27.198493160329605,0.0,1.0,115.82087965725903,8162.578967922861,1.0,1.0,0.7363604464123894,19.382966444107176,-0.01720812622740317,-43.864829873412695,1.0,27.32050323828401,1.0,-0.0006428620919704496,4.216651651311647,0.9319253742390692,1.0,-0.18625249836462657,5.279635564557848
1.6199999999999999,1.6199999999999999,1.0,19.95379416101226,-0.03780567584532121,6.435237149182169,-0.0012970005880707572,0.013012774300359131,-0.0021806308375907028,20.965867686680355,0.013257814916772467,1.0,0.0,145.78972832400484,-1.2690915375433454,26.774581507045486,113.81704678575107,-0.1653487039745819,3.20625548991081,1.0,27.912803279227383,0.0,1.0,116.88206352465458,8336.62555711853,1.0,1.0,0.2099409262299938,19.437391911551583,0.15366999892685365,-43.93528514780363,1.0,27.199048303384668,1.0,-0.001370825399383565,4.232334482836956,0.9315286463676248,1.0,0.1989585924399264,5.550355885210346
1.65,1.65,1.0,19.811379308351537,-0.029111551021549407,6.4439149938351665,-0.001301003859194947,0.01865324333827785,-0.0023518191433560378,20.833041977338688,0.0188458788959736,1.0,0.0,145.78972832400484,-1.2690915375433454,26.774581507045486,113.81704678575107,-0.1653487039745819,3.20625548991081,1.0,27.912803279227383,0.0,1.0,117.43366902982936,8276.443921524817,1.0,1.0,0.2099409262299938,19.437391911551583,0.15366999892685365,-43.93528514780363,1.0,27.199048303384668,1.0,-0.001370825399383565,4.232334482836956,0.9315286463676248,1.0,0.1989585924399264,5.550355885210346
1.68,1.68,1.0,19.912709608823775,0.00282465425378536,6.645796258678197,-0.00019302438649171588,0.01420124745688629,0.0005903584768128835,20.992441969810837,0.014214823631570131,1.0,0.0,169.37937502626212,0.06525766886665721,25.723471000897028,117.39063075692657,-0.16510400144752813,2.5515601363143126,1.0,28.13850659903619,0.0,1.0,118.03315434756769,8430.236226183073,1.0,1.0,0.14851785817948238,19.48170456589764,0.01606020156368803,-43.84687317525706,1.0,27.72104935244599,1.0,-0.0088567356007338,4.244631805250199,0.9311435278251198,1.0,0.04412672704611144,5.8448143148738865
1.71,1.71,1.0,19.71865624762124,-0.02269946136110664,6.6266904608527275,-0.00011608617322280519,0.011768079101759548,-0.0007822880436120477,20.802378372228375,0.011794623195679534,1.0,0.0,169.37937502626212,0.06525766886665721,25.723471000897028,117.39063075692657,-0.16510400144752813,2.5515601363143126,1.0,28.13850659903619,0.0,1.0,118.17013500198989,8650.020423850254,1.0,1.0,0.14851785817948238,19.48170456589764,0.01606020156368803,-43.84687317525706,1.0,27.72104935244599,1.0,-0.0088567356007338,4.244631805250199,0.9311435278251198,1.0,0.04412672704611144,5.8448143148738865
1.74,1.74,1.0,19.74825444257428,0.06241008357453292,6.633917531597021,0.00033389971207295303,0.01651504186302027,-0.0029982918024233033,20.832818109012926,0.01678832482672149,1.0,0.0,169.37937502626212,0.06525766886665721,25.723471000897028,117.39063075692657,-0.16510400144752813,2.5515601363143126,1.0,27.662070632174686,0.0,1.0,118.70425633611333,8518.236078377835,1.0,1.0,0.2888690976555356,19.492969506192217,0.09179351958117671,-43.82162099592482,1.0,28.02277125397569,1.0,0.0002616624461413966,4.2774136229994655,0.930769008550347,1.0,-0.1397531610952261,5.967205138897491
1.77,1.77,1.0,19.75762461466256,0.006066936865012548,6.822307982215396,-0.003319098296317744,0.011522737732286948,-0.003915564310211278,20.90233607580365,0.012614338754571682,1.0,0.0,169.37937502626212,0.06525766886665721,25.723471000897028,117.39063075692657,-0.16510400144752813,2.5515601363143126,1.0,27.662070632174686,0.0,1.0,119.58834703889715,8762.75825966992,1.0,1.0,0.2888690976555356,19.492969506192217,0.09179351958117671,-43.82162099592482,1.0,28.02277125397569,1.0,0.0002616624461413966,4.2774136229994655,0.930769008550347,1.0,-0.1397531610952261,5.967205138897491
1.7999999999999998,1.7999999999999998,1.0,19.75469806543807,-0.025085865294353,6.850505060039311,-0.0016549164126054713,0.010409544589681345,-0.00025712639413631895,20.908805430604698,0.010543409357500859,1.0,0.0,169.37937502626212,0.06525766886665721,25.723471000897028,117.39063075692657,-0.16510400144752813,2.5515601363143126,1.0,28.169336733423016,0.0,1.0,119.70302375732682,8593.034704387883,1.0,1.0,-2.328122169882114,19.51122958733873,0.09807651792633917,-43.80340935161114,1.0,27.854553441614442,1.0,-0.029024080899471706,4.294452434165557,0.9304040797783669,1.0,-0.3044690389583742,5.8457029274000725
1.8299999999999998,1.8299999999999998,1.0,19.70273817629593,0.02832575744989731,6.931320783655711,-0.000975333482316557,0.01459353583642358,-0.0005683038949362861,20.886404712112178,0.014637128575226315,1.0,0.0,169.37937502626212,0.06525766886665721,25.723471000897028,117.39063075692657,-0.16510400144752813,2.5515601363143126,1.0,28.169336733423016,0.0,1.0,120.06331626741137,8915.269440366656,1.0,1.0,-2.328122169882114,19.51122958733873,0.09807651792633917,-43.80340935161114,1.0,27.854553441614442,1.0,-0.029024080899471706,4.294452434165557,0.9304040797783669,1.0,-0.3044690389583742,5.8457029274000725
1.8599999999999999,1.8599999999999999,1.0,19.709546764989266,-0.020510430473114846,6.958051380029729,-0.0031723514215477597,0.009602738125947521,-0.0004185193813739165,20.90170168589607,0.010121835383462221,1.0,0.0,169.37937502626212,0.06525766886665721,25.723471000897028,117.39063075692657,-0.16510400144752813,2.5515601363143126,1.0,28.24527963035036,0.0,1.0,120.86887217866875,8965.144429325426,1.0,1.0,-0.4619561667551037,19.585622959485733,0.10702445731656644,-43.7964065977004,1.0,27.86429588780851,1.0,-0.0013414105840924648,4.307777245613021,0.9300477343037568,1.0,-0.0027804651795927896,6.318225744972184
1.89,1.89,1.0,19.657409823950875,-0.013514795085163919,7.0541173323916,-0.002932282518663716,0.012215821382897724,-0.0005537780686294235,20.884791475511413,0.012575024571642675,1.0,0.0,195.90375742073306,0.5310511283004713,28.346295619434105,121.71147192025592,-0.06987084315195381,2.1189401215627317,1.0,28.24527963035036,0.0,1.0,121.69844586413659,8941.170799940928,1.0,1.0,-0.4619561667551037,19.585622959485733,0.10702445731656644,-43.7964065977004,1.0,27.86429588780851,1.0,-0.0013414105840924648,4.307777245613021,0.9300477343037568,1.0,-0.0027804651795927896,6.318225744972184
1.92,1.92,1.0,19.691637770102044,-0.005694171841525638,7.094234637028039,-0.001407214752597898,0.0077811219678166395,0.000641274826891057,20.930570837359184,0.007933306110416514,1.0,0.0,195.90375742073306,0.5310511283004713,28.346295619434105,121.71147192025592,-0.06987084315195381,2.1189401215627317,1.0,27.252841751014564,0.0,1.0,122.27012388183786,9096.676891007328,1.0,1.0,-0.05176468544622471,19.597922399261783,0.1558848422194559,-43.884799461338744,1.0,27.895397384558976,1.0,-0.020307785832992704,4.341505021433439,0.9296989668511647,1.0,-0.029438019832984455,6.651514020497871
1.95,1.95,1.0,19.655847343798822,-0.0361410615807297,7.175270053527765,-0.0012642433504051304,0.013660047124743816,0.0007278936471437006,20.924582225700654,0.01373772280477436,1.0,0.0,195.90375742073306,0.5310511283004713,28.346295619434105,121.71147192025592,-0.06987084315195381,2.1189401215627317,1.0,27.252841751014564,0.0,1.0,122.42876623078058,9265.560816851863,1.0,1.0,-0.05176468544622471,19.597922399261783,0.1558848422194559,-43.884799461338744,1.0,27.895397384558976,1.0,-0.020307785832992704,4.341505021433439,0.9296989668511647,1.0,-0.029438019832984455,6.651514020497871
1.98,1.98,1.0,19.638564191591243,0.017204068929411388,7.216831811354406,-0.0038608414622342763,0.014698164829549429,0.0009430849332664283,20.922623183544992,0.015226015740976536,1.0,0.0,195.90375742073306,0.5310511283004713,28.346295619434105,121.71147192025592,-0.06987084315195381,2.1189401215627317,1.0,28.993336381306516,0.0,1.0,123.3955785830255,9365.410090634745,1.0,1.0,0.15199170336396936,19.610914798641467,0.06455080827783505,-43.77244800770863,1.0,28.179731801673938,1.0,-0.005468235589294386,4.35783872192598,0.9293567745276154,1.0,0.46334745419558143,5.13905990141999
2.01,2.01,1.0,19.555118183067673,0.002553256834534316,7.329895670262303,-0.0015454477336193245,0.011490380422572187,0.0013301264413989146,20.883726300873473,0.011669896627772151,1.0,0.0,195.90375742073306,0.5310511283004713,28.346295619434105,121.71147192025592,-0.06987084315195381,2.1189401215627317,1.0,28.993336381306516,0.0,1.0,123.99559773215206,9389.166938100443,1.0,1.0,0.15199170336396936,19.610914798641467,0.06455080827783505,-43.77244800770863,1.0,28.179731801673938,1.0,-0.005468235589294386,4.35783872192598,0.9293567745276154,1.0,0.46334745419558143,5.13905990141999
2.04,2.04,1.0,19.52468586881505,0.0036981043901710003,7.3618702292575176,-0.0005925473960021899,0.00829608836745568,0.00014449049531953403,20.866492403475732,0.008318477752592725,1.0,0.0,195.90375742073306,0.5310511283004713,28.346295619434105,121.71147192025592,-0.06987084315195381,2.1189401215627317,1.0,27.312834779646984,0.0,1.0,124.31683610599802,9544.387176250513,1.0,1.0,0.44304953906648115,19.67632316469366,0.12042351842977894,-43.76206868558062,1.0,28.16747446122221,1.0,-0.012565991303637024,4.370901862607499,0.9290201573356626,1.0,0.1252668933370037,5.935808400527768
2.07,2.07,1.0,19.462818658304442,0.0177080114419758,7.4242879333347105,-0.002039260892319917,0.008140889221863656,0.00021855609490267617,20.8307867114224,0.008395262299429385,1.0,0.0,195.90375742073306,0.5310511283004713,28.346295619434105,121.71147192025592,-0.06987084315195381,2.1189401215627317,1.0,27.312834779646984,0.0,1.0,125.43299949886487,9620.752950566333,1.0,1.0,0.44304953906648115,19.67632316469366,0.12042351842977894,-43.76206868558062,1.0,28.16747446122221,1.0,-0.012565991303637024,4.370901862607499,0.9290201573356626,1.0,0.1252668933370037,5.935808400527768
2.1,2.1,1.0,19.498697272493654,0.0008774508464143294,7.470212403138582,-0.004798126598201429,0.008708183627041309,0.004162791157600103,20.880691306618107,0.010778836261695042,1.0,0.0,220.6963448092458,-0.9727739597787892,27.729697207272782,125.38526643316544,-0.21454720581396752,2.1139544078382793,1.0,28.91422815881157,0.0,1.0,125.79810628214051,9779.141406520346,1.0,1.0,-0.20114444709492985,19.63063638886873,0.08011024742071488,-43.806076602293324,1.0,28.351873711744865,1.0,0.005194111588039923,4.377053273801119,0.928688118731046,1.0,-0.09332885568137514,6.345348890274447
2.13,2.13,1.0,19.43686432308425,-0.03963170936203736,7.561196291878181,-0.005331196560084115,0.007745354028941129,0.004070628299796831,20.855813452145295,0.010246081228986726,1.0,0.0,220.6963448092458,-0.9727739597787892,27.729697207272782,125.38526643316544,-0.21454720581396752,2.1139544078382793,1.0,28.91422815881157,0.0,1.0,125.58655927994441,9739.60252751639,1.0,1.0,-0.20114444709492985,19.63063638886873,0.08011024742071488,-43.806076602293324,1.0,28.351873711744865,1.0,0.005194111588039923,4.377053273801119,0.928688118731046,1.0,-0.09332885568137514,6.345348890274447
2.16,2.16,1.0,19.413004685335874,0.00033525242096073813,7.576522551504169,-0.004192690379817694,0.010864602454171623,0.0021212195041958428,20.839108546161903,0.01183713695507443,1.0,0.0,220.6963448092458,-0.9727739597787892,27.729697207272782,125.38526643316544,-0.21454720581396752,2.1139544078382793,1.0,28.945637041544682,0.0,1.0,126.1319603254751,9760.321646402874,1.0,1.0,-1.2430722638178853,19.737763582355036,0.12294956792564914,-43.73385043292292,1.0,28.49891024015503,1.0,0.0017662274784323883,4.399590582084519,0.9283596662127046,1.0,0.3412821676671889,5.6582229418533085
2.19,2.19,1.0,19.38632552683937,-0.06716992248839934,7.68577991789521,-5.124146667591714e-06,0.01006733257176846,0.00040559611892562915,20.854384243544384,0.010075500959215715,1.0,0.0,220.6963448092458,-0.9727739597787892,27.729697207272782,125.38526643316544,-0.21454720581396752,2.1139544078382793,1.0,28.945637041544682,0.0,1.0,126.53293060071677,9628.469016167111,1.0,1.0,-1.2430722638178853,19.737763582355036,0.12294956792564914,-43.73385043292292,1.0,28.49891024015503,1.0,0.0017662274784323883,4.399590582084519,0.9283596662127046,1.0,0.3412821676671889,5.6582229418533085
2.2199999999999998,2.2199999999999998,1.0,19.352537226425003,-0.034496265628892825,7.716825092677405,-0.0015077235721709088,0.007734819920041068,0.001800875635289801,20.83437727899453,0.008083552598908748,1.0,0.0,220.6963448092458,-0.9727739597787892,27.729697207272782,125.38526643316544,-0.21454720581396752,2.1139544078382793,1.0,28.837002136439445,0.0,1.0,127.81574921968789,10027.394312286131,1.0,1.0,1.0447617931205526,19.72161839248305,0.09620164825281873,-43.748212378324205,1.0,28.978590873162215,1.0,0.0036943281268710434,4.4164741248776425,0.9280338119361311,1.0,0.4411941981653765,5.859660577393054
2.25,2.25,1.0,19.33096662162514,-0.03770108183582091,7.821691147021335,-0.0005182110393578707,0.006750143754401185,0.0036626343709632797,20.853454013600455,0.007697264054308859,1.0,0.0,220.6963448092458,-0.9727739597787892,27.729697207272782,125.38526643316544,-0.21454720581396752,2.1139544078382793,1.0,28.837002136439445,0.0,1.0,128.74321212470332,10164.083946920886,1.0,1.0,1.0447617931205526,19.72161839248305,0.09620164825281873,-43.748212378324205,1.0,28.978590873162215,1.0,0.0036943281268710434,4.4164741248776425,0.9280338119361311,1.0,0.4411941981653765,5.859660577393054
2.28,2.28,1.0,19.409337309677053,0.016856793205105264,7.876877956386866,-0.0008781908726550492,0.008218848641516646,0.0038204339236723958,20.946786514692704,0.009105844692620312,1.0,0.0,220.6963448092458,-0.9727739597787892,27.729697207272782,125.38526643316544,-0.21454720581396752,2.1139544078382793,1.0,29.546897293344394,0.0,1.0,129.5227921292172,10140.42108144502,1.0,1.0,0.6995062205097777,19.75613836212663,0.09732491038304426,-43.6750084977761,1.0,28.480295850351155,1.0,-0.0073473998556400286,4.436612993943178,0.9277095733425638,1.0,-0.7078169529320439,5.7434991079689075
2.31,2.31,1.0,19.40513955946062,0.008259958635683183,7.9277171665311,-0.0017731585624704504,0.006870881314539571,0.0007537926778127242,20.962065953087066,0.007135916530290652,1.0,0.0,248.81753518792945,0.3269145814553155,29.354930713210518,129.29921750310058,0.22147457419073607,2.0234034666197958,1.0,29.546897293344394,0.0,1.0,129.77914646021065,10217.464235504201,1.0,1.0,0.6995062205097777,19.75613836212663,0.09732491038304426,-43.6750084977761,1.0,28.480295850351155,1.0,-0.0073473998556400286,4.436612993943178,0.9277095733425638,1.0,-0.7078169529320439,5.7434991079689075
2.34,2.34,1.0,19.302463974360617,0.014715024471096915,7.899889357330422,-0.0015097219845767633,0.008951773877793327,0.0007349663315431669,20.856499799139286,0.00910789171753592,1.0,0.0,248.81753518792945,0.3269145814553155,29.354930713210518,129.29921750310058,0.22147457419073607,2.0234034666197958,1.0,29.12394060593513,0.0,1.0,129.92745285497406,10136.411011714408,1.0,1.0,0.8361297094269048,19.77625621322662,0.064229381122099,-43.68346407581908,1.0,29.197293399792894,1.0,-0.0005152810511486776,4.453981543335523,0.9273859737964816,1.0,0.19489571281544346,5.379565879958969
2.37,2.37,1.0,19.220492939589587,0.049857646167269905,8.039929441883721,7.991848425696548e-05,0.008310853257447121,-0.002511772296710831,20.834353843020022,0.00868249209049276,1.0,0.0,248.81753518792945,0.3269145814553155,29.354930713210518,129.29921750310058,0.22147457419073607,2.0234034666197958,1.0,29.12394060593513,0.0,1.0,130.77536124617453,10382.379133697052,1.0,1.0,0.8361297094269048,19.77625621322662,0.064229381122099,-43.68346407581908,1.0,29.197293399792894,1.0,-0.0005152810511486776,4.453981543335523,0.9273859737964816,1.0,0.19489571281544346,5.379565879958969
2.4,2.4,1.0,19.246994065202102,-0.01998934397121277,8.165944157810756,-0.0024121868433300887,0.003722300789068708,0.0041245726966822,20.907649894435313,0.006056919056884661,1.0,0.0,248.81753518792945,0.3269145814553155,29.354930713210518,129.29921750310058,0.22147457419073607,2.0234034666197958,1.0,30.40140767065953,0.0,1.0,130.49162949205274,10538.761539240355,1.0,1.0,-1.2727613268581226,19.848014780180787,0.10410905362458762,-43.76778851537149,1.0,28.995968748862136,1.0,0.0022910084033818875,4.47210965040163,0.9270620432231775,1.0,0.4628327046642216,6.000347110375403
2.4299999999999997,2.4299999999999997,1.0,19.217961496660976,0.044013528836739625,8.117306739744027,4.098010235493825e-05,0.00949906445634198,-0.002412588424761413,20.861990556630932,0.009800739146708341,1.0,0.0,248.81753518792945,0.3269145814553155,29.354930713210518,129.29921750310058,0.22147457419073607,2.0234034666197958,1.0,30.40140767065953,0.0,1.0,131.92415078772618,10613.078872837328,1.0,1.0,-1.2727613268581226,19.848014780180787,0.10410905362458762,-43.76778851537149,1.0,28.995968748862136,1.0,0.0022910084033818875,4.47210965040163,0.9270620432231775,1.0,0.4628327046642216,6.000347110375403
2.46,2.46,1.0,19.137851210871474,0.023020242501331598,8.261975026289676,-0.001233518239587535,0.0033160178839846317,-0.003979337711484888,20.845097990560127,0.005324722572711825,1.0,0.0,248.81753518792945,0.3269145814553155,29.354930713210518,129.29921750310058,0.22147457419073607,2.0234034666197958,1.0,28.75450911451984,0.0,1.0,132.08647163470127,10643.247219100445,1.0,1.0,2.046307436684181,19.864263689829304,0.07667479350191375,-43.6199769483924,1.0,29.048266501527777,1.0,-0.010263278862067977,4.495008343160833,0.926736828099009,1.0,0.7318494626253267,5.529534955080959
2.4899999999999998,2.4899999999999998,1.0,19.21876032141869,0.028942376643599714,8.320821734593538,-0.002856684766538458,0.00031976874423280104,-0.0018168718004404718,20.942723325589427,0.0034005768693556844,1.0,0.0,248.81753518792945,0.3269145814553155,29.354930713210518,129.29921750310058,0.22147457419073607,2.0234034666197958,1.0,28.75450911451984,0.0,1.0,132.61320174475406,10682.325893803392,1.0,1.0,2.046307436684181,19.864263689829304,0.07667479350191375,-43.6199769483924,1.0,29.048266501527777,1.0,-0.010263278862067977,4.495008343160833,0.926736828099009,1.0,0.7318494626253267,5.529534955080959
2.52,2.52,1.0,19.1636368813083,0.015344659649821629,8.397012777121706,0.0014531143390529356,0.0015034712052684255,-0.00023209280003045555,20.92259633879994,0.002103766625664196,1.0,0.0,273.91023496113286,0.11913871377065442,29.471157753894378,133.30860091345846,-0.12162827989131283,2.255557365251511,1.0,29.690002601497778,0.0,1.0,133.12105344572313,10747.886118871553,1.0,1.0,-0.6568501648811221,19.85275807472379,0.16116814853525546,-43.634009900651165,1.0,29.568686126227746,1.0,0.0092005423232355,4.503098318623718,0.9264092964865871,1.0,0.09045221493037157,5.452480645933178
2.55,2.55,1.0,19.070714162609683,-0.007318551947421172,8.553767167679522,-0.0006050828542715125,7.704938990602537e-06,-0.0018311026295882468,20.901175206003042,0.0019285023896026682,1.0,0.0,273.91023496113286,0.11913871377065442,29.471157753894378,133.30860091345846,-0.12162827989131283,2.255557365251511,1.0,29.690002601497778,0.0,1.0,133.5299366467337,11131.855805468367,1.0,1.0,-0.6568501648811221,19.85275807472379,0.16116814853525546,-43.634009900651165,1.0,29.568686126227746,1.0,0.0092005423232355,4.503098318623718,0.9264092964865871,1.0,0.09045221493037157,5.452480645933178
2.58,2.58,1.0,19.068489310003585,0.05479826179176801,8.51168293415524,-0.004345995681821987,0.0030829270170491174,-0.0025626262169626476,20.882026572792352,0.005912628060915976,1.0,0.0,273.91023496113286,0.11913871377065442,29.471157753894378,133.30860091345846,-0.12162827989131283,2.255557365251511,1.0,29.4081392996655,0.0,1.0,134.94712080507676,10849.719933479524,1.0,1.0,-0.49342946391684217,19.864823453140765,0.15577110062530963,-43.68343715748539,1.0,29.809881002234675,1.0,-0.007119140748050416,4.531176637949917,0.9260782821599538,1.0,-0.4386123371081418,6.204659902320974
2.61,2.61,1.0,19.037932263528322,0.06601307089999835,8.581914777609985,-0.0009001515441658638,-0.00131964236132075,0.0008127491299607093,20.8829232591221,0.001792286225051201,1.0,0.0,273.91023496113286,0.11913871377065442,29.471157753894378,133.30860091345846,-0.12162827989131283,2.255557365251511,1.0,29.4081392996655,0.0,1.0,135.72737125010272,11171.201355828782,1.0,1.0,-0.49342946391684217,19.864823453140765,0.15577110062530963,-43.68343715748539,1.0,29.809881002234675,1.0,-0.007119140748050416,4.531176637949917,0.9260782821599538,1.0,-0.4386123371081418,6.204659902320974
2.6399999999999997,2.6399999999999997,1.0,18.987730044061042,0.08858190505487508,8.704290753540109,0.0008981669580903167,-0.004345768922001907,-0.000926060630848572,20.8879490736215,0.004533210749573693,1.0,0.0,273.91023496113286,0.11913871377065442,29.471157753894378,133.30860091345846,-0.12162827989131283,2.255557365251511,1.0,29.344174631251505,0.0,1.0,135.2009474175661,11062.273186419043,1.0,1.0,-0.61999207255141,19.944549745661387,0.1093466156439232,-43.679521043858955,1.0,29.841629742843086,1.0,0.0048429430396303395,4.535848443943565,0.9257425188419222,1.0,0.43090910084419465,6.363515372732486
2.67,2.67,1.0,19.05655992891385,-0.05186725002431449,8.785669118071631,0.0008464922319102132,-0.0037803791287503823,-0.002817700364706871,20.98435484803256,0.004790328882346709,1.0,0.0,273.91023496113286,0.11913871377065442,29.471157753894378,133.30860091345846,-0.12162827989131283,2.255557365251511,1.0,29.344174631251505,0.0,1.0,136.13324183576793,11552.172218791464,1.0,1.0,-0.61999207255141,19.944549745661387,0.1093466156439232,-43.679521043858955,1.0,29.841629742843086,1.0,0.0048429430396303395,4.535848443943565,0.9257425188419222,1.0,0.43090910084419465,6.363515372732486
2.6999999999999997,2.6999999999999997,1.0,18.867000213483955,-0.0524180356106798,8.779001272838737,-0.00012270876601742518,-0.0037081496251532542,-0.0032188003321107043,20.80954848271738,0.004911833330008024,1.0,0.0,273.91023496113286,0.11913871377065442,29.471157753894378,133.30860091345846,-0.12162827989131283,2.255557365251511,1.0,30.30659954255101,0.0,1.0,135.81604862376386,11368.356231664815,1.0,1.0,1.2968175653928344,19.757300598050787,0.1614770159483812,-43.67089085271361,1.0,29.891204599394534,1.0,-0.01840720089594746,4.5640652664439365,0.9254006644382287,1.0,-0.5491407581746724,5.428922713961723
2.73,2.73,1.0,18.84691250922208,-0.012724536611376177,8.944222248410098,-0.002046950546641219,-0.005959157438958209,-0.0017213959804866087,20.861576754240264,0.00653182731280621,1.0,0.0,302.72500508650984,0.830040319087669,32.38337102635693,137.11974054976784,-0.03992852959190268,2.3835329461895443,1.0,30.30659954255101,0.0,1.0,137.26552619722534,11437.195850260763,1.0,1.0,1.2968175653928344,19.757300598050787,0.1614770159483812,-43.67089085271361,1.0,29.891204599394534,1.0,-0.01840720089594746,4.5640652664439365,0.9254006644382287,1.0,-0.5491407581746724,5.428922713961723
2.76,2.76,1.0,18.861080138460554,0.02466854626665444,8.96161077406011,-0.0006508536039209825,-0.005652833970269131,-0.004216601835663993,20.881844271815563,0.007082222345400528,1.0,0.0,302.72500508650984,0.830040319087669,32.38337102635693,137.11974054976784,-0.03992852959190268,2.3835329461895443,1.0,29.849166047607177,0.0,1.0,137.7753485817274,11602.271522477287,1.0,1.0,-1.504139287062401,19.748481846422628,0.16411782876464476,-43.76362892439597,1.0,29.46787436406928,1.0,0.01647777799497463,4.578225469918327,0.9250513193068579,1.0,-0.020460105381442537,5.576258121535198
2.79,2.79,1.0,18.908203842959455,0.033926752695943904,8.991122911083153,0.0029149168627252637,-0.009132027220532815,-0.0021060438143012316,20.93708706562734,0.009814585168050092,1.0,0.0,302.72500508650984,0.830040319087669,32.38337102635693,137.11974054976784,-0.03992852959190268,2.3835329461895443,1.0,29.849166047607177,0.0,1.0,138.03822321306197,11566.161326092693,1.0,1.0,-1.504139287062401,19.748481846422628,0.16411782876464476,-43.76362892439597,1.0,29.46787436406928,1.0,0.01647777799497463,4.578225469918327,0.9250513193068579,1.0,-0.020460105381442537,5.576258121535198
2.82,2.82,1.0,18.850759205603286,0.016345164731659256,9.147745807376218,-0.003773198001484835,-0.007916622927972038,0.002132754041608554,20.95310581151196,0.00902544079500272,1.0,0.0,302.72500508650984,0.830040319087669,32.38337102635693,137.11974054976784,-0.03992852959190268,2.3835329461895443,1.0,30.463628281564382,0.0,1.0,138.56936367810056,11839.067946806725,1.0,1.0,-1.8884446188094206,19.763135959306023,0.14344173603326935,-43.715585836155306,1.0,30.153281218391378,1.0,-0.0008699673617154503,4.590583538808849,0.9246930413698434,1.0,-0.5081313936548474,5.598654338752078
2.85,2.85,1.0,18.87987736407203,0.04724788319723529,9.231330098949778,-0.001621333717005304,-0.010382346062281906,0.0032490032009281173,21.01593340874114,0.010998993343871064,1.0,0.0,302.72500508650984,0.830040319087669,32.38337102635693,137.11974054976784,-0.03992852959190268,2.3835329461895443,1.0,30.463628281564382,0.0,1.0,139.7286920052396,12106.923978309855,1.0,1.0,-1.8884446188094206,19.763135959306023,0.14344173603326935,-43.715585836155306,1.0,30.153281218391378,1.0,-0.0008699673617154503,4.590583538808849,0.9246930413698434,1.0,-0.5081313936548474,5.598654338752078
2.88,2.88,1.0,18.77273996003303,-0.041800289499805646,9.30126970230289,-0.0008576675938139373,-0.0085419294925132,0.0025272343850012316,20.95068330499511,0.008949137768147162,1.0,0.0,302.72500508650984,0.830040319087669,32.38337102635693,137.11974054976784,-0.03992852959190268,2.3835329461895443,1.0,29.90659302183377,0.0,1.0,139.56802657505636,11870.314579046795,1.0,1.0,0.23873177702689266,19.785614070774574,0.18907866813515972,-43.74765218151201,1.0,30.36874894960514,1.0,0.014910025430372696,4.611435773117518,0.9243243589093852,1.0,-0.7696544619994578,5.755419551804375
2.9099999999999997,2.9099999999999997,1.0,18.7421482530402,-0.02932486415130897,9.414389183705136,0.0008283679736022806,-0.009735343522235,0.0010356778889392445,20.973786133859083,0.009825260082321007,1.0,0.0,302.72500508650984,0.830040319087669,32.38337102635693,137.11974054976784,-0.03992852959190268,2.3835329461895443,1.0,29.90659302183377,0.0,1.0,140.57729687372859,11838.466766898804,1.0,1.0,0.23873177702689266,19.785614070774574,0.18907866813515972,-43.74765218151201,1.0,30.36874894960514,1.0,0.014910025430372696,4.611435773117518,0.9243243589093852,1.0,-0.7696544619994578,5.755419551804375
2.94,2.94,1.0,18.74652678780623,0.008754702546233395,9.531411394045447,0.0024056007325765523,-0.009180475481991184,0.0013945242146862333,21.030457589251178,0.009592327285146205,1.0,0.0,335.17614848641836,-2.3584818343660996,30.505264157672556,141.21447599397504,-0.02589017846109723,2.8677170031607617,1.0,31.99248658553797,0.0,1.0,141.18545403918944,12407.50609436433,1.0,1.0,0.1480875188415025,19.681796209708395,0.1323752964840918,-43.680401040575575,1.0,30.612948928550317,1.0,-0.018370914168045843,4.615086267583409,0.9239437813816607,1.0,-0.8042866178582851,5.794190395918499
2.9699999999999998,2.9699999999999998,1.0,18.70020789828863,0.03495088418738312,9.53022101335797,0.001044951512405641,-0.007455053345979111,0.00024344819512570146,20.98866621696033,0.007531866374172018,1.0,0.0,335.17614848641836,-2.3584818343660996,30.505264157672556,141.21447599397504,-0.02589017846109723,2.8677170031607617,1.0,31.99248658553797,0.0,1.0,141.20127438709673,12142.07747788391,1.0,1.0,0.1480875188415025,19.681796209708395,0.1323752964840918,-43.680401040575575,1.0,30.612948928550317,1.0,-0.018370914168045843,4.615086267583409,0.9239437813816607,1.0,-0.8042866178582851,5.794190395918499
3.0,3.0,1.0,18.64880083434426,0.059067747705263594,9.61111695316269,-0.003184014920862509,-0.012589938315856596,0.0007073774577602131,20.97986726948551,0.013005571140134385,1.0,0.0,335.17614848641836,-2.3584818343660996,30.505264157672556,141.21447599397504,-0.02589017846109723,2.8677170031607617,1.0,31.305546669400904,0.0,1.0,141.72692618666932,12502.295863125333,1.0,1.0,-0.4319706399814699,19.739681519875397,0.1087701352358143,-43.72324656929678,1.0,30.54078405867796,1.0,-0.01812845663040041,4.624552582242821,0.9235498085586794,1.0,0.13488351441954674,5.488834663189303
