time_s,x_m,y_m,altitude_m,vx_mps,vy_mps,vz_mps,speed_mps,mass_kg,roll_deg,pitch_deg,yaw_deg,p_dps,q_dps,r_dps,alpha_deg,beta_deg,qbar_pa,mach,airspeed_mps,load_factor_g,density_kgpm3,pressure_pa,temperature_k,wind_x_mps,wind_y_mps,wind_z_mps,thrust_n,mass_flow_kgps,propulsion_throttle_actual,propulsion_health,energy_j_per_kg,target_distance_m,guidance_mode,pitch_command_deg,heading_command_deg,roll_command_deg
0.0,0.0,0.0,20.0,85.0,0.0,8.0,85.37564055396598,18.0,0.0,6.000000000000002,0.0,0.0,0.0,0.0,0.623294571949261,-0.06711018850271284,4455.9528551248095,0.2509446755827931,85.37569911866022,1.746019585183223,1.2226496753673843,101084.96761777384,288.02,0.0,0.1,0.0,326.8,0.17539118863220368,0.86,nominal,3840.633,nan,pitch_program,13.0,0.0,0.0
0.03,2.565307560933383,1.2217430333078664e-05,20.23295089077774,85.51025203111277,0.00040724767776928884,7.765029692591357,85.86209226845746,17.994738264341034,0.000673747383345809,6.26558332753372,-0.001374797989615718,0.01756243361475289,-8.852793703250093,-0.04551240426293013,1.0768886693990771,-0.06510171809935367,4506.77464880038,0.2523751634672366,85.86215002704955,1.7743113335796261,1.2226223199868234,101082.17454514118,288.0184858192099,0.0,0.1,0.0,332.605,0.1785066900092231,0.86,nominal,3884.5669122115964,nan,pitch_program,12.985,0.0,0.0
0.06,5.14610279332312,3.6098463717247685e-05,20.459392944229453,86.02650774632457,0.0007960344461389675,7.548068448390386,86.35701113959247,17.98938306364076,0.002020689479837296,6.57713211104879,-0.004100422884598769,0.0347369605127723,-10.384987158646082,-0.09004031867784736,1.5627716627554202,-0.06178977149160727,4558.7802424276815,0.2538305279368844,86.35706811695734,1.8034948466591951,1.222595729386636,101079.45957312656,288.01701394586246,0.0,0.1,0.0,338.40999999999997,0.18162219138624247,0.86,nominal,3929.4047922983764,nan,pitch_program,12.97,0.0,0.0
0.09,7.7425545492138514,7.044028552277052e-05,20.679880260885593,86.54839186302436,0.0011447273935174277,7.349577221871277,86.85988959655815,17.983934397899173,0.004022861586788246,6.769857752802997,-0.008117078151137347,0.051179692801134505,-6.424201120690086,-0.13264272572655222,1.916016123120113,-0.05725485391462907,4611.93088311428,0.25530927861793284,86.85994584260798,1.833254811996703,1.222569838463434,101076.81605335145,288.01558077830424,0.0,0.1,0.0,344.215,0.18473769276326188,0.86,nominal,3975.1205581235495,nan,pitch_program,12.955,0.0,0.0
0.12,10.354871067217294,0.00011337552741571075,20.89472138156692,87.07721726678145,0.0014311747297646744,7.161370689377615,87.37120234450937,17.978392267116273,0.006637427966096754,6.867809070600483,-0.013338183679734284,0.06648874804711748,-3.2650607839979657,-0.17250212735531345,2.1662877728069043,-0.051596454709033235,4666.291839890564,0.2568128116668576,87.37125793354616,1.8633098382071789,1.2225446109534035,101074.24028216228,288.0141843110198,0.0,0.1,0.0,350.02,0.1878531941402813,0.86,nominal,4021.7707189991424,nan,pitch_program,12.94,0.0,0.0
0.15,12.983287108746325,0.0001623940471375142,21.104092353144516,87.6138680509677,0.0016339506573934482,6.979032385919814,87.8913919025401,17.972756671292064,0.009807535461777353,6.952659703702889,-0.0196598846399972,0.08031723673224374,-2.8283849462123873,-0.20878680273525618,2.398276853715593,-0.04493670403438889,4721.9264138390035,0.25834242826918874,87.89144693185884,1.8938987709551331,1.2225200261534905,101071.73014477247,288.01282339970453,0.0,0.1,0.0,355.825,0.1909686955173007,0.86,nominal,4069.4088325579096,nan,pitch_program,12.925,0.0,0.0
0.18,15.628035020259851,0.0002143722537698998,21.308198113786478,88.15826371711758,0.0017326068877461865,6.803525354732049,88.42040161564104,17.967027610426545,0.013468316345227608,7.050153873574927,-0.02695368773368122,0.09239039389295757,-3.2498553960537953,-0.24065379380371835,2.6371499494553583,-0.037422441325626776,4778.8453353826835,0.2598979624625718,88.42045620414927,1.9249649840159313,1.222496059970302,101069.28318030493,288.01149671226034,0.0,0.1,0.0,361.63,0.19408419689432013,0.86,nominal,4118.045751968193,nan,pitch_program,12.91,0.0,0.0
0.21,18.289338771076686,0.00026561143737605976,21.50729298474369,88.71012502722782,0.0017079727868719986,6.6364956985736425,88.95802021414791,17.961205084519715,0.017543087380277628,7.138844298403283,-0.035060529102895276,0.10245085119604862,-2.956420548015548,-0.2673591334379824,2.860451113662349,-0.02922020542975304,4837.042636262507,0.2614787939618224,88.95807450044201,1.956226722111165,1.222472682514171,101066.89633615133,288.01020259559914,0.0,0.1,0.0,367.435,0.19719969827133954,0.86,nominal,4167.679174959211,nan,pitch_program,12.895,0.0,0.0
0.24,20.967424081116214,0.0003118985137750199,21.701621628148008,89.26951033465096,0.0015429025466320038,6.477621446810666,89.50421809823872,17.955289093571576,0.021941367368283726,7.202144291481844,-0.0437997462214506,0.11024768624267425,-2.1100994492449403,-0.2883019477826616,3.0518862161382154,-0.02051018141852706,4896.531949217813,0.2630848364404344,89.5042722376791,1.9875056072915094,1.2224498650319866,101064.56667582119,288.00893945941704,0.0,0.1,0.0,373.24,0.20031519964835895,0.86,nominal,4218.322736428219,nan,pitch_program,12.88,0.0,0.0
0.27,23.662524772080914,0.00034858451548625284,21.89138905922535,89.83668969882339,0.001222866723707766,6.325581035911391,90.05911277033528,17.949279637582126,0.02656298574742575,7.244947286315837,-0.05298056438512528,0.11557378820428597,-1.4268949408114175,-0.3029944403831916,3.217281633593616,-0.011483246051257471,4957.343308600259,0.26471643583857635,90.05916693156017,2.0188619425775114,1.2224275834280098,101062.29173840825,288.007705971115,0.0,0.1,0.0,379.045,0.20343070102537836,0.86,nominal,4270.003087007635,nan,pitch_program,12.865,0.0,0.0
0.3,26.374880402325672,0.0003706701774888727,22.076776220983174,90.41185434149189,0.0007361887334206625,6.1795720585940845,90.6227924797977,17.943176716551363,0.03130277294810848,7.2776865697326505,-0.062404140894477274,0.11828983637842261,-1.091466688135185,-0.31104887298112616,3.3676523095399724,-0.0023389189524060136,5019.504109635181,0.26637385203821856,90.62284684117316,2.050381572147976,1.2224058164347917,101060.06935183056,288.0065009545636,0.0,0.1,0.0,384.84999999999997,0.20654620240239774,0.86,nominal,4322.744475945743,nan,pitch_program,12.850000000000001,0.0,0.0
0.32999999999999996,29.104732366486076,0.00037289940886512133,22.257959815148553,90.99506547201345,7.430771254162089e-05,6.039453138846017,91.1952681583746,17.93698033047929,0.036052525821645996,7.303482248212811,-0.07186196200202598,0.11831800517840096,-0.8600396233319539,-0.3122064621558463,3.5062680700039475,0.00671844438182534,5083.033651710609,0.2680571176402314,91.19532290428226,2.0820326950367614,1.2223845432845228,101057.89739507083,288.0053232612015,0.0,0.1,0.0,390.655,0.20966170377941715,0.86,nominal,4376.564488860153,nan,pitch_program,12.835,0.0,0.0
0.36,31.85232332628916,0.00034986607600463423,22.43511377421365,91.58636532676941,-0.0007677777620162373,5.905131968836636,91.7765378401655,17.930690479365907,0.040702330172202955,7.320491644479487,-0.08113979965208809,0.11563314177823812,-0.5671852152434251,-0.30636645740975466,3.631403387941249,0.01548473271283834,5147.950100001033,0.26976622732008393,91.77659315687679,2.11373681729988,1.222363743536108,101055.77378051811,288.0041717604676,0.0,0.1,0.0,396.46,0.21277720515643656,0.86,nominal,4431.479757457558,nan,pitch_program,12.82,0.0,0.0
0.39,34.617898455826364,0.00029613202662312054,22.608402447878813,92.18583765124018,-0.0017911349793837904,5.776289122172124,92.36662916168318,17.924307163211214,0.04514318315392759,7.328199627895647,-0.09002582873333777,0.11026693671315697,-0.257152795313958,-0.2935915160775276,3.742802039384922,0.02376092803533276,5214.275241936479,0.27150126272998326,92.36668523292852,2.1454643476489634,1.222343397875044,101053.69653563053,288.00304538408875,0.0,0.1,0.0,402.265,0.21589270653345596,0.86,nominal,4487.509781211441,nan,pitch_program,12.805,0.0,0.0
0.42,37.40170582485672,0.00020634921155357093,22.77797890974498,92.7935789676785,-0.0029927605023183203,5.6525487288722145,92.96558295261572,17.91783038201521,0.04927020309323486,7.328436974134957,-0.0983168460343015,0.10231535328521764,-0.008137380970438772,-0.2741031321970467,3.8425845824749456,0.03135746585329722,5282.03273139292,0.2732623442608867,92.9656399551564,2.1553247316979065,1.2223234883121032,101051.66382321644,288.00194313708664,0.0,0.1,0.0,404.1773684210526,0.21691906078826353,0.86,nominal,4544.6754737350875,nan,pitch_program,12.79,0.0,0.0
0.44999999999999996,40.203801803674445,7.57146442139976e-05,22.943963418577567,93.40319929392425,-0.004354485577985777,5.532816961086243,93.56692642609865,17.911322810191564,0.05298533130575968,7.323020826655529,-0.10582171579646787,0.09193940641565222,0.18031676800170102,-0.24828132612709916,3.9330565809369884,0.03810072751239764,5350.501671309875,0.2750304460725822,93.56698451763887,2.1543053679779707,1.2223040007119594,101049.67419959433,288.00086423777924,0.0,0.1,0.0,404.14342105263154,0.21690084148196515,0.86,nominal,4602.3882792722725,nan,pitch_program,12.775,0.0,0.0
0.48,43.02414740638886,-0.00010000984576647026,23.106458327666285,94.01152009048053,-0.005857482999348929,5.416496969623944,94.16742740170231,17.904815784947104,0.05619966006151921,7.3126302769963205,-0.11236515642749448,0.079362327020496,0.34614536811065405,-0.2166680269549679,4.0152109710351995,0.043835450427219605,5419.315283830981,0.27679606757073444,94.16748671888548,2.1533504717866454,1.2222849230424917,101047.72643584464,287.99980802087015,0.0,0.1,0.0,404.1094736842105,0.2168826221756668,0.86,nominal,4660.349141286447,nan,pitch_program,12.76,0.0,0.0
0.51,45.86270521085888,-0.00032454423360295254,23.265560550223345,94.61859348233376,-0.007484479594549409,5.303407418568691,94.76710620695293,17.898309306281835,0.05883578390714901,7.297545472529329,-0.11779292034196108,0.06486563550350742,0.50264641312878,-0.17996160571127637,4.089504898280437,0.04842787086694356,5488.474068291965,0.2785592685274328,94.76716686561764,2.152442366768278,1.222266243911154,101045.81936837395,287.9987738564235,0.0,0.1,0.0,404.0755263157895,0.21686440286936848,0.86,nominal,4718.559418789796,nan,pitch_program,12.745,0.0,0.0
0.54,48.71943938996064,-0.0006009949821836767,23.421361237436244,95.22447263672557,-0.009215024952690807,5.193356240429995,95.36598567046426,17.891803374195753,0.06083006695569042,7.278335852711286,-0.1219767570640356,0.04878463110292174,0.6401758573189665,-0.13900314131286673,4.156686567751178,0.05177032687080102,5557.978878435951,0.2803201160487324,95.3660477628395,2.151575381286593,1.222247952602707,101043.95190276514,287.99776115195664,0.0,0.1,0.0,404.0415789473684,0.2168461835630701,0.86,nominal,4777.0207036287,nan,pitch_program,12.73,0.0,0.0
0.57,51.59431556181738,-0.0009317735984682104,23.57394640481126,95.82920572855791,-0.011025953876151122,5.086172245833876,95.96408672129499,17.885297988688862,0.06213454459449105,7.255714033424056,-0.12481809371061452,0.03150221211245442,0.7539594033224892,-0.09475955131991275,4.2176300958886594,0.05378449691680536,5627.830415056063,0.28207867164244216,95.96415031376563,2.150748612864458,1.2222300390056158,101042.12300626075,287.99676934836873,0.0,0.1,0.0,404.0076315789474,0.21682796425677175,0.86,nominal,4835.734411636854,nan,pitch_program,12.715,0.0,0.0
0.6,54.48730056566593,-0.001318531249310182,23.723397877802476,96.43283346161844,-0.01289192169473239,4.981715766373937,96.56142618879872,17.878793149761158,0.06271839757319199,7.230220789903252,-0.12625085740356914,0.013440470951139354,0.8497226734221521,-0.048303538103406686,4.273014716883731,0.054424044427250684,5698.028958887287,0.2838349847552098,96.56149132029374,2.149957818389685,1.2222124935009773,101040.33169642139,287.99579791379426,0.0,0.1,0.0,403.9736842105263,0.21680974495047337,0.86,nominal,4894.701573605763,nan,pitch_program,12.7,0.0,0.0
0.63,57.39836231488139,-0.0017621111428839148,23.869793828187355,97.03539164051521,-0.014785996452457758,4.879865012829324,97.15801836182796,17.872288857412645,0.06256904960500882,7.202231905411038,-0.12624388951127494,-0.0049490900650252315,0.9329625292641465,-0.0007896214380251189,4.323340517111376,0.053676547373644586,5768.574540532942,0.2855890973587875,97.15808504286501,2.14919695030473,1.2221953068995048,101038.57703469043,287.99484634011674,0.0,0.1,0.0,403.9397368421053,0.21679152564417503,0.86,nominal,4953.922979643842,nan,pitch_program,12.685,0.0,0.0
0.6599999999999999,60.32746971106488,-0.002262520591508207,24.013209029854536,97.6369132061163,-0.016680314954143075,4.7805067222393705,97.75387635880723,17.86578511164332,0.06169284804659331,7.172101074595113,-0.12480268518159332,-0.023196367447423184,1.0044121447551464,0.04657353601093704,4.369077347769367,0.051564607563631036,5839.467094797413,0.28734104797968757,97.75394457123438,2.148461931634894,1.2221784704114496,101036.858123322,287.99391414130594,0.0,0.1,0.0,403.9057894736842,0.21677330633787664,0.86,nominal,5013.399307919109,nan,pitch_program,12.67,0.0,0.0
0.69,63.27459255616774,-0.002815548309276832,24.153715185610857,98.23742817009531,-0.018434257258954166,4.683538525210673,98.34901202561015,17.859281912453184,0.06020277944828195,7.14018770686861,-0.12267275452491898,-0.04082450052980086,1.0638532846940874,0.06931301983010772,4.4106923565475435,0.048906772951457296,5910.706430269697,0.28909087106546405,98.34908160865083,2.147751330790688,1.2221619756081965,101035.17410145862,287.9930008512935,0.0,0.1,0.0,403.8718421052631,0.21675508703157828,0.86,nominal,5073.131114231775,nan,pitch_program,12.655,0.0,0.0
0.72,66.23970143121025,-0.00341837297679339,24.29138132191236,98.8369625014171,-0.020094155583885262,4.588871210050159,98.94343484670443,17.852779259842237,0.05817215056376197,7.106809204242008,-0.12023971006822522,-0.05763036025096928,1.1126993246115306,0.07932608231884164,4.448599716488244,0.046054617119420604,5982.292129407293,0.2908385946854596,98.94350568933348,2.1470632364534628,1.2221458143758877,101033.52414039546,287.99210602140755,0.0,0.1,0.0,403.8378947368421,0.21673686772527995,0.86,nominal,5133.118724272555,nan,pitch_program,12.64,0.0,0.0
0.75,69.22276760170288,-0.00406882876927755,24.426274126687357,99.43553901642126,-0.021681859749471982,4.496426825833248,99.53715258027704,17.84627715381048,0.05565497700436252,7.072226954827509,-0.1177172733275608,-0.0735284856905801,1.1528239954118575,0.0822932955170211,4.4831483841943145,0.04320407589102974,6054.223591172741,0.2925842417572106,99.53722459543113,2.146395443691471,1.2221299788757318,101031.90743952709,287.9912292181765,0.0,0.1,0.0,403.80394736842106,0.21671864841898159,0.86,nominal,5193.362293059155,nan,pitch_program,12.625,0.0,0.0
0.78,72.22376294177435,-0.00476508444474603,24.558458200095007,100.03317800238239,-0.023208522515616017,4.406135780255032,100.13017163875172,17.83977559435791,0.0526949311918697,7.036670786748447,-0.11523369412107844,-0.0885010395055409,1.1852827953408125,0.08103859296231439,4.5146485977520365,0.040472786840610495,6126.500072866136,0.2943278312082231,100.13024475207472,2.1457462184406424,1.2221144615145374,101030.32322333817,287.99037002169933,0.0,0.1,0.0,403.77,0.21670042911268322,0.86,nominal,5253.861840310901,nan,pitch_program,12.61,0.0,0.0
0.8099999999999999,75.24265986500149,-0.005505509139447941,24.68799628252214,100.6298974409045,-0.024680823156730352,4.317936080904454,100.72249718959894,17.83327458148453,0.04932912659363557,7.000352096589813,-0.11287158310655422,-0.10257260685081132,1.2106921429136417,0.07706915732289195,4.543385704274526,0.03793588794077685,6199.1206982794565,0.2960693782919428,100.72257133469834,2.1451144609734434,1.22209925491792,101028.7707386673,287.9895280241636,0.0,0.1,0.0,403.73605263157896,0.21668220980638486,0.86,nominal,5314.617258798379,nan,pitch_program,12.595,0.0,0.0
0.84,78.27943125732878,-0.00628862077299483,24.81494948056319,101.22571307757666,-0.02610372111822962,4.231773268035074,101.314133142717,17.82677411519034,0.045589612540517875,6.963458967592961,-0.11068642370679674,-0.11579650198151953,1.2298304741981025,0.07127985059153788,4.5696155374655,0.035642798520685456,6272.084451829407,0.2978088945595931,101.31420825927829,2.1444992747542844,1.2220843519037474,101027.2492519951,287.9887028283763,0.0,0.1,0.0,403.7021052631579,0.2166639905000865,0.86,nominal,5375.628311553658,nan,pitch_program,12.58,0.0,0.0
0.87,81.33405041626598,-0.007113069275855195,24.939377468925446,101.82063863123982,-0.027481616762012186,4.147599612075217,101.90508225331489,17.82027419547534,0.04150389641637675,6.9261542416071284,-0.10871539311073451,-0.12824641911289325,1.2435401203223415,0.06427386638747688,4.593563146692189,0.03362533645181524,6345.390186847045,0.29954638816658197,101.90515828640974,2.1438998967884797,1.2220697454584213,101025.75804702211,287.98789404645197,0.0,0.1,0.0,403.66815789473685,0.21664577119378817,0.86,nominal,5436.894640583074,nan,pitch_program,12.565,0.0,0.0
0.8999999999999999,84.40649099170575,-0.007981082044676891,25.06133865878618,102.41468584799235,-0.028933758960723182,4.065372995357751,102.4953460996974,17.813774822339525,0.03700886783129865,6.888581487482772,-0.10626487435064082,-0.1400106052568378,1.2524804490417232,0.0802329695331171,4.615429039268408,0.03112820897230817,6419.036632633146,0.30128186413863217,102.49542311171044,2.1433153417771083,1.2220554287170848,101024.2964226475,287.98710129871785,0.0,0.1,0.0,403.6342105263158,0.2166275518874898,0.86,nominal,5498.415762806563,nan,pitch_program,12.55,0.0,0.0
0.9299999999999999,87.49672695585822,-0.00888883958730434,25.180890357151615,103.00786547174893,-0.030258584754248304,3.985056612181173,103.08492586615255,17.8072759957829,0.03219283361478831,6.850867339359869,-0.1038461086399533,-0.15089067390833058,1.2571864279914173,0.07928749320885432,4.6353934733469755,0.028767661638591447,6493.022435509713,0.30301532542174386,103.08500372288454,2.1427454204975196,1.2220413949449063,101022.86369105753,287.9863242126785,0.0,0.1,0.0,403.6002631578947,0.21660933258119142,0.86,nominal,5560.191148836044,nan,pitch_program,12.535000000000002,0.0,0.0
0.96,90.60473254033536,-0.00983739691473123,25.29808889727182,103.600186149238,-0.03161857758089632,3.906618004006854,103.67382135390035,17.800777715805463,0.027020985458169663,6.813124864835022,-0.10095338025098254,-0.1609244543265133,1.2581318350912647,0.09508948662883593,4.653618594015552,0.02594989409578801,6567.346115715128,0.3047467719432315,103.67390008018391,2.1421894524600478,1.222027637521744,101021.45917615965,287.98556242216773,0.0,0.1,0.0,403.56631578947366,0.21659111327489305,0.86,nominal,5622.220120544653,nan,pitch_program,12.520000000000001,0.0,0.0
0.99,93.7304822152728,-0.010822160345627071,25.412989770457248,104.19165583124787,-0.03282544769652803,3.8300291061809433,104.26203213692614,17.794279982407215,0.021598115708092572,6.775451973185665,-0.09820309170685616,-0.16991656320532858,1.2558016118416437,0.09049966989252808,4.670248512838811,0.023385892417229937,6642.0061222719405,0.3064762019647688,104.26211157659793,2.1416473753974334,1.2220141499266608,101020.08221200084,287.984815566492,0.0,0.1,0.0,403.53236842105264,0.21657289396859472,0.86,nominal,5684.501968793164,nan,pitch_program,12.505,0.0,0.0
1.02,96.87395063561995,-0.011843850243571189,25.525647728666677,104.78228067823825,-0.0340563299314706,3.7552652736476415,104.8495566096594,17.787782795588157,0.01681998266485088,6.737935236103596,-0.09511426439346826,-0.14715739841304054,1.2505921571096636,0.10182655431266972,4.685412667038849,0.020423314006486268,6717.000797621308,0.30820361131922097,104.84963677814129,2.141118763127132,1.222000925725868,101018.73214153641,287.98408328976365,0.0,0.1,0.0,403.49842105263156,0.21655467466229633,0.86,nominal,5747.035853919416,nan,pitch_program,12.49,0.0,0.0
1.05,100.03511262195266,-0.012901413734009945,25.63611688545882,105.37206621109033,-0.03525211634795854,3.682305226404746,105.43639292050217,17.781286155348287,0.01214863409873642,6.700650192306114,-0.0915490833858629,-0.14180679997240292,1.2428646343500236,0.1177089112302,4.699226261813147,0.016999885233487996,6792.32842009709,0.30992899444871186,105.43647377691359,2.1406033501780923,1.221987958560856,101017.40831541781,287.9833652402445,0.0,0.1,0.0,403.46447368421053,0.216536455355998,0.86,nominal,5809.8209016980445,nan,pitch_program,12.475,0.0,0.0
1.08,103.21394313709878,-0.013989033498267224,25.744450801483197,105.9610171715374,-0.036253992141909316,3.611130534145973,106.02253882129702,17.774790061687607,0.007493527137003968,6.663662887741373,-0.08831328035297224,-0.14261947573776423,1.2329285404440808,0.10691607124167302,4.7117928781865785,0.014013331905368789,6867.987200189189,0.31165234435945344,106.02262017565809,2.140101156470552,1.221975242138351,101016.11009096677,287.9826610697903,0.0,0.1,0.0,403.43052631578945,0.21651823604969964,0.86,nominal,5872.856187509082,nan,pitch_program,12.46,0.0,0.0
1.1099999999999999,106.41041724385092,-0.01510693681214164,25.850702557924876,106.54913689173777,-0.037263443795813846,3.5417252147226073,106.60799115655037,17.768294514606115,0.002749880037695443,6.627031396398309,-0.08498586672253026,-0.14528625695824943,1.2210595970637412,0.11005946686133089,4.723205584739084,0.01094120422643247,6943.975268766299,0.313373652396363,106.60807301102427,2.1396119595888448,1.2219627702216795,101014.83683129353,287.9819704333735,0.0,0.1,0.0,403.3965789473684,0.21650001674340127,0.86,nominal,5936.140681457235,nan,pitch_program,12.445,0.0,0.0
1.14,109.62451009457165,-0.016253801255994953,25.954924826100964,107.13642835735793,-0.03822881479511048,3.474075605869611,107.19274669458221,17.761799514103814,-0.0020947878371863765,6.590805823317309,-0.08145496437804153,-0.14794300109264702,1.2075198121762665,0.11690773663924688,4.73354758974341,0.007700154466538334,7020.2907077148975,0.3150929089767969,107.1928290031186,2.1391356525671372,1.2219505366225842,101013.58790446068,287.98129298863034,0.0,0.1,0.0,403.3626315789474,0.21648179743710294,0.86,nominal,5999.673335510316,nan,pitch_program,12.43,0.0,0.0
1.17,112.85619690993016,-0.017427562354199302,26.057169925675144,107.72289384528385,-0.039125369940144976,3.408169985805963,107.77680182603774,17.7553050601807,-0.00701313550261867,6.555029625301578,-0.07773932628289172,-0.14976758296782908,1.1925301902862961,0.12313529546129225,4.742893656339109,0.004319209312533891,7096.931544168683,0.31681010348750566,107.77688452039708,2.1386721563234725,1.2219385351943837,101012.3626827847,287.9806283954831,0.0,0.1,0.0,403.3286842105263,0.21646357813080455,0.86,nominal,6063.453051376129,nan,pitch_program,12.415,0.0,0.0
1.2,116.10545296052008,-0.018625780450006183,26.1574898761191,108.30853501966398,-0.039940603193562726,3.34399834813193,108.36015263144415,17.748811152836776,-0.011960161571267877,6.519740498190156,-0.07391421152152546,-0.15038436812872616,1.176283285058136,0.12686953638543752,4.751311115690336,0.0008756713776541823,7173.895756299821,0.318525224441427,108.3602356329595,2.138221409223218,1.221926759825921,101011.16054221772,287.97997631580523,0.0,0.1,0.0,403.2947368421053,0.21644535882450622,0.86,nominal,6127.47868724858,nan,pitch_program,12.4,0.0,0.0
1.23,119.37225355065254,-0.019845832375212438,26.255936442211027,108.89335300441537,-0.040668397506875155,3.2815522030642543,108.94279493075351,17.74231779207204,-0.01688321199591346,6.484970840042068,-0.07007928901591395,-0.1496256066264097,1.158956635892982,0.12730016687533502,4.758860463940129,-0.0025328828829084115,7251.181278089239,0.32023825960675306,108.94287815641604,2.1377833492732954,1.2219152044362103,101009.98086180078,287.9793364131256,0.0,0.1,0.0,403.26078947368416,0.2164271395182078,0.86,nominal,6191.749062773115,nan,pitch_program,12.385,0.0,0.0
1.26,122.65657400409226,-0.021085033984070287,26.352561173513166,109.47734844799056,-0.0413067202952616,3.220824376737957,109.52472432795105,17.735824977886494,-0.021727131408700678,6.450748326116693,-0.06634342343929357,-0.14743632194719145,1.1407087426362363,0.12412061322189152,4.765596079613528,-0.0058020824475062995,7328.786004086181,0.3219491961314975,109.52480769422849,2.1373579117107524,1.2219038629697974,101008.82302318975,287.97870835237217,0.0,0.1,0.0,403.22684210526313,0.21640892021190947,0.86,nominal,6256.262963589069,nan,pitch_program,12.37,0.0,0.0
1.29,125.95838965149865,-0.02234073500160004,26.447415438432117,110.06052158021281,-0.0418567005843251,3.161808830631741,110.10593625038267,17.729332710280136,-0.026437466481709613,6.4170965232905,-0.06281624385960329,-0.14383629683317536,1.1216775884691168,0.11730362444744256,4.771566972490772,-0.008828381484467613,7406.707793821919,0.32365802065643007,110.10601967609877,2.1369450318344443,1.221892729392748,101007.68641024563,287.97809179965014,0.0,0.1,0.0,403.1928947368421,0.21639070090561113,0.86,nominal,6321.019145395967,nan,pitch_program,12.355,0.0,0.0
1.3199999999999998,129.27767581933355,-0.023610401434855172,26.54055045367175,110.64287226116348,-0.04232221444183779,3.1045005079876757,110.6864259824757,17.72284098925297,-0.030962856763975484,6.3840353455083765,-0.0596024872863406,-0.13890415699112035,1.1019858265801623,0.10700950433384009,4.776817360414112,-0.01151425254846243,7484.9444756994635,0.3253647194129543,110.68650939123954,2.1365446408250945,1.2218817976891896,101006.57040868116,287.97748642205113,0.0,0.1,0.0,403.158947368421,0.21637248159931274,0.86,nominal,6386.0163374935355,nan,pitch_program,12.34,0.0,0.0
1.3499999999999999,132.61440782008975,-0.024891690182008402,26.63201730949604,111.224400025207,-0.04270962490510765,3.048895194142967,111.26618869622611,17.71634981480499,-0.035257032221842295,6.351581433543836,-0.05679757574933429,-0.13276937064234914,1.0817432179261381,0.09354534549433613,4.781387163425733,-0.013772267260216244,7563.493850610076,0.3270692783119193,111.26627201856444,2.1361566615535574,1.2218710618583257,101005.47440575584,287.97689188748825,0.0,0.1,0.0,403.125,0.2163542622930144,0.86,nominal,6451.253246040267,nan,pitch_program,12.325,0.0,0.0
1.38,135.9685609437206,-0.026182516217650668,26.721866991140825,111.80510412102795,-0.043027534521408825,2.994989388159561,111.84521947905425,17.7098591869362,-0.03928054820894023,6.319748534692398,-0.05448388304115182,-0.1256064347459575,1.0610465724377292,0.07734224860073098,4.785312491313866,-0.015528521690523432,7642.353695325148,0.3287716830247458,111.84530265426763,2.135781008377515,1.221860515911929,101004.39779001958,287.97630786455755,0.0,0.1,0.0,403.0910526315789,0.21633604298671602,0.86,nominal,6516.72855708758,nan,pitch_program,12.31,0.0,0.0
1.41,139.34011045013378,-0.02748111110226394,26.810150396825957,112.38498354710586,-0.04328649615377572,2.9427801895044055,112.42351335840624,17.703369105646598,-0.04300227406505307,6.2885478384937965,-0.0527275477967483,-0.11762897408579831,1.0399811808355761,0.058937268994869556,4.788626077630001,-0.016725520512585766,7721.521765557238,0.3304719190548942,112.42359633612055,2.1354175867741687,1.221850153872208,101003.33995109494,287.9757340224206,0.0,0.1,0.0,403.0571052631579,0.2163178236804177,0.86,nominal,6582.440939312906,nan,pitch_program,12.295,0.0,0.0
1.44,142.72903156262709,-0.028786071050854126,26.89691835275558,112.9640370831103,-0.04349866495300623,2.8922651976541216,113.001065323393,17.696879570936186,-0.04640060866446227,6.2579882569229275,-0.051575845581404524,-0.1090829151405449,1.0186226614700864,0.03895492545494065,4.7913576485494715,-0.0173245015947788,7800.995798712159,0.3321699718004896,113.00114806476402,2.135066291988838,1.2218399697700466,101002.30027949686,287.9751700307071,0.0,0.1,0.0,403.02315789473687,0.21629960437411935,0.86,nominal,6648.3890464749165,nan,pitch_program,12.28,0.0,0.0
1.47,146.13529946216588,-0.030096392787911732,26.98222162540012,113.54226331795957,-0.04367739123525357,2.843442421484638,113.57787034402287,17.690390582804962,-0.049464383691546675,6.228076678763679,-0.05105518674478838,-0.10023851549890359,0.9970378464102434,0.018086478815031552,4.7935342567284644,-0.017307138416933123,7880.773516393832,0.33386582660974395,113.5779528225523,2.1347270085866272,1.2218299576435498,101001.2781664843,287.9746155594349,0.0,0.1,0.0,402.9892105263158,0.21628138506782096,0.86,nominal,6714.571519644565,nan,pitch_program,12.265,0.0,0.0
1.5,149.55888928240833,-0.03141149566120094,27.06611093134876,114.11966067474829,-0.04383676244297364,2.7963101982880545,114.15392338814502,17.68390214125293,-0.05219341645107758,6.198818201389464,-0.051169816855060855,-0.09138131615790704,0.9752855866587187,-0.002933352199228553,4.795180582464728,-0.01667655170850343,7960.852626667156,0.3355594688295446,114.15400559007541,2.134399610488622,1.2218201115368874,101000.27300394168,287.9740702789462,0.0,0.1,0.0,402.9552631578947,0.2162631657615226,0.86,nominal,6780.986989218152,nan,pitch_program,12.25,0.0,0.0
1.53,152.99977610539267,-0.032731228877049025,27.1486369450074,114.69622743281158,-0.04399110719493613,2.750867121954625,114.72921943628573,17.677414246280083,-0.05459868172348785,6.170216333087906,-0.051901286150171214,-0.08280223266820025,0.9534178065861509,-0.023351893348307444,4.7963191949041635,-0.015457573592902478,8041.230826094151,0.3372508838477841,114.72930136055412,2.134083960602565,1.2218104254993756,100999.28418428518,287.9735338598574,0.0,0.1,0.0,402.9213157894737,0.21624494645522424,0.86,nominal,6847.634076726458,nan,pitch_program,12.235,0.0,0.0
1.56,156.45793495781507,-0.03405586320236738,27.22985030437231,115.2719617474129,-0.04415447751061185,2.70711197883026,115.30375349476198,17.670926897886428,-0.05670208356566843,6.142273172828631,-0.05320873357038651,-0.07478708873836762,0.9314803405006955,-0.042425543232664883,4.79697078078377,-0.01369622860294901,8121.905801588885,0.3389400571306002,115.30383515250627,2.133779910383683,1.2218008935848013,100998.3111003934,287.97300597302154,0.0,0.1,0.0,402.8873684210526,0.21622672714892588,0.86,nominal,6914.511396477789,nan,pitch_program,12.220000000000002,0.0,0.0
1.5899999999999999,159.93334080783808,-0.03538606702171484,27.309801615083927,115.84686166743383,-0.044340127311582024,2.6650436903872365,115.87752060737282,17.66444009607196,-0.05853582156558393,6.114989573066679,-0.05503000413756259,-0.0676059521363967,0.9095135853634121,-0.05944743808128752,4.79715434708293,-0.011458422183100147,8202.875232127082,0.34062697425546146,115.87760202100132,2.1334872994901386,1.2217915098509355,100997.35314555757,287.97248628950194,0.0,0.1,0.0,402.8534210526316,0.21620850784262752,0.86,nominal,6981.617557064619,nan,pitch_program,12.205000000000002,0.0,0.0
1.6199999999999999,163.42596856237873,-0.036722867216194256,27.38854145295008,116.42092515135481,-0.04456000648264731,2.624661262205015,116.4505158658941,17.657953840836683,-0.06014136098261227,6.088365285089459,-0.057283588178810615,-0.06150266809164415,0.8875531630584937,-0.07377474764980928,4.7968873981774385,-0.008827856473726815,8284.136790337583,0.342311620940806,116.45059706774437,2.133205955280438,1.2217822683592292,100996.4097134503,287.9719744805558,0.0,0.1,0.0,402.8194736842105,0.21619028853632916,0.86,nominal,7048.9511627560005,nan,pitch_program,12.19,0.0,0.0
1.65,166.93579306483355,-0.038067595921186456,27.466120365105162,116.99415008182778,-0.04482429016640663,2.5859637385027145,117.02273441961218,17.651468132180593,-0.06156803173167556,6.062399088615495,-0.05987133885473398,-0.05668500302961285,0.8656305108711849,-0.0848545379375726,4.79618609080681,-0.005903223677161402,8365.688144005686,0.34399398307297285,117.02281545024081,2.1329356922084224,1.221773163174681,100995.48019811188,287.9714702176268,0.0,0.1,0.0,402.78552631578947,0.21617206923003082,0.86,nominal,7116.510814800001,nan,pitch_program,12.175,0.0,0.0
1.68,170.4627890932058,-0.03942182479794117,27.542588869952084,117.56653427907553,-0.04514096255849061,2.548950161564091,117.59417148407348,17.64498297010369,-0.06287129662787,6.037088908374379,-0.0626818921335702,-0.053315811773711995,0.8437733606577416,-0.09224712662514743,4.795065371361219,-0.00279475772945946,8447.526957511056,0.3456740467309931,117.59425239023457,2.1326763112892357,1.2217641883658277,100994.56399394921,287.9709731723453,0.0,0.1,0.0,402.75157894736844,0.21615384992373246,0.86,nominal,7184.295112654356,nan,pitch_program,12.16,0.0,0.0
1.71,174.00693135860334,-0.040787288995576355,27.61799745602043,118.1380755132512,-0.04551547325450612,2.513619535611539,118.16482234913552,17.63849835460598,-0.06411074403299251,6.012431918483918,-0.0655946821823431,-0.05150562400788188,0.822006168271498,-0.09564589475501065,4.793539098001313,0.000379746009863694,8529.65089321087,0.3473517982095285,118.16490318151749,2.1324275996672357,1.221755338004883,100993.66049574966,287.97048301653587,0.0,0.1,0.0,402.71763157894736,0.2161356306174341,0.86,nominal,7252.302655153461,nan,pitch_program,12.145,0.0,0.0
1.74,177.56819450407818,-0.042165803460995833,27.69239657986119,118.70877151582832,-0.04595048218064934,2.4799707946919254,118.73468238634604,17.632014285687454,-0.06534787337208425,5.988424635430714,-0.06848441653438316,-0.05130701063069973,0.8003504948701916,-0.09489260282990235,4.791620149932506,0.003499307121266781,8612.057612770177,0.3490272240400706,118.7347631971484,2.1321893303509283,1.2217466061679694,100992.76909870488,287.9699994222309,0.0,0.1,0.0,402.68368421052634,0.21611741131113574,0.86,nominal,7320.532041613131,nan,pitch_program,12.13,0.0,0.0
1.77,181.1465531037791,-0.04355917465156482,27.76583666308644,119.27861999003068,-0.046445706352299644,2.4480027741750208,119.30374705562333,17.62553076334812,-0.06664375327025222,5.965063000952287,-0.07122585072262784,-0.05271103798237826,0.7788253282260612,-0.08998739012030255,4.789320526265994,0.006444374461153442,8694.744778433955,0.35070031101034543,119.30382789606301,2.131961262218857,1.2217379869354714,100991.88919844634,287.96952206168993,0.0,0.1,0.0,402.64973684210526,0.21609919200483738,0.86,nominal,7388.981872868133,nan,pitch_program,12.115,0.0,0.0
1.7999999999999998,184.74198166238676,-0.044969110998058545,27.838368088653237,119.84761862025519,-0.04699787821645733,2.4177141855598663,119.87201191116196,17.619047787587974,-0.068056640694018,5.942342455683627,-0.07369868264459613,-0.05564604883002154,0.7574473654356152,-0.08109280993951057,4.786651435926701,0.009101503507292608,8777.710054227111,0.35237104618171716,119.87209282900419,2.1317431403278855,1.2217294743924623,100991.02019108902,287.96905060742375,0.0,0.1,0.0,402.6157894736842,0.216080972698539,0.86,nominal,7457.650752231469,nan,pitch_program,12.1,0.0,0.0
1.8299999999999998,188.35445461479932,-0.04639713563546669,27.910041196482673,120.41576508041837,-0.04760082124693823,2.389103594314554,120.43947260647172,17.612565358407018,-0.06963965493522675,5.920258004349524,-0.07579237391287247,-0.059978925271278405,0.7362312677629591,-0.06853146643474949,4.783623379431784,0.011367911198667629,8860.951107065783,0.3540394169043237,120.43955364368178,2.1315346965116753,1.221721062629212,100990.1614732831,287.96858473222284,0.0,0.1,0.0,402.58184210526315,0.21606275339224065,0.86,nominal,7526.537286362013,nan,pitch_program,12.085,0.0,0.0
1.8599999999999999,191.98394632603424,-0.04784450495280091,27.980906278497315,120.9830570411639,-0.04824564391114062,2.3621694004880855,121.00612489847065,17.60608347580525,-0.07143860211670904,5.898804273480866,-0.07741069981350196,-0.0655188929683576,0.7151898886968805,-0.05277706351062091,4.780246223053047,0.013155719394296153,8944.465607763947,0.35570541082970597,121.00620608908066,2.131335650230644,1.2217127457417696,100989.31244227313,287.9681241091897,0.0,0.1,0.0,402.54789473684207,0.2160445340859423,0.86,nominal,7595.640086028164,nan,pitch_program,12.07,0.0,0.0
1.89,195.6304310913112,-0.04931213640118603,28.051013573153018,121.54949217589855,-0.04892104827950383,2.336909821856768,121.57196465058578,17.59960213978267,-0.07349004382192907,5.877975562562781,-0.07847583195761079,-0.07202382170976346,0.694334483358943,-0.034438945345978376,4.776529265422033,0.014395702513025398,9028.25123192325,0.3573690159207751,121.5720460188646,2.1311457095823614,1.2217045178325996,100988.47249596314,287.96766841177447,0.0,0.1,0.0,402.51394736842104,0.21602631477964393,0.86,nominal,7664.957766758801,nan,pitch_program,12.055,0.0,0.0
1.92,199.29388313628155,-0.05080054873901763,28.12041325953412,122.1150681656782,-0.049613744594386784,2.3133228793700997,122.13698783487376,17.59312135033928,-0.07581969730125167,5.85776588947232,-0.07893176867276891,-0.07920886823763554,0.6736749036467495,-0.014240490328274248,4.772481296410894,0.015040367455521432,9112.30566070199,0.3590302204591279,122.13706939387822,2.1309645723474406,1.221696373011272,100987.64103298668,287.967217313813,0.0,0.1,0.0,402.48,0.2160080954733456,0.86,nominal,7734.488949379661,nan,pitch_program,12.040000000000001,0.0,0.0
1.95,202.9742766173726,-0.05230981748692355,28.189155451073763,122.67978270303517,-0.050308958263530636,2.2914063846547075,122.70119053324154,17.58664110747508,-0.078441244500619,5.838169031065905,-0.0787469476922076,-0.08675719813256616,0.6532197779415257,0.007007995589114394,4.768110648192658,0.015066214513623496,9196.626581468568,0.3606890130499027,122.70127228381332,2.130791926939143,1.2216883053951926,100986.8174527815,287.966770489568,0.0,0.1,0.0,402.44605263157894,0.2159898761670472,0.86,nominal,7804.232260441695,nan,pitch_program,12.025,0.0,0.0
1.98,206.67158562221982,-0.053839547823362525,28.257290188953814,123.2436334949074,-0.050991011214632544,2.2711579293350885,123.26456893791608,17.58016141119007,-0.08135561309251736,5.819178559658942,-0.07791590343164531,-0.09433241924350183,0.6329766743483849,0.0284409668210418,4.763425238571416,0.01447505623728742,9281.211688355583,0.3623453826245669,123.2646508681727,2.130627453131608,1.2216803091103816,100986.00115566883,287.9663276137718,0.0,0.1,0.0,402.4121052631579,0.21597165686074887,0.86,nominal,7874.186332556637,nan,pitch_program,12.01,0.0,0.0
2.01,210.38578417016652,-0.05538886649025966,28.324867435231766,123.80661826489019,-0.051643955563237864,2.2525748759317037,123.82711935136852,17.573682261484247,-0.08455077515050553,5.800787875986577,-0.07645986636667396,-0.10159226478411959,0.6129522443966857,0.04917273893781626,4.758432607023051,0.013294306374549059,9366.05868273882,0.363999318442184,123.82720143671656,2.1304708224730575,1.2216723782922694,100985.19154293445,287.965888361671,0.0,0.1,0.0,402.37815789473683,0.2159534375544505,0.86,nominal,7944.349804662748,nan,pitch_program,11.995000000000001,0.0,0.0
2.04,214.1168462128186,-0.05695643351981668,28.391937065734968,124.36873475506911,-0.05225223431856717,2.2356543501066914,124.3888381859316,17.567203658357613,-0.08800208866869311,5.782990239070449,-0.07442624361477244,-0.10820298482350345,0.5931523425837263,0.06833462198320563,4.753139944342199,0.011576191873508451,9451.165273672059,0.3656508100897978,124.38892038961004,2.1303216983438396,1.221664507086532,100984.38801691412,287.9654524090727,0.0,0.1,0.0,402.3442105263158,0.21593521824815215,0.86,nominal,8014.721322248628,nan,pitch_program,11.98,0.0,0.0
2.07,217.86474563464958,-0.05854047376703012,28.458548862756487,124.9299807276994,-0.052801341573781566,2.220393234050612,124.94972196335145,17.56072560181017,-0.09167318453064788,5.765778793218104,-0.07188696628815995,-0.11385384520236486,0.5735821181634573,0.0851125438023053,4.7475541172192885,0.009395886039489482,9536.52917830944,0.36729984748258004,124.9498042374903,2.1301797356821535,1.2216566896499452,100983.58998108047,287.96501943239207,0.0,0.1,0.0,402.3102631578947,0.2159169989418538,0.86,nominal,8085.299537564368,nan,pitch_program,11.965,0.0,0.0
2.1,221.62945625365867,-0.060138827370858836,28.52475250758162,125.49035396696969,-0.053278453460957095,2.2067881608378364,125.5097673144834,17.554248091841913,-0.09551737767375108,5.749146592199133,-0.06893573868856048,-0.1182710970636148,0.5542460769509168,0.09878351936850785,4.74168168940618,0.0068486084753807,9622.148122343748,0.3689464208642901,125.50984960164064,2.1300445804660386,1.2216489201512604,100982.79684013236,287.9645891087007,0.0,0.1,0.0,402.27631578947364,0.2158987796355554,0.86,nominal,8156.083109846358,nan,pitch_program,11.95,0.0,0.0
2.13,225.41095182208952,-0.0617490174074159,28.59059757287029,126.04985228102787,-0.05367300121856886,2.1948355096223433,126.06897097927906,17.547771128452847,-0.09947955709086055,5.7330866205018545,-0.0656842748647152,-0.12123077153503392,0.5351481132536673,0.10874929028810389,4.735528941289621,0.004045785359169914,9708.01984048042,0.37059052080841753,126.06905321439734,2.1299158690962963,1.2216411927720932,100982.00800008573,287.96416111577634,0.0,0.1,0.0,402.2423684210526,0.21588056032925707,0.86,nominal,8227.07070557514,nan,pitch_program,11.935,0.0,0.0
2.16,229.20920602722035,-0.06336833218020253,28.656133514918164,126.60847350436134,-0.053977159092887826,2.1845314015958253,126.62732980712667,17.54129471164297,-0.10349848605814857,5.717591811493237,-0.06225765716127398,-0.122569674924215,0.5162915151979403,0.11456550282749861,4.729101889618208,0.0011104097303809462,9794.142076954944,0.3722321382201318,126.62741191983135,2.129793227860014,1.2216335017078324,100981.22286836605,287.96373513215303,0.0,0.1,0.0,402.2084210526316,0.2158623410229587,0.86,nominal,8298.260998775488,nan,pitch_program,11.92,0.0,0.0
2.19,233.02419249223612,-0.06499391885489363,28.72140966581856,127.16621550052633,-0.05418622248970299,2.1758716966798834,127.18484075751098,17.53481884141228,-0.10750942270726781,5.702655062299416,-0.05878899677426549,-0.12219401110525813,0.497678949935736,0.11596491603598916,4.722406308806606,-0.0018282164983753001,9880.512586087087,0.37387126433889,127.18492267465481,2.1296762726596996,1.2216258411685563,100980.44085390201,287.9633108371722,0.0,0.1,0.0,402.1744736842105,0.21584412171666034,0.86,nominal,8369.652671356012,nan,pitch_program,11.905,0.0,0.0
2.2199999999999998,236.85588477718989,-0.06662288452776437,28.786475225547555,127.72307616512548,-0.054298855762357844,2.1688519909665858,127.74150090086972,17.52834351776078,-0.11144695288453271,5.688269245306,-0.05541361563160982,-0.1200851391993267,0.47931243771257726,0.11287333326968811,4.7154477547058455,-0.004640141341580692,9967.129132851627,0.3755078907413039,127.74158254921556,2.1295646091662355,1.2216182053799618,100979.6613672202,287.96288791103393,0.0,0.1,0.0,402.1405263157895,0.215825902410362,0.86,nominal,8441.244413474065,nan,pitch_program,11.890000000000002,0.0,0.0
2.25,240.7042563800556,-0.06825240035240471,28.851379253996093,128.2790534288567,-0.054317194154678027,2.1634676149512604,128.29730741945443,17.521868740688472,-0.11524791319840996,5.674427216325922,-0.052262999910188686,-0.1163020842667027,0.4611933256485167,0.10541722618203912,4.708231591038392,-0.007200577511167227,10053.989493434594,0.3771420093436733,128.29738872837916,2.129457833495163,1.2216105885842974,100978.88382054039,287.962466034849,0.0,0.1,0.0,402.1065789473684,0.21580768310406362,0.86,nominal,8513.0349239022,nan,pitch_program,11.875,0.0,0.0
2.28,244.56928073786796,-0.06987980406852168,28.91617066297447,128.83414526041156,-0.05424679053723233,2.1597136326125237,128.85225760796746,17.51539451019535,-0.11885427315709063,5.661121819683445,-0.049458796213052825,-0.11098055307858964,0.4433222723166528,0.0939223615335582,4.70076301796006,-0.009395611108586112,10141.091455737787,0.3787736124035069,128.85233851206624,2.129355533424359,1.2216029850412995,100978.10762787101,287.96204489069066,0.0,0.1,0.0,402.0726315789474,0.21578946379776529,0.86,nominal,8585.02291036706,nan,pitch_program,11.86,0.0,0.0
2.31,248.45093122793787,-0.07150269620191457,28.98089820821603,129.38834966899682,-0.05409640444642992,2.1575848413853578,129.40634887375248,17.508920826281418,-0.12221584206198365,5.648345890683478,-0.047107130264829884,-0.1043283611648061,0.4256992528721567,0.0789031355645242,4.693047101544296,-0.011127536579048681,10228.432819795093,0.3804026925193792,129.4064293152246,2.129257290079692,1.2215953890291311,100977.33220510496,287.96162416164657,0.0,0.1,0.0,402.03868421052636,0.21577124449146692,0.86,nominal,8657.20708983127,nan,pitch_program,11.845,0.0,0.0
2.34,252.3491811691266,-0.07311902534998628,29.045610481407376,129.9416647062915,-0.05387763826905673,2.157075773044871,129.95957873636266,17.502447688946674,-0.12529266933623193,5.636092256132114,-0.0452935238264849,-0.0966173449114722,0.4083235918867167,0.061042752136627396,4.685088802493899,-0.01231955719860129,10316.011398070952,0.38202924262862825,129.95965866706675,2.1291626799291303,1.2215877948453142,100976.55697011485,287.9612035318708,0.0,0.1,0.0,402.0047368421053,0.21575302518516856,0.86,nominal,8729.586188693916,nan,pitch_program,11.83,0.0,0.0
2.37,256.26400382315836,-0.07472715833633786,29.11035590227163,130.49408846772468,-0.05360443287838626,2.1581806954750156,130.51194482641006,17.49597509819112,-0.12805701643724818,5.624353733717677,-0.04407866784367764,-0.08817200602901112,0.3911940270765898,0.04116483027477578,4.676893002165426,-0.012919610218928498,10403.825015624316,0.3836532560026488,130.51202420948988,2.129071276861817,1.2215801968076614,100975.78134284791,287.9607826866352,0.0,0.1,0.0,401.9707894736842,0.21573480587887017,0.86,nominal,8802.158942894963,nan,pitch_program,11.815,0.0,0.0
2.4,260.19537239595013,-0.07632593160418685,29.17518271072899,131.04561909305804,-0.05329244226163322,2.1608936152453424,131.0634448837038,17.489503054014754,-0.13049479432706512,5.61312313112307,-0.04349527873279346,-0.0793553068846209,0.37430880255239585,0.020197472689905505,4.668464524088664,-0.01290310833172701,10491.871510138131,0.38527472623985654,131.06352369470358,2.1289826541008705,1.2215725892551932,100975.00474541979,287.96036131238026,0.0,0.1,0.0,401.9368421052631,0.2157165865725718,0.86,nominal,8874.924097922003,nan,pitch_program,11.8,0.0,0.0
2.4299999999999997,264.1432600389409,-0.07791468100347404,29.240138959155065,131.5962547663604,-0.05295831330957291,2.1652082808691966,131.61407675478839,17.483031556417576,-0.13260638222564683,5.6023932456936185,-0.04354622096922309,-0.07055219516366058,0.35766578613345373,-0.0008687534937995212,4.659808149559612,-0.012274433435161146,10580.148731832061,0.386893647256712,131.61415498219785,2.1287296681750894,1.221564966549045,100974.22660220701,287.9599390967655,0.0,0.1,0.0,401.9028947368421,0.21569836726627348,0.86,nominal,8947.880408731462,nan,pitch_program,11.785,0.0,0.0
2.46,268.107640217696,-0.07949325706826843,29.305268760396388,132.14600595850183,-0.0526192021598131,2.1709933747108203,132.1638485812133,17.476560605399587,-0.13440779351980786,5.5967518137510135,-0.044193268721451746,-0.06215157619717364,0.18809723824927174,-0.021027102377548592,4.655577775944962,-0.011066998141003927,10668.656192480714,0.38851004321962834,132.16392622663082,2.1290030328454312,1.2215573235127684,100973.44638479392,287.9595157530574,0.0,0.1,0.0,401.86894736842106,0.21568014795997512,0.86,nominal,9021.027949788078,nan,pitch_program,11.77,0.0,0.0
2.4899999999999998,272.0884830555721,-0.08106195830653144,29.3706316581021,132.69476126253832,-0.05229004127543363,2.17876325685704,132.71265730931577,17.470090200960787,-0.1359269106972766,5.591544232721264,-0.04539044612138208,-0.054527317588420346,0.17367924562010514,-0.039306236326179675,4.650904323517526,-0.009342006811638786,10757.375384297575,0.3901236114903508,132.71273438562008,2.129038009883587,1.2215496531592085,100972.66337992757,287.9590908942223,0.0,0.1,0.0,401.835,0.21566192865367675,0.86,nominal,9094.35220999987,nan,pitch_program,11.755,0.0,0.0
2.52,276.0857592125508,-0.0826215422209312,29.43628140536516,133.24253856595578,-0.051986130479991934,2.1883249087687844,133.26051760354346,17.463620343101177,-0.1372060665521791,5.589351161017117,-0.047047803846600816,-0.04802035436714897,0.07323323506012412,-0.05480809391041108,4.6484625924739325,-0.007186009108875138,10846.306693340077,0.3917343954540193,133.26059413491447,2.1293317907127745,1.2215419491808666,100971.87694373983,287.9586641708651,0.0,0.1,0.0,401.80105263157895,0.2156437093473784,0.86,nominal,9167.854085026082,nan,pitch_program,11.74,0.0,0.0
2.55,280.0994375684076,-0.0841731273807241,29.502279211849796,133.78927852856,-0.05171950532643034,2.1999268828211322,133.80737424517977,17.457151031820754,-0.13829753910557788,5.588803050892524,-0.04906168289215297,-0.042920353747574386,0.018430911038424345,-0.06676604882843079,4.6467860636382605,-0.0047067556991581385,10935.43911571216,0.3933422330957521,133.80745026451504,2.1296423941363236,1.221534204395344,100971.08634305521,287.95823518512293,0.0,0.1,0.0,401.7671052631579,0.21562549004108003,0.86,nominal,9241.525227627686,nan,pitch_program,11.725000000000001,0.0,0.0
2.58,284.1294864069785,-0.0857181261331809,29.568687136018482,134.33496128569763,-0.051499958415226345,2.213597472289567,134.3532079618679,17.45068226711952,-0.1392624040143787,5.589989451894056,-0.05130682624388819,-0.03945129924725512,-0.039366175645978184,-0.07457785979250257,4.645963107609528,-0.0020282037123005563,11024.767399873484,0.3949470680714601,134.35328350895117,2.1300235364619757,1.221526411520783,100970.29083454973,287.95780353361585,0.0,0.1,0.0,401.73315789473685,0.2156072707347817,0.86,nominal,9315.362010524897,nan,pitch_program,11.71,0.0,0.0
2.61,288.17587325227765,-0.08725814154617147,29.63556930831199,134.87956150997047,-0.05133384709968543,2.229405743116928,134.89799478959355,17.444214048997477,-0.14016724058201518,5.592978424280637,-0.053645949172145393,-0.03775829837287588,-0.099442891109742,-0.07784249213990402,4.646043262668357,0.0007155239189232608,11114.285468903328,0.3965488302510937,134.898069908441,2.1304997661647875,1.2215185630323278,100969.4896500985,287.95736879949595,0.0,0.1,0.0,401.6992105263158,0.21558905142848334,0.86,nominal,9389.360154883963,nan,pitch_program,11.695,0.0,0.0
2.6399999999999997,292.2385647840198,-0.08879485483055848,29.702992463231134,135.42305105807046,-0.05122377614623378,2.2474384973047634,135.44170835289685,17.437746377454623,-0.14108076599832708,5.597328291805172,-0.055937697770594576,-0.03789893186709176,-0.1448085490617319,-0.0763833045105056,4.646559074461351,0.0033867602525533883,11203.986781726237,0.3981474424235676,135.44178308892126,2.131009888137879,1.2215106510996963,100968.68199040314,287.95693054898896,0.0,0.1,0.0,401.6652631578947,0.21557083212218495,0.86,nominal,9463.51503181513,nan,pitch_program,11.68,0.0,0.0
2.67,296.3175271796594,-0.09032991298216823,29.771024209719673,135.96541318798674,-0.05116860505365859,2.2677248829513146,135.9843328393049,17.431279252490956,-0.14207067075618848,5.603217591971822,-0.05804102414732126,-0.03983878056819762,-0.19613699215702607,-0.07026109669177297,4.64768803323262,0.005851221766378257,11293.866482322795,0.3997428584292371,135.98440723653528,2.1316044396693905,1.2215026677901586,100967.86704571237,287.9564883426368,0.0,0.1,0.0,401.63131578947366,0.21555261281588659,0.86,nominal,9537.823403441676,nan,pitch_program,11.665,0.0,0.0
2.6999999999999997,300.41272591880863,-0.09186480876445886,29.839734224708515,136.50662463830724,-0.05116319274302095,2.2903338329613985,136.52584669901304,17.42481267410648,-0.1431998979480741,5.610330178044482,-0.059825135799699385,-0.043451196745805006,-0.23693812764728978,-0.05977590514648108,4.64909615273991,0.007984903887836316,11383.91871524367,0.4013350152482891,136.52592079719133,2.1322371230317936,1.2214946049284803,100967.0439815251,287.9560417275394,0.0,0.1,0.0,401.59736842105264,0.21553439350958825,0.86,nominal,9612.281238075942,nan,pitch_program,11.65,0.0,0.0
2.73,304.52412603367566,-0.09340077338597265,29.909192974885165,137.04667049556673,-0.0511988207171263,2.3152916725550017,137.0662361443134,17.41834664230119,-0.14452358335136734,5.618720424750698,-0.06117420637379851,-0.04852239981850714,-0.27956163997068756,-0.04545536918703778,4.650838036766384,0.009680554885498347,11474.1388684175,0.40292387267936375,137.06630997634986,2.1329336604948783,1.2214864542469286,100966.21195390349,287.95559024566325,0.0,0.1,0.0,401.56342105263155,0.21551617420328986,0.86,nominal,9686.885532671498,nan,pitch_program,11.635,0.0,0.0
2.76,308.6516920261365,-0.09493867623436729,29.979472277256825,137.58553308202949,-0.05126342827982119,2.342643412388616,137.60548506350653,17.411881157075094,-0.1460859742826781,5.628210317597454,-0.06199504454040121,-0.05476084205683844,-0.3162596896256718,-0.028031730795286314,4.652728006539118,0.010853407837205242,11564.52190304074,0.40450938369354417,137.60555865316115,2.133670857672061,1.2214782073195016,100965.37010275923,287.9551334301978,0.0,0.1,0.0,401.52947368421053,0.21549795489699153,0.86,nominal,9761.632951589221,nan,pitch_program,11.620000000000001,0.0,0.0
2.79,312.79538800193376,-0.09647894529865084,30.050644645233326,138.1231991932406,-0.05134230214278492,2.3724122658834417,138.14358157861307,17.405416218428183,-0.14791811035488095,5.63878474803937,-0.06222120801539378,-0.06181124500180024,-0.352460607060482,-0.008406695719137094,4.6547523814077945,0.01144582331053045,11655.06345343161,0.40609151371026947,138.14365493871716,2.134458063518718,1.22146985563867,100964.51755968765,287.954670809806,0.0,0.1,0.0,401.49552631578945,0.21547973559069317,0.86,nominal,9836.52071999364,nan,pitch_program,11.605,0.0,0.0
2.82,316.95517765623606,-0.09802150740555592,30.12278345206263,138.6596551434096,-0.05141873689683613,2.4046268943100997,138.68051355138766,17.398951826360463,-0.15003599180645788,5.650333409584149,-0.06181742634658906,-0.06927222513572232,-0.38498891147139574,0.01239314519348862,4.656799900883602,0.011430586498943778,11745.759079725389,0.407670227388998,138.68058668257785,2.135283232970581,1.221461390596203,100963.65344601058,287.9542019075616,0.0,0.1,0.0,401.4615789473684,0.2154615162843948,0.86,nominal,9911.54601377848,nan,pitch_program,11.59,0.0,0.0
2.85,321.1310243510243,-0.0995657555118872,30.195962579037406,139.19488982627306,-0.051474936877709467,2.439304232492553,139.21627134985363,17.39248798087193,-0.15243962255473636,5.662821352178298,-0.06078134061797353,-0.07671694452042348,-0.41635402235190194,0.03326912915988717,4.658839406696818,0.010812633295310698,11836.604738097409,0.4092454967622009,139.21634423997583,2.136149301940666,1.2214528035244616,100962.77687699204,287.95372624323625,0.0,0.1,0.0,401.4276315789474,0.21544329697809647,0.86,nominal,9986.706340703757,nan,pitch_program,11.575,0.0,0.0
2.88,325.3228911237924,-0.10111054289363706,30.270256436245912,139.72889242560362,-0.051492912724995385,2.4764619069501412,139.7508457705446,17.38602468196259,-0.15511281901072593,5.6761680424684995,-0.05914425629293448,-0.08371563254335604,-0.4450338186047938,0.053108306678844294,4.660793697107682,0.009629082537412943,11927.596434492749,0.41081729512956056,139.7509183947107,2.1370483339742687,1.2214440856939706,100961.88696159031,287.9532433331644,0.0,0.1,0.0,401.3936842105263,0.21542507767179808,0.86,nominal,10061.999257071784,nan,pitch_program,11.56,0.0,0.0
2.9099999999999997,329.530740741523,-0.10265420683537188,30.34573972978657,140.26165392435502,-0.05145546472449386,2.516109784688535,140.28422939770883,17.379561929632434,-0.15802394541566717,5.690337981849181,-0.05696952704729732,-0.08985884524637744,-0.4725266690471176,0.07084367400237548,4.662633608273606,0.007947522291536311,12018.7304594152,0.4123856010545339,140.2843017190517,2.137981258708615,1.22143522834074,100960.98280524756,287.95275269175636,0.0,0.1,0.0,401.3597368421053,0.21540685836549975,0.86,nominal,10137.422557375607,nan,pitch_program,11.545,0.0,0.0
2.94,333.7545357137582,-0.10419461976183782,30.42248744733571,140.79316574117172,-0.051347097548864656,2.558257251637968,140.81641536451295,17.37309972388147,-0.16112746163411154,5.705265382449644,-0.05434960215179703,-0.09478019853187572,-0.4978201181067132,0.08551320614766016,4.664299656239716,0.005862606963448939,12110.003180900998,0.41395039472454737,140.8164873355764,2.1389415084048107,1.2214262226679713,100960.06351006398,287.9522538315923,0.0,0.1,0.0,401.3257894736842,0.21538863905920136,0.86,nominal,10212.974104580933,nan,pitch_program,11.53,0.0,0.0
2.9699999999999998,337.9942383363531,-0.10572926665421943,30.500574673428673,141.32342075316367,-0.05115489641272027,2.602907536432167,141.3473982705107,17.366638064709694,-0.164366300570613,5.720919912588734,-0.05140103785373761,-0.09817726097970679,-0.52209335939725,0.0963146792882083,4.665770088658966,0.0034911067218434144,12201.411205104794,0.4155116606489045,141.34746983523144,2.139929614719252,1.221417059867736,100959.12817701107,287.95174626462267,0.0,0.1,0.0,401.29184210526313,0.215370419752903,0.86,nominal,10288.651959542365,nan,pitch_program,11.515,0.0,0.0
3.0,342.2498107027637,-0.10725534396204141,30.580076576528242,141.85241221368653,-0.05086924359406597,2.6500634366523363,141.87717319829807,17.360176952117108,-0.1676748917811089,5.737243985724518,-0.04825844385052601,-0.0998294126857371,-0.5444355074959333,0.1026527692871388,4.666995814187403,0.0009656518492125483,12292.95121082483,0.41706938476940614,141.87724429445547,2.14093929407038,1.2214077311225071,100958.17590608829,287.95122950225254,0.0,0.1,0.0,401.2578947368421,0.21535220044660466,0.86,nominal,10364.454245329145,nan,pitch_program,11.5,0.0,0.0
3.03,346.5212147431555,-0.10876987586624988,30.661068243870393,142.3801346797269,-0.05048439680694908,2.6997222447383393,142.40573654277495,17.35371638610371,-0.17098274793166965,5.754214235615591,-0.045066969547215834,-0.09961150744607311,-0.5659853473537003,0.10417578586081144,4.667963938312412,-0.0015725124642122692,12384.620095633716,0.4186235568983495,142.40580710480023,2.1419714093530478,1.2213982276245425,100957.20579830199,287.9507030564148,0.0,0.1,0.0,401.223947368421,0.21533398114030627,0.86,nominal,10440.379265038864,nan,pitch_program,11.485,0.0,0.0
3.06,350.8084122315421,-0.11026984071038366,30.743624684956906,142.90658294622037,-0.04999882813779267,2.751881369550433,142.9330850444356,17.3472563666695,-0.1742183551488043,5.771777110880289,-0.041974437878074554,-0.09750248527524301,-0.5857354902921154,0.10079934022557488,4.668631079450301,-0.003981370711310998,12476.41481143943,0.4201741678772763,142.93315500640668,2.1430192983820673,1.2213885405754894,100956.21695562523,287.95016643954773,0.0,0.1,0.0,401.19,0.21531576183400794,0.86,nominal,10516.425367176662,nan,pitch_program,11.47,0.0,0.0
3.09,355.11136482375673,-0.11175230166654677,30.82782066877981,143.43175307382077,-0.04941536520543696,2.806532794096875,143.45921670646385,17.34079689381448,-0.1773132281347928,5.789917613656054,-0.03912280938124116,-0.09358821116383982,-0.6049706996894795,0.0927154551594857,4.668994361887501,-0.0061261522096815214,12568.33252655064,0.4217212122722338,143.45928600514222,2.144084781399057,1.221378661205489,100955.20848294835,287.9496191656529,0.0,0.1,0.0,401.156052631579,0.21529754252770958,0.86,nominal,10592.591076577566,nan,pitch_program,11.455,0.0,0.0
3.12,359.430034058434,-0.11321453313265785,30.913730755711114,143.9556411559089,-0.0487410488703691,2.8636695643768095,143.9841296798803,17.33433796753865,-0.18020581866734534,5.808582097582289,-0.03664028476344348,-0.08805827067244543,-0.6224032978848273,0.08038583769561394,4.6690116207569075,-0.007887056563073685,12660.370433658363,0.42326468509615417,143.9841982575948,2.145160068492106,1.2213685807694452,100954.17948769836,287.9490607500879,0.0,0.1,0.0,401.1221052631579,0.21527932322141122,0.86,nominal,10668.874937551791,nan,pitch_program,11.44,0.0,0.0
