time_s,x_m,y_m,altitude_m,vx_mps,vy_mps,vz_mps,speed_mps,mass_kg,roll_deg,pitch_deg,yaw_deg,p_dps,q_dps,r_dps,alpha_deg,beta_deg,qbar_pa,mach,airspeed_mps,load_factor_g,density_kgpm3,pressure_pa,temperature_k,wind_x_mps,wind_y_mps,wind_z_mps,thrust_n,mass_flow_kgps,propulsion_throttle_actual,propulsion_health,energy_j_per_kg,target_distance_m,guidance_mode,pitch_command_deg,heading_command_deg,roll_command_deg,elevator_command_deg,aileron_command_deg,rudder_command_deg,elevator_deg,aileron_deg,rudder_deg,throttle,elevator_saturated,aileron_saturated,rudder_saturated,elevator_failed,aileron_failed,rudder_failed,elevator_raw_rad,aileron_raw_rad,rudder_raw_rad,elevator_effective_rad,aileron_effective_rad,rudder_effective_rad,sensor_time_s,imu_valid,imu_ax_mps2,imu_ay_mps2,imu_az_mps2,gyro_p_rps,gyro_q_rps,gyro_r_rps,imu_accel_norm_mps2,imu_gyro_norm_rps,gps_valid,gps_latency_s,gps_x_m,gps_y_m,gps_z_m,gps_vx_mps,gps_vy_mps,gps_vz_mps,baro_valid,baro_alt_m,baro_bias_m,pitot_valid,pitot_airspeed_mps,pitot_qbar_pa,pitot_compressibility_factor,mag_valid,mag_heading_deg,mag_x_ut,mag_y_ut,mag_z_ut,radar_valid,radar_agl_m,optical_flow_valid,horizon_valid,horizon_roll_deg,horizon_pitch_deg,optical_flow_x_radps,optical_flow_y_radps,optical_flow_quality
0.0,0.0,250.0,1200.0,48.0,-3.0,-1.0,48.104053883222775,11.0,0.0,-2.0,-5.000000000000001,0.0,0.0,0.0,-0.8084664277189543,1.423357908392787,1261.0944322985495,0.14331327893915746,48.104053883222775,0.4481219442643677,1.0899692586850038,87715.57267821583,280.34999999999997,0.0,0.0,0.0,2.7032275714625205,0.00014258355784676151,0.04,nominal,12924.98,1494.4564229177108,target_intercept,-14.999999999999998,-11.309932474020213,0.0,20.05352282957881,-0.0,-14.32394487827058,4.8,0.0,-4.8,0.18,0.0,0.0,0.0,0.0,0.0,0.0,0.08377580409572781,0.0,-0.08377580409572781,0.08377580409572781,0.0,-0.08377580409572781,0.0,1.0,-3.5480593231251762,-2.5021430320107965,0.4715860666353989,0.004569755852035123,2.0133944395973026e-05,0.0001551406198653554,4.367131567894458,0.004572432890142664,1.0,0.0,0.2136181609379939,248.1775623292204,1199.432023011328,47.965355097651184,-2.8354432490463894,-0.9400489124326931,1.0,1200.4838225180154,0.0,1.0,48.58592398693941,1256.4165989432342,1.0,1.0,-5.076838378091929,25.380259330629187,2.105279526919706,-40.71696829171774,1.0,1199.8363803645034,0.0,1.0,-0.03722258901453194,-1.45053139681452,,,
0.04,1.9139458067389634,249.87653329927215,1199.9451917482008,47.848645168474086,-3.086667518196172,-1.3702062949782654,47.9676748041556,10.999994296657686,-0.225539592613863,-2.719580304003273,-3.2400989840603867,-7.450259097598373,17.903235043782935,44.0,-1.0808592780571946,-0.45495332821800333,1253.9607304967385,0.14290688282014768,47.9676748041556,0.40859390023330877,1.0899751534059234,87716.15852230036,280.3503562536367,0.0,0.0,0.0,4.811265803493781,0.00025305398405520184,0.07111111111111111,nominal,12917.891427716104,1492.8066126248584,target_intercept,-14.999999999999998,-11.321378837633594,0.0,2.3946824654945456,-0.36086334818216625,-6.936832297606729,2.8757459723956367,-0.288690678545733,-6.509465838085383,0.18,0.0,0.0,0.0,0.0,0.0,0.0,0.05019123566926982,-0.005038602860439596,-0.11361161142068203,0.05019123566926982,-0.005038602860439596,-0.11361161142068203,0.04,1.0,-3.4305190585911833,-1.4529606440652536,-1.2429655362694265,-0.13168907272373917,0.3129052627455953,0.7653012895888104,3.927406137505185,0.8372202692093786,1.0,0.0,0.2136181609379939,248.1775623292204,1199.432023011328,47.965355097651184,-2.8354432490463894,-0.9400489124326931,1.0,1199.325770729789,0.0,1.0,48.61246247032485,1274.725643180314,1.0,1.0,-5.076838378091929,25.380259330629187,2.105279526919706,-40.71696829171774,1.0,1199.8363803645034,0.0,1.0,-0.03722258901453194,-1.45053139681452,,,
0.08,3.822127831237636,249.7508830747455,1199.872934341248,47.70455061246682,-3.1412556131664617,-1.80643517382063,47.84197784375009,10.999984174498325,0.00786140901630029,-3.703695769359244,0.08030913010291427,1.1829663755363788,24.445928616919225,82.95257303183811,-1.5354303001637248,-3.8447319198698398,1247.406348711697,0.1425322828868831,47.84197784375009,0.5010917926845717,1.0899829248504984,87716.93088482629,280.35082592678185,0.0,0.0,0.0,6.455261243164964,0.0003386320892227158,0.09530864197530864,nominal,12911.161333558537,1491.152770978785,target_intercept,-14.999999999999998,-11.332711865877055,0.0,0.19927008982519134,0.29450274519338693,-11.45695110312514,0.7345652663392803,0.17786406044556294,-10.46745405011719,0.18,0.0,0.0,0.0,0.0,0.0,0.0,0.012820582468409517,0.003104313475741286,-0.1826915374757605,0.012820582468409517,0.003104313475741286,-0.1826915374757605,0.08,1.0,-3.402020093470381,-0.13963618109841047,-3.5297416007819358,0.018466792240083116,0.42513923960949385,1.445248429082688,4.904315930661339,1.5065946426419266,1.0,0.0,0.2136181609379939,248.1775623292204,1199.432023011328,47.965355097651184,-2.8354432490463894,-0.9400489124326931,1.0,1200.1352226429292,0.0,1.0,48.19859567775402,1227.2403795453233,1.0,1.0,-0.18182174475704405,26.65000808621142,-0.06463237666808938,-39.9221378860028,1.0,1199.9258365675264,0.0,1.0,-0.003203790620328046,-3.4322431017010517,,,
0.12,5.724494873257456,249.62497623051746,1199.7797065505108,47.559176050495495,-3.1476711057007614,-2.3306947684342303,47.72017600654145,10.999970629214756,1.164435859894052,-4.447616619345071,4.0273826652991245,21.89855636505489,19.60515853283613,98.27547344111109,-1.7811117989397076,-7.76998163975759,1241.0742577926114,0.1421692534801484,47.72017600654145,0.5573608369505537,1.089992951769046,87717.92740882118,280.35143190742167,0.0,0.0,0.0,7.737885285412589,0.0004048829470814868,0.11412894375857338,nominal,12904.427258291214,1489.4933877545402,target_intercept,-14.999999999999998,-11.344015751527971,0.0,1.2923326666012311,1.8532706145601296,-14.32394487827058,1.1807791865488408,1.518189303737216,-13.552646712639902,0.18,0.0,0.0,0.0,0.0,0.0,0.0,0.020608484544297614,0.026497402018774673,-0.2365383074951521,0.020608484544297614,0.026497402018774673,-0.2365383074951521,0.12,1.0,-3.310437801191546,1.9396077559198863,-3.9141112452374367,0.38336213704876276,0.34270894249686407,1.720710564916234,5.480998405626173,1.7959011096394641,1.0,0.0,0.2136181609379939,248.1775623292204,1199.432023011328,47.965355097651184,-2.8354432490463894,-0.9400489124326931,1.0,1200.0766985545417,0.0,1.0,48.04461064151342,1249.4187613131405,1.0,1.0,-0.18182174475704405,26.65000808621142,-0.06463237666808938,-39.9221378860028,1.0,1199.9258365675264,0.0,1.0,-0.003203790620328046,-3.4322431017010517,,,
0.16,7.620881854901944,249.50181519709102,1199.6650337878261,47.40967454111221,-3.0790258356607145,-2.8668190671176648,47.59596928054348,10.999954433896873,3.5176901007109596,-4.992817231282629,7.4305637028315985,51.83367823226174,17.08607715673203,84.2028444949255,-2.161552080231632,-11.014324964399199,1234.636065549743,0.1417990249039999,47.59596928054348,0.702072857692427,1.0900052852531352,87719.15317348641,280.3521772803791,0.0,0.0,0.0,8.739451630608842,0.00045609942032812946,0.12876695625666817,nominal,12897.383249472603,1487.8288187493233,target_intercept,-14.999999999999998,-11.355421840036547,0.0,2.237027557932721,4.172759336269948,-14.32394487827058,2.0257778836559446,3.6418453297634015,-14.169685245144445,0.18,0.0,0.0,0.0,0.0,0.0,0.0,0.035356493983878856,0.06356219185275,-0.2473076614990304,0.035356493983878856,0.06356219185275,-0.2473076614990304,0.16,1.0,-3.217379806607239,4.158163701917714,-4.437918714053808,0.9077926424286465,0.29613105295675485,1.473991117109912,6.880187548639867,1.7562547923042906,1.0,0.0,0.2136181609379939,248.1775623292204,1199.432023011328,47.965355097651184,-2.8354432490463894,-0.9400489124326931,1.0,1200.4941075815743,0.0,1.0,47.378881549876084,1225.6500158304414,1.0,1.0,8.867745558637456,27.257949135627833,-5.479405437325974,-39.138614359413076,1.0,1199.595638366196,0.0,1.0,4.105942395040241,-4.7075989994936895,,,
0.2,9.510609830020144,249.38489531445344,1199.5285072444462,47.24319937795499,-2.922997065939467,-3.4131635844998933,47.45643776103779,10.99993618992006,7.051467872458385,-5.5580046253451165,9.10406857762216,84.52195104884753,17.914867849466052,40.20284449492549,-2.8932584068264484,-12.350967823014608,1227.424335908336,0.14138310557178962,47.45643776103778,0.9307592852762162,1.0900199693322146,87720.61255654166,280.35306470291107,0.0,0.0,0.0,9.523309879053413,0.0004955508361341826,0.14015207708851968,nominal,12889.412978052374,1486.159966740473,target_intercept,-14.999999999999998,-11.367079525924304,0.0,1.803158825276813,6.885235970044719,-11.968207324846125,1.8476826369526396,6.236557841988456,-12.40850290890579,0.18,0.0,0.0,0.0,0.0,0.0,0.0,0.032248145546754606,0.10884846833377082,-0.21656923100370004,0.032248145546754606,0.10884846833377082,-0.21656923100370004,0.2,1.0,-3.3198124586721365,5.6722139863485115,-6.3239077635741685,1.4774404191179253,0.3140292274788021,0.7018764930430437,9.120689429526479,1.665555510705268,1.0,0.0,7.661472036511377,250.70102814930559,1199.3455503278221,47.37474474929302,-3.014787082604099,-3.4036596661639917,1.0,1199.981379466987,0.0,1.0,47.320828758427666,1218.5054210111953,1.0,1.0,8.867745558637456,27.257949135627833,-5.479405437325974,-39.138614359413076,1.0,1199.595638366196,0.0,1.0,4.105942395040241,-4.7075989994936895,,,
0.24,11.39258627892551,249.27709022906868,1199.367922377953,47.04941122263415,-2.6951271346193995,-4.014621662333439,47.29723029692089,10.999916367886614,11.517284811450772,-6.171998055353077,9.050377394058412,111.83935115647733,14.944843612377301,-3.797155505074503,-3.6511680878537223,-11.795647029943634,1219.2219113937613,0.14090852940883927,47.29723029692089,1.124185120050804,1.0900372411920578,87722.32913313244,280.35410850454326,0.0,0.0,0.0,10.138534154557087,0.0005257945008566718,0.14900717106884864,nominal,12880.295432867737,1484.4870331092848,target_intercept,-14.999999999999998,-11.379107694256826,0.0,1.1613471813687417,9.613320857748244,-8.49705770662994,1.2986142724855212,8.937968254596285,-9.27934674708511,0.18,0.0,0.0,0.0,0.0,0.0,0.0,0.02266509476826315,0.15599697448143598,-0.1619551531708607,0.02266509476826315,0.15599697448143598,-0.1619551531708607,0.24,1.0,-3.4623325869916566,6.058886431261396,-8.552852263714444,1.9494718188731537,0.2610660311616684,-0.0653899844085186,11.038529502374539,1.9679613043116608,1.0,0.0,7.661472036511377,250.70102814930559,1199.3455503278221,47.37474474929302,-3.014787082604099,-3.4036596661639917,1.0,1199.480030130535,0.0,1.0,46.95721208977087,1198.4372204974084,1.0,1.0,8.504985215966988,28.014089694125996,-11.433390781826565,-37.274114647425314,1.0,1199.6296446420902,0.0,1.0,12.021326756129161,-6.338707294242956,,,
0.28,13.265946520058163,249.1804022359988,1199.1810079781005,46.834006028316345,-2.4171998267471575,-4.672859996309224,47.128575155715296,10.99989533610658,16.58614347478751,-6.863163994706955,7.243094047625426,131.94368800245252,5.868208931959169,-47.7971555050745,-3.958600726868186,-9.412115474140489,1210.5645997350216,0.1404057655669475,47.128575155715296,1.181723266757571,1.090057345213879,87724.3271942893,280.3553234481423,0.0,0.0,0.0,10.622136383733459,0.0005489102553454388,0.15589446638688229,nominal,12870.49972999239,1482.8098445482449,target_intercept,-14.999999999999998,-11.391589107183794,0.0,0.2984755407228152,12.141223545346554,-4.236963058007882,0.49850328707535646,11.5005724871965,-5.245439795823328,0.18,0.0,0.0,0.0,0.0,0.0,0.0,0.008700523691479464,0.20072285576585233,-0.09155019515225618,0.008700523691479464,0.20072285576585233,-0.09155019515225618,0.28,1.0,-3.584106366061123,5.492438966993198,-9.572030252289235,2.3007223970510995,0.09922518170693405,-0.8322332601515997,11.60329554049734,2.4486284700378476,1.0,0.0,7.661472036511377,250.70102814930559,1199.3455503278221,47.37474474929302,-3.014787082604099,-3.4036596661639917,1.0,1198.8442980671743,0.0,1.0,47.101417683100905,1205.9229999535592,1.0,1.0,8.504985215966988,28.014089694125996,-11.433390781826565,-37.274114647425314,1.0,1199.6296446420902,0.0,1.0,12.021326756129161,-6.338707294242956,,,
0.32,15.130692679771059,249.0955171428885,1198.966994185776,46.61865399282237,-2.1221273277576325,-5.350344808110628,46.97263580068065,10.999873379696366,21.844912873973485,-7.734957091786577,3.6352868798762947,143.05116009543474,-8.8853132528542,-91.7971555050745,-3.3859498620638324,-5.324475557277475,1202.5921992319845,0.13994084281548252,46.97263580068065,1.0359353336708415,1.0900803643234978,87726.61498540736,280.3567145377924,0.0,0.0,0.0,11.001463005464053,0.0005666312664806191,0.16125125163424178,nominal,12861.063930563632,1481.1280703750936,target_intercept,-14.999999999999998,-11.40455604534178,0.0,-1.312836295101092,14.219181254873176,0.8729464305907004,-0.950568378665802,13.67545950133784,-0.44543979582332865,0.18,0.0,0.0,0.0,0.0,0.0,0.0,-0.016590547973062468,0.2386817950214872,-0.007774391056528371,-0.016590547973062468,0.2386817950214872,-0.007774391056528371,0.32,1.0,-3.344053498215561,3.8006014953681366,-8.820842727905763,2.497013621363514,-0.15605077456544594,-1.6020530966512918,10.170276886888097,2.9708589656877686,1.0,0.0,7.661472036511377,250.70102814930559,1199.3455503278221,47.37474474929302,-3.014787082604099,-3.4036596661639917,1.0,1199.7175196661933,0.0,1.0,46.71476412764354,1207.5084188346652,1.0,1.0,3.402677061965645,29.329650409211652,-15.660799743251197,-34.6124956914199,1.0,1198.9435076216962,0.0,1.0,22.218583200075976,-7.313151442377897,,,
0.36,16.987993543409047,249.0210426582416,1198.7272759306497,46.43252159094974,-1.8618621161718802,-5.992956378156197,46.8546808545756,10.999850714445707,26.899851422828487,-8.649160017893363,-1.2064158260279114,143.75211224497312,-28.68820334451163,-118.77779232519221,-1.6476477993300513,-0.3761713269827053,1196.5883265789967,0.13958904362084756,46.85468085457559,0.6003105926584105,1.0901061486210082,87729.1776126367,280.35827270645075,0.0,0.0,0.0,11.296839094871785,0.0005803835421663487,0.16541764015996582,nominal,12853.179399497372,1479.4411978957044,target_intercept,-14.999999999999998,-11.417958687484374,0.0,-2.0847706931549306,14.32394487827058,5.367752125711535,-1.8579302302571046,14.194247802884032,4.205113741404562,0.18,0.0,0.0,0.0,0.0,0.0,0.0,-0.03242699979032285,0.24773635900429744,0.073393080208367,-0.03242699979032285,0.24773635900429744,0.073393080208367,0.36,1.0,-2.7891286866570524,1.4390712169634006,-4.944209648700262,2.5072080065231015,-0.5035517543512541,-2.070818213298328,5.856225221806842,3.290584207980682,1.0,0.0,7.661472036511377,250.70102814930559,1199.3455503278221,47.37474474929302,-3.014787082604099,-3.4036596661639917,1.0,1198.6603158245377,0.0,1.0,46.60977966024503,1194.7660712846327,1.0,1.0,3.402677061965645,29.329650409211652,-15.660799743251197,-34.6124956914199,1.0,1198.9435076216962,0.0,1.0,22.218583200075976,-7.313151442377897,,,
0.4,18.84000314262298,248.9523221026525,1198.4666177416734,46.30023998034827,-1.7180138897282566,-6.516454724408234,46.78811789480746,10.99982749910402,31.123935591300278,-9.238187312396507,-6.087523981982037,124.66300066512082,-45.663123116991365,-112.7292608354289,0.9929028100329745,3.985196472496439,1193.2216219014513,0.13939031866461016,46.78811789480747,0.3816799804904843,1.090134185764946,87731.96415996151,280.3599669846791,0.0,0.0,0.0,11.524542724013152,0.000591240859270694,0.16865816456886232,nominal,12847.506644945583,1477.749123322467,target_intercept,-14.999999999999998,-11.431609917300273,0.0,-0.3776688304038404,14.32394487827058,7.490397759442806,-0.6737211103744933,14.29800546319327,6.8333409558351565,0.18,0.0,0.0,0.0,0.0,0.0,0.0,-0.011758651616227037,0.24954727180085948,0.11926429859069991,-0.011758651616227037,0.24954727180085948,0.11926429859069991,0.4,1.0,-2.7646530314394893,-0.92713492510811,2.4115326862559656,2.173209303660132,-0.7975086169666687,-1.966977737441477,3.7839629293220742,3.037739306003963,1.0,0.0,19.87080477519362,247.34829611146623,1199.427039871286,46.26397261920518,-1.8349294961412799,-6.44751515539797,1.0,1199.0354569448382,0.0,1.0,47.12916016040019,1184.9183806807002,1.0,1.0,-6.844178880127914,30.233641400580627,-17.15261821352469,-33.15518488981741,1.0,1198.8992942820878,0.0,1.0,31.065157778123133,-9.195437567287913,,,
0.44,20.687745871373878,248.88077237813562,1198.1933821386847,46.19356821877248,-1.7887431129219682,-6.830890074718638,46.730144509933865,10.99980384946965,34.89938538992613,-9.391792970572892,-9.6878487252846,109.01239325288292,-45.21856203419295,-76.65307191943134,3.496814811816633,6.577671400587208,1190.2985926028925,0.1392171644423814,46.73014450993386,1.1588799516681978,1.0901635763639188,87734.88524215145,280.3617430160985,0.0,0.0,0.0,11.702420708505919,0.000599622599588294,0.17117857244244847,nominal,12842.116333909984,1476.0539275428885,target_intercept,-14.999999999999998,-11.445135610887338,0.0,2.262183793683214,14.32394487827058,6.435537607477854,1.6750028128716725,14.318756995255118,6.515098277149314,0.18,0.0,0.0,0.0,0.0,0.0,0.0,0.02923431406477714,0.2499094543601719,0.11370991602726557,0.02923431406477714,0.2499094543601719,0.11370991602726557,0.44,1.0,-3.671659428392231,-2.97207750380139,10.287924048668772,1.9017839778969357,-0.7871800407315331,-1.3416332258076942,11.320587832700259,2.456911562857473,1.0,0.0,19.87080477519362,247.34829611146623,1199.427039871286,46.26397261920518,-1.8349294961412799,-6.44751515539797,1.0,1197.2660064533395,0.0,1.0,46.48159144355416,1194.140433590713,1.0,1.0,-6.844178880127914,30.233641400580627,-17.15261821352469,-33.15518488981741,1.0,1198.8992942820878,0.0,1.0,31.065157778123133,-9.195437567287913,,,
0.48,22.529279992196752,248.79667616891703,1197.916067026,46.038353020571826,-2.102405230464435,-6.9328778171160375,46.60488012458501,10.999779864565667,38.631969379110195,-9.436921177982596,-11.305253587716935,99.96967787854676,-22.98793375344916,-32.65307191943133,4.782271519395666,7.190441304244692,1183.958134809224,0.1388435338850618,46.60488012458501,1.5753781508833835,1.0901934063953609,87737.85001771667,280.363545564331,0.0,0.0,0.0,11.848797716315286,0.0006054953916549676,0.1731388896774599,nominal,12833.551024413991,1474.3600516449083,target_intercept,-14.999999999999998,-11.45808176977175,0.0,2.9193465278830013,14.32394487827058,3.1447295706327787,2.670477784880735,14.322907301667488,3.8188033119360862,0.18,0.0,0.0,0.0,0.0,0.0,0.0,0.046608629947533675,0.24998189087203437,0.06665069127934878,0.046608629947533675,0.24998189087203437,0.06665069127934878,0.48,1.0,-4.048586698536157,-4.181041292307023,14.375452691013367,1.7440725052395196,-0.4008100649018495,-0.5691258959249407,15.508894242179348,1.877855664600303,1.0,0.0,19.87080477519362,247.34829611146623,1199.427039871286,46.26397261920518,-1.8349294961412799,-6.44751515539797,1.0,1197.0526543792669,0.0,1.0,46.5310369233461,1191.2440741184237,1.0,1.0,-12.975031233300406,30.083761252057702,-19.552179653076283,-31.96734786222699,1.0,1197.9835728128726,0.0,1.0,37.72953005544147,-10.103894907640804,,,
0.52,24.362829840062357,248.69421222404304,1197.637554813819,45.83874619664011,-2.5615986218499374,-6.96280530452912,46.435257058492,10.999755644750001,42.665173308665736,-9.38490592134956,-10.74450890821814,98.5767201364153,8.02726116949705,11.346928080568663,4.570164504152739,5.942394640433058,1175.3878528494602,0.1383377524966682,46.435257058492,1.5467728726211396,1.0902233658240268,87740.82767312194,280.36535589371016,0.0,0.0,0.0,11.970027664402144,0.0006094641574493137,0.1746635808602466,nominal,12822.928875959053,1472.669498131951,target_intercept,-14.999999999999998,-11.470168202197922,0.0,3.56011379712757,14.32394487827058,-1.4504391273214159,3.382186594678203,14.323737362949961,-0.39659063946991513,0.18,0.0,0.0,0.0,0.0,0.0,0.0,0.05903029199394957,0.24999637817440687,-0.0069218124413397975,0.05903029199394957,0.24999637817440687,-0.0069218124413397975,0.52,1.0,-3.946589799764188,-4.48170970279952,13.916303412577328,1.7211082824438866,0.14004051280031543,0.1964378764422647,15.143473629873744,1.7379335155360423,1.0,0.0,19.87080477519362,247.34829611146623,1199.427039871286,46.26397261920518,-1.8349294961412799,-6.44751515539797,1.0,1196.8171801591961,0.0,1.0,46.72276413916527,1164.6305785138325,1.0,1.0,-12.975031233300406,30.083761252057702,-19.552179653076283,-31.96734786222699,1.0,1197.9835728128726,0.0,1.0,37.72953005544147,-10.103894907640804,,,
0.56,26.188269452655486,248.57256346345503,1197.3558155147452,45.6359903148282,-3.0412190147001716,-7.043482476844449,46.27637918541253,10.999731266183703,47.27497179246918,-8.936813326228135,-8.030841344145443,104.4883490975255,39.444445442396216,55.34692808056866,2.9577593981374912,2.9436579271586845,1167.3909032405277,0.1378639806929262,46.27637918541253,1.1921120352412953,1.0902536730297665,87743.83991351159,280.36718719915416,0.0,0.0,0.0,12.06722265034579,0.0006123107139059217,0.17584945178019182,nominal,12812.801043473717,1470.9811470738414,target_intercept,-14.999999999999998,-11.481353144141922,0.0,6.29137956528712,14.32394487827058,-6.8989199680319,5.709540971165337,14.323903375206456,-5.196590639469915,0.18,0.0,0.0,0.0,0.0,0.0,0.0,0.09965028872434975,0.24999927563488136,-0.09069761653706761,0.09965028872434975,0.24999927563488136,-0.09069761653706761,0.56,1.0,-3.325243957635148,-3.4997745239640334,10.642398407497472,1.8225361822481696,0.6905685170462402,0.9678196595548911,11.686159033672332,2.176050988777635,1.0,0.0,19.87080477519362,247.34829611146623,1199.427039871286,46.26397261920518,-1.8349294961412799,-6.44751515539797,1.0,1198.0999417229882,0.0,1.0,46.44342584171682,1159.6979599482327,1.0,1.0,-7.752452192061614,29.947344357361672,-25.176197330616546,-27.783635912186565,1.0,1197.3518822094718,0.0,1.0,47.45280700777094,-8.93504775245959,,,
0.6,28.007317060517924,248.43533632810912,1197.0665360272876,45.47619019656092,-3.430678383647875,-7.2319871864393255,46.175264673097814,10.999706773755147,52.668563630709215,-7.755663208497612,-3.215625184097808,117.42069808708018,72.32769861457831,99.34692808056866,-0.10077612106839409,-1.6571855311920343,1162.328122230738,0.1375622847484082,46.175264673097814,0.5585343564251216,1.090284792017852,87746.93285761453,280.3690675158226,0.0,0.0,0.0,12.140704462046171,0.0006146932476456597,0.17677179582903807,nominal,12805.290079347318,1469.2918821349087,target_intercept,-14.999999999999998,-11.491810663819772,0.0,11.540228616956183,14.32394487827058,-13.127345260934216,10.374091087798012,14.323936577657756,-9.996590639469915,0.18,0.0,0.0,0.0,0.0,0.0,0.0,0.18106204638387546,0.24999985512697628,-0.17447342063279542,0.18106204638387546,0.24999985512697628,-0.17447342063279542,0.6,1.0,-2.3218007117498907,-1.644716865576654,4.747593306561729,2.054036523909447,1.2650457532363297,1.7332209052372978,5.534933993960933,2.9704311986118905,1.0,0.0,26.32689608266282,249.95873170850496,1196.8244211053284,45.693735235818274,-3.4698389406328993,-7.228009725448218,1.0,1197.4407896287871,0.0,1.0,46.93147604310146,1144.216095978047,1.0,1.0,-7.752452192061614,29.947344357361672,-25.176197330616546,-27.783635912186565,1.0,1197.3518822094718,0.0,1.0,47.45280700777094,-8.93504775245959,,,
0.64,29.822731976755215,248.29075221349746,1196.764651080901,45.385372905932314,-3.6146028652916504,-7.547123659664797,46.150368397430825,10.999682186025241,58.92613042607016,-6.108338247478475,3.297380730873255,136.86867512372666,110.8109699076327,125.16854545676156,-4.921174748867631,-6.878018336996281,1161.109661646282,0.13748763429118746,46.150368397430825,0.6213742314117873,1.090317267751742,87750.16067201758,280.3710297679741,0.0,0.0,0.0,12.192492829668137,0.0006169824953642744,0.17748917453369628,nominal,12801.18031713181,1467.598101049551,target_intercept,-14.999999999999998,-11.501933527606852,0.0,15.383436695082736,14.32394487827058,-14.32394487827058,14.38156757362579,14.323943218148015,-13.458474030510446,0.18,0.0,0.0,0.0,0.0,0.0,0.0,0.25100570575782205,0.24999997102539526,-0.23489468412655906,0.25100570575782205,0.24999997102539526,-0.23489468412655906,0.64,1.0,-3.4664307743450613,1.2792219395231512,-4.86640084394573,2.386773864021543,1.9351800066293114,2.186340085198006,6.110188888883844,3.7711661464562622,1.0,0.0,26.32689608266282,249.95873170850496,1196.8244211053284,45.693735235818274,-3.4698389406328993,-7.228009725448218,1.0,1197.3089172526197,0.0,1.0,46.25150972012354,1158.2038485719336,1.0,1.0,3.563480669403967,28.23602858172921,-33.87793571958238,-18.785415589467462,1.0,1196.526659772178,0.0,1.0,59.13556227107836,-6.1355984196807904,,,
0.68,31.6319457462471,248.1535092110734,1196.4454346894117,45.2303442372972,-3.4310750606007647,-7.980409787236144,46.05695665443056,10.999657506725427,65.95227085493363,-5.16673088081758,10.454519136353756,158.2137935426721,147.3968694547903,103.52288105845335,-11.393481539289391,-10.47167542135096,1156.4504985081192,0.1372088414870655,46.05695665443056,2.238130256724282,1.0903516087472809,87753.57390229132,280.3731046745188,0.0,0.0,0.0,12.240301644342638,0.0006181480726651798,0.17804713574843045,nominal,12793.743250230966,1465.9019042247935,target_intercept,-14.999999999999998,-11.51236027568451,0.0,11.507868470969386,14.32394487827058,-14.32394487827058,12.082608291500668,14.323944546246068,-14.150850708718552,0.18,0.0,0.0,0.0,0.0,0.0,0.0,0.21088129691545343,0.24999999420507904,-0.2469789368253118,0.21088129691545343,0.24999999420507904,-0.2469789368253118,0.68,1.0,-7.006872866654228,4.274437057380328,-20.357377698895963,2.761850491420753,2.5749470668605525,1.8081384158049698,21.94971312574422,4.18658990884043,1.0,0.0,26.32689608266282,249.95873170850496,1196.8244211053284,45.693735235818274,-3.4698389406328993,-7.228009725448218,1.0,1195.8367892229905,0.0,1.0,45.99549473727468,1152.3109581954873,1.0,1.0,3.563480669403967,28.23602858172921,-33.87793571958238,-18.785415589467462,1.0,1196.526659772178,0.0,1.0,59.13556227107836,-6.1355984196807904,,,
0.72,33.42362489888719,248.04611910403776,1196.1046518597002,44.79197881600215,-2.6847526758914104,-8.519570742789808,45.67397890292997,10.99963278080252,73.31192711036547,-4.962279235503784,16.7508891266061,170.28195543127936,145.6156694572638,59.52288105845334,-17.469530717823744,-11.474236324940387,1137.3362183159638,0.1360673702958176,45.67397890292997,3.0790154803914915,1.0903882707529227,87757.21785095808,280.37531976291194,0.0,0.0,0.0,12.30909794727115,0.0006164533771466678,0.17848110558211258,nominal,12772.835858572575,1464.2142549145615,target_intercept,-14.999999999999998,-11.52400546495168,0.0,7.023168310537128,14.32394487827058,-14.32394487827058,8.035056306729835,14.323944811865678,-14.289326044360175,0.18,0.0,0.0,0.0,0.0,0.0,0.0,0.14023818813557104,0.2499999988410158,-0.24939578736506235,0.14023818813557104,0.2499999988410158,-0.24939578736506235,0.72,1.0,-8.690595163003033,5.492026888610713,-28.399784489911806,2.973730470614497,2.5403112947506727,1.038655963674505,30.203254174109617,4.046611001440041,1.0,0.0,26.32689608266282,249.95873170850496,1196.8244211053284,45.693735235818274,-3.4698389406328993,-7.228009725448218,1.0,1196.7592412947492,0.0,1.0,45.99488906990454,1149.0446478006563,1.0,1.0,16.022720192528606,26.54605092327046,-39.74771369528259,-4.720687830167592,1.0,1196.0841603585964,0.0,1.0,72.93125569222224,-5.597299163728853,,,
0.76,35.18830980447567,247.97864445228674,1195.7447072715383,44.117122639711965,-1.686866293775644,-8.998614704048979,45.057087061775185,10.999608122667434,80.50094737312695,-5.371423402992662,21.262021835719974,169.76211662443856,111.96973809026312,15.522881058453347,-21.813260027429692,-10.22258794000347,1106.860326788,0.13422902749776064,45.05708706177519,2.924609867101888,1.0904269952377434,87761.06682699043,280.377659402735,0.0,0.0,0.0,12.395253831308777,0.0006123838059540373,0.17881863767497644,nominal,12741.320380810625,1462.5459656366033,target_intercept,-14.999999999999998,-11.537241863360599,0.0,2.966776608004333,14.32394487827058,-14.32394487827058,3.980432547749434,14.3239448649896,-14.3170211114885,0.18,0.0,0.0,0.0,0.0,0.0,0.0,0.06947165361177403,0.24999999976820317,-0.24987915747301248,0.06947165361177403,0.24999999976820317,-0.24987915747301248,0.76,1.0,-8.794058119624568,4.413305905599521,-26.86410002855646,2.9616482739922065,1.9571755795056018,0.2732904851952781,28.609309631167644,3.56041913784773,1.0,0.0,26.32689608266282,249.95873170850496,1196.8244211053284,45.693735235818274,-3.4698389406328993,-7.228009725448218,1.0,1196.1016074598267,0.0,1.0,45.6082022336489,1087.0774472792575,1.0,1.0,16.022720192528606,26.54605092327046,-39.74771369528259,-4.720687830167592,1.0,1196.0841603585964,0.0,1.0,72.93125569222224,-5.597299163728853,,,
0.8,36.92404345158625,247.94675365934026,1195.370267061188,43.39334117776445,-0.7972698236621626,-9.36100525875395,44.398717517469,10.999583627315195,87.1754443553456,-5.592340301775321,23.98040286116374,160.53669079601585,67.96973809026312,1.7743104078768894,-24.287204656636916,-8.265344517368717,1074.7896961541123,0.1322671126057874,44.398717517469,2.7173715157778964,1.0904672803444175,87765.07095333867,280.38009326410224,0.0,0.0,0.0,12.480655297458323,0.0006075932993253895,0.17908116263609278,nominal,12708.200888073605,1460.9003799193813,target_intercept,-14.999999999999998,-11.551860563465093,0.0,4.02700970185844,14.32394487827058,-14.32394487827058,4.017694271036639,14.323944875614385,-14.322560124914165,0.18,0.0,0.0,0.0,0.0,0.0,0.0,0.0701219933681028,0.24999999995364064,-0.2499758314946025,0.0701219933681028,0.24999999995364064,-0.2499758314946025,0.8,1.0,-8.95754086899415,2.8719446846909364,-24.913772119690137,2.8042386306754876,1.1843588819492479,0.02952140495398789,26.630464620871237,3.0442292575256653,1.0,0.0,37.154920707112645,250.9124951981195,1194.3713832831781,43.27830238181424,-0.8594002933821921,-9.449925929519363,1.0,1194.9726535923444,0.0,1.0,44.238773078501865,1056.676089002833,1.0,1.0,23.800496879375558,25.893515804779945,-39.677908053923076,7.8618835106243035,1.0,1194.887245795481,0.0,0.0,72.93125569222224,-5.597299163728853,,,
0.84,38.630729552508456,247.94581799188765,1194.984137040103,42.66715252305519,-0.02339168631545041,-9.653250527125719,43.745533455840906,10.999559323583222,93.28592464419233,-4.799759127146344,24.970230977425114,150.65949432724716,24.758954816352286,19.74269715899527,-25.0289434698129,-7.011151938517292,1043.4379363998598,0.13032064496345422,43.745533455840906,2.462149591509299,1.0905088243217111,87769.20024116643,280.3826031092393,0.0,0.0,0.0,12.561636192460544,0.0006025388994708165,0.17928534871696106,nominal,12675.627036172373,1459.2782636316995,target_intercept,-14.999999999999998,-11.567655006828016,0.0,10.813378311171647,14.32394487827058,-14.32394487827058,8.81769427103664,14.323944877739342,-14.323667927599297,0.18,0.0,0.0,0.0,0.0,0.0,0.0,0.15389779746383062,0.24999999999072814,-0.2499951662989205,0.15389779746383062,0.24999999999072814,-0.2499951662989205,0.84,1.0,-8.747497432580383,1.8160629184014498,-22.41839373139609,2.6310481342433216,0.4302690837211495,0.34172952202046314,24.132989316545366,2.6878104165531904,1.0,0.0,37.154920707112645,250.9124951981195,1194.3713832831781,43.27830238181424,-0.8594002933821921,-9.449925929519363,1.0,1194.0839800236915,0.0,1.0,43.706346714657435,1060.785008705296,1.0,1.0,23.800496879375558,25.893515804779945,-39.677908053923076,7.8618835106243035,1.0,1194.887245795481,0.0,0.0,72.93125569222224,-5.597299163728853,,,
0.88,40.31007066939689,247.97146323366835,1194.588502312467,41.98352792221101,0.6411310445172733,-9.890868190898182,43.137651064714184,10.999535222027243,99.0596730330104,-2.8860912702583725,24.96574323472344,144.47352162993676,5.039858938187408,47.641243628953475,-25.1128726554092,-6.85717097783108,1014.6800629378178,0.1285091364587555,43.13765106471418,2.254642330560511,1.0905513921723866,87773.43133582613,280.3851747349689,0.0,0.0,0.0,12.634939458951994,0.0005976333438641005,0.17944416011319192,nominal,12645.33980589307,1457.6786064207693,target_intercept,-14.999999999999998,-11.584445675854457,0.0,18.90151520213148,14.32394487827058,-14.32394487827058,13.617694271036637,14.323944878164333,-14.323889488136324,0.18,0.0,0.0,0.0,0.0,0.0,0.0,0.2376736015595584,0.24999999999814562,-0.2499990332597841,0.2376736015595584,0.24999999999814562,-0.2499990332597841,0.88,1.0,-8.487600437645808,1.6241677416491271,-20.28905841857897,2.519865060030456,0.08689921196026051,0.8333214618101775,22.052736192015928,2.655502975429525,1.0,0.0,37.154920707112645,250.9124951981195,1194.3713832831781,43.27830238181424,-0.8594002933821921,-9.449925929519363,1.0,1195.0357224765803,0.0,1.0,43.524493347274,1009.5904813251761,1.0,1.0,25.355812831327636,23.794473945426827,-38.324387795773454,16.347820672977782,1.0,1194.7695415256185,0.0,0.0,72.93125569222224,-5.597299163728853,,,
0.92,41.96405727974075,248.02027740190874,1194.1856602509308,41.34966525859635,1.220354206009995,-10.071051538405333,42.57593405288148,10.999511316693487,104.74629705936988,-0.20639596049989398,24.64361777701376,142.50031834411197,5.948103553083774,67.30784922360888,-25.43060967850068,-7.422562259618636,988.4660801734778,0.12683516222921876,42.575934052881486,2.062214955762385,1.0905947367937638,87777.73967863678,280.3877932083689,0.0,0.0,0.0,12.701130436253003,0.0005929413287839403,0.17956768008803817,nominal,12617.315885337446,1456.100385771776,target_intercept,-14.999999999999998,-11.602098547707506,0.0,20.05352282957881,14.32394487827058,-14.32394487827058,18.417694271036638,14.323944878249332,-14.32393380024373,0.18,0.0,0.0,0.0,0.0,0.0,0.0,0.32144940565528624,0.24999999999962913,-0.2499998066519568,0.32144940565528624,0.24999999999962913,-0.2499998066519568,0.92,1.0,-8.28298803966583,2.1083224730806127,-18.330183295806155,2.4884362428507294,0.1077132318817099,1.1736129242041609,20.22494831077684,2.753413221969143,1.0,0.0,37.154920707112645,250.9124951981195,1194.3713832831781,43.27830238181424,-0.8594002933821921,-9.449925929519363,1.0,1194.991578687242,0.0,1.0,42.347207064839786,985.9911364755203,1.0,1.0,25.355812831327636,23.794473945426827,-38.324387795773454,16.347820672977782,1.0,1194.7695415256185,0.0,0.0,72.93125569222224,-5.597299163728853,,,
0.96,43.59454358257955,248.08858346556943,1193.7778482731806,40.76215757096987,1.7076515915172263,-10.195299443759009,42.05251115624964,10.999487599040336,110.46155293530191,2.8627467573504752,24.68320421227285,143.02299293734762,24.184452213083755,72.9442583866924,-26.707853087024368,-8.062995796477114,964.3501334993952,0.12527527536347569,42.052511156249636,1.9646605623591928,1.0906386175059535,87782.10134846575,280.3904439862243,0.0,0.0,0.0,12.761528578574291,0.000588436757589138,0.17966375117958525,nominal,12591.168383041435,1454.542618488008,target_intercept,-14.999999999999998,-11.62046556000305,0.0,20.05352282957881,14.32394487827058,-14.32394487827058,19.72635711787038,14.323944878266332,-14.32394266266521,0.18,0.0,0.0,0.0,0.0,0.0,0.0,0.34428988113105724,0.24999999999992584,-0.24999996133039137,0.34428988113105724,0.24999999999992584,-0.24999996133039137,0.96,1.0,-8.231508463173009,2.4725525114264655,-17.241827064422864,2.4966262540862734,0.42211556661546634,1.274057506566112,19.265301659214032,2.834527603359934,1.0,0.0,37.154920707112645,250.9124951981195,1194.3713832831781,43.27830238181424,-0.8594002933821921,-9.449925929519363,1.0,1193.3651288792312,0.0,1.0,41.85546211121912,964.2362295498872,1.0,1.0,23.00693060499205,19.71826811206834,-36.441489210751016,24.23141087681078,1.0,1194.2237217567708,0.0,0.0,72.93125569222224,-5.597299163728853,,,
1.0,45.202237041612726,248.17327787315818,1193.3670872809926,40.192336475829514,2.117360189718757,-10.269024804699033,41.537452931045564,10.999464061570032,116.1600979379756,6.078476822383845,25.259872917006057,143.70818798412765,45.08303774365152,68.2460682579873,-28.98278248954072,-8.289437750610338,940.9102503000099,0.12374031742420032,41.53745293104556,1.8936836365432628,1.0906828168985212,87786.49473627894,280.39311393267354,0.0,0.0,0.0,12.819604278545066,0.0005838746812661139,0.17973847313967742,nominal,12565.613344483558,1453.0052571031283,target_intercept,-14.999999999999998,-11.639413322218672,0.0,20.05352282957881,14.32394487827058,-14.32394487827058,19.988089687237125,14.323944878269732,-14.323944435149507,0.18,0.0,0.0,0.0,0.0,0.0,0.0,0.34885797622621145,0.24999999999998518,-0.24999999226607827,0.34885797622621145,0.24999999999998518,-0.24999999226607827,1.0,1.0,-8.440309057251277,2.69212815189309,-16.30475344585692,2.5075039032285935,0.7855282931612666,1.187536722921176,18.556167597279252,2.8835523217638777,1.0,0.0,44.77977484216622,249.18293923393063,1192.6033213651056,40.36503972697053,1.997712643357891,-10.316658695189076,1.0,1193.4154677674246,0.0,1.0,42.22868105312717,956.9936937390155,1.0,1.0,23.00693060499205,19.71826811206834,-36.441489210751016,24.23141087681078,1.0,1194.2237217567708,0.0,0.0,72.93125569222224,-5.597299163728853,,,
1.04,46.78713108779675,248.27100666353545,1192.9545397555203,39.62235115460056,2.4432197594318676,-10.313688136804661,41.01551166076829,10.999440706582782,121.71921142882897,9.46378595338898,26.331951537261055,142.72148795142425,64.29489644281107,61.30603732093361,-32.12398551466482,-7.964399829894923,917.4500297577335,0.12218486703937907,41.01551166076829,1.8387477971441861,1.0907272099079226,87790.90741157543,280.39579549158907,0.0,0.0,0.0,12.877240059523203,0.000579130032697244,0.17979659021974911,nominal,12540.023735690782,1451.4883469026984,target_intercept,-14.999999999999998,-11.658789601482058,0.0,20.05352282957881,14.32394487827058,-14.32394487827058,20.040436201110474,14.32394487827041,-14.323944789646367,0.18,0.0,0.0,0.0,0.0,0.0,0.0,0.34977159524524226,0.24999999999999703,-0.24999999845321566,0.34977159524524226,0.24999999999999703,-0.24999999845321566,1.04,1.0,-8.859980396229481,2.5691300578544114,-15.500980448782476,2.4918658824960596,1.1213322658763967,1.0690171053916222,18.03829472952691,2.9342084449580677,1.0,0.0,44.77977484216622,249.18293923393063,1192.6033213651056,40.36503972697053,1.997712643357891,-10.316658695189076,1.0,1192.8002459760016,0.0,1.0,40.99788270504973,923.848778887058,1.0,1.0,27.5185023736481,14.389966868697783,-32.32472804265133,32.473828696481085,1.0,1193.240865265475,0.0,0.0,72.93125569222224,-5.597299163728853,,,
1.08,48.34868212740752,248.37829791930113,1192.5403092984584,39.038775990269215,2.6822813941423536,-10.355761426544488,40.47792557702641,10.999417541381474,127.03266254968463,13.224723329015122,27.712376357489106,139.73928146142566,81.14604271454304,58.58365487601738,-35.0,-7.214690392695735,893.5943108704224,0.12058282363474539,40.47792557702642,1.8626742667605103,1.090771785403357,87795.338268486,280.39848798956,0.0,0.0,0.0,12.935585345114893,0.0005741290141390727,0.1798417923931382,nominal,12514.056653691372,1449.9917924295935,target_intercept,-14.999999999999998,-11.678430917408747,0.0,20.05352282957881,14.32394487827058,-14.32394487827058,20.050905503885144,14.323944878270547,-14.323944860545737,0.18,0.0,0.0,0.0,0.0,0.0,0.0,0.34995431904904845,0.24999999999999942,-0.24999999969064313,0.34995431904904845,0.24999999999999942,-0.24999999969064313,1.08,1.0,-9.108646054989523,2.0929245894270023,-15.673241737958804,2.4363662387827776,1.415699012104125,1.0236945981207108,18.2482402677244,2.998005132179506,1.0,0.0,44.77977484216622,249.18293923393063,1192.6033213651056,40.36503972697053,1.997712643357891,-10.316658695189076,1.0,1192.1998593514652,0.0,1.0,41.0205298487015,905.4456635246538,1.0,1.0,27.5185023736481,14.389966868697783,-32.32472804265133,32.473828696481085,1.0,1193.240865265475,0.0,0.0,72.93125569222224,-5.597299163728853,,,
1.12,49.88571536174119,248.4930243280856,1192.124457764543,38.42583085834175,2.86816021961168,-10.396288347883816,39.91057042453286,10.999394576220908,132.06854148062462,17.59505450952068,29.122096714472615,135.36970656490433,95.92941086202136,62.70400574549561,-35.0,-6.259403254979358,868.7555409883796,0.11889211242650477,39.91057042453285,1.843071479290369,1.090816536745315,87799.78664754725,280.4011910245305,0.0,0.0,0.0,12.996284965911814,0.0005687380991110975,0.17987694963910747,nominal,12487.174129542453,1448.5162262158844,target_intercept,-14.999999999999998,-11.698228528669176,0.0,20.05352282957881,14.32394487827058,-14.32394487827058,20.052999364440076,14.323944878270574,-14.323944874725612,0.18,0.0,0.0,0.0,0.0,0.0,0.0,0.34999086380980965,0.2499999999999999,-0.24999999993812863,0.34999086380980965,0.2499999999999999,-0.24999999993812863,1.12,1.0,-8.26409226396911,1.3511890050443138,-15.960019882781058,2.357537484146893,1.6728698510168416,1.0963831487624573,18.023406096892824,3.0916876518317715,1.0,0.0,44.77977484216622,249.18293923393063,1192.6033213651056,40.36503972697053,1.997712643357891,-10.316658695189076,1.0,1192.5623241874816,0.0,1.0,39.54013895258623,856.7670210142759,1.0,1.0,26.98186073900575,7.416318111054976,-26.324638311209878,39.44649053532583,1.0,1192.5903659324704,0.0,0.0,72.93125569222224,-5.597299163728853,,,
1.16,51.398281664581866,248.61416819925168,1191.7069390462163,37.814157571016814,3.02859677915181,-10.437967958163593,39.345064320090096,10.999371826696944,136.8899623430797,22.72973601263318,30.257750462165767,130.42161810449912,109.14871662613696,73.03413465092706,-35.0,-5.259278437300085,844.3453686821362,0.11720692347354567,39.3450643200901,1.8263965092140828,1.0908614689122933,87804.25304414374,280.40390489619955,0.0,0.0,0.0,13.05625071111637,0.0005632664736930875,0.17990429416375026,nominal,12460.669896973592,1447.0613959324958,target_intercept,-14.999999999999998,-11.718135602605564,0.0,20.05352282957881,14.32394487827058,-14.32394487827058,20.053418136551066,14.323944878270579,-14.323944877561587,0.18,0.0,0.0,0.0,0.0,0.0,0.0,0.34999817276196193,0.24999999999999997,-0.24999999998762573,0.34999817276196193,0.24999999999999997,-0.24999999998762573,1.16,1.0,-7.2496035759046,0.7057234954520741,-16.271630808989936,2.274448691072901,1.9040703222066726,1.2758360346510118,17.8275283436564,3.2289871829329817,1.0,0.0,44.77977484216622,249.18293923393063,1192.6033213651056,40.36503972697053,1.997712643357891,-10.316658695189076,1.0,1190.0847109184144,0.0,1.0,39.41767387484956,835.9088393442661,1.0,1.0,26.98186073900575,7.416318111054976,-26.324638311209878,39.44649053532583,1.0,1192.5903659324704,0.0,0.0,72.93125569222224,-5.597299163728853,,,
1.2,52.886362259479526,248.74076958985216,1191.287588661304,37.20201487244159,3.165034765011943,-10.483759622811238,38.780363219830555,10.999349296037996,141.66454351099554,28.68074947426336,30.820696192628063,125.55743451410194,121.2548854571258,87.60852790713002,-35.0,-4.257572341785329,820.316256545308,0.11552414643518205,38.780363219830555,1.8111943966928705,1.090906599623226,87808.73922013857,280.4066306737015,0.0,0.0,0.0,13.115708570555507,0.0005577104629951613,0.1799255621273613,nominal,12434.498717076369,1445.6270530615643,target_intercept,-14.999999999999998,-11.738107069883743,0.0,20.05352282957881,14.32394487827058,-14.32394487827058,20.053501890973262,14.32394487827058,-14.323944878128781,0.18,0.0,0.0,0.0,0.0,0.0,0.0,0.34999963455239236,0.25,-0.24999999999752515,0.34999963455239236,0.25,-0.24999999999752515,1.2,1.0,-6.219038375458762,0.013855111363662416,-16.546558827274154,2.1917130737819424,2.114162266018037,1.5298918041348073,17.676686321366454,3.40791097553913,1.0,0.0,55.650401895976415,249.76701606023815,1193.190795192873,37.228439759965,3.10151727620025,-10.597920374494775,1.0,1192.2197962034222,0.0,1.0,38.74719173751869,817.1095573231748,1.0,1.0,30.211589821627452,-1.875716473200567,-19.161433494520775,44.01149573401927,1.0,1190.911044447896,0.0,0.0,72.93125569222224,-5.597299163728853,,,
1.24,54.34990372840633,248.87190656765284,1190.8661508645985,36.588536723170165,3.2784244450172517,-10.535944917636117,38.21616440319359,10.999326987619476,146.6804027782678,35.41800301950876,30.475364414871503,120.87894633418057,132.54573907756142,104.74075438573955,-35.0,-3.208957812148209,796.6541502050393,0.113842879265691,38.21616440319359,1.7961225935899494,1.0909519564216053,87813.247914081,280.4093700193801,0.0,0.0,0.0,13.17478256415565,0.0005520719917194086,0.17994210387683657,nominal,12408.645149222275,1444.2129348339502,target_intercept,-14.999999999999998,-11.758099066200904,0.0,20.05352282957881,14.32394487827058,-14.32394487827058,20.0535186418577,14.32394487827058,-14.323944878242221,0.18,0.0,0.0,0.0,0.0,0.0,0.0,0.34999992691047843,0.25,-0.24999999999950503,0.34999992691047843,0.25,-0.24999999999950503,1.24,1.0,-5.1384794060949375,-0.660558222171218,-16.86447954651633,2.1080563757811226,2.3123358147666644,1.8294938771508142,17.642306486018413,3.624616731498156,1.0,0.0,55.650401895976415,249.76701606023815,1193.190795192873,37.228439759965,3.10151727620025,-10.597920374494775,1.0,1191.6508693365654,0.0,1.0,39.077135322516526,798.3717949931831,1.0,1.0,30.211589821627452,-1.875716473200567,-19.161433494520775,44.01149573401927,1.0,1190.911044447896,0.0,0.0,72.93125569222224,-5.597299163728853,,,
1.28,55.78884028920885,249.00673130153666,1190.4422661946421,35.973414020062876,3.3706183470954727,-10.597116748906728,37.65297422104385,10.999304904739807,152.43631006791205,42.84756355114816,28.721040564950755,116.22209118757492,143.19555079488214,123.72892809440602,-35.0,-2.021267106857416,773.3789812465886,0.11216462996868144,37.65297422104384,1.779772833074151,1.0909975780174122,87817.78297465171,280.4121252697348,0.0,0.0,0.0,13.233493414189333,0.0005463600727837987,0.179954969681984,nominal,12383.123883622982,1442.818745286602,target_intercept,-14.999999999999998,-11.778070818075868,0.0,20.05352282957881,14.32394487827058,-13.540922584779597,20.05352199203459,14.32394487827058,-13.697527043472121,0.18,0.0,0.0,0.0,0.0,0.0,0.0,0.34999998538209565,0.25,-0.23906694628955297,0.34999998538209565,0.25,-0.23906694628955297,1.28,1.0,-3.8269962494429324,-1.151447987721607,-16.96003066349329,2.03241252009178,2.499480848489724,2.1605103017593255,17.424533648517283,3.8789057642331173,1.0,0.0,55.650401895976415,249.76701606023815,1193.190795192873,37.228439759965,3.10151727620025,-10.597920374494775,1.0,1189.5791809105494,0.0,1.0,37.470183085427934,776.5038206672542,1.0,1.0,29.841211370871537,-12.806654236083032,-10.468469124503548,45.03328611695458,1.0,1190.501093621181,0.0,0.0,72.93125569222224,-5.597299163728853,,,
1.32,57.20313437741526,249.14437511296933,1190.015528371007,35.35735220516024,3.441095285816773,-10.668445590878262,37.09176759135846,10.999283050336896,159.73074183664372,50.726034091255734,24.82816661451897,111.30680535448613,153.3131025994536,141.12197395023907,-35.0,-0.5181620654021342,750.5284054242849,0.11049230229570238,37.09176759135846,1.7559841082508705,1.091043508164959,87822.34875213097,280.41489906558843,0.0,0.0,0.0,13.291797884275523,0.0005405880241171687,0.17996497641932088,nominal,12357.965392825208,1441.4441356577006,target_intercept,-14.999999999999998,-11.797980686860008,0.0,20.05352282957881,14.32394487827058,-7.637053703283885,20.053522662069966,14.32394487827058,-8.897527043472122,0.18,0.0,0.0,0.0,0.0,0.0,0.0,0.3499999970764191,0.25,-0.15529114219382517,0.3499999970764191,0.25,-0.15529114219382517,1.32,1.0,-2.545472777841862,-1.186971168274693,-17.00649339618693,1.9418839691360965,2.6758040808354395,2.460695096022632,17.236854407101053,4.12139068570224,1.0,0.0,55.650401895976415,249.76701606023815,1193.190795192873,37.228439759965,3.10151727620025,-10.597920374494775,1.0,1191.139435283515,0.0,1.0,37.06664591662907,761.4256709333005,1.0,1.0,29.841211370871537,-12.806654236083032,-10.468469124503548,45.03328611695458,1.0,1190.501093621181,0.0,0.0,72.93125569222224,-5.597299163728853,,,
1.36,58.592921426405866,249.28311769450778,1189.585649256345,34.744676224765165,3.4685645384616146,-10.746977866545604,36.5338336228934,10.99926142681593,168.81325690005536,58.45611233252878,18.878077201592863,105.55925027776262,162.8255521072983,135.65970823449476,-35.0,1.7200163992045518,728.1502192850379,0.10882973605558693,36.533833622893404,1.730275429022951,1.0910897779079178,87826.94833343136,280.4176932798337,0.0,0.0,0.0,13.34960808207662,0.0005347723252208555,0.17997275943724958,nominal,12333.210606872364,1440.0885289398254,target_intercept,-14.999999999999998,-11.817749293433925,0.0,20.05352282957881,14.32394487827058,-1.0316055152068626,20.053522796077043,14.32394487827058,-4.097527043472122,0.18,0.0,0.0,0.0,0.0,0.0,0.0,0.3499999994152838,0.25,-0.07151533809809736,0.3499999994152838,0.25,-0.07151533809809736,1.36,1.0,-1.205403233622022,-1.6965696766617462,-16.862721988583605,1.840816768518557,2.841111087567311,2.3684089667707915,16.99066621671015,4.131571083865954,1.0,0.0,55.650401895976415,249.76701606023815,1193.190795192873,37.228439759965,3.10151727620025,-10.597920374494775,1.0,1189.7821724388232,0.0,1.0,36.48418936496034,730.6420604353367,1.0,1.0,19.61098674691325,-23.54470343498879,-0.3657208162981223,41.82229874750359,1.0,1189.4281184066215,0.0,0.0,72.93125569222224,-5.597299163728853,,,
1.4000000000000001,59.95828166020384,249.4218399993963,1189.151934654725,34.13400584494932,3.468057622212724,-10.842865040502597,35.982294270662834,10.999240035922922,-179.33554761724932,65.70808063822653,9.89244586780731,97.33415972569014,170.77920908582897,121.58368396719223,-35.0,4.560461056866826,706.3611012019786,0.10718623028971695,35.98229427066284,1.7032815167000237,1.091136462002189,87831.58915100465,280.4205124247443,0.0,0.0,0.0,13.406638378471266,0.0005289491308273194,0.17997881289563855,nominal,12308.959570472045,1438.7512794923678,target_intercept,-14.999999999999998,-11.837324152818852,0.0,20.05352282957881,-14.32394487827058,8.805609540138267,20.05352282287846,9.52394487827058,0.7024729565278771,0.18,0.0,0.0,0.0,0.0,0.0,0.0,0.34999999988305674,0.16622419590427218,0.012260465997630449,0.34999999988305674,0.16622419590427218,0.012260465997630449,1.4000000000000001,1.0,0.07090831183821879,-2.4169650447721156,-16.475424337832102,1.6988723111948303,2.981204059398249,2.1182675762267666,16.65191746100035,4.032468511719674,1.0,0.0,59.559593765090725,250.95965929930296,1188.0488025576392,34.28043838457605,3.4866145241734623,-10.991955403316767,1.0,1188.918558245045,0.0,1.0,36.67889952843896,714.4960292367042,1.0,1.0,19.61098674691325,-23.54470343498879,-0.3657208162981223,41.82229874750359,1.0,1189.4281184066215,0.0,0.0,72.93125569222224,-5.597299163728853,,,
1.44,61.29927026568771,249.55997764520737,1188.7134869200675,33.524715137096884,3.4534411452768117,-10.961193366439579,35.43981575550108,10.99921887795769,-163.34999668686362,72.09773937527763,-4.822246073296101,55.66253025053598,176.90871423093586,107.00873551335448,-35.0,6.47649999469599,685.2527198781443,0.10556972609079647,35.439815755501094,1.6655394408256863,1.0911836571137874,87836.28081570615,280.42336233501953,0.0,0.0,0.0,13.46264229628878,0.000523150836143301,0.1799835211410522,nominal,12285.287386896609,1437.4317487400826,target_intercept,-14.999999999999998,-11.856677958682406,0.0,20.05352282957881,-14.32394487827058,14.32394487827058,20.05352282823874,4.723944878270581,5.5024729565278765,0.18,0.0,0.0,0.0,0.0,0.0,0.0,0.34999999997661135,0.08244839180854437,0.09603627009335826,0.34999999997661135,0.08244839180854437,0.09603627009335826,1.44,1.0,1.257007281012143,-2.613251506529474,-16.032335264949044,0.9709120712087074,3.0879889214827507,1.8676417771485923,16.292480621090974,3.73716893342671,1.0,0.0,59.559593765090725,250.95965929930296,1188.0488025576392,34.28043838457605,3.4866145241734623,-10.991955403316767,1.0,1187.6742159829337,0.0,1.0,35.24537461876256,687.9577079223328,1.0,1.0,-3.1195998852591544,-32.24473278836838,8.256079219013852,34.61729618094,1.0,1188.585469503506,0.0,0.0,72.93125569222224,-5.597299163728853,,,
1.48,62.61611207288903,249.69684183600884,1188.2692672311966,32.92104518003306,3.421604770036704,-11.105492221769314,34.91181107355926,10.999197951924243,-138.88407851300656,76.7974537649516,-29.46350557280932,17.033650208758203,180.09045336799576,88.30044497333559,-35.0,7.4009859165498275,665.0153132903431,0.10399634645607589,34.911811073559264,1.6169290129088691,1.0912314751190477,87841.03445087727,280.4262497629972,0.0,0.0,0.0,13.517085631960905,0.0005174407235176991,0.17998718310970727,nominal,12262.35808571076,1436.1290600443049,target_intercept,-14.999999999999998,-11.875779224532087,0.0,20.05352282957881,-14.32394487827058,14.32394487827058,20.0535228293108,-0.0760551217294189,10.302472956527875,0.18,0.0,0.0,0.0,0.0,0.0,0.0,0.3499999999953223,-0.0013274122871834437,0.17981207418908607,0.3499999999953223,-0.0013274122871834437,0.17981207418908607,1.48,1.0,2.4710952814100104,-2.2699501346741378,-15.491233360235114,0.2979385638610112,3.1415857253836545,1.538893534437768,15.850466760476653,3.510914634123745,1.0,0.0,59.559593765090725,250.95965929930296,1188.0488025576392,34.28043838457605,3.4866145241734623,-10.991955403316767,1.0,1187.8341090394563,0.0,1.0,34.83620376357635,656.4458832121627,1.0,1.0,-3.1195998852591544,-32.24473278836838,8.256079219013852,34.61729618094,1.0,1188.585469503506,0.0,0.0,72.93125569222224,-5.597299163728853,,,
1.52,63.90921750043409,249.83161049289353,1187.8180727009335,32.32763568862649,3.369216422116864,-11.279863256580057,34.40440325892551,10.999177254295303,-104.93655838033627,78.66842150934124,-64.87910890970643,-17.81862721459574,181.11457907819332,60.173532254833184,-35.0,7.247517548580802,645.8538864310362,0.10248432898838947,34.40440325892551,1.5641491866118475,1.0912800455717966,87845.86293770389,280.4291825274439,0.0,0.0,0.0,13.569356690993057,0.000511892126711759,0.1799900313075501,nominal,12240.347584453992,1434.8420716922408,target_intercept,-14.999999999999998,-11.89459202740941,0.0,20.05352282957881,5.706604732720165,14.32394487827058,20.05352282952521,4.550072761830248,13.51965049392204,0.18,0.0,0.0,0.0,0.0,0.0,0.0,0.34999999999906445,0.0794137508992496,0.2359624148378172,0.34999999999906445,0.0794137508992496,0.2359624148378172,1.52,1.0,3.670223620871893,-1.7141099367385932,-14.798395371131319,-0.31263239116116126,3.167552230966868,1.0492615506813088,15.342790484874412,3.351428941458326,1.0,0.0,59.559593765090725,250.95965929930296,1188.0488025576392,34.28043838457605,3.4866145241734623,-10.991955403316767,1.0,1187.5349081990014,0.0,1.0,34.18694542132841,635.801366719301,1.0,1.0,-64.61704363385614,-38.75450048974099,11.959893374936826,25.63312648182455,1.0,1187.7239173128073,0.0,0.0,72.93125569222224,-5.597299163728853,,,
1.56,65.17908979242699,249.96365811729774,1187.3586198179414,31.74680729982247,3.301190610105191,-11.486322074799297,33.92186946473218,10.999156778610233,-70.41935043674799,77.25286227855074,-99.79902985767828,7.941412108744803,180.87617245045118,26.51978399838652,-35.0,8.014062901643248,627.8927364423519,0.10104641236608745,33.92186946473219,1.5175303440668262,1.0913295067240871,87850.78002266515,280.4321689711834,0.0,0.0,0.0,13.619029533439594,0.0005065602434974457,0.17999224657253896,nominal,12219.35702302878,1433.5695557081906,target_intercept,-14.999999999999998,-11.913090372674892,0.0,20.05352282957881,14.32394487827058,14.32394487827058,20.05352282956809,9.350072761830246,14.163086001400872,0.18,0.0,0.0,0.0,0.0,0.0,0.0,0.34999999999981285,0.1631895549949774,0.24719248296756344,0.34999999999981285,0.1631895549949774,0.24719248296756344,1.56,1.0,4.70540899850681,-1.9716573079486295,-13.909945921157622,0.13586755414771004,3.151651046269118,0.4646344162953258,14.816035296689382,3.1886124647760825,1.0,0.0,59.559593765090725,250.95965929930296,1188.0488025576392,34.28043838457605,3.4866145241734623,-10.991955403316767,1.0,1186.9198521591834,0.0,1.0,34.334953366420294,620.5636574669234,1.0,1.0,-64.61704363385614,-38.75450048974099,11.959893374936826,25.63312648182455,1.0,1187.7239173128073,0.0,0.0,72.93125569222224,-5.597299163728853,,,
1.6,66.42612552982001,250.0934176800368,1186.8898241838945,31.175893434825483,3.243989068476064,-11.71989085117422,33.4636465152772,10.999136516200494,-45.78979893303193,73.23434305221805,-123.7729570472461,35.26844143489138,180.9542122910368,3.350548736066905,-35.0,9.444128387406936,611.0721817877668,0.09968091698783675,33.46364651527722,1.4729650639440626,1.0913799754125446,87855.79732386356,280.4352161428047,0.0,0.0,0.0,13.6661720017528,0.0005014473125917042,0.1799939695564192,nominal,12199.320913382699,1432.3106633450857,target_intercept,-14.999999999999998,-11.93129623871321,0.0,20.05352282957881,14.32394487827058,14.32394487827058,20.053522829576668,13.329170454982513,14.29177310289664,0.18,0.0,0.0,0.0,0.0,0.0,0.0,0.34999999999996256,0.23263791099899547,0.2494384965935127,0.34999999999996256,0.23263791099899547,0.2494384965935127,1.6,1.0,5.659205594722196,-2.5776320331819362,-13.041927329885871,0.6138943647562892,3.1569567182824207,0.05926527191430977,14.448621503100032,3.216637123556699,1.0,0.0,66.30901928569604,249.6743652625183,1187.693698867613,31.127790047399536,3.426457388371105,-11.740021201707844,1.0,1186.6292555270134,0.0,1.0,33.57544276221323,598.739514703641,1.0,1.0,-126.90178027022343,-43.62534622126414,13.299820220651897,14.885513129363787,1.0,1187.1550885791028,0.0,1.0,-45.320323021466706,74.00603651270228,,,
1.6400000000000001,67.65073237898507,250.22164476139758,1186.4107056826695,30.61517122912638,3.2056770340199114,-11.977962530626241,33.03084408579739,10.99911645830799,-30.418976392211754,67.66276882911961,-137.68858593255337,55.88099163599875,180.81628992307068,-6.1116066828366495,-35.0,11.206162430235402,595.3959209853127,0.09839114646188485,33.03084408579739,1.4802616266851751,1.0914315572650743,87860.92534564313,280.4383304130626,0.0,0.0,0.0,13.710678121872641,0.0004965737624497025,0.1799953096549927,nominal,12180.232877393079,1431.0646498100834,target_intercept,-14.999999999999998,-11.949246813868612,0.0,12.092898269135771,8.566886438751098,14.32394487827058,15.253522829576667,9.519343241997381,14.317510523195791,0.18,0.0,0.0,0.0,0.0,0.0,0.0,0.26622419590423474,0.16614388220032567,0.24988769931870253,0.26622419590423474,0.16614388220032567,0.24988769931870253,1.6400000000000001,1.0,6.533389791675255,-3.3388682894540773,-12.569289104331078,0.9743378161884607,3.153953905540941,-0.11034695497441298,14.554045905264433,3.3028678249067096,1.0,0.0,66.30901928569604,249.6743652625183,1187.693698867613,31.127790047399536,3.426457388371105,-11.740021201707844,1.0,1186.2499296799049,0.0,1.0,32.97343225928314,599.5939479696236,1.0,1.0,-126.90178027022343,-43.62534622126414,13.299820220651897,14.885513129363787,1.0,1187.1550885791028,0.0,1.0,-45.320323021466706,74.00603651270228,,,
1.68,68.85249918935435,250.34899103745417,1185.920027394336,30.044170259231958,3.18365690141427,-12.266957208335747,32.607760993094594,10.999096595357491,-22.495164764786924,61.61071103850188,-145.04700641481625,31.594436984398577,170.508693855702,-3.266441718859115,-35.0,12.07445526242143,580.2691603698321,0.09713032871632381,32.60776099309461,1.4728319335842661,1.09148438557629,87866.17734342752,280.44151982193677,0.0,0.0,0.0,13.754164961858441,0.0004917681181314433,0.1799963519538832,nominal,12161.535675138057,1429.8312922678838,target_intercept,-14.999999999999998,-11.966966594124253,0.0,5.762012178225132,2.0314568666056223,14.32394487827058,10.453522829576666,4.719343241997382,14.322658007255622,0.18,0.0,0.0,0.0,0.0,0.0,0.0,0.18244839180850692,0.08236807810459786,0.2499775398637405,0.18244839180850692,0.08236807810459786,0.2499775398637405,1.68,1.0,7.213124636306582,-3.6154468156178767,-11.988232613946385,0.5528721904985435,2.974919021482144,-0.058292783583879904,14.450548221487729,3.02641849254542,1.0,0.0,66.30901928569604,249.6743652625183,1187.693698867613,31.127790047399536,3.426457388371105,-11.740021201707844,1.0,1186.3372641425904,0.0,1.0,32.698560486319195,587.1492515176989,1.0,1.0,-146.07906902527867,-45.94091184380338,13.67462568426244,2.998630598135415,1.0,1185.72461850696,0.0,1.0,-22.764262041967857,61.632779653822446,,,
