time_s,sensor_time_s,imu_valid,imu_ax_mps2,imu_ay_mps2,imu_az_mps2,gyro_p_rps,gyro_q_rps,gyro_r_rps,imu_accel_norm_mps2,imu_gyro_norm_rps,gps_valid,gps_latency_s,gps_x_m,gps_y_m,gps_z_m,gps_vx_mps,gps_vy_mps,gps_vz_mps,baro_valid,baro_alt_m,baro_bias_m,pitot_valid,pitot_airspeed_mps,pitot_qbar_pa,pitot_compressibility_factor,mag_valid,mag_heading_deg,mag_x_ut,mag_y_ut,mag_z_ut,radar_valid,radar_agl_m,optical_flow_valid,horizon_valid,horizon_roll_deg,horizon_pitch_deg,optical_flow_x_radps,optical_flow_y_radps,optical_flow_quality
0.0,0.0,1.0,-3.5480593231251762,-2.5021430320107965,0.4715860666353989,0.004569755852035123,2.0133944395973026e-05,0.0001551406198653554,4.367131567894458,0.004572432890142664,1.0,0.0,0.2136181609379939,248.1775623292204,1199.432023011328,47.965355097651184,-2.8354432490463894,-0.9400489124326931,1.0,1200.4838225180154,0.0,1.0,48.58592398693941,1256.4165989432342,1.0,1.0,-5.076838378091929,25.380259330629187,2.105279526919706,-40.71696829171774,1.0,1199.8363803645034,0.0,1.0,-0.03722258901453194,-1.45053139681452,,,
0.04,0.04,1.0,-3.4305190585911833,-1.4529606440652536,-1.2429655362694265,-0.13168907272373917,0.3129052627455953,0.7653012895888104,3.927406137505185,0.8372202692093786,1.0,0.0,0.2136181609379939,248.1775623292204,1199.432023011328,47.965355097651184,-2.8354432490463894,-0.9400489124326931,1.0,1199.325770729789,0.0,1.0,48.61246247032485,1274.725643180314,1.0,1.0,-5.076838378091929,25.380259330629187,2.105279526919706,-40.71696829171774,1.0,1199.8363803645034,0.0,1.0,-0.03722258901453194,-1.45053139681452,,,
0.08,0.08,1.0,-3.402020093470381,-0.13963618109841047,-3.5297416007819358,0.018466792240083116,0.42513923960949385,1.445248429082688,4.904315930661339,1.5065946426419266,1.0,0.0,0.2136181609379939,248.1775623292204,1199.432023011328,47.965355097651184,-2.8354432490463894,-0.9400489124326931,1.0,1200.1352226429292,0.0,1.0,48.19859567775402,1227.2403795453233,1.0,1.0,-0.18182174475704405,26.65000808621142,-0.06463237666808938,-39.9221378860028,1.0,1199.9258365675264,0.0,1.0,-0.003203790620328046,-3.4322431017010517,,,
0.12,0.12,1.0,-3.310437801191546,1.9396077559198863,-3.9141112452374367,0.38336213704876276,0.34270894249686407,1.720710564916234,5.480998405626173,1.7959011096394641,1.0,0.0,0.2136181609379939,248.1775623292204,1199.432023011328,47.965355097651184,-2.8354432490463894,-0.9400489124326931,1.0,1200.0766985545417,0.0,1.0,48.04461064151342,1249.4187613131405,1.0,1.0,-0.18182174475704405,26.65000808621142,-0.06463237666808938,-39.9221378860028,1.0,1199.9258365675264,0.0,1.0,-0.003203790620328046,-3.4322431017010517,,,
0.16,0.16,1.0,-3.217379806607239,4.158163701917714,-4.437918714053808,0.9077926424286465,0.29613105295675485,1.473991117109912,6.880187548639867,1.7562547923042906,1.0,0.0,0.2136181609379939,248.1775623292204,1199.432023011328,47.965355097651184,-2.8354432490463894,-0.9400489124326931,1.0,1200.4941075815743,0.0,1.0,47.378881549876084,1225.6500158304414,1.0,1.0,8.867745558637456,27.257949135627833,-5.479405437325974,-39.138614359413076,1.0,1199.595638366196,0.0,1.0,4.105942395040241,-4.7075989994936895,,,
0.2,0.2,1.0,-3.3198124586721365,5.6722139863485115,-6.3239077635741685,1.4774404191179253,0.3140292274788021,0.7018764930430437,9.120689429526479,1.665555510705268,1.0,0.0,7.661472036511377,250.70102814930559,1199.3455503278221,47.37474474929302,-3.014787082604099,-3.4036596661639917,1.0,1199.981379466987,0.0,1.0,47.320828758427666,1218.5054210111953,1.0,1.0,8.867745558637456,27.257949135627833,-5.479405437325974,-39.138614359413076,1.0,1199.595638366196,0.0,1.0,4.105942395040241,-4.7075989994936895,,,
0.24,0.24,1.0,-3.4623325869916566,6.058886431261396,-8.552852263714444,1.9494718188731537,0.2610660311616684,-0.0653899844085186,11.038529502374539,1.9679613043116608,1.0,0.0,7.661472036511377,250.70102814930559,1199.3455503278221,47.37474474929302,-3.014787082604099,-3.4036596661639917,1.0,1199.480030130535,0.0,1.0,46.95721208977087,1198.4372204974084,1.0,1.0,8.504985215966988,28.014089694125996,-11.433390781826565,-37.274114647425314,1.0,1199.6296446420902,0.0,1.0,12.021326756129161,-6.338707294242956,,,
0.28,0.28,1.0,-3.584106366061123,5.492438966993198,-9.572030252289235,2.3007223970510995,0.09922518170693405,-0.8322332601515997,11.60329554049734,2.4486284700378476,1.0,0.0,7.661472036511377,250.70102814930559,1199.3455503278221,47.37474474929302,-3.014787082604099,-3.4036596661639917,1.0,1198.8442980671743,0.0,1.0,47.101417683100905,1205.9229999535592,1.0,1.0,8.504985215966988,28.014089694125996,-11.433390781826565,-37.274114647425314,1.0,1199.6296446420902,0.0,1.0,12.021326756129161,-6.338707294242956,,,
0.32,0.32,1.0,-3.344053498215561,3.8006014953681366,-8.820842727905763,2.497013621363514,-0.15605077456544594,-1.6020530966512918,10.170276886888097,2.9708589656877686,1.0,0.0,7.661472036511377,250.70102814930559,1199.3455503278221,47.37474474929302,-3.014787082604099,-3.4036596661639917,1.0,1199.7175196661933,0.0,1.0,46.71476412764354,1207.5084188346652,1.0,1.0,3.402677061965645,29.329650409211652,-15.660799743251197,-34.6124956914199,1.0,1198.9435076216962,0.0,1.0,22.218583200075976,-7.313151442377897,,,
0.36,0.36,1.0,-2.7891286866570524,1.4390712169634006,-4.944209648700262,2.5072080065231015,-0.5035517543512541,-2.070818213298328,5.856225221806842,3.290584207980682,1.0,0.0,7.661472036511377,250.70102814930559,1199.3455503278221,47.37474474929302,-3.014787082604099,-3.4036596661639917,1.0,1198.6603158245377,0.0,1.0,46.60977966024503,1194.7660712846327,1.0,1.0,3.402677061965645,29.329650409211652,-15.660799743251197,-34.6124956914199,1.0,1198.9435076216962,0.0,1.0,22.218583200075976,-7.313151442377897,,,
0.4,0.4,1.0,-2.7646530314394893,-0.92713492510811,2.4115326862559656,2.173209303660132,-0.7975086169666687,-1.966977737441477,3.7839629293220742,3.037739306003963,1.0,0.0,19.87080477519362,247.34829611146623,1199.427039871286,46.26397261920518,-1.8349294961412799,-6.44751515539797,1.0,1199.0354569448382,0.0,1.0,47.12916016040019,1184.9183806807002,1.0,1.0,-6.844178880127914,30.233641400580627,-17.15261821352469,-33.15518488981741,1.0,1198.8992942820878,0.0,1.0,31.065157778123133,-9.195437567287913,,,
0.44,0.44,1.0,-3.671659428392231,-2.97207750380139,10.287924048668772,1.9017839778969357,-0.7871800407315331,-1.3416332258076942,11.320587832700259,2.456911562857473,1.0,0.0,19.87080477519362,247.34829611146623,1199.427039871286,46.26397261920518,-1.8349294961412799,-6.44751515539797,1.0,1197.2660064533395,0.0,1.0,46.48159144355416,1194.140433590713,1.0,1.0,-6.844178880127914,30.233641400580627,-17.15261821352469,-33.15518488981741,1.0,1198.8992942820878,0.0,1.0,31.065157778123133,-9.195437567287913,,,
0.48,0.48,1.0,-4.048586698536157,-4.181041292307023,14.375452691013367,1.7440725052395196,-0.4008100649018495,-0.5691258959249407,15.508894242179348,1.877855664600303,1.0,0.0,19.87080477519362,247.34829611146623,1199.427039871286,46.26397261920518,-1.8349294961412799,-6.44751515539797,1.0,1197.0526543792669,0.0,1.0,46.5310369233461,1191.2440741184237,1.0,1.0,-12.975031233300406,30.083761252057702,-19.552179653076283,-31.96734786222699,1.0,1197.9835728128726,0.0,1.0,37.72953005544147,-10.103894907640804,,,
0.52,0.52,1.0,-3.946589799764188,-4.48170970279952,13.916303412577328,1.7211082824438866,0.14004051280031543,0.1964378764422647,15.143473629873744,1.7379335155360423,1.0,0.0,19.87080477519362,247.34829611146623,1199.427039871286,46.26397261920518,-1.8349294961412799,-6.44751515539797,1.0,1196.8171801591961,0.0,1.0,46.72276413916527,1164.6305785138325,1.0,1.0,-12.975031233300406,30.083761252057702,-19.552179653076283,-31.96734786222699,1.0,1197.9835728128726,0.0,1.0,37.72953005544147,-10.103894907640804,,,
0.56,0.56,1.0,-3.325243957635148,-3.4997745239640334,10.642398407497472,1.8225361822481696,0.6905685170462402,0.9678196595548911,11.686159033672332,2.176050988777635,1.0,0.0,19.87080477519362,247.34829611146623,1199.427039871286,46.26397261920518,-1.8349294961412799,-6.44751515539797,1.0,1198.0999417229882,0.0,1.0,46.44342584171682,1159.6979599482327,1.0,1.0,-7.752452192061614,29.947344357361672,-25.176197330616546,-27.783635912186565,1.0,1197.3518822094718,0.0,1.0,47.45280700777094,-8.93504775245959,,,
0.6,0.6,1.0,-2.3218007117498907,-1.644716865576654,4.747593306561729,2.054036523909447,1.2650457532363297,1.7332209052372978,5.534933993960933,2.9704311986118905,1.0,0.0,26.32689608266282,249.95873170850496,1196.8244211053284,45.693735235818274,-3.4698389406328993,-7.228009725448218,1.0,1197.4407896287871,0.0,1.0,46.93147604310146,1144.216095978047,1.0,1.0,-7.752452192061614,29.947344357361672,-25.176197330616546,-27.783635912186565,1.0,1197.3518822094718,0.0,1.0,47.45280700777094,-8.93504775245959,,,
0.64,0.64,1.0,-3.4664307743450613,1.2792219395231512,-4.86640084394573,2.386773864021543,1.9351800066293114,2.186340085198006,6.110188888883844,3.7711661464562622,1.0,0.0,26.32689608266282,249.95873170850496,1196.8244211053284,45.693735235818274,-3.4698389406328993,-7.228009725448218,1.0,1197.3089172526197,0.0,1.0,46.25150972012354,1158.2038485719336,1.0,1.0,3.563480669403967,28.23602858172921,-33.87793571958238,-18.785415589467462,1.0,1196.526659772178,0.0,1.0,59.13556227107836,-6.1355984196807904,,,
0.68,0.68,1.0,-7.006872866654228,4.274437057380328,-20.357377698895963,2.761850491420753,2.5749470668605525,1.8081384158049698,21.94971312574422,4.18658990884043,1.0,0.0,26.32689608266282,249.95873170850496,1196.8244211053284,45.693735235818274,-3.4698389406328993,-7.228009725448218,1.0,1195.8367892229905,0.0,1.0,45.99549473727468,1152.3109581954873,1.0,1.0,3.563480669403967,28.23602858172921,-33.87793571958238,-18.785415589467462,1.0,1196.526659772178,0.0,1.0,59.13556227107836,-6.1355984196807904,,,
0.72,0.72,1.0,-8.690595163003033,5.492026888610713,-28.399784489911806,2.973730470614497,2.5403112947506727,1.038655963674505,30.203254174109617,4.046611001440041,1.0,0.0,26.32689608266282,249.95873170850496,1196.8244211053284,45.693735235818274,-3.4698389406328993,-7.228009725448218,1.0,1196.7592412947492,0.0,1.0,45.99488906990454,1149.0446478006563,1.0,1.0,16.022720192528606,26.54605092327046,-39.74771369528259,-4.720687830167592,1.0,1196.0841603585964,0.0,1.0,72.93125569222224,-5.597299163728853,,,
0.76,0.76,1.0,-8.794058119624568,4.413305905599521,-26.86410002855646,2.9616482739922065,1.9571755795056018,0.2732904851952781,28.609309631167644,3.56041913784773,1.0,0.0,26.32689608266282,249.95873170850496,1196.8244211053284,45.693735235818274,-3.4698389406328993,-7.228009725448218,1.0,1196.1016074598267,0.0,1.0,45.6082022336489,1087.0774472792575,1.0,1.0,16.022720192528606,26.54605092327046,-39.74771369528259,-4.720687830167592,1.0,1196.0841603585964,0.0,1.0,72.93125569222224,-5.597299163728853,,,
0.8,0.8,1.0,-8.95754086899415,2.8719446846909364,-24.913772119690137,2.8042386306754876,1.1843588819492479,0.02952140495398789,26.630464620871237,3.0442292575256653,1.0,0.0,37.154920707112645,250.9124951981195,1194.3713832831781,43.27830238181424,-0.8594002933821921,-9.449925929519363,1.0,1194.9726535923444,0.0,1.0,44.238773078501865,1056.676089002833,1.0,1.0,23.800496879375558,25.893515804779945,-39.677908053923076,7.8618835106243035,1.0,1194.887245795481,0.0,0.0,72.93125569222224,-5.597299163728853,,,
0.84,0.84,1.0,-8.747497432580383,1.8160629184014498,-22.41839373139609,2.6310481342433216,0.4302690837211495,0.34172952202046314,24.132989316545366,2.6878104165531904,1.0,0.0,37.154920707112645,250.9124951981195,1194.3713832831781,43.27830238181424,-0.8594002933821921,-9.449925929519363,1.0,1194.0839800236915,0.0,1.0,43.706346714657435,1060.785008705296,1.0,1.0,23.800496879375558,25.893515804779945,-39.677908053923076,7.8618835106243035,1.0,1194.887245795481,0.0,0.0,72.93125569222224,-5.597299163728853,,,
0.88,0.88,1.0,-8.487600437645808,1.6241677416491271,-20.28905841857897,2.519865060030456,0.08689921196026051,0.8333214618101775,22.052736192015928,2.655502975429525,1.0,0.0,37.154920707112645,250.9124951981195,1194.3713832831781,43.27830238181424,-0.8594002933821921,-9.449925929519363,1.0,1195.0357224765803,0.0,1.0,43.524493347274,1009.5904813251761,1.0,1.0,25.355812831327636,23.794473945426827,-38.324387795773454,16.347820672977782,1.0,1194.7695415256185,0.0,0.0,72.93125569222224,-5.597299163728853,,,
0.92,0.92,1.0,-8.28298803966583,2.1083224730806127,-18.330183295806155,2.4884362428507294,0.1077132318817099,1.1736129242041609,20.22494831077684,2.753413221969143,1.0,0.0,37.154920707112645,250.9124951981195,1194.3713832831781,43.27830238181424,-0.8594002933821921,-9.449925929519363,1.0,1194.991578687242,0.0,1.0,42.347207064839786,985.9911364755203,1.0,1.0,25.355812831327636,23.794473945426827,-38.324387795773454,16.347820672977782,1.0,1194.7695415256185,0.0,0.0,72.93125569222224,-5.597299163728853,,,
0.96,0.96,1.0,-8.231508463173009,2.4725525114264655,-17.241827064422864,2.4966262540862734,0.42211556661546634,1.274057506566112,19.265301659214032,2.834527603359934,1.0,0.0,37.154920707112645,250.9124951981195,1194.3713832831781,43.27830238181424,-0.8594002933821921,-9.449925929519363,1.0,1193.3651288792312,0.0,1.0,41.85546211121912,964.2362295498872,1.0,1.0,23.00693060499205,19.71826811206834,-36.441489210751016,24.23141087681078,1.0,1194.2237217567708,0.0,0.0,72.93125569222224,-5.597299163728853,,,
1.0,1.0,1.0,-8.440309057251277,2.69212815189309,-16.30475344585692,2.5075039032285935,0.7855282931612666,1.187536722921176,18.556167597279252,2.8835523217638777,1.0,0.0,44.77977484216622,249.18293923393063,1192.6033213651056,40.36503972697053,1.997712643357891,-10.316658695189076,1.0,1193.4154677674246,0.0,1.0,42.22868105312717,956.9936937390155,1.0,1.0,23.00693060499205,19.71826811206834,-36.441489210751016,24.23141087681078,1.0,1194.2237217567708,0.0,0.0,72.93125569222224,-5.597299163728853,,,
1.04,1.04,1.0,-8.859980396229481,2.5691300578544114,-15.500980448782476,2.4918658824960596,1.1213322658763967,1.0690171053916222,18.03829472952691,2.9342084449580677,1.0,0.0,44.77977484216622,249.18293923393063,1192.6033213651056,40.36503972697053,1.997712643357891,-10.316658695189076,1.0,1192.8002459760016,0.0,1.0,40.99788270504973,923.848778887058,1.0,1.0,27.5185023736481,14.389966868697783,-32.32472804265133,32.473828696481085,1.0,1193.240865265475,0.0,0.0,72.93125569222224,-5.597299163728853,,,
1.08,1.08,1.0,-9.108646054989523,2.0929245894270023,-15.673241737958804,2.4363662387827776,1.415699012104125,1.0236945981207108,18.2482402677244,2.998005132179506,1.0,0.0,44.77977484216622,249.18293923393063,1192.6033213651056,40.36503972697053,1.997712643357891,-10.316658695189076,1.0,1192.1998593514652,0.0,1.0,41.0205298487015,905.4456635246538,1.0,1.0,27.5185023736481,14.389966868697783,-32.32472804265133,32.473828696481085,1.0,1193.240865265475,0.0,0.0,72.93125569222224,-5.597299163728853,,,
1.12,1.12,1.0,-8.26409226396911,1.3511890050443138,-15.960019882781058,2.357537484146893,1.6728698510168416,1.0963831487624573,18.023406096892824,3.0916876518317715,1.0,0.0,44.77977484216622,249.18293923393063,1192.6033213651056,40.36503972697053,1.997712643357891,-10.316658695189076,1.0,1192.5623241874816,0.0,1.0,39.54013895258623,856.7670210142759,1.0,1.0,26.98186073900575,7.416318111054976,-26.324638311209878,39.44649053532583,1.0,1192.5903659324704,0.0,0.0,72.93125569222224,-5.597299163728853,,,
1.16,1.16,1.0,-7.2496035759046,0.7057234954520741,-16.271630808989936,2.274448691072901,1.9040703222066726,1.2758360346510118,17.8275283436564,3.2289871829329817,1.0,0.0,44.77977484216622,249.18293923393063,1192.6033213651056,40.36503972697053,1.997712643357891,-10.316658695189076,1.0,1190.0847109184144,0.0,1.0,39.41767387484956,835.9088393442661,1.0,1.0,26.98186073900575,7.416318111054976,-26.324638311209878,39.44649053532583,1.0,1192.5903659324704,0.0,0.0,72.93125569222224,-5.597299163728853,,,
1.2,1.2,1.0,-6.219038375458762,0.013855111363662416,-16.546558827274154,2.1917130737819424,2.114162266018037,1.5298918041348073,17.676686321366454,3.40791097553913,1.0,0.0,55.650401895976415,249.76701606023815,1193.190795192873,37.228439759965,3.10151727620025,-10.597920374494775,1.0,1192.2197962034222,0.0,1.0,38.74719173751869,817.1095573231748,1.0,1.0,30.211589821627452,-1.875716473200567,-19.161433494520775,44.01149573401927,1.0,1190.911044447896,0.0,0.0,72.93125569222224,-5.597299163728853,,,
1.24,1.24,1.0,-5.1384794060949375,-0.660558222171218,-16.86447954651633,2.1080563757811226,2.3123358147666644,1.8294938771508142,17.642306486018413,3.624616731498156,1.0,0.0,55.650401895976415,249.76701606023815,1193.190795192873,37.228439759965,3.10151727620025,-10.597920374494775,1.0,1191.6508693365654,0.0,1.0,39.077135322516526,798.3717949931831,1.0,1.0,30.211589821627452,-1.875716473200567,-19.161433494520775,44.01149573401927,1.0,1190.911044447896,0.0,0.0,72.93125569222224,-5.597299163728853,,,
1.28,1.28,1.0,-3.8269962494429324,-1.151447987721607,-16.96003066349329,2.03241252009178,2.499480848489724,2.1605103017593255,17.424533648517283,3.8789057642331173,1.0,0.0,55.650401895976415,249.76701606023815,1193.190795192873,37.228439759965,3.10151727620025,-10.597920374494775,1.0,1189.5791809105494,0.0,1.0,37.470183085427934,776.5038206672542,1.0,1.0,29.841211370871537,-12.806654236083032,-10.468469124503548,45.03328611695458,1.0,1190.501093621181,0.0,0.0,72.93125569222224,-5.597299163728853,,,
1.32,1.32,1.0,-2.545472777841862,-1.186971168274693,-17.00649339618693,1.9418839691360965,2.6758040808354395,2.460695096022632,17.236854407101053,4.12139068570224,1.0,0.0,55.650401895976415,249.76701606023815,1193.190795192873,37.228439759965,3.10151727620025,-10.597920374494775,1.0,1191.139435283515,0.0,1.0,37.06664591662907,761.4256709333005,1.0,1.0,29.841211370871537,-12.806654236083032,-10.468469124503548,45.03328611695458,1.0,1190.501093621181,0.0,0.0,72.93125569222224,-5.597299163728853,,,
1.36,1.36,1.0,-1.205403233622022,-1.6965696766617462,-16.862721988583605,1.840816768518557,2.841111087567311,2.3684089667707915,16.99066621671015,4.131571083865954,1.0,0.0,55.650401895976415,249.76701606023815,1193.190795192873,37.228439759965,3.10151727620025,-10.597920374494775,1.0,1189.7821724388232,0.0,1.0,36.48418936496034,730.6420604353367,1.0,1.0,19.61098674691325,-23.54470343498879,-0.3657208162981223,41.82229874750359,1.0,1189.4281184066215,0.0,0.0,72.93125569222224,-5.597299163728853,,,
1.4000000000000001,1.4000000000000001,1.0,0.07090831183821879,-2.4169650447721156,-16.475424337832102,1.6988723111948303,2.981204059398249,2.1182675762267666,16.65191746100035,4.032468511719674,1.0,0.0,59.559593765090725,250.95965929930296,1188.0488025576392,34.28043838457605,3.4866145241734623,-10.991955403316767,1.0,1188.918558245045,0.0,1.0,36.67889952843896,714.4960292367042,1.0,1.0,19.61098674691325,-23.54470343498879,-0.3657208162981223,41.82229874750359,1.0,1189.4281184066215,0.0,0.0,72.93125569222224,-5.597299163728853,,,
1.44,1.44,1.0,1.257007281012143,-2.613251506529474,-16.032335264949044,0.9709120712087074,3.0879889214827507,1.8676417771485923,16.292480621090974,3.73716893342671,1.0,0.0,59.559593765090725,250.95965929930296,1188.0488025576392,34.28043838457605,3.4866145241734623,-10.991955403316767,1.0,1187.6742159829337,0.0,1.0,35.24537461876256,687.9577079223328,1.0,1.0,-3.1195998852591544,-32.24473278836838,8.256079219013852,34.61729618094,1.0,1188.585469503506,0.0,0.0,72.93125569222224,-5.597299163728853,,,
1.48,1.48,1.0,2.4710952814100104,-2.2699501346741378,-15.491233360235114,0.2979385638610112,3.1415857253836545,1.538893534437768,15.850466760476653,3.510914634123745,1.0,0.0,59.559593765090725,250.95965929930296,1188.0488025576392,34.28043838457605,3.4866145241734623,-10.991955403316767,1.0,1187.8341090394563,0.0,1.0,34.83620376357635,656.4458832121627,1.0,1.0,-3.1195998852591544,-32.24473278836838,8.256079219013852,34.61729618094,1.0,1188.585469503506,0.0,0.0,72.93125569222224,-5.597299163728853,,,
1.52,1.52,1.0,3.670223620871893,-1.7141099367385932,-14.798395371131319,-0.31263239116116126,3.167552230966868,1.0492615506813088,15.342790484874412,3.351428941458326,1.0,0.0,59.559593765090725,250.95965929930296,1188.0488025576392,34.28043838457605,3.4866145241734623,-10.991955403316767,1.0,1187.5349081990014,0.0,1.0,34.18694542132841,635.801366719301,1.0,1.0,-64.61704363385614,-38.75450048974099,11.959893374936826,25.63312648182455,1.0,1187.7239173128073,0.0,0.0,72.93125569222224,-5.597299163728853,,,
1.56,1.56,1.0,4.70540899850681,-1.9716573079486295,-13.909945921157622,0.13586755414771004,3.151651046269118,0.4646344162953258,14.816035296689382,3.1886124647760825,1.0,0.0,59.559593765090725,250.95965929930296,1188.0488025576392,34.28043838457605,3.4866145241734623,-10.991955403316767,1.0,1186.9198521591834,0.0,1.0,34.334953366420294,620.5636574669234,1.0,1.0,-64.61704363385614,-38.75450048974099,11.959893374936826,25.63312648182455,1.0,1187.7239173128073,0.0,0.0,72.93125569222224,-5.597299163728853,,,
1.6,1.6,1.0,5.659205594722196,-2.5776320331819362,-13.041927329885871,0.6138943647562892,3.1569567182824207,0.05926527191430977,14.448621503100032,3.216637123556699,1.0,0.0,66.30901928569604,249.6743652625183,1187.693698867613,31.127790047399536,3.426457388371105,-11.740021201707844,1.0,1186.6292555270134,0.0,1.0,33.57544276221323,598.739514703641,1.0,1.0,-126.90178027022343,-43.62534622126414,13.299820220651897,14.885513129363787,1.0,1187.1550885791028,0.0,1.0,-45.320323021466706,74.00603651270228,,,
1.6400000000000001,1.6400000000000001,1.0,6.533389791675255,-3.3388682894540773,-12.569289104331078,0.9743378161884607,3.153953905540941,-0.11034695497441298,14.554045905264433,3.3028678249067096,1.0,0.0,66.30901928569604,249.6743652625183,1187.693698867613,31.127790047399536,3.426457388371105,-11.740021201707844,1.0,1186.2499296799049,0.0,1.0,32.97343225928314,599.5939479696236,1.0,1.0,-126.90178027022343,-43.62534622126414,13.299820220651897,14.885513129363787,1.0,1187.1550885791028,0.0,1.0,-45.320323021466706,74.00603651270228,,,
1.68,1.68,1.0,7.213124636306582,-3.6154468156178767,-11.988232613946385,0.5528721904985435,2.974919021482144,-0.058292783583879904,14.450548221487729,3.02641849254542,1.0,0.0,66.30901928569604,249.6743652625183,1187.693698867613,31.127790047399536,3.426457388371105,-11.740021201707844,1.0,1186.3372641425904,0.0,1.0,32.698560486319195,587.1492515176989,1.0,1.0,-146.07906902527867,-45.94091184380338,13.67462568426244,2.998630598135415,1.0,1185.72461850696,0.0,1.0,-22.764262041967857,61.632779653822446,,,
1.72,1.72,1.0,7.632504656662575,-3.629243346004059,-11.515351440557152,0.005742364181663058,2.6440415512618447,0.11041990254547482,14.283901896821902,2.6463524433498438,1.0,0.0,66.30901928569604,249.6743652625183,1187.693698867613,31.127790047399536,3.426457388371105,-11.740021201707844,1.0,1186.3421536377248,0.0,1.0,31.85020554624007,569.0364065452513,1.0,1.0,-146.07906902527867,-45.94091184380338,13.67462568426244,2.998630598135415,1.0,1185.72461850696,0.0,1.0,-22.764262041967857,61.632779653822446,,,
1.76,1.76,1.0,7.899545566201181,-3.531733139806239,-10.490389828353274,-0.5055186837089084,2.177750058754502,0.28810983831678955,13.598685152400295,2.2541410197498624,1.0,0.0,66.30901928569604,249.6743652625183,1187.693698867613,31.127790047399536,3.426457388371105,-11.740021201707844,1.0,1184.404869831631,0.0,1.0,31.419259319986214,554.2287695956171,1.0,1.0,-150.21443978340668,-45.43362184717183,14.434070778758903,-5.628098949462868,1.0,1184.9160551713526,0.0,1.0,-18.674638334810513,51.283650594725,,,
1.8,1.8,1.0,8.09330301972385,-3.4039085439189067,-9.508569249266765,-0.9997780135589723,1.7843537305192725,0.43983997428804955,12.94221914172901,2.092112213767627,1.0,0.0,73.08741117227288,252.82443659393272,1181.4943585041842,28.40666982957466,3.1884628542651003,-13.535762658068109,1.0,1183.9309758642062,0.0,1.0,30.999550857775027,532.8634767517033,1.0,1.0,-150.21443978340668,-45.43362184717183,14.434070778758903,-5.628098949462868,1.0,1184.9160551713526,0.0,1.0,-18.674638334810513,51.283650594725,,,
1.84,1.84,1.0,8.167901110543097,-3.3264302115461053,-8.725690128716671,-1.384269320859525,1.4826163421343972,0.5464809201099203,12.406345744266575,2.1007127758646718,1.0,0.0,73.08741117227288,252.82443659393272,1181.4943585041842,28.40666982957466,3.1884628542651003,-13.535762658068109,1.0,1183.8356643970767,0.0,1.0,31.37141195404542,530.1456581806525,1.0,1.0,-151.71762092341555,-43.820050083638556,16.906868335173808,-9.93445947764983,1.0,1184.108335939235,0.0,1.0,-23.453302376215962,43.140448532354995,,,
1.8800000000000001,1.8800000000000001,1.0,8.22382889311826,-3.3431754099358417,-8.06094265842136,-1.6789421482137468,1.2545157276856176,0.6288956458834348,11.991120882855096,2.1881878761820954,1.0,0.0,73.08741117227288,252.82443659393272,1181.4943585041842,28.40666982957466,3.1884628542651003,-13.535762658068109,1.0,1184.1566415833745,0.0,1.0,30.791038542002557,527.7190237246817,1.0,1.0,-151.71762092341555,-43.820050083638556,16.906868335173808,-9.93445947764983,1.0,1184.108335939235,0.0,1.0,-23.453302376215962,43.140448532354995,,,
1.92,1.92,1.0,8.165227971370612,-3.426702765374368,-7.663432972961524,-1.915081024768737,1.0684009544615376,0.6970032296811421,11.710740565726459,2.3010496372546037,1.0,0.0,73.08741117227288,252.82443659393272,1181.4943585041842,28.40666982957466,3.1884628542651003,-13.535762658068109,1.0,1183.1837150092206,0.0,1.0,30.828291038441957,511.8872505433003,1.0,1.0,-149.93480233823783,-41.78185366667144,20.75029392506025,-11.112065131135532,1.0,1182.7806745502785,0.0,1.0,-32.489407242877064,37.34341153058478,,,
1.96,1.96,1.0,8.076376164518027,-3.6733600606242622,-7.218920577858424,-1.9892567278339717,0.9008782938927378,0.7759748676146089,11.438279608193367,2.317511817620208,1.0,0.0,73.08741117227288,252.82443659393272,1181.4943585041842,28.40666982957466,3.1884628542651003,-13.535762658068109,1.0,1181.7708439653293,0.0,1.0,29.92860793718619,512.9379290552637,1.0,1.0,-149.93480233823783,-41.78185366667144,20.75029392506025,-11.112065131135532,1.0,1182.7806745502785,0.0,1.0,-32.489407242877064,37.34341153058478,,,
2.0,2.0,1.0,7.951397312022451,-4.0119954392739325,-7.07121025006335,-2.0254137593092243,0.7365587698285541,0.8966220546370327,11.37202009402875,2.3342559471214828,1.0,0.0,77.13864238398776,250.0445436916577,1180.4382256399476,25.972240224052722,3.218402555045412,-15.259142233494577,1.0,1181.6091476299139,0.0,1.0,30.403192872970703,500.0979100857796,1.0,1.0,-152.21493647915807,-39.43237958598082,25.21981953181512,-10.244845283914067,1.0,1181.6162682040488,0.0,1.0,-42.619934386554355,31.81797038574138,,,
2.04,2.04,1.0,7.892291390553166,-4.6283659719910055,-6.967246295249226,-2.068101386889976,0.5632591482732604,1.0808082568715673,11.500111125669523,2.400510508765066,1.0,0.0,77.13864238398776,250.0445436916577,1180.4382256399476,25.972240224052722,3.218402555045412,-15.259142233494577,1.0,1181.2344425425072,0.0,1.0,30.712405632933862,487.1534457301003,1.0,1.0,-152.21493647915807,-39.43237958598082,25.21981953181512,-10.244845283914067,1.0,1181.6162682040488,0.0,1.0,-42.619934386554355,31.81797038574138,,,
2.08,2.08,1.0,7.720841728949227,-5.427191341661859,-7.218801688190852,-2.11829902336468,0.35373941259436553,1.3546746611659073,11.88178861434255,2.5391860432066276,1.0,0.0,77.13864238398776,250.0445436916577,1180.4382256399476,25.972240224052722,3.218402555045412,-15.259142233494577,1.0,1180.6862181165245,0.0,1.0,29.207515211229364,477.8934276378263,1.0,1.0,-149.5578339254365,-36.53006066307315,30.397047143514897,-6.823862545165717,1.0,1180.0507719894106,0.0,1.0,-52.487532849497136,26.46194992043869,,,
2.12,2.12,1.0,7.482736593273527,-6.52501574888166,-7.5850634678440025,-2.1995702393232817,0.055262586602576075,1.75539477097292,12.494013176665458,2.8147067330636344,1.0,0.0,77.13864238398776,250.0445436916577,1180.4382256399476,25.972240224052722,3.218402555045412,-15.259142233494577,1.0,1180.3880204012003,0.0,1.0,29.520341220687808,486.54866392682544,1.0,1.0,-149.5578339254365,-36.53006066307315,30.397047143514897,-6.823862545165717,1.0,1180.0507719894106,0.0,1.0,-52.487532849497136,26.46194992043869,,,
2.16,2.16,1.0,7.045497925295494,-7.850143153737031,-8.116007782897311,-2.318820171338091,-0.37086489247971116,2.306179833556559,13.309146136456585,3.291342154833095,1.0,0.0,77.13864238398776,250.0445436916577,1180.4382256399476,25.972240224052722,3.218402555045412,-15.259142233494577,1.0,1179.3354781900123,0.0,1.0,29.284193289096997,472.3797246243589,1.0,1.0,-141.17165184536873,-30.95418865885705,36.62998894209311,-0.36444935171525006,1.0,1178.851571698056,0.0,1.0,-65.79615995933322,18.317008785875437,,,
2.2,2.2,1.0,6.609468037797565,-9.45835267814087,-8.894488929792834,-2.47505392157853,-0.930203185245038,3.0450592539281334,14.569057500365952,4.032809906317757,1.0,0.0,80.91338442334512,252.97066514846466,1178.2465710698439,23.649024348286023,3.851208076681943,-16.337210541740838,1.0,1178.8901655003679,0.0,1.0,28.664089015503446,464.57451241146225,1.0,1.0,-141.17165184536873,-30.95418865885705,36.62998894209311,-0.36444935171525006,1.0,1178.851571698056,0.0,1.0,-65.79615995933322,18.317008785875437,,,
2.24,2.24,1.0,5.8786370352124795,-9.758853013247572,-9.754557329914102,-2.651291902734186,-1.633631735064359,3.816336843726868,14.998165695461694,4.925700793196882,1.0,0.0,80.91338442334512,252.97066514846466,1178.2465710698439,23.649024348286023,3.851208076681943,-16.337210541740838,1.0,1177.9268086491045,0.0,1.0,29.147091436836142,443.4369023752766,1.0,1.0,-131.64660965310475,-19.577086663560245,42.67535271954079,10.332737629360123,1.0,1177.5135753759512,0.0,1.0,-78.8221090864007,4.744469154449839,,,
2.2800000000000002,2.2800000000000002,1.0,4.742111566967927,-9.979976817895626,-10.635756591023155,-2.70006338386743,-2.4016017378295382,4.43001897647029,15.336455837735052,5.716913618022785,1.0,0.0,80.91338442334512,252.97066514846466,1178.2465710698439,23.649024348286023,3.851208076681943,-16.337210541740838,1.0,1176.6506609339992,0.0,1.0,28.586715458661242,450.380804993693,1.0,1.0,-131.64660965310475,-19.577086663560245,42.67535271954079,10.332737629360123,1.0,1177.5135753759512,0.0,1.0,-78.8221090864007,4.744469154449839,,,
2.32,2.32,1.0,3.4236229494370427,-10.042222041116458,-11.414674797996154,-2.7118792521726216,-3.1704525520579154,4.8152201729670505,15.584037293557975,6.371216820777937,1.0,0.0,80.91338442334512,252.97066514846466,1178.2465710698439,23.649024348286023,3.851208076681943,-16.337210541740838,1.0,1176.496100106584,0.0,1.0,27.234104577848772,436.520396353062,1.0,1.0,-116.46175060651906,0.21150854433310687,42.84693412850581,21.779487567160103,1.0,1176.0745613779063,0.0,0.0,-78.8221090864007,4.744469154449839,,,
2.36,2.36,1.0,1.8696102645155677,-9.553869611860868,-11.700242620518747,-2.7269405150079162,-3.9415026648678633,5.015253954655199,15.220628912125278,6.937176663401093,1.0,0.0,80.91338442334512,252.97066514846466,1178.2465710698439,23.649024348286023,3.851208076681943,-16.337210541740838,1.0,1177.0520810835728,0.0,1.0,28.046745273428574,420.3056149790702,1.0,1.0,-116.46175060651906,0.21150854433310687,42.84693412850581,21.779487567160103,1.0,1176.0745613779063,0.0,0.0,-78.8221090864007,4.744469154449839,,,
2.4,2.4,1.0,0.1836382910157591,-9.010338132696301,-11.671616361462215,-2.7419661016619084,-4.7111837053387084,5.090607619587753,14.746068790582823,7.458412427904269,1.0,0.0,86.42311288452433,254.3764385666799,1174.8765313615402,21.2086784264479,4.648530157356064,-16.905104017795427,1.0,1175.3249093801933,0.0,1.0,26.987732438229987,409.41692783901146,1.0,1.0,-94.1112805256783,24.129625065052196,32.46513722374042,25.717968700685617,1.0,1175.125399996244,0.0,0.0,-78.8221090864007,4.744469154449839,,,
2.44,2.44,1.0,-1.4463868615826188,-7.3784113474294655,-11.251892910865413,-2.7476189243055353,-5.474593348692953,5.195878977614234,13.532851992200982,8.032293597520484,1.0,0.0,86.42311288452433,254.3764385666799,1174.8765313615402,21.2086784264479,4.648530157356064,-16.905104017795427,1.0,1173.9877997796118,0.0,1.0,26.868834136538215,394.76264929141405,1.0,1.0,-94.1112805256783,24.129625065052196,32.46513722374042,25.717968700685617,1.0,1175.125399996244,0.0,0.0,-78.8221090864007,4.744469154449839,,,
2.48,2.48,1.0,-2.8354604125552267,-3.943798699004315,-10.401671730829962,-2.6248784352766443,-6.24279864363198,5.1003010504509305,11.479902383094691,8.477947423176468,1.0,0.0,86.42311288452433,254.3764385666799,1174.8765313615402,21.2086784264479,4.648530157356064,-16.905104017795427,1.0,1172.6546557886193,0.0,1.0,27.09461183707649,392.3093195267729,1.0,1.0,-49.540284839750655,43.67500724923378,13.666103166877896,14.487511720220091,1.0,1174.0048119686169,0.0,1.0,-69.87470413497138,-59.230510964648936,,,
2.52,2.52,1.0,-2.3202233323943684,-1.0214163488355037,-11.910378752526345,-1.9571216640808162,-6.97588599818552,4.350538480525861,12.17718562306113,8.45106476949689,1.0,0.0,86.42311288452433,254.3764385666799,1174.8765313615402,21.2086784264479,4.648530157356064,-16.905104017795427,1.0,1174.2054300421842,0.0,1.0,27.189412829468548,393.8714928177836,1.0,1.0,-49.540284839750655,43.67500724923378,13.666103166877896,14.487511720220091,1.0,1174.0048119686169,0.0,1.0,-69.87470413497138,-59.230510964648936,,,
2.56,2.56,1.0,-0.33467019836779277,0.7483910957341244,-6.510830057680414,-1.1858716337093003,-7.535872259180337,3.5796324222685403,6.562240578784384,8.42670935281835,1.0,0.0,86.42311288452433,254.3764385666799,1174.8765313615402,21.2086784264479,4.648530157356064,-16.905104017795427,1.0,1172.4742801565992,0.0,1.0,27.252533003899757,380.9615690234433,1.0,1.0,14.393306546793266,46.518841153509264,-1.4199411903292027,-11.624394654297257,1.0,1172.3424798345752,0.0,1.0,-22.270602491616636,-48.554980433754864,,,
2.6,2.6,1.0,-2.123774616055947,2.018647941231036,9.325308024091878,-0.42102908012746426,-7.63467280164596,2.812913891891252,9.774800656516339,8.14726818250758,1.0,0.0,89.56765743160604,252.97543887531307,1172.1537123186965,19.436292781563836,3.3256546507555838,-18.266053221855124,1.0,1172.073457614198,0.0,1.0,27.280389091730715,399.16531027692275,1.0,1.0,14.393306546793266,46.518841153509264,-1.4199411903292027,-11.624394654297257,1.0,1172.3424798345752,0.0,1.0,-22.270602491616636,-48.554980433754864,,,
2.64,2.64,1.0,-4.536819934844885,3.951417422398091,10.628728504272209,0.35131858688549106,-7.164847158417832,2.0431980325757886,12.213365809012915,7.458761140652037,1.0,0.0,89.56765743160604,252.97543887531307,1172.1537123186965,19.436292781563836,3.3256546507555838,-18.266053221855124,1.0,1170.4630574079972,0.0,1.0,27.002021834725824,396.3154883143897,1.0,1.0,36.98326460272892,31.15965283970329,-9.3106255340513,-35.232145627972756,1.0,1170.976524919417,0.0,1.0,-9.302914318262944,-18.59704746191696,,,
2.68,2.68,1.0,-3.8741503339870667,5.066842680074741,11.354185910727923,0.6440108134101515,-6.48134080624429,1.276336883585655,13.02303625312974,6.637135256635783,1.0,0.0,89.56765743160604,252.97543887531307,1172.1537123186965,19.436292781563836,3.3256546507555838,-18.266053221855124,1.0,1169.5404746740721,0.0,1.0,26.24284740164322,394.7222700378428,1.0,1.0,36.98326460272892,31.15965283970329,-9.3106255340513,-35.232145627972756,1.0,1170.976524919417,0.0,1.0,-9.302914318262944,-18.59704746191696,,,
2.72,2.72,1.0,-2.5183239623699567,5.616954265612905,12.61653330306154,0.7336913875357955,-5.719555112185633,0.5112986484239728,14.038128201035018,5.789044829793011,1.0,0.0,89.56765743160604,252.97543887531307,1172.1537123186965,19.436292781563836,3.3256546507555838,-18.266053221855124,1.0,1169.2962616091108,0.0,1.0,26.79939243200943,385.8569622581463,1.0,1.0,45.44151236970396,10.599727674914687,-13.293544635167908,-44.9280929229795,1.0,1169.7452733808852,0.0,1.0,-4.883496693544701,7.797761192539305,,,
2.7600000000000002,2.7600000000000002,1.0,-1.1808870537414353,5.811957977716058,13.213515462667875,0.7843940607623581,-4.955464858296693,-0.20984891536561592,14.483450578180411,5.0215478262835305,1.0,0.0,89.56765743160604,252.97543887531307,1172.1537123186965,19.436292781563836,3.3256546507555838,-18.266053221855124,1.0,1169.7366998527152,0.0,1.0,26.603829575415205,381.42897289168354,1.0,1.0,45.44151236970396,10.599727674914687,-13.293544635167908,-44.9280929229795,1.0,1169.7452733808852,0.0,1.0,-4.883496693544701,7.797761192539305,,,
2.8000000000000003,2.8000000000000003,1.0,-0.1716285418681051,5.987184696843948,13.5965548379844,0.8746090428711449,-4.184721573449763,-0.829792223536084,14.857393459581768,4.354927181872138,1.0,0.0,96.17131886120255,253.9788949838729,1168.7663444460718,18.374826088092465,4.000758638697674,-17.996069796485756,1.0,1166.9376400336505,0.0,1.0,27.00559502919517,373.6516211871587,1.0,1.0,45.13147318452618,-5.23425377567173,-16.421269755884836,-44.897990527585115,1.0,1168.0379908067403,0.0,1.0,-0.4497365862798823,29.22051824720659,,,
2.84,2.84,1.0,0.5675311253697796,6.392263425768584,13.612094028106005,1.0526462731614408,-3.417293184882688,-1.3713940096574249,15.048994222627682,3.829709965202405,1.0,0.0,96.17131886120255,253.9788949838729,1168.7663444460718,18.374826088092465,4.000758638697674,-17.996069796485756,1.0,1166.0072685773564,0.0,1.0,25.99036463166575,365.268772237552,1.0,1.0,45.13147318452618,-5.23425377567173,-16.421269755884836,-44.897990527585115,1.0,1168.0379908067403,0.0,1.0,-0.4497365862798823,29.22051824720659,,,
2.88,2.88,1.0,1.1876861432484782,7.4080440856890375,13.24699360713893,1.356682537199395,-2.6479910361285617,-1.8950865268264412,15.224078138854793,3.527576643861633,1.0,0.0,96.17131886120255,253.9788949838729,1168.7663444460718,18.374826088092465,4.000758638697674,-17.996069796485756,1.0,1165.5865288596715,0.0,1.0,25.028813984676336,355.2952777362621,1.0,1.0,33.22480862114332,-13.246425742429878,-21.810952328724223,-40.64501062532907,1.0,1166.7420431315113,0.0,1.0,11.894908996244661,42.388880324715984,,,
2.92,2.92,1.0,1.3866007766265556,8.71460556166324,12.748161907779966,1.7870785840578793,-1.8787800018840346,-2.664476989358334,15.504278242991042,3.717916323412583,1.0,0.0,96.17131886120255,253.9788949838729,1168.7663444460718,18.374826088092465,4.000758638697674,-17.996069796485756,1.0,1166.3358098462318,0.0,1.0,24.480341104791464,344.61105251761893,1.0,1.0,33.22480862114332,-13.246425742429878,-21.810952328724223,-40.64501062532907,1.0,1166.7420431315113,0.0,1.0,11.894908996244661,42.388880324715984,,,
2.96,2.96,1.0,1.2282196549467082,9.383430173932927,12.028024715873519,2.143902711899008,-1.150117546654635,-3.432357522079871,15.304596169632722,4.207156684577967,1.0,0.0,96.17131886120255,253.9788949838729,1168.7663444460718,18.374826088092465,4.000758638697674,-17.996069796485756,1.0,1166.9334345207246,0.0,1.0,24.458309107525142,338.0457216201209,1.0,1.0,13.036374369636702,-11.434832364673438,-30.92196389158482,-34.92233054747359,1.0,1165.1786844204976,0.0,1.0,34.84581407353856,43.30338109788076,,,
3.0,3.0,1.0,0.7485817808266945,9.864754084854013,11.07265605831837,2.252948728755629,-0.5308003268162635,-4.201275252938344,14.848483425018332,4.796690600018101,1.0,0.0,99.08951640047671,256.8289472210825,1163.8499532174203,16.679994269588672,3.74262314047222,-17.295359440218093,1.0,1163.9235683284883,0.0,1.0,24.078844882998087,331.0067065011597,1.0,1.0,13.036374369636702,-11.434832364673438,-30.92196389158482,-34.92233054747359,1.0,1165.1786844204976,0.0,1.0,34.84581407353856,43.30338109788076,,,
3.04,3.04,1.0,-0.004971445960806117,10.176576799459163,10.145439732904984,2.2647144415826563,-0.10909499683867352,-4.972996502215236,14.369853424602931,5.465485104845977,1.0,0.0,99.08951640047671,256.8289472210825,1163.8499532174203,16.679994269588672,3.74262314047222,-17.295359440218093,1.0,1162.5326448317676,0.0,1.0,23.776918193489053,319.8678808556976,1.0,1.0,-5.830732611341069,0.6249554599392907,-38.726048100216836,-28.381769184759733,1.0,1163.7870559460896,0.0,1.0,56.970410437868104,28.739259911139207,,,
3.08,3.08,1.0,-0.9696791918019549,10.19559548943466,9.231682185947948,2.2389993652002462,0.14921681649974433,-5.736811208691145,13.788197891731276,6.160063851930252,1.0,0.0,99.08951640047671,256.8289472210825,1163.8499532174203,16.679994269588672,3.74262314047222,-17.295359440218093,1.0,1163.3811196196584,0.0,1.0,24.554240808317584,309.0034406252518,1.0,1.0,-5.830732611341069,0.6249554599392907,-38.726048100216836,-28.381769184759733,1.0,1163.7870559460896,0.0,1.0,56.970410437868104,28.739259911139207,,,
3.12,3.12,1.0,-1.8580221672882307,9.646028706831974,8.31301269367326,2.210174664259933,0.2549406414966952,-6.506383731752365,12.868733280021532,6.8762559610615925,1.0,0.0,99.08951640047671,256.8289472210825,1163.8499532174203,16.679994269588672,3.74262314047222,-17.295359440218093,1.0,1162.707286150634,0.0,1.0,23.734877239551025,304.69619851401205,1.0,1.0,-18.903150833495683,20.11128153542366,-37.95359417102333,-21.281920664730457,1.0,1162.3917187974569,0.0,1.0,70.69120441644264,3.025510892571113,,,
3.16,3.16,1.0,-2.7709036691012305,8.564201805706764,7.655931191043557,2.1748523713578956,0.22616390339559442,-7.2724827539208325,11.816799148428617,7.594085748427926,1.0,0.0,99.08951640047671,256.8289472210825,1163.8499532174203,16.679994269588672,3.74262314047222,-17.295359440218093,1.0,1161.418897614503,0.0,1.0,23.045423033678528,303.7100729337187,1.0,1.0,-18.903150833495683,20.11128153542366,-37.95359417102333,-21.281920664730457,1.0,1162.3917187974569,0.0,1.0,70.69120441644264,3.025510892571113,,,
3.2,3.2,1.0,-2.9556872273009462,5.203837362996582,7.489321389521243,2.125318285111862,0.07386211679092598,-7.964111373568844,9.586758845495677,8.243148876244824,1.0,0.0,104.39316643284694,253.7093545460184,1159.5490885680204,15.560515622939166,3.117400908453591,-17.194327267499066,1.0,1159.8165922156934,0.0,1.0,23.406285451057883,296.3806389297702,1.0,1.0,-27.139962434240616,39.40242086051664,-22.579353888247052,-15.54571823960107,1.0,1161.068390165305,0.0,1.0,79.5353251696618,-30.708660281897,,,
3.24,3.24,1.0,-3.0733244571193126,1.7813217379917223,7.445887106964219,1.8442713420361827,-0.17842578642150264,-7.848785933733067,8.249828189885262,8.064528081535963,1.0,0.0,104.39316643284694,253.7093545460184,1159.5490885680204,15.560515622939166,3.117400908453591,-17.194327267499066,1.0,1160.0482295048087,0.0,1.0,23.771203092586838,298.3293178342406,1.0,1.0,-27.139962434240616,39.40242086051664,-22.579353888247052,-15.54571823960107,1.0,1161.068390165305,0.0,1.0,79.5353251696618,-30.708660281897,,,
3.2800000000000002,3.2800000000000002,1.0,-3.1052744116779794,-1.2769231832958468,7.12567946059554,1.465733842622602,-0.4545915361820368,-7.078192839784278,7.877091453259482,7.242640612328558,1.0,0.0,104.39316643284694,253.7093545460184,1159.5490885680204,15.560515622939166,3.117400908453591,-17.194327267499066,1.0,1158.8506734763462,0.0,1.0,23.121753589101804,296.05993604823584,1.0,1.0,-39.98292792359034,45.54378616901811,1.322398420916073,-15.129038492166394,1.0,1159.7330747419799,0.0,1.0,76.70664228025419,-63.01583911816418,,,
3.3200000000000003,3.3200000000000003,1.0,-3.0447757844262795,-4.079217912310519,6.653209854403958,1.0688972017335927,-0.710719708351151,-6.311989455927886,8.3771044950079,6.441185808797745,1.0,0.0,104.39316643284694,253.7093545460184,1159.5490885680204,15.560515622939166,3.117400908453591,-17.194327267499066,1.0,1160.4413338582985,0.0,1.0,23.594884695265446,292.22540044442337,1.0,1.0,-39.98292792359034,45.54378616901811,1.322398420916073,-15.129038492166394,1.0,1159.7330747419799,0.0,1.0,76.70664228025419,-63.01583911816418,,,
3.36,3.36,1.0,-2.7922417202123513,-6.7000357620839575,6.667102514928513,0.46858543165187927,-0.9028064617493471,-5.542695339577095,9.855828173312707,5.635255401621332,1.0,0.0,104.39316643284694,253.7093545460184,1159.5490885680204,15.560515622939166,3.117400908453591,-17.194327267499066,1.0,1158.3693161675417,0.0,1.0,23.580900389273882,300.6331784328994,1.0,1.0,-124.43294677394103,39.14501159633996,20.67890574285958,-18.48907025827122,1.0,1158.131706565035,0.0,0.0,76.70664228025419,-63.01583911816418,,,
3.4,3.4,1.0,-2.1995834700753942,-7.511283717514835,6.994003867892911,-0.19650615514160083,-0.995652027484134,-4.773200384975812,10.496363209747145,4.879895443959332,1.0,0.0,103.93697652462745,258.14365054631605,1158.4148257259865,14.516401163628478,2.1564818778728214,-18.397530002327773,1.0,1157.4063984086051,0.0,1.0,23.592642870227046,299.86033642885326,1.0,1.0,-124.43294677394103,39.14501159633996,20.67890574285958,-18.48907025827122,1.0,1158.131706565035,0.0,0.0,76.70664228025419,-63.01583911816418,,,
3.44,3.44,1.0,-1.4404187559340442,-7.967896623475764,7.234091836046392,-0.6972000562397858,-0.9211465513821707,-4.008619197007602,10.857912667138013,4.171765424153412,1.0,0.0,103.93697652462745,258.14365054631605,1158.4148257259865,14.516401163628478,2.1564818778728214,-18.397530002327773,1.0,1156.5555556058391,0.0,1.0,22.75361545254103,302.27789198249457,1.0,1.0,-178.12399547413793,28.120008755556928,33.41891633480989,-19.964439185739558,1.0,1156.680473088531,0.0,1.0,-59.40684958554932,-66.08463491519751,,,
3.48,3.48,1.0,-0.9444676537018165,-8.353634439845388,7.277716176139644,-1.1181994991225257,-0.7258656846959303,-3.2379653483787174,11.119369597414444,3.501666847282629,1.0,0.0,103.93697652462745,258.14365054631605,1158.4148257259865,14.516401163628478,2.1564818778728214,-18.397530002327773,1.0,1155.7539739901517,0.0,1.0,23.41984847661531,292.32422259907867,1.0,1.0,-178.12399547413793,28.120008755556928,33.41891633480989,-19.964439185739558,1.0,1156.680473088531,0.0,1.0,-59.40684958554932,-66.08463491519751,,,
3.52,3.52,1.0,-0.47419678425499007,-8.66103066902015,7.174548096101619,-1.5133154554052755,-0.43657902913938473,-2.4696405500352356,11.256662703624942,2.9291379896875984,1.0,0.0,103.93697652462745,258.14365054631605,1158.4148257259865,14.516401163628478,2.1564818778728214,-18.397530002327773,1.0,1154.9147058242156,0.0,1.0,23.08473788839625,296.4480064424639,1.0,1.0,173.1972623214516,18.816651940448146,40.676953077062755,-17.258070073927627,1.0,1154.891085874889,0.0,1.0,-70.90374392277474,-52.39362196777272,,,
3.56,3.56,1.0,-0.23510132508506273,-8.894419927696973,7.013474778274954,-1.84238299238611,-0.07948089053507965,-1.7014542781464275,11.329378047746872,2.5091111898870935,1.0,0.0,103.93697652462745,258.14365054631605,1158.4148257259865,14.516401163628478,2.1564818778728214,-18.397530002327773,1.0,1154.3064483232454,0.0,1.0,23.497319641281226,287.9821757851052,1.0,1.0,173.1972623214516,18.816651940448146,40.676953077062755,-17.258070073927627,1.0,1154.891085874889,0.0,1.0,-70.90374392277474,-52.39362196777272,,,
3.6,3.6,1.0,-0.08968777734376811,-8.95965547777577,6.221694874656995,-2.003434018437063,0.3364565879696387,-0.935014627076548,10.908389307829793,2.2363370172373718,1.0,0.0,108.54908908529505,254.3067618895698,1156.190176886943,12.735984344326384,1.6832893448019033,-19.094983103964918,1.0,1153.1758070088304,0.0,1.0,22.90668762987488,287.8406534288966,1.0,1.0,168.43821674548076,14.486579154768844,44.539564625268646,-10.421012431537825,1.0,1153.8716113470105,0.0,0.0,-70.90374392277474,-52.39362196777272,,,
3.64,3.64,1.0,-0.14010283552372066,-9.078851846573839,5.464964079839042,-2.0673044154238047,0.6162904456561595,-0.16838179159871983,10.597688995742892,2.163773067394042,1.0,0.0,108.54908908529505,254.3067618895698,1156.190176886943,12.735984344326384,1.6832893448019033,-19.094983103964918,1.0,1151.8276518163536,0.0,1.0,22.105421236661915,282.2023477378999,1.0,1.0,168.43821674548076,14.486579154768844,44.539564625268646,-10.421012431537825,1.0,1153.8716113470105,0.0,0.0,-70.90374392277474,-52.39362196777272,,,
3.68,3.68,1.0,0.06999166125772094,-8.06553755332238,7.357556658032359,-2.0899966448888634,0.7627520163384993,0.6003335433067505,10.917482989812967,2.3044038225307624,1.0,0.0,108.54908908529505,254.3067618895698,1156.190176886943,12.735984344326384,1.6832893448019033,-19.094983103964918,1.0,1152.976872070243,0.0,1.0,22.622855361867554,284.38178704415384,1.0,1.0,166.28768570824803,15.556416041401237,45.35176195630639,-2.049133254622879,1.0,1152.1786479988734,0.0,0.0,-70.90374392277474,-52.39362196777272,,,
3.72,3.72,1.0,0.9360093279582585,-5.274113108708765,-0.7976246865719411,-2.0924679315576022,0.7778945102002068,1.370675487949824,5.41558747377489,2.619597909386679,1.0,0.0,108.54908908529505,254.3067618895698,1156.190176886943,12.735984344326384,1.6832893448019033,-19.094983103964918,1.0,1152.3716945389467,0.0,1.0,22.96717829347139,285.38582946288386,1.0,1.0,166.28768570824803,15.556416041401237,45.35176195630639,-2.049133254622879,1.0,1152.1786479988734,0.0,0.0,-70.90374392277474,-52.39362196777272,,,
3.7600000000000002,3.7600000000000002,1.0,0.5396683574723153,-6.288119866696336,-7.40737218353144,-2.087057371962126,0.445882858865291,2.136603620058163,9.731436484885124,3.019883280349919,1.0,0.0,108.54908908529505,254.3067618895698,1156.190176886943,12.735984344326384,1.6832893448019033,-19.094983103964918,1.0,1151.3920565451265,0.0,1.0,23.213080937525085,287.54328029188696,1.0,1.0,157.6753121578504,21.709797824933982,42.28327122594608,6.18002056911335,1.0,1150.5435556359284,0.0,0.0,-70.90374392277474,-52.39362196777272,,,
3.8000000000000003,3.8000000000000003,1.0,-0.03236427274100667,-7.107497531214913,-9.748143819940358,-2.0957997323605544,-0.14477223660397476,2.9058107655709717,12.064156685679176,3.585675908941304,1.0,0.0,110.09379273615832,255.5552991172739,1149.9524990008467,10.925932334200954,1.6118581802948713,-20.15412490044904,1.0,1148.9326603796806,0.0,1.0,23.071717182307125,291.7272614959317,1.0,1.0,157.6753121578504,21.709797824933982,42.28327122594608,6.18002056911335,1.0,1150.5435556359284,0.0,0.0,-70.90374392277474,-52.39362196777272,,,
3.84,3.84,1.0,-0.33434985234694076,-7.137352944819001,-9.828792679730066,-2.114937256294618,-0.8306763109775697,3.6672417399555717,12.151492189183854,4.314121545686292,1.0,0.0,110.09379273615832,255.5552991172739,1149.9524990008467,10.925932334200954,1.6118581802948713,-20.15412490044904,1.0,1150.436556554511,0.0,1.0,24.038485105655983,291.3820308112271,1.0,1.0,143.76098281706493,32.12717693552608,33.65900141589232,11.50372463517857,1.0,1148.3992971815564,0.0,0.0,-70.90374392277474,-52.39362196777272,,,
3.88,3.88,1.0,-0.3807596359405945,-6.674450024435215,-8.433203088827916,-2.1482582596587942,-1.5241817434731488,4.440262582579118,10.7616065420764,5.162758500993559,1.0,0.0,110.09379273615832,255.5552991172739,1149.9524990008467,10.925932334200954,1.6118581802948713,-20.15412490044904,1.0,1148.0960599076093,0.0,1.0,23.773481959558513,298.735112756592,1.0,1.0,143.76098281706493,32.12717693552608,33.65900141589232,11.50372463517857,1.0,1148.3992971815564,0.0,0.0,-70.90374392277474,-52.39362196777272,,,
3.92,3.92,1.0,0.058187798975325646,-3.8934776996467084,-6.027830543810969,-2.1826286666821084,-2.179666519378657,5.209943553616178,7.1761616120664575,6.054611949926234,1.0,0.0,110.09379273615832,255.5552991172739,1149.9524990008467,10.925932334200954,1.6118581802948713,-20.15412490044904,1.0,1146.9935511622175,0.0,1.0,24.213741455241788,300.2726747336115,1.0,1.0,46.908337097393236,43.7628999784764,17.00504755453035,10.383370964595375,1.0,1146.7487939120688,0.0,0.0,-70.90374392277474,-52.39362196777272,,,
3.96,3.96,1.0,0.4701515520218945,-1.1022120722183373,-1.7772026865554538,-1.7719693263906742,-2.7726133265116113,5.305463807572551,2.143446599081106,6.2430125873236415,1.0,0.0,110.09379273615832,255.5552991172739,1149.9524990008467,10.925932334200954,1.6118581802948713,-20.15412490044904,1.0,1147.090008744999,0.0,1.0,23.25517521492838,307.71626878629206,1.0,1.0,46.908337097393236,43.7628999784764,17.00504755453035,10.383370964595375,1.0,1146.7487939120688,0.0,0.0,-70.90374392277474,-52.39362196777272,,,
4.0,4.0,1.0,-0.37690219617917275,1.2687440791540892,4.118036789452526,-1.548138370772521,-3.1123706023284745,4.536437481875123,4.325505034462185,5.715142011206564,1.0,0.0,109.72924521430932,258.4240681071106,1145.607766439677,9.784684738484419,2.861962574365938,-21.478990451631578,1.0,1146.8129523854163,0.0,1.0,24.471100659202538,323.48995990429813,1.0,1.0,2.4454087008697885,47.90399297005004,-2.0959696804324337,0.28774800649216536,1.0,1145.4883119760134,0.0,1.0,71.92220779142768,-57.635002720919346,,,
4.04,4.04,1.0,-1.8140545838535247,3.6358093522480845,8.84351067298242,-0.9824987095814017,-3.165616169027602,3.7692544144032536,9.732295962528504,5.019333450213935,1.0,0.0,109.72924521430932,258.4240681071106,1145.607766439677,9.784684738484419,2.861962574365938,-21.478990451631578,1.0,1146.182423908548,0.0,1.0,24.69844307535422,324.9546698276974,1.0,1.0,2.4454087008697885,47.90399297005004,-2.0959696804324337,0.28774800649216536,1.0,1145.4883119760134,0.0,1.0,71.92220779142768,-57.635002720919346,,,
4.08,4.08,1.0,-3.004341115885155,5.613819841109476,10.364126996839358,-0.3206901339158333,-2.945281296425073,3.003457340358453,12.163723408383095,4.218800786054657,1.0,0.0,109.72924521430932,258.4240681071106,1145.607766439677,9.784684738484419,2.861962574365938,-21.478990451631578,1.0,1144.3210880699187,0.0,1.0,24.080450461681732,329.9055268368279,1.0,1.0,-8.334981886358726,44.31675934801057,-14.436557696443538,-11.414364441093596,1.0,1143.3970072097375,0.0,1.0,61.5064968805843,-37.65674192009752,,,
4.12,4.12,1.0,-3.072296010498574,7.145173217812501,9.67203355147399,0.34691291082473563,-2.526909005249211,2.2333165000769295,12.41131484209103,3.390179977231639,1.0,0.0,109.72924521430932,258.4240681071106,1145.607766439677,9.784684738484419,2.861962574365938,-21.478990451631578,1.0,1143.0368343961907,0.0,1.0,25.276629434638725,330.50171634179657,1.0,1.0,-8.334981886358726,44.31675934801057,-14.436557696443538,-11.414364441093596,1.0,1143.3970072097375,0.0,1.0,61.5064968805843,-37.65674192009752,,,
4.16,4.16,1.0,-3.1431453929683557,8.417890706246306,9.225668705674074,0.9760445148148418,-1.9906007453853385,1.4685367950081367,12.878400908905581,2.6592770710705524,1.0,0.0,109.72924521430932,258.4240681071106,1145.607766439677,9.784684738484419,2.861962574365938,-21.478990451631578,1.0,1142.6909351157929,0.0,1.0,24.34890483569537,323.8510035015635,1.0,1.0,-13.277330399778156,39.041217322519024,-21.520890387942227,-17.950395536089378,1.0,1142.0719854438767,0.0,1.0,61.24515978595268,-25.207799913814576,,,
4.2,4.2,1.0,-3.021924777482381,9.017157724713075,9.12115629114756,1.563235263159491,-1.3818106358533733,0.6992555246854888,13.177126199617856,2.200468906880078,1.0,0.0,112.56940679878845,259.9464567930839,1140.2362428826834,10.689324112154784,1.8202002178019887,-22.057018826376076,1.0,1140.7655214702881,0.0,1.0,24.279897586195922,326.04777052811505,1.0,1.0,-13.277330399778156,39.041217322519024,-21.520890387942227,-17.950395536089378,1.0,1142.0719854438767,0.0,1.0,61.24515978595268,-25.207799913814576,,,
4.24,4.24,1.0,-2.821263405805459,8.952817775394712,8.995341311560384,1.9625984422304688,-0.7218524768897271,-0.06799601349657781,13.001101439332954,2.0922445128829286,1.0,0.0,112.56940679878845,259.9464567930839,1140.2362428826834,10.689324112154784,1.8202002178019887,-22.057018826376076,1.0,1139.643963915778,0.0,1.0,23.804154191575414,317.53318816534517,1.0,1.0,-17.315845350376673,36.834939852131875,-25.01646848769328,-17.746503403435067,1.0,1140.192542642148,0.0,1.0,68.4605028880304,-21.585540336795056,,,
4.28,4.28,1.0,-2.6281236239259718,8.719022764664107,9.148628598549823,2.137450050148121,-0.22351457190455207,-0.8333993249052422,12.908361514443746,2.305039243805709,1.0,0.0,112.56940679878845,259.9464567930839,1140.2362428826834,10.689324112154784,1.8202002178019887,-22.057018826376076,1.0,1138.1005313893268,0.0,1.0,24.20460648148274,321.87464279826287,1.0,1.0,-17.315845350376673,36.834939852131875,-25.01646848769328,-17.746503403435067,1.0,1140.192542642148,0.0,1.0,68.4605028880304,-21.585540336795056,,,
4.32,4.32,1.0,-2.460418735827881,8.300565410127065,9.66843847099907,2.197461307253765,0.11730235986040083,-1.6027676027098088,12.978125787297085,2.722399682045675,1.0,0.0,112.56940679878845,259.9464567930839,1140.2362428826834,10.689324112154784,1.8202002178019887,-22.057018826376076,1.0,1138.2714544740245,0.0,1.0,24.353904414569076,321.43607800415134,1.0,1.0,-20.22443156876155,39.1583201734599,-24.0484689488697,-13.585486003320774,1.0,1138.3942000266723,0.0,1.0,77.43585409892958,-28.13421665430566,,,
4.36,4.36,1.0,-1.7295306866971178,7.3833102121842415,9.00653226085079,2.213644669364353,0.3015314348741119,-2.3723142147583154,11.77379163444458,3.258683578067502,1.0,0.0,112.56940679878845,259.9464567930839,1140.2362428826834,10.689324112154784,1.8202002178019887,-22.057018826376076,1.0,1137.7403514584266,0.0,1.0,24.196812870561402,321.9784787199614,1.0,1.0,-20.22443156876155,39.1583201734599,-24.0484689488697,-13.585486003320774,1.0,1138.3942000266723,0.0,1.0,77.43585409892958,-28.13421665430566,,,
4.4,4.4,1.0,-0.7707301783078986,5.468848988690385,6.628074652283428,2.21466568277175,0.316202468644176,-3.1400813658404676,8.627497195890385,3.8554946597968556,1.0,0.0,114.30831464492097,257.4523025734337,1136.0803860279975,10.658321524319456,0.5395508312063675,-21.68574205486682,1.0,1136.30651054653,0.0,1.0,22.885288777532743,323.4978528784244,1.0,1.0,-18.395650579598307,43.993048260072314,-16.802409220529764,-8.809757874744763,1.0,1136.7719203650881,0.0,0.0,77.43585409892958,-28.13421665430566,,,
4.44,4.44,1.0,-0.42254599524346403,3.580861273408267,3.9904806523482774,2.089266641786175,0.13983870626626743,-3.9065659565724205,5.378201224782995,4.432363651292761,1.0,0.0,114.30831464492097,257.4523025734337,1136.0803860279975,10.658321524319456,0.5395508312063675,-21.68574205486682,1.0,1136.0756783814086,0.0,1.0,24.39409526868445,326.73199722034065,1.0,1.0,-18.395650579598307,43.993048260072314,-16.802409220529764,-8.809757874744763,1.0,1136.7719203650881,0.0,0.0,77.43585409892958,-28.13421665430566,,,
4.48,4.48,1.0,-0.3092633066453002,1.7457056058418217,2.7415453317523544,1.8694434057791771,-0.19676219629030758,-4.19310655631291,3.264843435933471,4.595179713775571,1.0,0.0,114.30831464492097,257.4523025734337,1136.0803860279975,10.658321524319456,0.5395508312063675,-21.68574205486682,1.0,1135.4081065919943,0.0,1.0,24.498875791678863,334.76788829118664,1.0,1.0,-17.572378721743494,47.34492843131698,-3.225570590389012,-7.404018482885717,1.0,1135.0301930175463,0.0,0.0,77.43585409892958,-28.13421665430566,,,
4.5200000000000005,4.5200000000000005,1.0,-0.5183888980045342,0.056521850126957346,3.202766502823809,1.5933660728963681,-0.6050698691003786,-3.82050691336249,3.244939913269024,4.183443326232701,1.0,0.0,114.30831464492097,257.4523025734337,1136.0803860279975,10.658321524319456,0.5395508312063675,-21.68574205486682,1.0,1135.041698223713,0.0,1.0,25.492619120400683,337.84611818730576,1.0,1.0,-17.572378721743494,47.34492843131698,-3.225570590389012,-7.404018482885717,1.0,1135.0301930175463,0.0,0.0,77.43585409892958,-28.13421665430566,,,
4.5600000000000005,4.5600000000000005,1.0,-0.7617877775120979,-0.9175913596231308,4.994714087196519,1.332400498060857,-0.9604483742237149,-3.052999316264959,5.135120576389731,3.466779051496663,1.0,0.0,114.30831464492097,257.4523025734337,1136.0803860279975,10.658321524319456,0.5395508312063675,-21.68574205486682,1.0,1134.053792872152,0.0,1.0,24.825240343534006,347.992030433234,1.0,1.0,-21.944380003692345,46.00056128899682,8.752110735250401,-10.656581235399239,1.0,1133.276284699741,0.0,0.0,77.43585409892958,-28.13421665430566,,,
