time_s,x_m,y_m,altitude_m,vx_mps,vy_mps,vz_mps,speed_mps,mass_kg,roll_deg,pitch_deg,yaw_deg,p_dps,q_dps,r_dps,alpha_deg,beta_deg,qbar_pa,mach,airspeed_mps,load_factor_g,density_kgpm3,pressure_pa,temperature_k,wind_x_mps,wind_y_mps,wind_z_mps,thrust_n,mass_flow_kgps,propulsion_throttle_actual,propulsion_health,energy_j_per_kg,target_distance_m,guidance_mode,pitch_command_deg,heading_command_deg,roll_command_deg,elevator_command_deg,aileron_command_deg,rudder_command_deg,elevator_deg,aileron_deg,rudder_deg,throttle,elevator_saturated,aileron_saturated,rudder_saturated,elevator_failed,aileron_failed,rudder_failed,elevator_raw_rad,aileron_raw_rad,rudder_raw_rad,elevator_effective_rad,aileron_effective_rad,rudder_effective_rad,imu_ax_mps2,imu_ay_mps2,imu_az_mps2,gyro_p_rps,gyro_q_rps,gyro_r_rps,gps_valid,gps_x_m,gps_y_m,gps_z_m,gps_vx_mps,gps_vy_mps,gps_vz_mps,baro_alt_m,pitot_airspeed_mps,pitot_qbar_pa,mag_heading_deg
0.0,0.0,-180.0,450.0,42.0,2.0,0.0,42.04759208325728,11.0,0.0,3.0000000000000004,3.999999999999999,0.0,0.0,0.0,3.4675827967385846,-14.004401711413385,1203.383344165056,0.13379477880266702,45.29788499340546,1.445343206607887,1.1729463340241415,96034.57625081437,285.22499999999997,-2.6076439091004775,9.86942436359809,0.3586780454497614,11.991235629318206,0.0005955894873527215,0.17333333333333334,nominal,5296.992499999999,939.4147114027968,waypoint,4.273326075035703,16.11341823308929,0.0,-8.67236923185308,-0.0,14.32394487827058,-4.8,0.0,4.8,0.78,0.0,0.0,0.0,0.0,0.0,0.0,-0.08377580409572781,0.0,0.08377580409572781,-0.08377580409572781,0.0,0.08377580409572781,-3.5671053427412676,11.71765467703465,7.05472871951396,-0.0025899185012765833,0.00014861275303437778,0.001697870518871144,1.0,3.600756630726422,-178.47686827365297,451.3485857159196,42.18669712124764,2.0254531145758117,0.17937241014133767,449.3794866581097,45.818684704627636,1207.7762988351562,5.407943136095607
0.04,1.6724232938163421,-179.90173524558614,449.9954156471345,41.810582345408555,2.4566188603462247,-0.11460882163664035,41.88284741357965,10.999976176420505,1.8554356586470606,3.204854331040006,2.234213403357622,44.0,-5.8351358757344665,-44.0,3.4626773896465406,-12.132200240223126,1188.4965620041958,0.13296459449790934,45.016818132084325,1.5033803370311383,1.172946855544633,96034.62898314334,285.2250297982936,-2.54921784659964,10.103156119718633,0.3878945149648293,21.36712006260753,0.0010546927169570322,0.30814814814814817,nominal,5290.03399659057,937.7856838771257,waypoint,4.281043974254907,16.136072589936457,0.0,0.6275568861049993,2.9686970538352813,9.415662765342187,-0.45795449111600095,2.374957643068225,8.492530212273751,0.78,0.0,0.0,0.0,0.0,0.0,0.0,-0.007992813694269338,0.04145083046694481,0.1482226140292699,-0.007992813694269338,0.04145083046694481,0.1482226140292699,-2.6152098916843665,11.266836650317861,9.182765369193644,0.7670830416734983,-0.10266069153417531,-0.7654275321325845,1.0,3.600756630726422,-178.47686827365297,451.3485857159196,42.18669712124764,2.0254531145758117,0.17937241014133767,449.4188590781434,45.307461887761576,1188.3419175217075,5.407943136095607
0.08,3.339031763518387,-179.78620133805566,449.990123031578,41.66521174255112,2.888347688262135,-0.13231538891283184,41.76541546880687,10.999933988711827,4.968304909737101,2.755030767244289,-1.2676891831977941,73.28498277288153,6.022826859741932,-88.0,2.727606403209324,-8.543428855692738,1176.2932902169416,0.1322801628084675,44.78509796712536,1.1721496346007132,1.1729474576380055,96034.68986241825,285.2250642002947,-2.4967918537171325,10.312891846942001,0.4141114808677501,28.692425982596713,0.0014089836716503145,0.4130041152263375,nominal,5285.07060466865,936.1576497778433,waypoint,4.2888277218382855,16.15768890145514,0.0,-3.7220786408303073,5.629993282270532,14.32394487827058,-3.069253810887446,4.97898615443007,13.157661945071213,0.78,0.0,0.0,0.0,0.0,0.0,0.0,-0.05356858457936931,0.08689970180601558,0.22964452280585396,-0.05356858457936931,0.08689970180601558,0.22964452280585396,-1.7557337901050292,9.778259611007769,5.802891115489242,1.28096154307702,0.1054916204731558,-1.5405925289442894,1.0,3.600756630726422,-178.47686827365297,451.3485857159196,42.18669712124764,2.0254531145758117,0.17937241014133767,450.1738670391168,45.475209732279296,1184.0327128549068,-1.731889510737601
0.12,5.002663506765753,-179.65585260549736,449.97962615456913,41.590793581184144,3.2587183139575355,-0.2624219252212373,41.71908701097409,10.999877629364962,8.199653379581903,2.097368009726337,-6.505972126473185,75.25332224980524,1.3210643864517713,-131.99999999999997,2.562722768194998,-3.225193454493234,1168.5748840433923,0.13184537865002138,44.637901709772024,0.7824194471383671,1.1729486517741972,96034.81060475142,285.22513242999526,-2.4507781346001423,10.497009704672017,0.4371262130840022,34.39972471015319,0.0016836968535691161,0.4945587562871514,nominal,5283.033811343319,934.528890337653,waypoint,4.296961981805854,16.178455191481582,0.0,-5.397870308965005,6.909064270159676,14.32394487827058,-4.932147009349493,6.523048647013755,14.090688291630707,0.78,0.0,0.0,0.0,0.0,0.0,0.0,-0.0860822045055402,0.11384867615815139,0.24592890456117078,-0.0860822045055402,0.11384867615815139,0.24592890456117078,-1.2072046053314185,6.138873454252454,4.527859358129553,1.3172549763733796,0.023247393658198216,-2.301887413715964,1.0,3.600756630726422,-178.47686827365297,451.3485857159196,42.18669712124764,2.0254531145758117,0.17937241014133767,449.7064006747598,45.148360234278776,1164.6835690559992,-1.731889510737601
0.16,6.665101351755851,-179.51659684306065,449.96180482025653,41.56094612475245,3.4813940609175833,-0.445533357815565,41.708882115982135,10.999810281490818,11.03300134462342,1.4089010105314503,-13.522185312611972,65.47207846013549,-12.358053279805771,-176.0,3.3396610914043854,3.686214403119336,1164.6466637801996,0.13162344935718912,44.56277382154001,0.643829022089307,1.1729506791507809,96035.01559833555,285.22524826866834,-2.411535805343297,10.654085949705271,0.45676074371315895,38.83567817303059,0.0018976157265689474,0.5579901437788956,nominal,5282.433356923015,932.8994875997672,waypoint,4.3055788249868225,16.198747112021778,0.0,-5.98609725851148,7.403235426920088,14.32394487827058,-5.775307208679083,7.227198070938822,14.277293560942605,0.78,0.0,0.0,0.0,0.0,0.0,0.0,-0.10079812610561323,0.12613840203166515,0.24918578091223414,-0.10079812610561323,0.12613840203166515,0.24918578091223414,-1.0722294343120564,1.219827668778088,6.167762958115417,1.1412441348264089,-0.21725691314283038,-3.0712304910322077,1.0,3.600756630726422,-178.47686827365297,451.3485857159196,42.18669712124764,2.0254531145758117,0.17937241014133767,448.3465412222639,44.74858164612896,1156.3128890099888,-13.104764187883108
0.2,8.325685946816352,-179.37681940668725,449.938211998574,41.51461487651251,3.4944359093350195,-0.5898205420637924,41.66559994697597,10.999734376861756,12.886813517791758,0.8707626104787879,-20.982660786259036,42.63297250203355,-25.539087802680662,-185.4956645237487,4.813713009020488,10.752179706821295,1161.7708167168219,0.1314606551212462,44.50766975090087,1.1200754167075408,1.1729533631028823,96035.28698019177,285.22540162200926,-2.3793661955705088,10.78290594572652,0.47286324321581513,42.28846776740278,0.002063773199192082,0.6073256673835854,nominal,5280.397676166538,931.2722861363918,waypoint,4.314571797510462,16.2190476559732,0.0,-5.358042938256755,6.827649947687553,14.32394487827058,-5.44149579234122,6.907559572337807,14.314614614804986,0.78,0.0,0.0,0.0,0.0,0.0,0.0,-0.09497201780977194,0.12055965781494615,0.24983715618244684,-0.09497201780977194,0.12055965781494615,0.24983715618244684,-1.230766105974128,-3.851546889198712,10.181955889824566,0.7409772387603116,-0.44704518597223597,-3.2378380693329314,1.0,11.38342398142198,-176.50809687074977,452.77528211925744,41.51814499726385,3.5461031640995975,-0.5499199219998124,448.7034876737795,45.013106367044,1136.2142933531447,-13.104764187883108
0.24,9.98080322154627,-179.24536796340612,449.91341027208307,41.377931868247956,3.286286082028163,-0.620043162273571,41.51285795304129,10.999651825933789,13.436339857476336,0.7062643353052868,-26.752317944681373,11.751533145954433,-28.863979977800472,-141.4956645237487,6.1603752518476895,15.908981268138138,1156.2125110160491,0.1311456070990833,44.40101880075414,1.6933600270437195,1.1729561845867365,96035.57226842309,285.22556283323144,-2.3545114956353306,10.882473555826179,0.4853091944782724,44.999592019277124,0.0021908198807831024,0.6456977412983442,nominal,5273.802032559415,929.6528715086805,waypoint,4.323634794196637,16.239819321053105,0.0,-3.1233180173864725,5.389626874722418,14.32394487827058,-3.5869535723774226,5.693213414245496,14.322078825577462,0.78,0.0,0.0,0.0,0.0,0.0,0.0,-0.06260414995415875,0.09936531909729174,0.24996743123648937,-0.06260414995415875,0.09936531909729174,0.24996743123648937,-1.3301566462324026,-7.768861970103856,14.59329961243494,0.20421944759828745,-0.5024759920152408,-2.4686097934310043,1.0,11.38342398142198,-176.50809687074977,452.77528211925744,41.51814499726385,3.5461031640995975,-0.5499199219998124,451.1040988143325,44.32975081291164,1164.8522454321924,-24.590060631064038
0.28,11.625999807653875,-179.12848372541876,449.8928031893254,41.12991465269012,2.922105949684221,-0.5151770689419148,41.2368038277837,10.999564193138557,12.772260666684113,0.47783198743089444,-30.701802385798935,-17.622859361208125,-16.832046922072117,-97.49566452374872,6.468831970363795,19.296329614473976,1146.4990375055154,0.13059339941391146,44.2140722241299,1.875093536825938,1.1729585288851976,96035.80930720911,285.22569677926936,-2.337156083863613,10.952018845409595,0.49400235567619943,47.15151421472218,0.0022859215514987,0.67554268767649,nominal,5262.178253362156,928.0468492162644,waypoint,4.3324071748226505,16.26135783217794,0.0,-3.657007929501033,3.6401922448491617,14.32394487827058,-3.642997058076311,4.0507964787284285,14.323571667731956,0.78,0.0,0.0,0.0,0.0,0.0,0.0,-0.06358229330389871,0.07069973588200353,0.24999348624729786,-0.06358229330389871,0.07069973588200353,0.24999348624729786,-1.1099030773173926,-10.109340873210652,15.357147571337666,-0.3032861023094215,-0.29566893730143146,-1.7013711271988932,1.0,11.38342398142198,-176.50809687074977,452.77528211925744,41.51814499726385,3.5461031640995975,-0.5499199219998124,449.54890041197666,43.330332603345035,1141.678543708587,-24.590060631064038
0.32,13.25876443853757,-179.02891448210215,449.87678716623304,40.81911577209237,2.489231082915544,-0.40040057730805256,40.89690458240013,10.999472756276496,11.045949348926047,0.1874335764720568,-32.826988023579325,-43.46959940364106,-3.861654161989189,-53.495664523748715,5.766433693369464,20.977610187111217,1134.6711608276262,0.12991789388520214,43.985379180802624,1.7523186610433363,1.1729603508990047,96035.99353636269,285.2258008834195,-2.3274338102673484,10.991004035933209,0.498875504491651,48.86280256321368,0.0023566325642320704,0.6987554237483811,nominal,5248.06259707471,926.4573721229568,waypoint,4.340847649687742,16.283786161081068,0.0,-4.21289392009311,1.7081931249265396,14.32394487827058,-4.098914547689751,2.1767137956869176,14.323870236162856,0.78,0.0,0.0,0.0,0.0,0.0,0.0,-0.07153955461508028,0.03799082260831986,0.24999869724945958,-0.07153955461508028,0.03799082260831986,0.24999869724945958,-0.5529718056944068,-11.115587903096145,13.073314258310791,-0.7579692634727536,-0.0640360495914231,-0.9345957317343496,1.0,11.38342398142198,-176.50809687074977,452.77528211925744,41.51814499726385,3.5461031640995975,-0.5499199219998124,446.24784530367015,42.93822022837213,1137.522945524545,-32.9483082118476
0.36,14.879087525878404,-178.94690642307486,449.86219376981643,40.50807718352083,2.0502014756819316,-0.3648349104160698,40.56156737243801,10.999378490973927,8.479094651517803,-0.012565853115120802,-33.1778865087639,-64.19549612828027,3.4409428735484706,-9.49566452374872,4.487883300999825,20.950944002734136,1123.427779809285,0.12927250454306813,43.766881569921715,1.4864564098699773,1.1729620110739305,96036.16140157143,285.2258957404962,-2.3254247934881174,10.999127663428633,0.4998909579285791,50.214587294370105,0.002409798130696482,0.7168097740265186,nominal,5234.261456387184,924.884772232674,waypoint,4.349149327362953,16.30712220646888,0.0,-3.76717079629475,-0.24088524372906162,14.32394487827058,-3.83351954657375,0.24263456415413426,14.323929949849036,0.78,0.0,0.0,0.0,0.0,0.0,0.0,-0.06690753802727205,0.004234772023631053,0.24999973944989193,-0.06690753802727205,0.004234772023631053,0.24999973944989193,0.058781779256907085,-10.896409488687295,9.773051786758254,-1.1186224736299077,0.05930528727082662,-0.16278254541361564,1.0,11.38342398142198,-176.50809687074977,452.77528211925744,41.51814499726385,3.5461031640995975,-0.5499199219998124,449.0464358330686,43.656287189656055,1119.427602304539,-32.9483082118476
0.4,16.48882601069753,-178.88122762992901,449.8447690414186,40.24346212047809,1.6419698286462465,-0.4356182099463768,40.27930078322334,10.999282099048699,5.338538186359226,-0.06413186077915621,-31.78196119781336,-78.55695178254192,5.47993821650395,34.50433547625128,3.1062546485162406,19.20867729667741,1114.6663735920806,0.12876729728053632,43.59584576030882,1.165254833917848,1.1729639933493865,96036.36183539283,285.22600900123075,-2.3311511190234406,10.976326909657725,0.4970408637072156,51.26953995214222,0.0024508102587232268,0.73085204646507,nominal,5222.681240112716,923.3272664738038,waypoint,4.357584208027461,16.33132826842612,0.0,-2.877432298277217,-2.0572072162225,14.32394487827058,-3.0686497479365236,-1.597238860147173,14.323941892586273,0.78,0.0,0.0,0.0,0.0,0.0,0.0,-0.053558041691986406,-0.02787707705036941,0.2499999478899784,-0.053558041691986406,-0.02787707705036941,0.2499999478899784,0.5407118924349064,-9.429924176940942,6.413688099753988,-1.3693111920123648,0.0960946294323081,0.6043179579810201,1.0,18.758379472527274,-187.6048954528157,448.49320538730376,39.951597021328766,1.533159542244643,-0.49756339852403586,448.95431946932075,43.731026119148574,1105.3394659643798,-31.13975771953549
0.44,18.090985456945184,-178.82959684975435,449.8205722447584,40.05398615619134,1.2907695043663232,-0.604919916504973,40.07934406922292,10.99918406663835,1.9196445848068555,-0.016371158719229208,-28.640696099763638,-85.55294345261355,3.78214287196626,78.50433547625127,2.0268508313243845,15.777645940082396,1109.3996638267597,0.1284625433273048,43.492679331202204,0.8519705119995767,1.172966746034485,96036.64016777769,285.2261662804091,-2.344574619664787,10.9227780878723,0.4903472609840376,52.07932586589871,0.002483628749638944,0.7417738139172766,nominal,5214.409825313637,921.7816564771516,waypoint,4.366413395528212,16.35632392151155,0.0,-2.240809359719354,-3.601741397258059,12.666209519006985,-2.406377437362788,-3.2008408898358818,12.997755993722842,0.78,0.0,0.0,0.0,0.0,0.0,0.0,-0.041999209327684264,-0.05586521236010124,0.22685363746129103,-0.041999209327684264,-0.05586521236010124,0.22685363746129103,0.938454516569456,-7.216625843465356,4.037902836677037,-1.4926724608120931,0.066306163709597,1.3699952302661356,1.0,18.758379472527274,-187.6048954528157,448.49320538730376,39.951597021328766,1.533159542244643,-0.49756339852403586,453.2075578770573,43.79985247348184,1115.3611316026752,-31.13975771953549
0.48,19.68884794252344,-178.7891002295113,449.7867094063782,39.946562139456404,1.0124155060767857,-0.8465709595060816,39.968356162192556,10.999084721488364,-1.4535765433413972,0.034463487706755815,-23.745790659789094,-84.33554563632538,-0.7731736094290566,122.50433547625127,1.5400432963713426,10.70883002841367,1107.6583433737,0.12836142562686303,43.45846137555747,0.6008293189676203,1.172970598359761,96037.02968839201,285.22638638885854,-2.3655961160348697,10.838895279422252,0.4798619099277814,52.69036570224032,0.002510791910893431,0.7502685219356596,nominal,5209.635580953996,920.2442224813726,waypoint,4.375836979197687,16.381995483785634,0.0,-2.2055950871354106,-4.725278200354792,7.115202424900433,-2.245751557180886,-4.42039073825101,8.291713138664914,0.78,0.0,0.0,0.0,0.0,0.0,0.0,-0.03919575885459617,-0.07715037260714297,0.1447176949005759,-0.03919575885459617,-0.07715037260714297,0.1447176949005759,1.1214147738291618,-5.074125602693006,2.8441241621608153,-1.473275454767088,-0.012872969333686148,2.13749321922947,1.0,18.758379472527274,-187.6048954528157,448.49320538730376,39.951597021328766,1.533159542244643,-0.49756339852403586,449.77158933428643,43.02837539089761,1112.1765559227683,-25.557299270143435
0.52,21.28516921560837,-178.75659288787358,449.74191964976563,39.90803182712317,0.812683540943064,-1.1197439153136397,39.93200828017891,10.998984289811927,-4.414164430634177,0.06681403355293868,-18.56002878769006,-73.91643399724057,-7.450326962421739,129.56424212086492,1.7451936045060203,5.5189861118602925,1108.6031429388054,0.12841581373555214,43.47689737900592,0.4319358007063389,1.172975693774771,96037.54490214513,285.2266775222765,-2.3940553375866394,10.725327131754849,0.46566589146935605,53.14641258595223,0.0025335977259449056,0.7568755170610686,nominal,5207.744238977512,918.7115575945928,waypoint,4.385952875783277,16.408205747762356,0.0,-2.316451578972773,-5.245692409837964,4.367555288645414,-2.3023115746143956,-5.0806320755205725,5.152386858649314,0.78,0.0,0.0,0.0,0.0,0.0,0.0,-0.0401829173837963,-0.08867375780026719,0.0899261150199182,-0.0401829173837963,-0.08867375780026719,0.0899261150199182,1.1412180782626962,-2.3784481438338614,3.3132820151378533,-1.2906895593980088,-0.12934079365148926,2.2592474403367904,1.0,18.758379472527274,-187.6048954528157,448.49320538730376,39.951597021328766,1.533159542244643,-0.49756339852403586,448.24107306906035,44.21082101729757,1127.7494470964455,-25.557299270143435
0.56,22.881998659978397,-178.72782159738327,449.68707318206106,39.920736109250655,0.7192822622578873,-1.371161692614095,39.95075246931552,10.99888294590289,-6.807337424200082,0.18352909376371213,-14.586173542183833,-59.62080565705151,-12.623568447436083,98.64596358930812,2.386958383298289,1.7693973642903833,1110.9094600817336,0.1285488990208583,43.5219823874853,0.536247708067134,1.1729819332940046,96038.1758006618,285.2270340243166,-2.4297314295855017,10.582951842565627,0.44786898032070355,53.48766529374296,0.0025525101171732342,0.7620142910474978,nominal,5207.9550476531185,917.1804520490754,waypoint,4.39672532140207,16.43473783919127,0.0,-1.737319488462324,-5.374034340427399,5.134136472022889,-1.8503179056927384,-5.315353887446034,5.137786549348173,0.78,0.0,0.0,0.0,0.0,0.0,0.0,-0.03229413966294421,-0.09277042624461337,0.08967129155080375,-0.03229413966294421,-0.09277042624461337,0.08967129155080375,0.7747563156569122,0.18638158692589069,5.156662395653294,-1.0377767742277635,-0.22374846514849211,1.7241537988000388,1.0,18.758379472527274,-187.6048954528157,448.49320538730376,39.951597021328766,1.533159542244643,-0.49756339852403586,451.9915006848621,43.230727803933,1108.9545129726125,-14.793027328938493
0.6,24.480382824759953,-178.69822021589192,449.6247657094043,39.959604119538916,0.7400345372837136,-1.557686816418674,39.99679988104909,10.998780845498203,-8.756085353899373,0.35294815720741685,-12.35744097953843,-48.46243457514999,-11.743254422090756,54.645963589308124,3.0026810704751004,-0.027250961115225198,1113.1498724092223,0.12867797824246313,43.56571484761973,0.7388364389616139,1.1729890216331438,96038.89252713561,285.22743902288886,-2.472345259214066,10.41287036888731,0.4266087961109138,53.74911751365254,0.0025675643935427522,0.766011115259165,nominal,5209.184709006473,915.6484275108023,waypoint,4.408006632067915,16.461337114813567,0.0,-1.3257867800248035,-5.50056478598891,7.699620225581627,-1.4306930051583908,-5.463522606280335,7.187253490334935,0.78,0.0,0.0,0.0,0.0,0.0,0.0,-0.024970303525266135,-0.09535645823673367,0.12544123758179906,-0.024970303525266135,-0.09535645823673367,0.12544123758179906,0.5931984854079254,1.914575294738249,6.967291519570682,-0.8491521509423352,-0.20013789691734665,0.9524293767903474,1.0,24.45779084417136,-173.11293910233775,450.9255361577518,40.13876721357456,0.7668680601422612,-1.5960470291957287,449.62077616458123,42.57919433937933,1117.3505085258898,-14.793027328938493
0.64,26.080673230136643,-178.66424760966564,449.5573363689323,40.00726013441724,0.8493151556572314,-1.6857335118008017,40.051765219143185,10.998678142922461,-10.53941724211988,0.5101569996566545,-11.898810557395823,-44.500515921384824,-5.796845823336163,10.645963589308122,3.2955351802694346,0.08204026260844811,1114.8172323899698,0.1287737939668624,43.59818808771997,0.8376836122188155,1.1729966926927031,96039.66817563206,285.22787731360194,-2.5215645170392555,10.216397913629384,0.40204973920367304,53.953007005014975,0.002579225161516136,0.7691197563126839,nominal,5210.723401287073,914.1139707677623,waypoint,4.419659702040353,16.487796864423512,0.0,-1.326040526481255,-5.91796089501756,11.058033772098838,-1.3469710222166822,-5.827073237270115,10.283877715746058,0.78,0.0,0.0,0.0,0.0,0.0,0.0,-0.023509079266634793,-0.10170161374520827,0.17948752601224222,-0.023509079266634793,-0.10170161374520827,0.17948752601224222,0.5632323782064935,2.6731739056279635,7.777715721468899,-0.7791272667049984,-0.10366339839208336,0.18325124347445654,1.0,24.45779084417136,-173.11293910233775,450.9255361577518,40.13876721357456,0.7668680601422612,-1.5960470291957287,449.939305806421,43.11813464212908,1101.2732841636116,-10.90630320342171
0.68,27.683007330878112,-178.62417348143478,449.48567958509466,40.058352518536694,1.0018532057710534,-1.7914195959407102,40.11090251432881,10.998574973916,-12.515796881399575,0.7057449414873525,-13.220355530320765,-49.765069733016134,1.8115742048648533,-33.354036410691876,3.1847597045075413,2.0460809759003378,1116.3148821883376,0.12885970956035525,43.6273116473046,0.8092377680353252,1.1730048447269525,96040.49245852031,285.2283430826969,-2.577008041772081,9.99505375540111,0.37438171942513854,54.10980772146326,0.0025884489524561475,0.7715375882431986,nominal,5212.390989960162,912.5763903322461,waypoint,4.431633557168262,16.514014627220906,0.0,-0.988332884907852,-6.851003457589468,14.32394487827058,-1.060060512369618,-6.646217413525598,13.515931445765677,0.78,0.0,0.0,0.0,0.0,0.0,0.0,-0.01850154621122791,-0.11599837666940319,0.23589750520244845,-0.01850154621122791,-0.11599837666940319,0.23589750520244845,0.6050497147021221,2.1433716943723784,7.530549901183664,-0.8709925980458182,0.03321393739657914,-0.5813682335095697,1.0,24.45779084417136,-173.11293910233775,450.9255361577518,40.13876721357456,0.7668680601422612,-1.5960470291957287,451.72061836050534,44.012356678000415,1103.9988236518786,-10.90630320342171
0.72,29.2874683894943,-178.57848753884844,449.40952406461105,40.11152646540473,1.1421485646584864,-1.903888012090269,40.172924318391324,10.998471435957901,-15.112241897409108,1.0496266138491246,-16.32086888637628,-66.11048676113236,10.164551103318926,-77.35403641069188,2.5856633307102994,5.803713148306908,1118.2924271928812,0.12897320793446668,43.66577604817143,0.6722416484769855,1.1730135086075006,96041.3684975912,285.22883809358,-2.6382483388376703,9.750549500261652,0.3438186875327065,54.22473731457862,0.0025962338112382835,0.7734181241891545,nominal,5214.1338333138165,911.0357634112061,waypoint,4.443946695943604,16.540020582906838,0.0,0.11934533085768774,-8.534840934105116,14.32394487827058,-0.1165358377877734,-8.157116229989212,14.1623421917696,0.78,0.0,0.0,0.0,0.0,0.0,0.0,-0.0020339340659666708,-0.14236853568117877,0.2471795010404897,-0.0020339340659666708,-0.14236853568117877,0.2471795010404897,0.8467698240681277,-0.15446300462918383,6.543713489488461,-1.154113238822688,0.17514909105975354,-1.3457492554151678,1.0,24.45779084417136,-173.11293910233775,450.9255361577518,40.13876721357456,0.7668680601422612,-1.5960470291957287,449.73823891953424,44.33066039129442,1117.781798296222,-16.745450518344054
0.76,30.89364844201396,-178.53090069418278,449.32791192884594,40.15450131299144,1.1896711166415805,-2.040303394127802,40.2238999974007,10.998367586605452,-18.83755357027123,1.4206837612773981,-20.326902233649474,-95.32768057357453,20.383539287412596,-98.56760081131551,1.2514231218196186,10.320955229346378,1120.973671543115,0.12912709885958862,43.717918737803444,0.49477648178899014,1.173022793317652,96042.30731287505,285.2293685724625,-2.704814170545714,9.48477584624407,0.31059698078050874,54.304253192954015,0.0026031457546125732,0.7748807632582313,nominal,5215.3826330174625,909.4936068849061,waypoint,4.456654061917679,16.566031350730942,0.0,0.48497523140491267,-11.249783340672588,14.32394487827058,0.36467301756637543,-10.631249918535913,14.291624340970385,0.78,0.0,0.0,0.0,0.0,0.0,0.0,0.0063647448497163705,-0.1855503146808306,0.24943590020809794,0.0063647448497163705,-0.1855503146808306,0.24943590020809794,1.3375160861749236,-3.2645231718803616,3.340274487883826,-1.6616861974259487,0.3542139686824852,-1.7184581596581425,1.0,24.45779084417136,-173.11293910233775,450.9255361577518,40.13876721357456,0.7668680601422612,-1.5960470291957287,450.0636367854775,43.85715888905488,1113.5608648695254,-16.745450518344054
0.8,32.50056526699761,-178.48697505035483,449.2374174365548,40.172920624591285,1.098141095698704,-2.262362307279465,40.25155585297509,10.998263460775268,-24.17716643344702,1.2180529622139988,-22.869244943543954,-135.0539345256038,28.04372588310604,-57.33351034893518,-0.8542489041973279,12.972698030483812,1124.1771106960455,0.12931077157246537,43.780149036143584,0.6216153428838737,1.1730330886063127,96043.34831395568,285.2299567866624,-2.7761968830951385,9.199787963000118,0.27497349537501475,54.35645131044973,0.0026093569511484336,0.7760183714230688,nominal,5215.607993996776,907.9527127685726,waypoint,4.469960814126173,16.592366784702556,0.0,-3.2278471531267705,-14.32394487827058,14.32394487827058,-2.509343118988141,-13.585405886323647,14.31748077081054,0.78,0.0,0.0,0.0,0.0,0.0,0.0,-0.0437962994886069,-0.23711006293616613,0.24988718004161958,-0.0437962994886069,-0.23711006293616613,0.24988718004161958,1.5973279927049846,-4.995092224666151,-3.117746815430375,-2.354787965480238,0.4864727522428922,-1.0007334487329822,1.0,36.26239306455258,-181.63834646280847,451.5838726968057,40.094580058174955,1.1221140353501782,-2.43081912941264,449.7924435476616,43.54375709336154,1122.0883614439977,-22.458510803814196
0.84,34.10622710062641,-178.45264269830002,449.1299994743203,40.141545840720106,0.8583088013701055,-2.6854490558619593,40.2404278445542,10.998159086497223,-30.890791158405595,0.9092021057243929,-23.630800857786078,-168.38755804020332,15.673600942343764,-13.333510348935178,-2.6614831290101026,13.610889199260047,1127.0666294999035,0.12947601841074255,43.836149546184984,0.9898243065101665,1.173045309317433,96044.58400559965,285.23065500341687,-2.851857600883029,8.897789599621962,0.23722369995274525,54.39362887472464,0.0026144816334562667,0.776903177773498,nominal,5214.10672590123,906.4173163825573,waypoint,4.484358841417102,16.619352812932938,0.0,-4.082422481611611,-14.32394487827058,14.32394487827058,-3.7678066090869167,-14.176237079881194,14.322652056778573,0.78,0.0,0.0,0.0,0.0,0.0,0.0,-0.0657606309069696,-0.24742201258723323,0.24997743600832392,-0.0657606309069696,-0.24742201258723323,0.24997743600832392,1.079812752756562,-5.531441410071949,-7.911939241276133,-2.9394855878526265,0.2712780658144569,-0.2308856300855543,1.0,36.26239306455258,-181.63834646280847,451.5838726968057,40.094580058174955,1.1221140353501782,-2.43081912941264,449.08526317185414,43.614381382213956,1128.1880459993374,-22.458510803814196
0.88,35.7080112472814,-178.4319890753465,449.00064271658783,40.04460366637457,0.5163405738382549,-3.233918943312006,40.17829167743601,10.998054507231885,-37.65892152355245,0.4949632085724759,-22.431210110385443,-169.03151324172683,-8.345441790736782,30.666489651064822,-3.2852872722982256,12.37927391991485,1128.329850600336,0.12954755314888985,43.86043340779386,1.1171351705835886,1.1730600260875244,96046.07208912537,285.23149582234214,-2.931220025042247,8.581116043531484,0.19763950544143538,54.43104761799383,0.0026177295387779334,0.7775913604904985,nominal,5210.339713955188,904.8915092618711,waypoint,4.500151653741101,16.64719330541937,0.0,-4.993837050270326,-14.32394487827058,14.069428924809603,-4.748630962033644,-14.294403318592703,14.120073551203397,0.78,0.0,0.0,0.0,0.0,0.0,0.0,-0.08287924524963293,-0.24948440251744664,0.24644177409226742,-0.08287924524963293,-0.24948440251744664,0.24644177409226742,0.9545644674819964,-4.7906482904698935,-9.773786368983453,-2.9525585314669827,-0.1457406246584448,0.5361137461321287,1.0,36.26239306455258,-181.63834646280847,451.5838726968057,40.094580058174955,1.1221140353501782,-2.43081912941264,450.1548681626308,43.621961069202996,1116.173162511277,-23.137346758194695
0.92,37.30531790253912,-178.42642219085644,448.8478778841566,39.93266638144307,0.1391721122518232,-3.8191208107809245,40.1151205529262,10.997949798050334,-44.25062603308724,0.49803705599492837,-20.080918781998605,-164.46370371612653,-38.638736627913964,44.40227435250542,-2.4668554070446347,10.68866930915267,1129.6825890515934,0.12962400035628405,43.886392244833125,0.8491847696778692,1.1730774061493527,96047.82947655897,285.23248879375296,-3.0136741676206604,8.252216062212419,0.15652700777655232,54.45700152509832,0.002620527773473619,0.7781266137148322,nominal,5206.305490140565,903.3764191560425,waypoint,4.51743373310382,16.675966788674305,0.0,-2.406112442900737,-14.32394487827058,10.794856249418814,-2.8746161467273184,-14.318036566335005,11.459899709775732,0.78,0.0,0.0,0.0,0.0,0.0,0.0,-0.05017151649138412,-0.24989688050348932,0.2000129818839291,-0.05017151649138412,-0.24989688050348932,0.2000129818839291,1.1323582839275503,-4.291472064763955,-6.996804137215088,-2.8705152152893727,-0.6748686356728959,0.7766546238558623,1.0,36.26239306455258,-181.63834646280847,451.5838726968057,40.094580058174955,1.1221140353501782,-2.43081912941264,449.34581162179495,43.46059594505263,1124.2785372194878,-23.137346758194695
0.96,38.8999866853824,-178.43350409221597,448.6761710829733,39.86671957108194,-0.17704753398796885,-4.292670029582303,40.09755218428492,10.997844976939394,-50.601776359078734,0.47172044307903593,-16.97965105438205,-158.28324547258154,-56.748058988263786,53.02941736294533,-0.9135289888523066,8.815487505514412,1132.5643325029905,0.12978789145257685,43.94196631116151,0.5320762994914648,1.173096941474966,96049.80480110084,285.23360488796067,-3.0985775015190566,7.913632967425933,0.1142041209282416,54.46147466980378,0.002624061716224445,0.7785429217782028,nominal,5203.917018736567,901.8692796293714,waypoint,4.53594139574488,16.705562078461718,0.0,-2.6258156865789264,-14.32394487827058,8.004444640136114,-2.6755757786086045,-14.322763215883466,8.695535654064036,0.78,0.0,0.0,0.0,0.0,0.0,0.0,-0.046697606723331016,-0.24997937610069787,0.15176572738797608,-0.046697606723331016,-0.24997937610069787,0.15176572738797608,1.5219994295467019,-3.7378332677819395,-3.339321634924519,-2.763101189207349,-0.9904638414683089,0.9304864819645972,1.0,36.26239306455258,-181.63834646280847,451.5838726968057,40.094580058174955,1.1221140353501782,-2.43081912941264,449.3914598740891,43.386560667531555,1133.3189966033938,-15.299457399407727
1.0,40.49465200429357,-178.44885195810298,448.489947707792,39.86663297277914,-0.38369664717486474,-4.655584379532792,40.139383572973365,10.997740014470745,-56.67934642326756,0.19418867209610005,-13.422130196278784,-151.56342630382744,-67.62610132716571,58.412110986381265,1.0359016243890045,6.931542418264792,1137.359184158854,0.13006088738053265,44.034487303944864,0.35293554930814314,1.1731181286530654,96051.94716229745,285.23481533989934,-3.185268841354326,7.567984948335943,0.07099811854199292,54.4430500708233,0.0026286971459777444,0.7788667169386022,nominal,5203.76900249776,900.3660032956133,waypoint,4.555418617722593,16.73576322967452,0.0,-4.371784190366645,-14.32394487827058,5.611675825119473,-4.032542508015037,-14.323708545793158,6.228447790908386,0.78,0.0,0.0,0.0,0.0,0.0,0.0,-0.07038114399149223,-0.24999587522013958,0.10870692123991868,-0.07038114399149223,-0.24999587522013958,0.10870692123991868,1.3084900736980916,-3.0818700893414954,0.7676264513987989,-2.6477058690137043,-1.1806760955663502,1.0177916421505966,1.0,41.007913435965456,-174.10858194597276,450.1647509351745,39.793364442867684,-0.26785474417216354,-4.617456442707134,448.1667662321786,43.87335712580196,1148.9574366972297,-15.299457399407727
1.04,42.090993326522444,-178.4663252861135,448.2928671052867,39.90853305572185,-0.4368332002624196,-4.927015062632865,40.21389450590313,10.997634866584907,-62.46903107385647,-0.32829136145608856,-9.597320141949615,-144.9776349607083,-75.9655563677155,59.782344952196155,3.238175078113429,5.212263960322784,1142.516615403334,0.13035390024242025,44.13379126118281,0.6419784627803214,1.173140551408518,96054.21446994827,285.2360963638156,-3.273074492936112,7.217944825623831,0.027243103202978812,54.416553173686566,0.002633342981272519,0.7791185576189128,nominal,5204.829900864012,898.8629583792848,waypoint,4.575654617078492,16.766228084978874,0.0,-6.215297325249352,-14.32394487827058,3.483999857260288,-5.778746361802488,-14.323897611775095,4.032889443989908,0.78,0.0,0.0,0.0,0.0,0.0,0.0,-0.1008581506510969,-0.2499991750440279,0.07038719916654733,-0.1008581506510969,-0.2499991750440279,0.07038719916654733,0.47961675899839723,-2.610082607616864,5.716909506725847,-2.5321373329048087,-1.3267774151104552,1.0403451576366172,1.0,41.007913435965456,-174.10858194597276,450.1647509351745,39.793364442867684,-0.26785474417216354,-4.617456442707134,448.7332534872231,43.607648198973784,1140.7807144710155,-10.430915730023345
1.08,43.68920209059972,-178.47782625450145,448.08799174252493,39.95521910193189,-0.2875242096987719,-5.121884069044001,40.283196249444664,10.997529532865656,-67.97893634986424,-1.0848503579096913,-5.649199683523699,-139.07441293442892,-81.81810823502256,58.62000203639888,5.529166220811734,3.7521742348120863,1145.9234006637846,0.13054650017885258,44.19910280788112,1.1357171689045884,1.173163861356844,96056.57149811747,285.23742805367357,-3.3613131665988263,6.866219383149544,-0.016722577106306955,54.401221900131205,0.002636496929427909,0.7793144337035989,nominal,5205.610054257469,897.3574016037919,waypoint,4.596471169812786,16.796465040762257,0.0,-8.121794666765727,-14.32394487827058,1.591412178915093,-7.653185005773079,-14.323935424971483,2.0797076319300563,0.78,0.0,0.0,0.0,0.0,0.0,0.0,-0.13357327661500146,-0.24999983500880557,0.03629774565603383,-0.13357327661500146,-0.24999983500880557,0.03629774565603383,-0.31316039377754623,-2.13579563063713,10.918003822073965,-2.429449385134688,-1.4286669245877066,1.0226749580799062,1.0,41.007913435965456,-174.10858194597276,450.1647509351745,39.793364442867684,-0.26785474417216354,-4.617456442707134,449.25196047501515,44.179036024758126,1145.7720199415487,-10.430915730023345
1.12,45.288495671496364,-178.47444501208133,447.87716961367096,39.98233952241596,0.0845310605028114,-5.270553221348799,40.32831945971721,10.997424072988478,-73.22488400084956,-2.1047499897770434,-1.6705144066318431,-134.01580673657557,-85.45044230312082,57.150909433190854,7.784910616347179,2.543228216745998,1146.6792375719017,0.13058789780506305,44.21322499870368,1.6417153059215153,1.17318784827576,96058.99699089747,285.2387983975111,-3.449302136333772,6.515528436982884,-0.06055894537713944,54.4055823533076,0.002637550716855583,0.7794667817694658,nominal,5205.361320614408,895.8473625672692,waypoint,4.6177630305318695,16.825911504446555,0.0,-10.359089559271172,-14.32394487827058,-0.1299787437622311,-9.817908648571553,-14.32394298761076,0.3119585313762265,0.78,0.0,0.0,0.0,0.0,0.0,0.0,-0.17135483157760048,-0.2499999670017611,0.005444703502201189,-0.17135483157760048,-0.2499999670017611,0.005444703502201189,-1.112363615973564,-1.7595704734902993,15.930600022899586,-2.3366547175132415,-1.4879983563503925,0.9958545662222863,1.0,41.007913435965456,-174.10858194597276,450.1647509351745,39.793364442867684,-0.26785474417216354,-4.617456442707134,448.3397974364909,44.97788255486955,1169.8679247287293,-0.9959093714266725
1.16,46.8869753921047,-178.44740872150055,447.6608242637981,39.9619930152085,0.6759072645194995,-5.408633746821716,40.33201030676579,10.997318570959804,-78.21629134102741,-3.4429741142134773,2.3163405338246377,-129.69946956495497,-88.36239034986455,57.04855054183127,9.971430255906691,1.5072120665601223,1144.1263968818628,0.13044076354956038,44.16351852721241,2.1140650018999216,1.1732124640057615,96061.48607947929,285.2402046422853,-3.5363628126894255,6.1685838036595095,-0.10392702454256135,54.435940725198655,0.0026360555666266965,0.7795852747095845,nominal,5203.388549959105,894.3320704171817,waypoint,4.639509753545065,16.853988868764926,0.0,-13.119510188832175,-14.32394487827058,-1.8117428516012741,-12.459189880780052,-14.323944500138618,-1.387002575005774,0.78,0.0,0.0,0.0,0.0,0.0,0.0,-0.21745388555077166,-0.24999999340035223,-0.024207761667490363,-0.21745388555077166,-0.24999999340035223,-0.024207761667490363,-1.9446254915470704,-1.4900658679237266,20.561230339520144,-2.262842655312701,-1.5386743102396296,0.9959441782276005,1.0,41.007913435965456,-174.10858194597276,450.1647509351745,39.793364442867684,-0.26785474417216354,-4.617456442707134,447.52138323701683,44.08126114777337,1148.9057179461806,-0.9959093714266725
1.2,48.4816472737111,-178.38874249263887,447.4380297903799,39.86679704015993,1.4666557215421436,-5.569861835453415,40.28071431979425,10.997213128737139,-82.93958053414492,-5.171251457228926,6.373619226814047,-125.78479736779222,-92.84931826353252,59.251010341802434,12.168592989672668,0.5353171838677395,1137.861871643081,0.13008143153848034,44.04197076707114,2.3164162766900613,1.1732378139286996,96064.04942086489,285.2416528063625,-3.621825872740522,5.828068330295633,-0.14649145871304595,54.49639383086573,0.0026317199386072195,0.7796774358852324,nominal,5199.136127900268,892.8121229000654,waypoint,4.661770569204278,16.880143261235553,0.0,-16.548723670467467,-14.32394487827058,-3.6495085065805752,-15.730816912529985,-14.323944802644188,-3.1970073202656146,0.78,0.0,0.0,0.0,0.0,0.0,0.0,-0.27455454915205707,-0.24999999868007045,-0.05579830394899581,-0.27455454915205707,-0.24999999868007045,-0.05579830394899581,-3.81978774508509,-1.242703324757648,22.349395950893868,-2.1950013210017034,-1.6241156616409738,1.0355615843590071,1.0,51.54744056024682,-176.3747490967484,449.2919567928161,39.87112361962436,1.129233096209424,-5.654088544031356,448.862233684944,43.251021554076125,1134.3019138749432,6.369038881019523
1.24,50.06685611775677,-178.29567621507547,447.20648397450185,39.630221101141764,2.326656939084608,-5.788645396952116,40.118277288154175,10.997107859939595,-87.32829644987692,-7.380174943961355,10.789792581257034,-121.8681079707009,-104.83049415610499,64.40394638991755,14.842057551253651,-0.47217203875666797,1125.9588973220855,0.1293974690291881,43.81051558067956,2.5848687135138837,1.1732641600378793,96066.71350871153,285.2431578541657,-3.7050364868590226,5.496615148716899,-0.18792310641038767,54.60427592253887,0.0026230717994255646,0.7797491167996252,nominal,5190.335552353162,891.2922648583412,waypoint,4.684672002815779,16.904088125704092,0.0,-20.05352282957881,-14.32394487827058,-6.216452851281107,-19.188981646169047,-14.323944863145302,-5.612563745078008,0.78,0.0,0.0,0.0,0.0,0.0,0.0,-0.3349109098304114,-0.24999999973601408,-0.09795771682967493,-0.3349109098304114,-0.24999999973601408,-0.09795771682967493,-6.083598348024073,-1.1396596340562644,24.55684729694741,-2.1245452702549907,-1.8331387306671374,1.1243449597026345,1.0,51.54744056024682,-176.3747490967484,449.2919567928161,39.87112361962436,1.129233096209424,-5.654088544031356,448.36296478287414,44.10033104478754,1146.393665596861,6.369038881019523
1.28,51.63564677362679,-178.16583542784764,446.9640507392561,39.21976639675051,3.2460196806960697,-6.060830881143553,39.81784010908891,10.997002937067618,-91.25410890294445,-10.33931461678722,15.806795646284181,-117.54721412711287,-123.22509421210725,75.58565980600532,18.257504506679773,-1.7102700269285696,1107.1131481509433,0.12830814091493115,43.44181826757284,2.9226298873475676,1.173291745441519,96069.50292763322,285.2447336701948,-3.785357095384928,5.176787314024753,-0.2279015857469059,54.77206192858324,0.0026089889917124544,0.7798048686219308,nominal,5175.950203658611,889.7785816099301,waypoint,4.708323135173049,16.925534388273586,0.0,-20.05352282957881,-14.32394487827058,-9.521243333279786,-19.88061459289686,-14.323944875245525,-8.739507415639432,0.78,0.0,0.0,0.0,0.0,0.0,0.0,-0.34698218196608227,-0.24999999994720282,-0.15253317940536865,-0.34698218196608227,-0.24999999994720282,-0.15253317940536865,-8.915935055413497,-0.8328262652883733,27.200640538323796,-2.0512159121038978,-2.1514431115896415,1.317755531787438,1.0,51.54744056024682,-176.3747490967484,449.2919567928161,39.87112361962436,1.129233096209424,-5.654088544031356,445.2760398042199,43.59554582022206,1104.378696790705,15.308169077152396
1.32,53.17910648409045,-177.9978749089006,446.7087890205774,38.58649276159149,4.199012973675913,-6.38154296696683,39.33539403937241,10.99689857750795,-94.59568153705054,-14.327545185883459,21.12939453958675,-112.05590196698894,-135.1831634467302,93.04062206509515,22.206585946706205,-3.3743817785064136,1079.3021486342113,0.12668438584587277,42.89218154029266,2.963504373132651,1.1733207910777035,96072.44002102,285.2463928713662,-3.8621723202064295,4.871057985050817,-0.26611775186864783,55.019428573791274,0.002587613287971733,0.7798482311503906,nominal,5154.353357964992,888.2793089785569,waypoint,4.732809032798104,16.94421724115947,0.0,-20.05352282957881,-14.32394487827058,-12.3656065461728,-20.018941182242422,-14.32394487766557,-11.640386720066127,0.78,0.0,0.0,0.0,0.0,0.0,0.0,-0.34939643639321644,-0.24999999998944056,-0.2031630744705774,-0.34939643639321644,-0.24999999998944056,-0.2031630744705774,-10.280716968175074,0.057198054684809714,27.17886336984505,-1.95578382897642,-2.358784906252267,1.6235730419543906,1.0,51.54744056024682,-176.3747490967484,449.2919567928161,39.87112361962436,1.129233096209424,-5.654088544031356,446.42204213196544,43.1791454658852,1086.6969192749993,15.308169077152396
1.36,54.691323416048455,-177.79548066689324,446.43846382443627,37.80542329895024,5.05985605018375,-6.758129903528092,38.73660405681365,10.996795072976433,-97.19875783701396,-19.17467398458195,26.601905443238632,-104.61767507321586,-143.06934242659727,107.18753887690713,26.70318065922993,-5.28839743112746,1046.7238758771443,0.1247557594891653,42.239326730268374,2.7469109922958306,1.1733515513516293,96075.55051712251,285.24814998514114,-3.9348944792734666,4.581791299959516,-0.3022760875050605,55.312023342942005,0.0025617791952793406,0.7798819575614149,nominal,5128.328008191083,886.8013126765741,waypoint,4.7582408030843135,16.960238313250997,0.0,-20.05352282957881,-14.32394487827058,-14.32394487827058,-20.046606500111533,-14.323944878149579,-13.78723324662969,0.78,0.0,0.0,0.0,0.0,0.0,0.0,-0.34987928727864326,-0.2499999999978881,-0.24063261489411547,-0.34987928727864326,-0.2499999999978881,-0.24063261489411547,-10.24608824714263,1.2502878761506822,24.9424612644266,-1.8272704488312967,-2.4982579276387815,1.8727578248482375,1.0,51.54744056024682,-176.3747490967484,449.2919567928161,39.87112361962436,1.129233096209424,-5.654088544031356,448.03793747025117,42.05322606699469,1060.5012618353858,26.38513674183867
1.4000000000000001,56.17009173287971,-177.56593060197983,446.15125450989945,36.96920792078149,5.738751622835352,-7.180232863420177,38.094767993144515,10.996692601808622,-98.92552746213903,-24.389640635009293,32.33012462490638,-96.4394470104867,-150.26922793415315,110.53324675129674,31.824975051950247,-6.998343989583536,1013.5688058877645,0.1227619243939081,41.56439770051271,2.5846760449407293,1.173384233543443,96078.85537963021,285.25001684568565,-4.002967094514228,4.3112240948836895,-0.33609698813953887,55.61392191192581,0.0025346043509128753,0.7799081892144338,nominal,5100.854874265258,885.3489481009294,waypoint,4.784716098257766,16.973993126365112,0.0,-20.05352282957881,-14.32394487827058,-14.32394487827058,-20.052139563685355,-14.32394487824638,-14.216602551942403,0.78,0.0,0.0,0.0,0.0,0.0,0.0,-0.3499758574557286,-0.24999999999957762,-0.2481265229788231,-0.3499758574557286,-0.24999999999957762,-0.2481265229788231,-10.590096917064082,2.752079340818104,22.777484397947294,-1.6837893442920369,-2.619053299675294,1.926840587792606,1.0,56.297627171955426,-173.1017402034493,443.5373196713038,36.88234831142256,5.7028676640410065,-7.4471739753564865,445.7395765160041,41.414136791124385,1027.107908452583,26.38513674183867
1.44,57.613401358881546,-177.31682120882536,445.8461567800935,36.082740650045785,6.227734828861785,-7.627443245148725,37.40222913644386,10.996591217634585,-99.69811630456871,-29.208347858701558,38.52829352657155,-89.32276492406993,-156.27605518069203,96.5469720565949,35.0,-7.8538807782682785,979.4017713526372,0.12067285218719134,40.85722735227896,2.599196260964069,1.173418952060968,96082.36618153313,285.2519999809294,-4.065868613090094,4.061448606959062,-0.36731892413011724,55.92975592504502,0.0025056302122664865,0.7799285916112263,nominal,5071.720585575029,883.9264225666352,waypoint,4.812280249951572,16.985903508626105,0.0,-20.05352282957881,-14.32394487827058,-14.32394487827058,-20.053246176400123,-14.32394487826574,-14.302476413004946,0.78,0.0,0.0,0.0,0.0,0.0,0.0,-0.34999517149114573,-0.2499999999999155,-0.24962530459576462,-0.34999517149114573,-0.2499999999999155,-0.24962530459576462,-10.09419559100766,3.5761016029579706,23.125375015064947,-1.556354431454863,-2.7277240291149765,1.6856668137944133,1.0,56.297627171955426,-173.1017402034493,443.5373196713038,36.88234831142256,5.7028676640410065,-7.4471739753564865,448.9504246462433,40.84959709501094,991.9464779682859,36.245199520174815
1.48,59.01904765082499,-177.05226902576067,445.5228704301147,35.14115729858597,6.613804576617365,-8.082158749469757,36.660123258293574,10.996490992426095,-99.57954526557309,-33.40884285012685,45.30911900446634,-85.28619164417799,-160.63931291706862,79.2783761620195,35.0,-7.764449129704593,943.7458878099704,0.11845359987135361,40.105984064388615,2.585538879088285,1.1734557412053939,96086.08639576402,285.25410134220425,-4.123116620477034,3.8343962955111777,-0.3957004630611028,56.26487286244364,0.0024742961561469473,0.7799444601420649,nominal,5041.069175960123,882.5370666744751,waypoint,4.840937107777601,16.996173677942725,0.0,-20.05352282957881,-14.32394487827058,-14.32394487827058,-20.053467498943075,-14.323944878269613,-14.319651185217454,0.78,0.0,0.0,0.0,0.0,0.0,0.0,-0.34999903429822915,-0.2499999999999831,-0.24992506091915292,-0.34999903429822915,-0.2499999999999831,-0.24992506091915292,-8.267077737235557,3.3406577224699654,23.73317452866515,-1.4863651045009345,-2.803108457245379,1.3844498821322728,1.0,56.297627171955426,-173.1017402034493,443.5373196713038,36.88234831142256,5.7028676640410065,-7.4471739753564865,444.9996235348036,39.89875472437173,940.8083740463348,36.245199520174815
1.52,60.386442737462566,-176.77441821200424,445.18148400445415,34.1848771659394,6.946270343910899,-8.53466064151427,35.91235067225304,10.996392020579849,-98.68885463427834,-37.18498707066286,52.67311343272876,-84.2878682637296,-163.58581915694913,69.32359073375791,35.0,-6.973029361827104,908.4262312882742,0.1162135271430248,39.347693960016564,2.5603510731644494,1.1734945910491599,96090.01502303731,285.25632035397103,-4.174272047367808,3.631822906502043,-0.42102213668724464,56.60288033228222,0.0024420973822040365,0.7799568023327171,nominal,5010.587465515717,881.1820684302089,waypoint,4.870676383923804,17.004917145943864,0.0,-20.05352282957881,-14.32394487827058,-14.32394487827058,-20.053511763451667,-14.323944878270387,-14.323086139659956,0.78,0.0,0.0,0.0,0.0,0.0,0.0,-0.3499998068596458,-0.2499999999999966,-0.2499850121838306,-0.3499998068596458,-0.2499999999999966,-0.2499850121838306,-6.496520052380401,2.629073543059803,24.121705551931303,-1.4688021151871327,-2.8498068995384958,1.2066924461925346,1.0,56.297627171955426,-173.1017402034493,443.5373196713038,36.88234831142256,5.7028676640410065,-7.4471739753564865,444.39592635198636,39.53335591186177,894.9060305480245,51.99919198188985
1.56,61.71536701940471,-176.48511848575362,444.82272584653947,33.22310704855351,7.232493156265322,-8.968953947867375,35.164270703855586,10.996294336684562,-97.10151485712758,-40.88145240386605,60.6109658799822,-85.50332657344596,-165.626209923637,70.3124722126521,35.0,-5.7568063203832045,873.6177094187606,0.11396283226734018,38.58580912053795,2.528911979667886,1.1735354188599074,96094.14370193906,285.25865228199746,-4.218942187297726,3.4552948957298595,-0.44308813803376756,56.94229639288264,0.0024091716880491956,0.7799664018143355,nominal,4980.483751489985,879.8621280889448,waypoint,4.901448227355814,17.012237082498537,0.0,-20.05352282957881,-14.32394487827058,-14.32394487827058,-20.05352061635338,-14.323944878270543,-14.323773130548457,0.78,0.0,0.0,0.0,0.0,0.0,0.0,-0.3499999613719291,-0.24999999999999933,-0.24999700243676612,-0.3499999613719291,-0.24999999999999933,-0.24999700243676612,-4.614840211041597,1.4669826650836288,24.355910589465083,-1.4969084758858227,-2.893258989662653,1.228280384737822,1.0,56.297627171955426,-173.1017402034493,443.5373196713038,36.88234831142256,5.7028676640410065,-7.4471739753564865,445.70288766442644,38.680577765162475,870.409668701767,51.99919198188985
1.6,63.005846468103414,-176.1860183060985,444.44759517650084,32.26198621746763,7.477504491377657,-9.378266750965265,34.41948162548217,10.99619796981704,-94.76020611674885,-44.81516706929351,69.21514421295907,-88.01287530243347,-167.27479794151301,81.45099347390374,35.0,-4.287495025310881,839.4165516622464,0.11170729308219124,37.8222849013451,2.494500223377634,1.1735781110764258,96098.46095344424,285.2610906313527,-4.256784278293179,3.3061773157682777,-0.4617278355289653,57.28229297058787,0.002375600004973566,0.7799738680778165,nominal,4950.892366921084,878.5776316847149,waypoint,4.933186174779416,17.018229710951815,0.0,-20.05352282957881,-14.32394487827058,-14.32394487827058,-20.053522386933725,-14.323944878270574,-14.323910528726156,0.78,0.0,0.0,0.0,0.0,0.0,0.0,-0.34999999227438583,-0.24999999999999986,-0.24999940048735322,-0.34999999227438583,-0.24999999999999986,-0.24999940048735322,-2.796582486117533,0.4056279473199603,24.266970683187406,-1.5340143819768624,-2.915133757445818,1.4217388215971334,1.0,62.64342046854256,-174.974309577568,440.1240031816209,32.44144639004311,7.601559556653622,-9.367934916127309,443.66135986832944,37.837466153941,836.5793823496791,68.6116925088155
1.6400000000000001,64.25807059773764,-175.87865021462912,444.05714439688325,31.305603240855696,7.684202286734797,-9.761269490439746,33.68041183124584,10.99610294581684,-91.40228594515118,-49.19702734902289,78.778498131925,-91.27170946966652,-168.95952262298067,100.51397512752757,35.0,-2.6022156188918375,805.8727592005307,0.10945002060823278,37.05817375570626,2.4587021927179222,1.1736225480791764,96102.95468569812,285.26362856142026,-4.2875084683264735,3.185623260312807,-0.47679709246089913,57.62243441410036,0.0023414278363426745,0.7799796751716351,nominal,4921.898065660857,877.3287716208972,waypoint,4.965820684510868,17.022988011809186,0.0,-20.05352282957881,-14.32394487827058,-14.32394487827058,-20.053522741049797,-14.323944878270579,-14.323938008361695,0.78,0.0,0.0,0.0,0.0,0.0,0.0,-0.34999999845487717,-0.24999999999999997,-0.24999988009747065,-0.34999999845487717,-0.24999999999999997,-0.24999988009747065,-0.9424152230873833,-0.859004679256562,24.133112180639564,-1.5923268589442012,-2.9503945105371665,1.7556117688026012,1.0,62.64342046854256,-174.974309577568,440.1240031816209,32.44144639004311,7.601559556653622,-9.367934916127309,443.47020945609927,37.06424474784138,796.957400971966,68.6116925088155
1.68,65.47234985604096,-175.56445642303382,443.65238566986756,30.356981457583085,7.85484478988258,-10.118968175392427,32.94902770680485,10.996009288703387,-86.43832811878585,-54.10446101320257,89.93551330757816,-95.14774100894496,-171.01705048901013,125.71397934978403,35.0,-0.6282467155735076,773.0209814723718,0.10719332066078059,36.294255575926364,2.4230825680052877,1.173668614820912,96107.61326899234,285.2662594931458,-4.310880184605454,3.0945649475589807,-0.4881793815551274,57.96239922766014,0.0023066909335115945,0.7799841918001607,nominal,4893.562881341302,876.1156022212488,waypoint,4.999284988553205,17.026602459455074,0.0,-20.05352282957881,-14.32394487827058,-14.32394487827058,-20.05352281187301,-14.32394487827058,-14.323943504288804,0.78,0.0,0.0,0.0,0.0,0.0,0.0,-0.3499999996909754,-0.25,-0.24999997601949414,-0.3499999996909754,-0.25,-0.24999997601949414,0.8487431949252795,-2.1294482223074773,23.64063071658162,-1.6595817509312145,-2.984782783424963,2.1933448348092,1.0,62.64342046854256,-174.974309577568,440.1240031816209,32.44144639004311,7.601559556653622,-9.367934916127309,443.7969085355996,36.02848751414115,774.8935153489941,91.31641981982037
1.72,66.64908161993347,-175.24475956696722,443.2342624484162,29.418294097312746,7.992421401665168,-10.453080536283617,32.22703399563498,10.995917021066047,-78.66137880602139,-59.42911838948531,103.96897417284319,-99.82857173228544,-173.73097860303557,156.4380674690491,35.0,1.784185170687966,740.8864429612618,0.10493902734636217,35.53115061651852,2.3904599673353606,1.173716204066348,96112.42586336848,285.2689772940853,-4.3267219784367414,3.0337065115625377,-0.4957866860546828,58.301931398605795,0.0022714196335063513,0.7799877047334582,nominal,4865.9341399176665,874.9380657584501,waypoint,5.033516885985381,17.029158480728473,0.0,-20.05352282957881,-14.32394487827058,-14.32394487827058,-20.053522826037653,-14.32394487827058,-14.323944603474224,0.78,0.0,0.0,0.0,0.0,0.0,0.0,-0.3499999999381951,-0.25,-0.24999999520389882,-0.3499999999381951,-0.25,-0.24999999520389882,2.5663360175630134,-3.7066657987651586,22.99219429913589,-1.74052332761668,-3.031615672250145,2.7296059139749103,1.0,62.64342046854256,-174.974309577568,440.1240031816209,32.44144639004311,7.601559556653622,-9.367934916127309,441.81273461213794,34.86216173221386,743.1794507608953,91.31641981982037
1.76,67.78869536198903,-174.92070553341676,442.80362977303,28.490343551389145,8.101350838761075,-10.76581688465379,31.515621115294117,10.995826164280707,-65.6395489645557,-64.66631994111631,123.43422871938975,-105.7124226836347,-177.39666137290263,193.30827863366136,35.0,4.838492337303824,709.4715373741936,0.10268748101513504,34.768973440988376,2.3657463602402347,1.1737652186348828,96117.38264542459,285.2717764064753,-4.334914916009336,3.003518557324473,-0.4995601803344409,58.6409954468027,0.0022356219443453985,0.779990437014912,nominal,4839.037403055071,873.7960295476139,waypoint,5.068459903720894,17.03073173174322,0.0,-20.05352282957881,-6.696554835762372,-14.32394487827058,-20.05352282887058,-9.52394487827058,-14.32394482331131,0.78,0.0,0.0,0.0,0.0,0.0,0.0,-0.349999999987639,-0.16622419590427218,-0.24999999904077977,-0.349999999987639,-0.16622419590427218,-0.24999999904077977,3.956663393705479,-5.393587897430264,22.260533182716692,-1.8471429298361657,-3.0942688280856894,3.3726749052981657,1.0,62.64342046854256,-174.974309577568,440.1240031816209,32.44144639004311,7.601559556653622,-9.367934916127309,441.5469502798882,34.95670996684665,711.3817405176559,123.00940917917897
1.8,68.89155363299729,-174.59321702652284,442.361199616226,27.57145677520663,8.187212672347986,-11.060753920101183,30.814865849624866,10.995736739402934,-42.383863918086114,-68.15004105183554,152.25832310367753,-81.51572609340245,-182.40126425956038,237.30827863366136,35.0,7.518737480977613,678.7303621719708,0.10043547671996128,34.00663829210047,2.336991063823836,1.1738155776224144,96122.47543754877,285.2746522024945,-4.335399570149338,3.0042345217052917,-0.49947068478683854,58.98008619119505,0.0021992483087071046,0.7799925621227093,nominal,4812.85943688165,872.6893714853634,waypoint,5.104066475868691,17.03138316173167,0.0,-20.05352282957881,14.235253936756859,-14.32394487827058,-20.053522829437167,-4.723944878270581,-14.323944867278726,0.78,0.0,0.0,0.0,0.0,0.0,0.0,-0.3499999999975278,-0.08244839180854437,-0.24999999980815596,-0.3499999999975278,-0.08244839180854437,-0.24999999980815596,5.277706800343566,-6.791671551952257,21.276177641637112,-1.4189342846114248,-3.1822567135280426,4.143938477442189,1.0,71.60057442438558,-175.83574255937503,444.0713596555678,27.181115999946492,7.972673113612017,-10.96486823895725,442.1995394368665,33.95623664313638,670.4252972914671,123.00940917917897
1.84,69.95806075427114,-174.2634016546171,441.9072984398268,26.6626780318463,8.245384297643248,-11.347529409980236,30.12724988703894,10.995648769470586,-12.07976854697331,-66.60720362242758,-172.55542737251344,-58.192508748865826,-186.41345144555723,281.30827863366136,35.0,10.062378269535627,648.7603158873793,0.09819035756137418,33.24663106357954,2.304888680564956,1.1738672440002869,96127.70049909451,285.2776025601411,-4.328176835263079,3.035848868308722,-0.49551889146140976,59.3181078820444,0.002162420228228004,0.7799942149843294,nominal,4787.455801122971,871.6180174622101,waypoint,5.140313802262218,17.031186741730338,0.0,-20.05352282957881,14.32394487827058,-14.32394487827058,-20.05352282955048,0.0760551217294189,-14.32394487607221,0.78,0.0,0.0,0.0,0.0,0.0,0.0,-0.34999999999950554,0.0013274122871834437,-0.2499999999616312,-0.34999999999950554,0.0013274122871834437,-0.2499999999616312,6.329107528251951,-8.044935218343802,20.176187426961704,-1.0179026311757573,-3.2552543287054148,4.911452580797348,1.0,71.60057442438558,-175.83574255937503,444.0713596555678,27.181115999946492,7.972673113612017,-10.96486823895725,443.0366885892417,32.884461023379714,652.8186768856208,-172.63646751872008
1.8800000000000001,70.98866977843706,-173.9325198703949,441.44196433370615,25.765225604147908,8.272044605554985,-11.633352653015773,29.455194216612448,10.995562272661457,11.979002083356391,-58.887714049287624,-144.07615547255935,-35.599890773218156,-188.82100125114184,325.30827863366136,35.0,12.624561299248926,619.661110218606,0.09596032783081337,32.49172941512594,2.2959776422333023,1.17392021356455,96133.05740900674,285.28062723183086,-4.313307770926076,3.098117130293459,-0.48773535871331763,59.65383298487754,0.002125280920964644,0.7799955005433673,nominal,4762.871072702319,870.5819175994873,waypoint,5.1771977350802665,17.03022763019291,0.0,11.70667365141304,14.32394487827058,14.32394487827058,-15.253522829550482,4.876055121729419,-9.523944876072209,0.78,0.0,0.0,0.0,0.0,0.0,0.0,-0.2662241959037777,0.08510321638291125,-0.16622419586590337,-0.2662241959037777,0.08510321638291125,-0.16622419586590337,7.160669165637488,-8.344504429742948,19.738759627652122,-0.6210837156912267,-3.2979673543594914,5.676343481699542,1.0,71.60057442438558,-175.83574255937503,444.0713596555678,27.181115999946492,7.972673113612017,-10.96486823895725,441.7460833684021,32.8077544345874,611.2633233741465,-172.63646751872008
