time_s,x_m,y_m,altitude_m,vx_mps,vy_mps,vz_mps,speed_mps,mass_kg,roll_deg,pitch_deg,yaw_deg,p_dps,q_dps,r_dps,alpha_deg,beta_deg,qbar_pa,mach,airspeed_mps,load_factor_g,density_kgpm3,pressure_pa,temperature_k,wind_x_mps,wind_y_mps,wind_z_mps,thrust_n,mass_flow_kgps,propulsion_throttle_actual,propulsion_health,energy_j_per_kg,target_distance_m,guidance_mode,pitch_command_deg,heading_command_deg,roll_command_deg
0.0,0.0,-180.0,450.0,42.0,2.0,0.0,42.04759208325728,11.0,0.0,3.0000000000000004,3.999999999999999,0.0,0.0,0.0,3.4675827967385846,-14.004401711413385,1203.383344165056,0.13379477880266702,45.29788499340546,1.445343206607887,1.1729463340241415,96034.57625081437,285.22499999999997,-2.6076439091004775,9.86942436359809,0.3586780454497614,11.991235629318206,0.0005955894873527215,0.17333333333333334,nominal,5296.992499999999,939.4147114027968,waypoint,4.273326075035703,16.11341823308929,0.0
0.04,1.6724232938163421,-179.90173524558614,449.9954156471345,41.810582345408555,2.4566188603462247,-0.11460882163664035,41.88284741357965,10.999976176420505,1.8554356586470606,3.204854331040006,2.234213403357622,44.0,-5.8351358757344665,-44.0,3.4626773896465406,-12.132200240223126,1188.4965620041958,0.13296459449790934,45.016818132084325,1.5033803370311383,1.172946855544633,96034.62898314334,285.2250297982936,-2.54921784659964,10.103156119718633,0.3878945149648293,21.36712006260753,0.0010546927169570322,0.30814814814814817,nominal,5290.03399659057,937.7856838771257,waypoint,4.281043974254907,16.136072589936457,0.0
0.08,3.339031763518387,-179.78620133805566,449.990123031578,41.66521174255112,2.888347688262135,-0.13231538891283184,41.76541546880687,10.999933988711827,4.968304909737101,2.755030767244289,-1.2676891831977941,73.28498277288153,6.022826859741932,-88.0,2.727606403209324,-8.543428855692738,1176.2932902169416,0.1322801628084675,44.78509796712536,1.1721496346007132,1.1729474576380055,96034.68986241825,285.2250642002947,-2.4967918537171325,10.312891846942001,0.4141114808677501,28.692425982596713,0.0014089836716503145,0.4130041152263375,nominal,5285.07060466865,936.1576497778433,waypoint,4.2888277218382855,16.15768890145514,0.0
0.12,5.002663506765753,-179.65585260549736,449.97962615456913,41.590793581184144,3.2587183139575355,-0.2624219252212373,41.71908701097409,10.999877629364962,8.199653379581903,2.097368009726337,-6.505972126473185,75.25332224980524,1.3210643864517713,-131.99999999999997,2.562722768194998,-3.225193454493234,1168.5748840433923,0.13184537865002138,44.637901709772024,0.7824194471383671,1.1729486517741972,96034.81060475142,285.22513242999526,-2.4507781346001423,10.497009704672017,0.4371262130840022,34.39972471015319,0.0016836968535691161,0.4945587562871514,nominal,5283.033811343319,934.528890337653,waypoint,4.296961981805854,16.178455191481582,0.0
0.16,6.665101351755851,-179.51659684306065,449.96180482025653,41.56094612475245,3.4813940609175833,-0.445533357815565,41.708882115982135,10.999810281490818,11.03300134462342,1.4089010105314503,-13.522185312611972,65.47207846013549,-12.358053279805771,-176.0,3.3396610914043854,3.686214403119336,1164.6466637801996,0.13162344935718912,44.56277382154001,0.643829022089307,1.1729506791507809,96035.01559833555,285.22524826866834,-2.411535805343297,10.654085949705271,0.45676074371315895,38.83567817303059,0.0018976157265689474,0.5579901437788956,nominal,5282.433356923015,932.8994875997672,waypoint,4.3055788249868225,16.198747112021778,0.0
0.2,8.325685946816352,-179.37681940668725,449.938211998574,41.51461487651251,3.4944359093350195,-0.5898205420637924,41.66559994697597,10.999734376861756,12.886813517791758,0.8707626104787879,-20.982660786259036,42.63297250203355,-25.539087802680662,-185.4956645237487,4.813713009020488,10.752179706821295,1161.7708167168219,0.1314606551212462,44.50766975090087,1.1200754167075408,1.1729533631028823,96035.28698019177,285.22540162200926,-2.3793661955705088,10.78290594572652,0.47286324321581513,42.28846776740278,0.002063773199192082,0.6073256673835854,nominal,5280.397676166538,931.2722861363918,waypoint,4.314571797510462,16.2190476559732,0.0
0.24,9.98080322154627,-179.24536796340612,449.91341027208307,41.377931868247956,3.286286082028163,-0.620043162273571,41.51285795304129,10.999651825933789,13.436339857476336,0.7062643353052868,-26.752317944681373,11.751533145954433,-28.863979977800472,-141.4956645237487,6.1603752518476895,15.908981268138138,1156.2125110160491,0.1311456070990833,44.40101880075414,1.6933600270437195,1.1729561845867365,96035.57226842309,285.22556283323144,-2.3545114956353306,10.882473555826179,0.4853091944782724,44.999592019277124,0.0021908198807831024,0.6456977412983442,nominal,5273.802032559415,929.6528715086805,waypoint,4.323634794196637,16.239819321053105,0.0
0.28,11.625999807653875,-179.12848372541876,449.8928031893254,41.12991465269012,2.922105949684221,-0.5151770689419148,41.2368038277837,10.999564193138557,12.772260666684113,0.47783198743089444,-30.701802385798935,-17.622859361208125,-16.832046922072117,-97.49566452374872,6.468831970363795,19.296329614473976,1146.4990375055154,0.13059339941391146,44.2140722241299,1.875093536825938,1.1729585288851976,96035.80930720911,285.22569677926936,-2.337156083863613,10.952018845409595,0.49400235567619943,47.15151421472218,0.0022859215514987,0.67554268767649,nominal,5262.178253362156,928.0468492162644,waypoint,4.3324071748226505,16.26135783217794,0.0
0.32,13.25876443853757,-179.02891448210215,449.87678716623304,40.81911577209237,2.489231082915544,-0.40040057730805256,40.89690458240013,10.999472756276496,11.045949348926047,0.1874335764720568,-32.826988023579325,-43.46959940364106,-3.861654161989189,-53.495664523748715,5.766433693369464,20.977610187111217,1134.6711608276262,0.12991789388520214,43.985379180802624,1.7523186610433363,1.1729603508990047,96035.99353636269,285.2258008834195,-2.3274338102673484,10.991004035933209,0.498875504491651,48.86280256321368,0.0023566325642320704,0.6987554237483811,nominal,5248.06259707471,926.4573721229568,waypoint,4.340847649687742,16.283786161081068,0.0
0.36,14.879087525878404,-178.94690642307486,449.86219376981643,40.50807718352083,2.0502014756819316,-0.3648349104160698,40.56156737243801,10.999378490973927,8.479094651517803,-0.012565853115120802,-33.1778865087639,-64.19549612828027,3.4409428735484706,-9.49566452374872,4.487883300999825,20.950944002734136,1123.427779809285,0.12927250454306813,43.766881569921715,1.4864564098699773,1.1729620110739305,96036.16140157143,285.2258957404962,-2.3254247934881174,10.999127663428633,0.4998909579285791,50.214587294370105,0.002409798130696482,0.7168097740265186,nominal,5234.261456387184,924.884772232674,waypoint,4.349149327362953,16.30712220646888,0.0
0.4,16.48882601069753,-178.88122762992901,449.8447690414186,40.24346212047809,1.6419698286462465,-0.4356182099463768,40.27930078322334,10.999282099048699,5.338538186359226,-0.06413186077915621,-31.78196119781336,-78.55695178254192,5.47993821650395,34.50433547625128,3.1062546485162406,19.20867729667741,1114.6663735920806,0.12876729728053632,43.59584576030882,1.165254833917848,1.1729639933493865,96036.36183539283,285.22600900123075,-2.3311511190234406,10.976326909657725,0.4970408637072156,51.26953995214222,0.0024508102587232268,0.73085204646507,nominal,5222.681240112716,923.3272664738038,waypoint,4.357584208027461,16.33132826842612,0.0
0.44,18.090985456945184,-178.82959684975435,449.8205722447584,40.05398615619134,1.2907695043663232,-0.604919916504973,40.07934406922292,10.99918406663835,1.9196445848068555,-0.016371158719229208,-28.640696099763638,-85.55294345261355,3.78214287196626,78.50433547625127,2.0268508313243845,15.777645940082396,1109.3996638267597,0.1284625433273048,43.492679331202204,0.8519705119995767,1.172966746034485,96036.64016777769,285.2261662804091,-2.344574619664787,10.9227780878723,0.4903472609840376,52.07932586589871,0.002483628749638944,0.7417738139172766,nominal,5214.409825313637,921.7816564771516,waypoint,4.366413395528212,16.35632392151155,0.0
0.48,19.68884794252344,-178.7891002295113,449.7867094063782,39.946562139456404,1.0124155060767857,-0.8465709595060816,39.968356162192556,10.999084721488364,-1.4535765433413972,0.034463487706755815,-23.745790659789094,-84.33554563632538,-0.7731736094290566,122.50433547625127,1.5400432963713426,10.70883002841367,1107.6583433737,0.12836142562686303,43.45846137555747,0.6008293189676203,1.172970598359761,96037.02968839201,285.22638638885854,-2.3655961160348697,10.838895279422252,0.4798619099277814,52.69036570224032,0.002510791910893431,0.7502685219356596,nominal,5209.635580953996,920.2442224813726,waypoint,4.375836979197687,16.381995483785634,0.0
0.52,21.28516921560837,-178.75659288787358,449.74191964976563,39.90803182712317,0.812683540943064,-1.1197439153136397,39.93200828017891,10.998984289811927,-4.414164430634177,0.06681403355293868,-18.56002878769006,-73.91643399724057,-7.450326962421739,129.56424212086492,1.7451936045060203,5.5189861118602925,1108.6031429388054,0.12841581373555214,43.47689737900592,0.4319358007063389,1.172975693774771,96037.54490214513,285.2266775222765,-2.3940553375866394,10.725327131754849,0.46566589146935605,53.14641258595223,0.0025335977259449056,0.7568755170610686,nominal,5207.744238977512,918.7115575945928,waypoint,4.385952875783277,16.408205747762356,0.0
0.56,22.881998659978397,-178.72782159738327,449.68707318206106,39.920736109250655,0.7192822622578873,-1.371161692614095,39.95075246931552,10.99888294590289,-6.807337424200082,0.18352909376371213,-14.586173542183833,-59.62080565705151,-12.623568447436083,98.64596358930812,2.386958383298289,1.7693973642903833,1110.9094600817336,0.1285488990208583,43.5219823874853,0.536247708067134,1.1729819332940046,96038.1758006618,285.2270340243166,-2.4297314295855017,10.582951842565627,0.44786898032070355,53.48766529374296,0.0025525101171732342,0.7620142910474978,nominal,5207.9550476531185,917.1804520490754,waypoint,4.39672532140207,16.43473783919127,0.0
0.6,24.480382824759953,-178.69822021589192,449.6247657094043,39.959604119538916,0.7400345372837136,-1.557686816418674,39.99679988104909,10.998780845498203,-8.756085353899373,0.35294815720741685,-12.35744097953843,-48.46243457514999,-11.743254422090756,54.645963589308124,3.0026810704751004,-0.027250961115225198,1113.1498724092223,0.12867797824246313,43.56571484761973,0.7388364389616139,1.1729890216331438,96038.89252713561,285.22743902288886,-2.472345259214066,10.41287036888731,0.4266087961109138,53.74911751365254,0.0025675643935427522,0.766011115259165,nominal,5209.184709006473,915.6484275108023,waypoint,4.408006632067915,16.461337114813567,0.0
0.64,26.080673230136643,-178.66424760966564,449.5573363689323,40.00726013441724,0.8493151556572314,-1.6857335118008017,40.051765219143185,10.998678142922461,-10.53941724211988,0.5101569996566545,-11.898810557395823,-44.500515921384824,-5.796845823336163,10.645963589308122,3.2955351802694346,0.08204026260844811,1114.8172323899698,0.1287737939668624,43.59818808771997,0.8376836122188155,1.1729966926927031,96039.66817563206,285.22787731360194,-2.5215645170392555,10.216397913629384,0.40204973920367304,53.953007005014975,0.002579225161516136,0.7691197563126839,nominal,5210.723401287073,914.1139707677623,waypoint,4.419659702040353,16.487796864423512,0.0
0.68,27.683007330878112,-178.62417348143478,449.48567958509466,40.058352518536694,1.0018532057710534,-1.7914195959407102,40.11090251432881,10.998574973916,-12.515796881399575,0.7057449414873525,-13.220355530320765,-49.765069733016134,1.8115742048648533,-33.354036410691876,3.1847597045075413,2.0460809759003378,1116.3148821883376,0.12885970956035525,43.6273116473046,0.8092377680353252,1.1730048447269525,96040.49245852031,285.2283430826969,-2.577008041772081,9.99505375540111,0.37438171942513854,54.10980772146326,0.0025884489524561475,0.7715375882431986,nominal,5212.390989960162,912.5763903322461,waypoint,4.431633557168262,16.514014627220906,0.0
0.72,29.2874683894943,-178.57848753884844,449.40952406461105,40.11152646540473,1.1421485646584864,-1.903888012090269,40.172924318391324,10.998471435957901,-15.112241897409108,1.0496266138491246,-16.32086888637628,-66.11048676113236,10.164551103318926,-77.35403641069188,2.5856633307102994,5.803713148306908,1118.2924271928812,0.12897320793446668,43.66577604817143,0.6722416484769855,1.1730135086075006,96041.3684975912,285.22883809358,-2.6382483388376703,9.750549500261652,0.3438186875327065,54.22473731457862,0.0025962338112382835,0.7734181241891545,nominal,5214.1338333138165,911.0357634112061,waypoint,4.443946695943604,16.540020582906838,0.0
0.76,30.89364844201396,-178.53090069418278,449.32791192884594,40.15450131299144,1.1896711166415805,-2.040303394127802,40.2238999974007,10.998367586605452,-18.83755357027123,1.4206837612773981,-20.326902233649474,-95.32768057357453,20.383539287412596,-98.56760081131551,1.2514231218196186,10.320955229346378,1120.973671543115,0.12912709885958862,43.717918737803444,0.49477648178899014,1.173022793317652,96042.30731287505,285.2293685724625,-2.704814170545714,9.48477584624407,0.31059698078050874,54.304253192954015,0.0026031457546125732,0.7748807632582313,nominal,5215.3826330174625,909.4936068849061,waypoint,4.456654061917679,16.566031350730942,0.0
0.8,32.50056526699761,-178.48697505035483,449.2374174365548,40.172920624591285,1.098141095698704,-2.262362307279465,40.25155585297509,10.998263460775268,-24.17716643344702,1.2180529622139988,-22.869244943543954,-135.0539345256038,28.04372588310604,-57.33351034893518,-0.8542489041973279,12.972698030483812,1124.1771106960455,0.12931077157246537,43.780149036143584,0.6216153428838737,1.1730330886063127,96043.34831395568,285.2299567866624,-2.7761968830951385,9.199787963000118,0.27497349537501475,54.35645131044973,0.0026093569511484336,0.7760183714230688,nominal,5215.607993996776,907.9527127685726,waypoint,4.469960814126173,16.592366784702556,0.0
0.84,34.10622710062641,-178.45264269830002,449.1299994743203,40.141545840720106,0.8583088013701055,-2.6854490558619593,40.2404278445542,10.998159086497223,-30.890791158405595,0.9092021057243929,-23.630800857786078,-168.38755804020332,15.673600942343764,-13.333510348935178,-2.6614831290101026,13.610889199260047,1127.0666294999035,0.12947601841074255,43.836149546184984,0.9898243065101665,1.173045309317433,96044.58400559965,285.23065500341687,-2.851857600883029,8.897789599621962,0.23722369995274525,54.39362887472464,0.0026144816334562667,0.776903177773498,nominal,5214.10672590123,906.4173163825573,waypoint,4.484358841417102,16.619352812932938,0.0
0.88,35.7080112472814,-178.4319890753465,449.00064271658783,40.04460366637457,0.5163405738382549,-3.233918943312006,40.17829167743601,10.998054507231885,-37.65892152355245,0.4949632085724759,-22.431210110385443,-169.03151324172683,-8.345441790736782,30.666489651064822,-3.2852872722982256,12.37927391991485,1128.329850600336,0.12954755314888985,43.86043340779386,1.1171351705835886,1.1730600260875244,96046.07208912537,285.23149582234214,-2.931220025042247,8.581116043531484,0.19763950544143538,54.43104761799383,0.0026177295387779334,0.7775913604904985,nominal,5210.339713955188,904.8915092618711,waypoint,4.500151653741101,16.64719330541937,0.0
0.92,37.30531790253912,-178.42642219085644,448.8478778841566,39.93266638144307,0.1391721122518232,-3.8191208107809245,40.1151205529262,10.997949798050334,-44.25062603308724,0.49803705599492837,-20.080918781998605,-164.46370371612653,-38.638736627913964,44.40227435250542,-2.4668554070446347,10.68866930915267,1129.6825890515934,0.12962400035628405,43.886392244833125,0.8491847696778692,1.1730774061493527,96047.82947655897,285.23248879375296,-3.0136741676206604,8.252216062212419,0.15652700777655232,54.45700152509832,0.002620527773473619,0.7781266137148322,nominal,5206.305490140565,903.3764191560425,waypoint,4.51743373310382,16.675966788674305,0.0
0.96,38.8999866853824,-178.43350409221597,448.6761710829733,39.86671957108194,-0.17704753398796885,-4.292670029582303,40.09755218428492,10.997844976939394,-50.601776359078734,0.47172044307903593,-16.97965105438205,-158.28324547258154,-56.748058988263786,53.02941736294533,-0.9135289888523066,8.815487505514412,1132.5643325029905,0.12978789145257685,43.94196631116151,0.5320762994914648,1.173096941474966,96049.80480110084,285.23360488796067,-3.0985775015190566,7.913632967425933,0.1142041209282416,54.46147466980378,0.002624061716224445,0.7785429217782028,nominal,5203.917018736567,901.8692796293714,waypoint,4.53594139574488,16.705562078461718,0.0
1.0,40.49465200429357,-178.44885195810298,448.489947707792,39.86663297277914,-0.38369664717486474,-4.655584379532792,40.139383572973365,10.997740014470745,-56.67934642326756,0.19418867209610005,-13.422130196278784,-151.56342630382744,-67.62610132716571,58.412110986381265,1.0359016243890045,6.931542418264792,1137.359184158854,0.13006088738053265,44.034487303944864,0.35293554930814314,1.1731181286530654,96051.94716229745,285.23481533989934,-3.185268841354326,7.567984948335943,0.07099811854199292,54.4430500708233,0.0026286971459777444,0.7788667169386022,nominal,5203.76900249776,900.3660032956133,waypoint,4.555418617722593,16.73576322967452,0.0
1.04,42.090993326522444,-178.4663252861135,448.2928671052867,39.90853305572185,-0.4368332002624196,-4.927015062632865,40.21389450590313,10.997634866584907,-62.46903107385647,-0.32829136145608856,-9.597320141949615,-144.9776349607083,-75.9655563677155,59.782344952196155,3.238175078113429,5.212263960322784,1142.516615403334,0.13035390024242025,44.13379126118281,0.6419784627803214,1.173140551408518,96054.21446994827,285.2360963638156,-3.273074492936112,7.217944825623831,0.027243103202978812,54.416553173686566,0.002633342981272519,0.7791185576189128,nominal,5204.829900864012,898.8629583792848,waypoint,4.575654617078492,16.766228084978874,0.0
1.08,43.68920209059972,-178.47782625450145,448.08799174252493,39.95521910193189,-0.2875242096987719,-5.121884069044001,40.283196249444664,10.997529532865656,-67.97893634986424,-1.0848503579096913,-5.649199683523699,-139.07441293442892,-81.81810823502256,58.62000203639888,5.529166220811734,3.7521742348120863,1145.9234006637846,0.13054650017885258,44.19910280788112,1.1357171689045884,1.173163861356844,96056.57149811747,285.23742805367357,-3.3613131665988263,6.866219383149544,-0.016722577106306955,54.401221900131205,0.002636496929427909,0.7793144337035989,nominal,5205.610054257469,897.3574016037919,waypoint,4.596471169812786,16.796465040762257,0.0
1.12,45.288495671496364,-178.47444501208133,447.87716961367096,39.98233952241596,0.0845310605028114,-5.270553221348799,40.32831945971721,10.997424072988478,-73.22488400084956,-2.1047499897770434,-1.6705144066318431,-134.01580673657557,-85.45044230312082,57.150909433190854,7.784910616347179,2.543228216745998,1146.6792375719017,0.13058789780506305,44.21322499870368,1.6417153059215153,1.17318784827576,96058.99699089747,285.2387983975111,-3.449302136333772,6.515528436982884,-0.06055894537713944,54.4055823533076,0.002637550716855583,0.7794667817694658,nominal,5205.361320614408,895.8473625672692,waypoint,4.6177630305318695,16.825911504446555,0.0
1.16,46.8869753921047,-178.44740872150055,447.6608242637981,39.9619930152085,0.6759072645194995,-5.408633746821716,40.33201030676579,10.997318570959804,-78.21629134102741,-3.4429741142134773,2.3163405338246377,-129.69946956495497,-88.36239034986455,57.04855054183127,9.971430255906691,1.5072120665601223,1144.1263968818628,0.13044076354956038,44.16351852721241,2.1140650018999216,1.1732124640057615,96061.48607947929,285.2402046422853,-3.5363628126894255,6.1685838036595095,-0.10392702454256135,54.435940725198655,0.0026360555666266965,0.7795852747095845,nominal,5203.388549959105,894.3320704171817,waypoint,4.639509753545065,16.853988868764926,0.0
1.2,48.4816472737111,-178.38874249263887,447.4380297903799,39.86679704015993,1.4666557215421436,-5.569861835453415,40.28071431979425,10.997213128737139,-82.93958053414492,-5.171251457228926,6.373619226814047,-125.78479736779222,-92.84931826353252,59.251010341802434,12.168592989672668,0.5353171838677395,1137.861871643081,0.13008143153848034,44.04197076707114,2.3164162766900613,1.1732378139286996,96064.04942086489,285.2416528063625,-3.621825872740522,5.828068330295633,-0.14649145871304595,54.49639383086573,0.0026317199386072195,0.7796774358852324,nominal,5199.136127900268,892.8121229000654,waypoint,4.661770569204278,16.880143261235553,0.0
1.24,50.06685611775677,-178.29567621507547,447.20648397450185,39.630221101141764,2.326656939084608,-5.788645396952116,40.118277288154175,10.997107859939595,-87.32829644987692,-7.380174943961355,10.789792581257034,-121.8681079707009,-104.83049415610499,64.40394638991755,14.842057551253651,-0.47217203875666797,1125.9588973220855,0.1293974690291881,43.81051558067956,2.5848687135138837,1.1732641600378793,96066.71350871153,285.2431578541657,-3.7050364868590226,5.496615148716899,-0.18792310641038767,54.60427592253887,0.0026230717994255646,0.7797491167996252,nominal,5190.335552353162,891.2922648583412,waypoint,4.684672002815779,16.904088125704092,0.0
1.28,51.63564677362679,-178.16583542784764,446.9640507392561,39.21976639675051,3.2460196806960697,-6.060830881143553,39.81784010908891,10.997002937067618,-91.25410890294445,-10.33931461678722,15.806795646284181,-117.54721412711287,-123.22509421210725,75.58565980600532,18.257504506679773,-1.7102700269285696,1107.1131481509433,0.12830814091493115,43.44181826757284,2.9226298873475676,1.173291745441519,96069.50292763322,285.2447336701948,-3.785357095384928,5.176787314024753,-0.2279015857469059,54.77206192858324,0.0026089889917124544,0.7798048686219308,nominal,5175.950203658611,889.7785816099301,waypoint,4.708323135173049,16.925534388273586,0.0
1.32,53.17910648409045,-177.9978749089006,446.7087890205774,38.58649276159149,4.199012973675913,-6.38154296696683,39.33539403937241,10.99689857750795,-94.59568153705054,-14.327545185883459,21.12939453958675,-112.05590196698894,-135.1831634467302,93.04062206509515,22.206585946706205,-3.3743817785064136,1079.3021486342113,0.12668438584587277,42.89218154029266,2.963504373132651,1.1733207910777035,96072.44002102,285.2463928713662,-3.8621723202064295,4.871057985050817,-0.26611775186864783,55.019428573791274,0.002587613287971733,0.7798482311503906,nominal,5154.353357964992,888.2793089785569,waypoint,4.732809032798104,16.94421724115947,0.0
1.36,54.691323416048455,-177.79548066689324,446.43846382443627,37.80542329895024,5.05985605018375,-6.758129903528092,38.73660405681365,10.996795072976433,-97.19875783701396,-19.17467398458195,26.601905443238632,-104.61767507321586,-143.06934242659727,107.18753887690713,26.70318065922993,-5.28839743112746,1046.7238758771443,0.1247557594891653,42.239326730268374,2.7469109922958306,1.1733515513516293,96075.55051712251,285.24814998514114,-3.9348944792734666,4.581791299959516,-0.3022760875050605,55.312023342942005,0.0025617791952793406,0.7798819575614149,nominal,5128.328008191083,886.8013126765741,waypoint,4.7582408030843135,16.960238313250997,0.0
1.4000000000000001,56.17009173287971,-177.56593060197983,446.15125450989945,36.96920792078149,5.738751622835352,-7.180232863420177,38.094767993144515,10.996692601808622,-98.92552746213903,-24.389640635009293,32.33012462490638,-96.4394470104867,-150.26922793415315,110.53324675129674,31.824975051950247,-6.998343989583536,1013.5688058877645,0.1227619243939081,41.56439770051271,2.5846760449407293,1.173384233543443,96078.85537963021,285.25001684568565,-4.002967094514228,4.3112240948836895,-0.33609698813953887,55.61392191192581,0.0025346043509128753,0.7799081892144338,nominal,5100.854874265258,885.3489481009294,waypoint,4.784716098257766,16.973993126365112,0.0
1.44,57.613401358881546,-177.31682120882536,445.8461567800935,36.082740650045785,6.227734828861785,-7.627443245148725,37.40222913644386,10.996591217634585,-99.69811630456871,-29.208347858701558,38.52829352657155,-89.32276492406993,-156.27605518069203,96.5469720565949,35.0,-7.8538807782682785,979.4017713526372,0.12067285218719134,40.85722735227896,2.599196260964069,1.173418952060968,96082.36618153313,285.2519999809294,-4.065868613090094,4.061448606959062,-0.36731892413011724,55.92975592504502,0.0025056302122664865,0.7799285916112263,nominal,5071.720585575029,883.9264225666352,waypoint,4.812280249951572,16.985903508626105,0.0
1.48,59.01904765082499,-177.05226902576067,445.5228704301147,35.14115729858597,6.613804576617365,-8.082158749469757,36.660123258293574,10.996490992426095,-99.57954526557309,-33.40884285012685,45.30911900446634,-85.28619164417799,-160.63931291706862,79.2783761620195,35.0,-7.764449129704593,943.7458878099704,0.11845359987135361,40.105984064388615,2.585538879088285,1.1734557412053939,96086.08639576402,285.25410134220425,-4.123116620477034,3.8343962955111777,-0.3957004630611028,56.26487286244364,0.0024742961561469473,0.7799444601420649,nominal,5041.069175960123,882.5370666744751,waypoint,4.840937107777601,16.996173677942725,0.0
1.52,60.386442737462566,-176.77441821200424,445.18148400445415,34.1848771659394,6.946270343910899,-8.53466064151427,35.91235067225304,10.996392020579849,-98.68885463427834,-37.18498707066286,52.67311343272876,-84.2878682637296,-163.58581915694913,69.32359073375791,35.0,-6.973029361827104,908.4262312882742,0.1162135271430248,39.347693960016564,2.5603510731644494,1.1734945910491599,96090.01502303731,285.25632035397103,-4.174272047367808,3.631822906502043,-0.42102213668724464,56.60288033228222,0.0024420973822040365,0.7799568023327171,nominal,5010.587465515717,881.1820684302089,waypoint,4.870676383923804,17.004917145943864,0.0
1.56,61.71536701940471,-176.48511848575362,444.82272584653947,33.22310704855351,7.232493156265322,-8.968953947867375,35.164270703855586,10.996294336684562,-97.10151485712758,-40.88145240386605,60.6109658799822,-85.50332657344596,-165.626209923637,70.3124722126521,35.0,-5.7568063203832045,873.6177094187606,0.11396283226734018,38.58580912053795,2.528911979667886,1.1735354188599074,96094.14370193906,285.25865228199746,-4.218942187297726,3.4552948957298595,-0.44308813803376756,56.94229639288264,0.0024091716880491956,0.7799664018143355,nominal,4980.483751489985,879.8621280889448,waypoint,4.901448227355814,17.012237082498537,0.0
1.6,63.005846468103414,-176.1860183060985,444.44759517650084,32.26198621746763,7.477504491377657,-9.378266750965265,34.41948162548217,10.99619796981704,-94.76020611674885,-44.81516706929351,69.21514421295907,-88.01287530243347,-167.27479794151301,81.45099347390374,35.0,-4.287495025310881,839.4165516622464,0.11170729308219124,37.8222849013451,2.494500223377634,1.1735781110764258,96098.46095344424,285.2610906313527,-4.256784278293179,3.3061773157682777,-0.4617278355289653,57.28229297058787,0.002375600004973566,0.7799738680778165,nominal,4950.892366921084,878.5776316847149,waypoint,4.933186174779416,17.018229710951815,0.0
1.6400000000000001,64.25807059773764,-175.87865021462912,444.05714439688325,31.305603240855696,7.684202286734797,-9.761269490439746,33.68041183124584,10.99610294581684,-91.40228594515118,-49.19702734902289,78.778498131925,-91.27170946966652,-168.95952262298067,100.51397512752757,35.0,-2.6022156188918375,805.8727592005307,0.10945002060823278,37.05817375570626,2.4587021927179222,1.1736225480791764,96102.95468569812,285.26362856142026,-4.2875084683264735,3.185623260312807,-0.47679709246089913,57.62243441410036,0.0023414278363426745,0.7799796751716351,nominal,4921.898065660857,877.3287716208972,waypoint,4.965820684510868,17.022988011809186,0.0
1.68,65.47234985604096,-175.56445642303382,443.65238566986756,30.356981457583085,7.85484478988258,-10.118968175392427,32.94902770680485,10.996009288703387,-86.43832811878585,-54.10446101320257,89.93551330757816,-95.14774100894496,-171.01705048901013,125.71397934978403,35.0,-0.6282467155735076,773.0209814723718,0.10719332066078059,36.294255575926364,2.4230825680052877,1.173668614820912,96107.61326899234,285.2662594931458,-4.310880184605454,3.0945649475589807,-0.4881793815551274,57.96239922766014,0.0023066909335115945,0.7799841918001607,nominal,4893.562881341302,876.1156022212488,waypoint,4.999284988553205,17.026602459455074,0.0
1.72,66.64908161993347,-175.24475956696722,443.2342624484162,29.418294097312746,7.992421401665168,-10.453080536283617,32.22703399563498,10.995917021066047,-78.66137880602139,-59.42911838948531,103.96897417284319,-99.82857173228544,-173.73097860303557,156.4380674690491,35.0,1.784185170687966,740.8864429612618,0.10493902734636217,35.53115061651852,2.3904599673353606,1.173716204066348,96112.42586336848,285.2689772940853,-4.3267219784367414,3.0337065115625377,-0.4957866860546828,58.301931398605795,0.0022714196335063513,0.7799877047334582,nominal,4865.9341399176665,874.9380657584501,waypoint,5.033516885985381,17.029158480728473,0.0
1.76,67.78869536198903,-174.92070553341676,442.80362977303,28.490343551389145,8.101350838761075,-10.76581688465379,31.515621115294117,10.995826164280707,-65.6395489645557,-64.66631994111631,123.43422871938975,-105.7124226836347,-177.39666137290263,193.30827863366136,35.0,4.838492337303824,709.4715373741936,0.10268748101513504,34.768973440988376,2.3657463602402347,1.1737652186348828,96117.38264542459,285.2717764064753,-4.334914916009336,3.003518557324473,-0.4995601803344409,58.6409954468027,0.0022356219443453985,0.779990437014912,nominal,4839.037403055071,873.7960295476139,waypoint,5.068459903720894,17.03073173174322,0.0
1.8,68.89155363299729,-174.59321702652284,442.361199616226,27.57145677520663,8.187212672347986,-11.060753920101183,30.814865849624866,10.995736739402934,-42.383863918086114,-68.15004105183554,152.25832310367753,-81.51572609340245,-182.40126425956038,237.30827863366136,35.0,7.518737480977613,678.7303621719708,0.10043547671996128,34.00663829210047,2.336991063823836,1.1738155776224144,96122.47543754877,285.2746522024945,-4.335399570149338,3.0042345217052917,-0.49947068478683854,58.98008619119505,0.0021992483087071046,0.7799925621227093,nominal,4812.85943688165,872.6893714853634,waypoint,5.104066475868691,17.03138316173167,0.0
1.84,69.95806075427114,-174.2634016546171,441.9072984398268,26.6626780318463,8.245384297643248,-11.347529409980236,30.12724988703894,10.995648769470586,-12.07976854697331,-66.60720362242758,-172.55542737251344,-58.192508748865826,-186.41345144555723,281.30827863366136,35.0,10.062378269535627,648.7603158873793,0.09819035756137418,33.24663106357954,2.304888680564956,1.1738672440002869,96127.70049909451,285.2776025601411,-4.328176835263079,3.035848868308722,-0.49551889146140976,59.3181078820444,0.002162420228228004,0.7799942149843294,nominal,4787.455801122971,871.6180174622101,waypoint,5.140313802262218,17.031186741730338,0.0
1.8800000000000001,70.98866977843706,-173.9325198703949,441.44196433370615,25.765225604147908,8.272044605554985,-11.633352653015773,29.455194216612448,10.995562272661457,11.979002083356391,-58.887714049287624,-144.07615547255935,-35.599890773218156,-188.82100125114184,325.30827863366136,35.0,12.624561299248926,619.661110218606,0.09596032783081337,32.49172941512594,2.2959776422333023,1.17392021356455,96133.05740900674,285.28062723183086,-4.313307770926076,3.098117130293459,-0.48773535871331763,59.65383298487754,0.002125280920964644,0.7799955005433673,nominal,4762.871072702319,870.5819175994873,waypoint,5.1771977350802665,17.03022763019291,0.0
1.92,71.98359880303174,-173.60335018190014,440.9656143273038,24.87322561486695,8.229242212369542,-11.908750160058265,28.778744070105038,10.995477261424618,26.195541860716943,-47.44048068534218,-125.75497326873683,-14.118471928542787,-178.83101922067885,353.98345576649405,35.0,15.185451528810537,590.8841836624042,0.09370297902076206,31.7275735769655,2.272429387117044,1.1739744389765425,96138.54138395187,285.2837235068725,-4.290912128313572,3.190557800781887,-0.4761802749022641,59.99365161669628,0.0020871195129600513,0.779996500422619,nominal,4738.503496869156,869.5816545864584,waypoint,5.214685086759334,17.028683080491685,0.0
1.96,72.94356302686255,-173.2785225019421,440.47904859340804,23.999105595770388,8.120691998951223,-12.164143347393734,28.104609787625787,10.9953937766441,34.70734210486656,-34.591437876474444,-113.32641545745402,7.139961091105961,-157.63666416438008,366.721139192422,35.0,17.358320813929975,562.7870844316416,0.09144534952587259,30.963318006141723,2.2313513163618266,1.174029829276498,96144.14322888321,285.2868861841428,-4.261167413047975,3.3124560562476546,-0.4609429929690432,60.33349827353225,0.0020483829972219097,0.7799972781064815,nominal,4714.5584075459,868.6172584125171,waypoint,5.252720232579679,17.026731593215274,0.0
2.0,73.86982157182254,-172.96045249724108,439.9834317336652,23.15646362399979,7.95175011752542,-12.390421493570132,27.440384149816776,10.995311841324211,40.228109096611874,-21.698749564570555,-103.69580185208532,23.517778339379117,-126.53853426018112,366.5923013913274,35.0,18.808308493370898,535.7461698491294,0.08921876615860101,30.209569325634444,2.1722798695424346,1.174086252005692,96149.84955140481,285.29010769373116,-4.2243075313770095,3.4628692840899697,-0.4421413394887538,60.66866081420754,0.0020096207398686452,0.7799978829717078,nominal,4691.250861955706,867.6881429606506,waypoint,5.291226744892211,17.024549594729958,0.0
2.04,74.76420205120293,-172.6512442779111,439.4803122596901,22.359511984509815,7.730205483249228,-12.577986849377936,26.793835227190208,10.995231456494617,43.57695634990198,-9.693198714341461,-95.26223750288665,26.2724710283791,-87.63946546845825,353.31274196280185,35.0,19.537172706010352,510.1194668608724,0.08705616694869933,29.477479876421327,2.100218791769935,1.1741435309801065,96155.64253634498,285.293377970312,-4.180620938697695,3.640634371651082,-0.41992070354361477,60.994183688140254,0.0019714416910591014,0.7799983534224394,nominal,4668.784407312399,866.7930511749397,waypoint,5.330106484757144,17.022305646987526,0.0
2.08,75.62901617701795,-172.35251086709115,438.97160681677906,21.620353145375482,7.468335270498841,-12.717636072776267,26.1716252671267,10.995152598826975,45.28879954581629,0.6876304287271343,-87.19129342892536,26.86470723332876,-44.19171592942713,326.65780544640216,35.0,19.240389017045047,486.1767591904248,0.08498601434866945,28.776686743044646,2.0210282462550024,1.174201448077531,96161.50012621793,285.2966845556909,-4.130448414696688,3.8443767003125715,-0.39445291246092856,61.30578441673995,0.001934404993088984,0.779998719328564,nominal,4647.317892551218,865.9300833277772,waypoint,5.369240544507521,17.0201472773148,0.0
2.12,76.46686718169737,-172.0652206063995,438.4593638804537,20.946275116985376,7.182256517291852,-12.806073408134464,25.579811689907935,10.995075222627252,45.76370823061472,8.958926775558718,-79.07314047769343,29.011642203688893,-0.1917159294271352,290.11089127006926,35.0,17.719063170360414,464.0972372860708,0.08303124255113395,28.11495535693541,1.9435462978602667,1.174259770133844,96167.39874121873,285.30001413477703,-4.074180760399052,4.07252077512107,-0.3659349031098662,61.600012183586045,0.0018989929742633763,0.7799990039222164,nominal,4626.980903843826,865.0968567898401,waypoint,5.40850404749248,17.01818728005803,0.0
2.16,77.28032687927127,-171.78978620409313,437.9453779832081,20.336492439347783,6.88586005765923,-12.849647431138514,25.022018954790216,10.994999262908282,45.34512501334184,14.923493712721248,-70.60609647320426,33.470345928126086,43.80828407057286,252.01509223875414,35.0,14.963009915205314,443.92460904785247,0.08120416243990776,27.496454335208554,1.861527078104327,1.1743182928646014,96173.3177213595,285.30335504310915,-4.012256331088484,4.323302407746816,-0.334587199031648,61.87501494576817,0.0018655082488450235,0.779999225272835,nominal,4607.827757285969,864.2908757882963,waypoint,5.44778962652316,17.016502866877204,0.0
2.2,78.07215307486751,-171.52616145461567,437.4313772530445,19.795654889906213,6.590618736936742,-12.850018254090807,24.50361559007969,10.994924642578328,44.43839954625378,18.34396506121046,-61.84798775546405,40.150489193804034,87.80828407057287,209.32045898882137,35.0,11.129523077908287,425.76803564385244,0.07952374843876042,26.927608817478056,1.7514134520167057,1.1743768195156452,96179.23716731486,285.3066960478552,-3.9451573444787034,4.5947823585669205,-0.3006522051791349,62.12793712464036,0.0018343824424662148,0.7799993974344273,nominal,4589.950004231767,863.5093357395776,waypoint,5.486996323253048,17.01514586851516,0.0
2.24,78.84553487414291,-171.27386142147185,436.9186217157028,19.33454498188493,6.307500828595519,-12.818888433543222,24.040239121749458,10.994851267280628,43.524476663306686,19.142409729375,-52.97340201725302,48.577460427125324,131.80828407057288,165.32045898882134,35.0,6.4934055900384395,410.02369225325776,0.07803716067742861,26.42438832453067,1.6001209610568676,1.1744352066063006,96185.1425670577,285.3100289588479,-3.873406734330931,4.88486133238206,-0.26439233345224245,62.351679486955504,0.0018065844204495458,0.7799995313378879,nominal,4573.674550163743,862.7489347703698,waypoint,5.5260577319819415,17.01414867537319,0.0
2.2800000000000002,79.6040256388215,-171.03214903758675,436.40739734378036,18.962269116964716,6.042809597127657,-12.78060929806046,23.652212833496183,10.99477900390381,43.10698575183683,17.535109854773218,-44.366616995595365,57.39181612820649,169.6160108688141,121.32045898882133,35.0,1.4441712938320974,397.1849723032996,0.07680333793161483,26.006751488496434,1.4591451322350393,1.1744934215551053,96191.03062467184,285.3133519172654,-3.7975648510323285,5.191296211808004,-0.22608797352399948,62.537369062806484,0.001783326552588589,0.7799996354850239,nominal,4559.408189121884,862.0060427962773,waypoint,5.564974988070173,17.013534748943748,0.0
2.32,80.35092471556892,-170.80011179202415,435.8976950024709,18.67247691868556,5.800931139064982,-12.742558532736345,23.338487404269166,10.994707670841706,43.65172381272712,13.934500153474627,-36.426696834705695,67.5672587658844,196.96650953024925,77.32045898882134,35.0,-3.551337405354887,387.0695664870836,0.07581671290903043,25.672814650381827,1.3292348995491263,1.1745514653825573,96196.90144276468,285.3166649824839,-3.7182241067931208,5.511717402812691,-0.18603532464841363,62.68584382160261,0.0017646075105644588,0.779999716488352,nominal,4547.038627855596,861.2772494356345,waypoint,5.603768198221932,17.01331139679694,0.0
2.36,81.08925218335075,-170.5766595688067,435.3892694442339,18.45818669454585,5.586305580436731,-12.71063895592548,23.097008653862915,10.994637086541283,45.33126582548441,8.742301260845503,-29.332104607587862,76.95632421089047,214.8751547950787,33.320458988821336,35.0,-7.86313652327761,379.47296683396456,0.07506675461896022,25.419013365295424,1.2086959046269683,1.1746093659989054,96202.75784375002,285.31996974861244,-3.636004306266234,5.843647158269662,-0.14454410521629227,62.79868890434895,0.0017503077988845124,0.7799997794909405,nominal,4536.446083573605,860.559382573606,waypoint,5.642472401152979,17.013469079383277,0.0
2.4,81.82167192850807,-170.36071108462153,434.8815405100986,18.310493628932747,5.398712104628907,-12.693223353381967,22.924619700721202,10.994567074229328,48.11456074622037,2.2980141125024645,-23.090819478665313,84.65516972932073,224.01764287950184,-10.679541011178658,35.0,-10.810330684285715,374.19428279974255,0.07454054979653993,25.240976504163758,1.0882497560196065,1.174667189461266,96208.60650863411,285.32326998668435,-3.5515480047759276,6.184518737835698,-0.1019351577705377,62.87784802061243,0.001740239347062125,0.7799998284929537,nominal,4527.5001534547055,859.849646349054,waypoint,5.681143274460204,17.013991779715443,0.0
2.44,82.55045486376973,-170.15138638522578,434.3734353704676,18.2195733815416,5.233117484893494,-12.70262849077572,22.81874543858063,10.994497464655446,51.83678517946684,-5.1485923309333925,-17.624736855058853,89.67610573284911,224.91669828269414,-54.67954101117866,26.039838995613696,-11.760205114161318,371.0970695989028,0.07422916402908672,25.135680298027573,1.0975743871126005,1.1747250579484203,96214.45979536495,285.32657267009193,-3.465515782945891,6.531696255993631,-0.05853796800079615,62.924665778218035,0.0017342700459007949,0.7799998666056307,nominal,4520.095821671168,859.1457289215467,waypoint,5.719866988706783,17.01486860358298,0.0
2.48,83.27853841262761,-169.95095848780062,433.86437071374115,18.20208872144692,5.010697435628698,-12.726616418161116,22.768177091498767,10.99442809385361,56.251751560971194,-13.446122198999007,-12.837095986030196,91.00587843926317,218.0383410288532,-98.67954101117866,15.407736302070433,-10.278525936186776,370.53949045145316,0.0741711173583416,25.116170011692866,0.9953913984584922,1.1747830379028397,96220.32442474367,285.3298815903607,-3.3785796777344763,6.882495064779649,-0.014688116902543956,62.93334244176397,0.0017331628598370942,0.7799998962488239,nominal,4513.950975094834,858.4455568636394,waypoint,5.758695994214844,17.016303945544802,0.0
2.52,84.01029265701499,-169.7609367638913,433.3506705998296,18.293856109684377,4.750543097732977,-12.84250284778968,22.850879862288473,10.994358767339216,61.06828166243792,-22.202814604414485,-8.599474854385278,87.90388020317287,200.59741826448698,-134.76204210068386,5.652464400630235,-6.5375381429008526,374.64259382226294,0.07457835357699832,25.25421800761237,0.4866983562018596,1.17484154803221,96226.24274987125,285.3332206411011,-3.2914233657052554,7.234202513580002,0.02927531419750026,62.8719681693584,0.0017409894635050905,0.7799999193046409,nominal,4510.799709078189,857.745786529066,waypoint,5.7978995590231,17.01848205078214,0.0
2.56,84.7491510770048,-169.57340617652963,432.8225636714315,18.471460499745245,4.688264684041272,-13.202673209951657,23.183728315998973,10.994289127760677,65.98906429853112,-30.354000758290983,-4.804552274639464,80.91875422490669,167.40739121394375,-144.7360415992794,-1.8096600909922655,-1.8304709731181419,384.479187695116,0.07554868393948524,25.582951613487275,0.6525274595818494,1.1749017014129663,96232.32736279578,285.33665333613567,-3.2047414231263396,7.584098925466052,0.07301236568325654,62.72581466538176,0.001759552063049377,0.7799999372369429,nominal,4513.28202334347,857.0418526215864,waypoint,5.838166488010974,17.020963836994177,0.0
2.6,85.49364840394121,-169.37927219288815,432.2733436406876,18.612433173410107,4.853349591037204,-13.730500768598668,23.632696042643268,10.994218745678156,70.71518443105067,-36.996998922557495,-1.5277976265049076,72.6604888622713,124.84619648214995,-129.36188085432696,-6.727034421188603,2.480944978260283,395.6445620411474,0.07663529028177413,25.951070031165,0.961343412767539,1.174964262155498,96238.655561956,285.3402232663355,-3.1192203275733945,7.929478627862297,0.11618482848278708,62.56215034873886,0.0017802135361846448,0.779999951184289,nominal,4518.405546535932,856.3332204380267,waypoint,5.879954996197849,17.0231364025225,0.0
2.64,86.24010343900785,-169.17241750933235,431.70056865302894,18.661375876666014,5.171367088895149,-14.319374691466352,24.08390497267682,10.994147537136708,74.92438433140377,-41.61356340471218,0.9978993712866193,65.20718886007234,80.84619648214995,-95.89376344346671,-9.414172956072095,5.507980213386866,405.35612676408647,0.07756748061733937,26.266909754685674,1.1696791991082696,1.1750295087188327,96245.2555239636,285.3439463037553,-3.035531428290014,8.267670874921771,0.15845885936522133,62.4217288845869,0.001797835437875987,0.7799999620322248,nominal,4523.5536209476895,855.6219097677432,waypoint,5.9234202709511505,17.024532613960584,0.0
2.68,86.98570023738851,-168.94921364841633,431.10381051965214,18.63991995951635,5.580096522900464,-14.918953334419811,24.518549343235172,10.994075623719194,78.1659296551813,-44.1322890444101,2.242611201798149,59.87002515528371,36.84619648214995,-55.95267941420612,-10.093579392363782,6.956330726603543,413.6199178574591,0.07835135698291207,26.532536509069395,1.24349111320976,1.175097490224516,96252.13222839842,285.34782523162227,-2.9543291592653427,8.596060499820716,0.19950756247758955,62.30363190927677,0.001812580469605819,0.7799999704695082,nominal,4528.263814380876,854.9096414819406,waypoint,5.9685841138795235,17.024861030238963,0.0
2.72,87.72961879769761,-168.70823423214952,430.48349628517,18.597964007727317,6.02448540667052,-15.507855862053475,24.95340223468802,10.99400312050041,80.0089795671878,-44.97253062855535,1.6064309471633698,57.242209908308375,-7.153803517850051,-22.776602256831094,-8.928051425102618,7.095393730698436,421.55868954039255,0.07909676046274906,26.78514569050156,1.1727473680357976,1.1751681583840117,96259.28080178454,285.35185727414637,-2.8762477212540545,8.912108137272762,0.2390135171590952,62.19132239469492,0.0018265390691083946,0.7799999770318398,nominal,4532.937120388028,854.196793713682,waypoint,6.015419888662477,17.02401053940295,0.0
2.7600000000000002,88.47306602485946,-168.45030787116983,429.84033941232997,18.5861806790462,6.448159024492085,-16.07892182100187,25.407805768408636,10.993930058937647,80.35428192491055,-44.925865398110794,-1.1352448126429817,57.068183915138206,-48.009619370535525,-7.124515559740964,-6.20116166139732,6.613159380112597,430.4919256157312,0.07992735815259473,27.06661565487486,0.990284488811514,1.1752414322821287,96266.69307032856,285.35603779381984,-2.8018970259099114,9.213369859886376,0.27667123248579695,62.066181258358,0.001842019159304576,0.7799999821358754,nominal,4538.072061480515,853.4824453060854,waypoint,6.063890736631395,17.022055212571832,0.0
2.8000000000000003,89.21857225456874,-168.1784395375139,429.17495051415347,18.637655742731944,6.7967083413986,-16.6347224544124,25.889601136324185,10.993856378171275,79.35385979801845,-44.82686360335299,-5.860894877561699,58.37931295510707,-82.87424930138249,-12.316881837851986,-2.2718755336034224,6.3124421775433275,441.41879137598346,0.08093214741447471,27.407085376998435,0.7201958482293364,1.175317242720066,96274.36204541466,285.360362821658,-2.731858555098294,9.497516076521903,0.3121895095652378,61.91480873848377,0.001860640843416835,0.7799999861056809,nominal,4543.904251958602,852.7650620436451,waypoint,6.11397126782809,17.019236150432302,0.0
2.84,89.96819070017818,-167.89804599708202,428.4876999207657,18.74046114023615,7.009838510796516,-17.181264834694133,26.373065445943983,10.993781952537539,77.21759168766752,-44.86826166152207,-12.28309742289657,59.88875821988816,-111.30434687049768,-24.135312554011353,2.51087987881401,6.38617297903321,454.3034897149718,0.08210144966323665,27.803278730538604,0.4213849185205425,1.1753955478765474,96282.2835079706,285.364829950515,-2.666681063491017,9.762349546511338,0.34529369331391724,61.73866142102978,0.001882167995547414,0.7799999891933074,nominal,4549.7981929359985,852.0442913091467,waypoint,6.165644075141953,17.01594183923276,0.0
2.88,90.72198963387822,-167.61679685149534,427.7797103226962,18.84497334250113,7.031228639667316,-17.699739951737158,26.792760044869894,10.993706665817717,74.22143161398972,-44.86796291299181,-19.98076988023933,60.97114059373207,-132.25742042752964,-33.65633237832987,7.763690761647076,6.681256065800304,467.69408967809466,0.08329910303197936,28.20908599548227,0.5607315268261613,1.1754762202035343,96290.44456658923,285.36943188290246,-2.606874841905758,10.005822370440791,0.37572779630509884,61.558239703062874,0.0019040588569234774,0.7799999915947946,nominal,4554.0118916470565,851.3222409718362,waypoint,6.218822848428646,17.01266872585841,0.0
2.92,91.47752767472184,-167.343766934576,427.0534190080565,18.88845102109033,6.825747922983343,-18.15728286599205,27.074920826474973,10.99363050346344,70.74866493685694,-44.62821984608587,-28.402761472593415,61.55048721252253,-144.50249721918328,-39.32493482270841,13.082948084386942,7.013087815992074,479.50317195081607,0.08434051446343974,28.56199428480322,0.9512700914288729,1.175558982332784,96298.81717274051,285.3741527764476,-2.552906914960514,10.226051826109606,0.40325647826370065,61.40133682635598,0.001922965604729887,0.7799999934626181,nominal,4554.4890803953,850.6036645903062,waypoint,6.273311789103517,17.00995647919524,0.0
2.96,92.2301364356021,-167.08534522303614,426.3123370598079,18.815219022006676,6.460542788496323,-18.5270487062162,27.18460251191069,10.99355358483925,67.16005279403485,-44.03331696034444,-37.0649671691004,61.77250987881323,-150.01652899579665,-41.80597275350671,18.329630426623524,7.239631177858349,487.6153309562633,0.08504717940807631,28.801550108555585,1.2279754885906569,1.175643434474769,96307.36089130183,285.37896980911125,-2.505197762607745,10.421334927210173,0.42766686590127173,61.29483042217009,0.001935730405481962,0.7799999949153696,nominal,4550.1971870928555,849.8945219814209,waypoint,6.328831281839099,17.008128486055746,0.0
3.0,92.9744047213856,-166.8436288151465,425.5603220348799,18.60670714458727,6.04291019724086,-18.80037562319972,27.132645244976665,10.99347615562303,63.75600879710739,-43.078074669835885,-45.58607824178226,61.84457257045254,-150.45569557479388,-42.474753318727544,23.493522758341395,7.277058550901832,490.9767452896957,0.08533597438950047,28.899599124555785,1.252747612826803,1.1757291372718153,96316.03128155375,285.38385790677324,-2.4641191189103497,10.590161592149322,0.4487701990186653,61.25123791866988,0.001940938839618805,0.7799999960452875,nominal,4541.411351078232,849.2001773996444,waypoint,6.3850800285143245,17.007215987168795,0.0
3.04,93.70768783561934,-166.6168898716787,424.7990508955261,18.332077855843657,5.668473586695502,-19.031778483846274,27.026010870529376,10.993398518069446,60.67039155695786,-41.80768242228558,-53.82234918981861,61.96533962025293,-149.33301321016674,-42.82342786766693,28.704672014061202,7.0934079234995515,492.00500730495014,0.08542139568824428,28.92877841370632,1.1866852693329966,1.17581589980276,96324.80903435504,285.3888061691791,-2.429994843361803,10.731226321179632,0.46640329014745396,61.23826487577641,0.0019424870559552527,0.7799999969241125,nominal,4531.058244251596,848.5224827520808,waypoint,6.441929080693249,17.007056729920034,0.0
3.08,94.42886941447149,-166.4023484372629,424.02926564535403,18.02953947130368,5.36353586039492,-19.244631254300863,26.910734709164913,10.993320818587208,57.93955268607312,-40.295157030621496,-61.77332698245722,62.41183316949939,-148.30123048822784,-44.09613393918146,34.0190607469867,6.697135941697533,491.88047848152814,0.08540664958983145,28.924038058722424,1.1731392010157575,1.1759036376726395,96333.68561682383,285.3938097733052,-2.4030965286459653,10.843438291544015,0.4804297864430019,61.24037249126018,0.0019422355972231878,0.779999997607643,nominal,4520.400419234538,847.8616311644341,waypoint,6.499324816983226,17.007449766081855,0.0
3.12,95.13682226681613,-166.19759246944741,423.2520425640595,17.698821308615965,5.118899195387476,-19.43057703236435,26.776831935415775,10.993243129163318,55.63571907553939,-38.706927040342144,-69.36803198291774,63.30474097118998,-144.42042362184367,-47.11999420667341,35.0,6.121191093255913,490.321584834953,0.08526723795289347,28.877080134232468,1.2585947769451784,1.1759922283660489,96342.64863873107,285.3988617233336,-2.3836394880114145,10.925929792569987,0.49074122407124826,61.261250026179006,0.0019397434497030945,0.7799999981392779,nominal,4509.184007459584,847.2178920894773,waypoint,6.557189961395421,17.0082170961526,0.0
3.16,95.83018051174082,-166.00229232617153,422.46848905913333,17.33395612311754,4.88250358189749,-19.588837623154333,26.608784931516745,10.99316553942533,53.74516859331153,-37.21276051832045,-76.63340447357709,64.57470329409432,-138.55180834953055,-52.3806552181938,35.0,5.418913381534309,487.44062298366373,0.08501238146262513,28.791025900855562,1.3097507488442777,1.1760815457924967,96351.68534730482,285.40395482111563,-2.371781532539581,10.978062935486877,0.4972578669358596,61.29950977074322,0.0019351708042973867,0.7799999985527717,nominal,4497.014325997606,846.5923588315212,waypoint,6.615438250956213,17.009310962314228,0.0
3.2,96.50804456599076,-165.81596434551065,421.67933495596526,16.946601356248593,4.658199516522053,-19.728852579202517,26.421842183224825,10.993088132593158,52.1786087915054,-35.932029850348144,-83.69356687077918,66.1080211143888,-132.53392922481532,-59.91316971026044,35.0,4.622583061020053,483.67354899439846,0.08467924531167333,28.678460852706387,1.3454388136501674,1.1761715068777354,96360.7873411923,285.4090843227862,-2.3676223510459353,10.999434586080467,0.4999293232600583,61.34955621635288,0.0019291785595192826,0.779999998874378,nominal,4484.318522323535,845.9856759715159,waypoint,6.674012080544941,17.010682655957403,0.0
3.24,97.16970981977032,-165.63797046227089,420.8851603491238,16.54163134448911,4.449847080994221,-19.854365171035937,26.22255752069318,10.993010965450777,50.81178168944929,-34.92201509942875,-90.72600912726226,67.84258626882773,-127.93015453517457,-69.52179617580632,35.0,3.741393657919014,479.1597470623923,0.08427918578927895,28.543230153098907,1.3699925124371533,1.1762620455992738,96369.94794375589,285.41424645773066,-2.371202388965851,10.989879482041854,0.4987349352552316,61.40967980500508,0.0019219634038403178,0.7799999991245162,nominal,4471.284719200766,845.3982722969773,waypoint,6.732865376052474,17.012277081514775,0.0
3.2800000000000002,97.8146228590541,-165.46758774503442,420.0864108663499,16.12282598209458,4.259567930911888,-19.968737069346496,26.016146846749805,10.992934086914623,49.51487153840852,-34.1883650305898,-97.92428809916223,69.75581984957412,-125.66495008966254,-80.95844961832617,35.0,2.7587485542013983,474.01893595109334,0.083821852081077,28.38860098486983,1.388133495459216,1.176353111250795,96379.1620276111,285.4194383293687,-2.3825025059742706,10.949471510904818,0.49368393886310225,61.47842794845685,0.0019136914037344418,0.7799999993190682,nominal,4458.060349498315,844.8304215792041,waypoint,6.791962192254671,17.01403640824941,0.0
3.3200000000000003,98.44232886634254,-165.30405497838882,419.2834355938172,15.692650182210818,4.088319166139789,-20.074381813317764,25.806092856771834,10.992857539258473,48.16750276973521,-33.70309189242957,-105.47770057445457,71.884033853039,-126.05192681306512,-94.08221756733556,35.0,1.6330368475071626,468.33303643702675,0.08331360633128519,28.216727419137396,1.4109988404882852,1.1764446641222341,96388.4255776564,285.4246576686402,-2.40144406193686,10.878523138689657,0.48481539233620713,61.55484294765628,0.001904469544716918,0.7799999994703863,nominal,4444.743117932272,844.2823022472031,waypoint,6.851273736342734,17.015902064864125,0.0
3.36,99.05233515660336,-165.14661408912198,418.4765939924258,15.25015725652073,3.9360222316705857,-20.171040034784728,25.591608457494523,10.992781360476684,46.68461670384089,-33.45602167038087,-113.52336267166503,74.32204688152585,-127.73158565880598,-108.96382723785415,35.0,0.30197533221178835,462.0633363847576,0.08275006073718566,28.026122764740904,1.4361161961290052,1.1765366633115286,96397.73445789855,285.4299021390492,-2.427889360593449,10.77758299367165,0.47219787420895637,61.63958578624404,0.0018942089894879977,0.7799999995880783,nominal,4431.318702196675,843.754126617956,waypoint,6.910770058643847,17.017814727783062,0.0
3.4,99.64414616456493,-164.99448489180082,417.6662490519964,14.79527519903919,3.803229933029126,-20.258623510736168,25.37275217016367,10.992705592117105,44.98892333284929,-33.44900199085454,-122.18775269886305,77.19012052764829,-129.94963633217242,-125.96382660188276,35.0,-1.3113394972519667,455.2007204241644,0.0821292724710983,27.816128354574467,1.4604909055511204,1.1766290675048052,96407.0844903828,285.435169381162,-2.461642720432414,10.647431623958365,0.45592895299479563,61.73294930819949,0.0018828636421746887,0.7799999996796164,nominal,4417.794997610033,843.2461010755609,waypoint,6.970420841844759,17.01971337877328,0.0
3.44,100.21730755587878,-164.84686333230496,416.85274620573114,14.329034782846282,3.690538987396751,-20.337571156631373,25.150708069089397,10.992630277571418,42.89293184536619,-33.67297129041972,-131.62617276132426,78.26975534732433,-132.63092840307866,-145.69068593428068,35.0,-3.2048842488095857,447.78142618901865,0.08145324678189172,27.587422676647748,1.483863380713137,1.1767218373807542,96416.47169848178,285.44045714966273,-2.5024520152710226,10.489075461681523,0.43613443271019037,61.834631858208056,0.001870458470534314,0.7799999997508128,nominal,4404.208041766712,842.7583862425431,waypoint,7.0301971864701285,17.021536081787115,0.0
3.48,100.77139988376068,-164.70291905387026,416.03639750354705,13.852308197047655,3.598606960867453,-20.40871755460247,24.926936568065006,10.992555459232596,40.17563739484455,-34.08223546200884,-142.02585854155527,77.28702536511335,-135.73652517508734,-168.65392523257321,35.0,-5.369261693725291,439.856602875785,0.08072530679714005,27.341130610756448,1.5064508234857297,1.1768149374161352,96425.8924896118,285.4457634162269,-2.5500106436254217,10.30373904047703,0.41296738005962885,61.94413331506597,0.0018570423679137374,0.7799999998061877,nominal,4390.599420912327,842.2911043583977,waypoint,7.09007266108093,17.023219707516915,0.0
3.52,101.3060221446442,-164.56178464842017,415.21746507163033,13.365556522087982,3.5283601362523553,-20.473310797917442,24.70311481219213,10.99248117753788,36.61098447577519,-34.566242103631765,-153.59693162050678,74.39688697199703,-139.2155434148216,-195.14658977002378,35.0,-7.803060384609162,431.4865045035185,0.07994963250229066,27.07866730866031,1.5285458864768668,1.1769083377733613,96435.34384627613,285.4510864770344,-2.6039599207841424,10.092855526433649,0.38660694080420616,62.060824502575755,0.0018426802846561437,0.7799999998492572,nominal,4377.014294556877,841.8443540220762,waypoint,7.150024339289826,17.02469890911534,0.0
3.56,101.82077476126179,-164.42253318982586,414.39614357723866,12.86881541543971,3.4812864648576647,-20.533037359791635,24.481245655923207,10.992407470326492,31.986186345250967,-34.92066471588682,-166.54812840674975,69.44952712661913,-142.98860453661518,-225.3204425422841,35.0,-10.48950252016113,422.7394459801666,0.0791312280310078,26.801727134406917,1.5338693918740527,1.1770020163022528,96444.82352868332,285.45642506674795,-2.6638918757010206,9.858055635732484,0.3572569544665606,62.183952106695614,0.0018274531979196097,0.7799999998827556,nominal,4363.503635844557,841.418222303869,waypoint,7.210033924656193,17.025904313851992,0.0
3.6,102.31532274210629,-164.2834541576076,413.57220950999147,12.363699521112597,3.476975805456609,-20.598351681180336,24.274318086852105,10.992334372198576,26.587602442463307,-34.55848462549822,179.65560248281588,62.233495329945285,-146.90555453053827,-243.45295504862608,35.0,-13.428821569821745,413.80721001190784,0.07828690664015096,26.516004426197256,1.536279278818593,1.1770959985483729,96454.33412352618,285.461780638185,-2.729352929566333,9.60115502467472,0.3251443780843399,62.3109844248279,0.0018116648451857948,0.7799999999088099,nominal,4350.379167681996,841.0125592972955,waypoint,7.270113820869644,17.026716247323577,0.0
3.64,102.78959783647068,-164.14279543759383,412.7455319426441,11.856877359109678,3.516468000343918,-20.66693918368451,24.084714304482095,10.992261905604769,20.90641720440088,-33.14392429717236,165.57888083630712,54.70598430744746,-150.34251045140977,-254.09679207124933,35.0,-16.54682524470086,404.81432342502785,0.07742773563986162,26.225247516238724,1.56149410940427,1.1771902995021981,96463.8771495375,285.4671540423728,-2.799846639684092,9.324140249607767,0.2905175312009709,62.44025494860255,0.0017955166019782366,0.7799999999290743,nominal,4337.687702389593,840.6269391353607,waypoint,7.330272554075076,17.02701742489152,0.0
3.68,103.24361724339272,-163.99858478485086,411.9164842619247,11.35048517305094,3.6052663185741216,-20.72619201798416,23.90411040925482,10.99219008494069,15.539890568395354,-30.78018775441757,151.7953500196405,48.92616298790317,-147.7427751750405,-260.11582196651085,35.0,-19.778328764299037,395.527612310376,0.07653066424060484,25.921648608025233,1.5856402850462694,1.1772848766245323,96473.44830354309,285.47254285229747,-2.874836922277445,9.029153405318672,0.25364417566483405,62.57523502444644,0.0017785671643292696,0.7799999999448356,nominal,4325.224037616126,840.2607269262953,waypoint,7.390485955668853,17.026677596580488,0.0
