time_s,x_m,y_m,altitude_m,vx_mps,vy_mps,vz_mps,speed_mps,mass_kg,roll_deg,pitch_deg,yaw_deg,p_dps,q_dps,r_dps,alpha_deg,beta_deg,qbar_pa,mach,airspeed_mps,load_factor_g,density_kgpm3,pressure_pa,temperature_k,wind_x_mps,wind_y_mps,wind_z_mps,thrust_n,mass_flow_kgps,propulsion_throttle_actual,propulsion_health,energy_j_per_kg,target_distance_m,guidance_mode,pitch_command_deg,heading_command_deg,roll_command_deg,elevator_command_deg,aileron_command_deg,rudder_command_deg,elevator_deg,aileron_deg,rudder_deg,throttle,elevator_saturated,aileron_saturated,rudder_saturated,elevator_failed,aileron_failed,rudder_failed,elevator_raw_rad,aileron_raw_rad,rudder_raw_rad,elevator_effective_rad,aileron_effective_rad,rudder_effective_rad,sensor_time_s,imu_valid,imu_ax_mps2,imu_ay_mps2,imu_az_mps2,gyro_p_rps,gyro_q_rps,gyro_r_rps,imu_accel_norm_mps2,imu_gyro_norm_rps,gps_valid,gps_latency_s,gps_x_m,gps_y_m,gps_z_m,gps_vx_mps,gps_vy_mps,gps_vz_mps,baro_valid,baro_alt_m,baro_bias_m,pitot_valid,pitot_airspeed_mps,pitot_qbar_pa,pitot_compressibility_factor,mag_valid,mag_heading_deg,mag_x_ut,mag_y_ut,mag_z_ut,radar_valid,optical_flow_valid,horizon_valid,horizon_roll_deg,horizon_pitch_deg
0.0,0.0,0.0,14500.0,168.0,0.0,10.0,168.2973558912914,21.0,0.0,4.0,0.0,0.0,0.0,0.0,0.5935562450052811,0.0,2967.811486241532,0.5703651498833013,168.29735589129137,2.248005065083861,0.20956160755836276,13032.637272130847,216.64999999999998,0.0,0.0,0.0,478.40000000000003,0.23796694453104436,0.92,nominal,156358.425,nan,pitch_program,6.000000000000001,0.0,0.0,-13.62160000000002,-0.0,0.0,-4.8,0.0,0.0,0.92,0.0,0.0,0.0,0.0,0.0,0.0,-0.08377580409572781,0.0,0.0,-0.08377580409572781,0.0,0.0,0.0,1.0,22.039952029066992,0.06421624096399967,-0.05549153272046388,8.96710374289511e-06,-0.00392686140635816,-0.00033643320647488983,22.040115437070227,0.003941257187258108,1.0,0.0,-6.056244605796681,-14.452553801575789,14505.691541827058,168.06173605742853,-0.11079775418696261,10.04166907179879,1.0,14497.48871022862,0.0,1.0,167.72453538558904,3025.811276576433,1.0,1.0,1.9849282074758248,21.07724535897506,0.014132475832505058,-43.128268434554464,0.0,0.0,1.0,0.3225627711320563,4.232969305443469
0.04,6.737639783316654,0.0,14500.393475421926,168.8829682267017,0.0,9.676405761284657,169.15995325584055,20.990437389859768,0.0,4.339834280684275,0.0,0.0,-16.592933380646375,0.0,1.0605710608507573,0.0,2998.126078763367,0.5732885200843033,169.15995325584055,2.2666637922353754,0.20954860538516928,13031.828666924224,216.64999999999998,0.0,0.0,0.0,482.816,0.24016356248056167,0.92,nominal,156507.82856850553,nan,pitch_program,6.0200000000000005,0.0,0.0,1.0551273188844021,-0.0,0.0,-0.1158981448924788,0.0,0.0,0.92,0.0,0.0,0.0,0.0,0.0,0.0,-0.0020228042253272044,0.0,0.0,-0.0020228042253272044,0.0,0.0,0.04,1.0,22.24873946132101,0.004457972158902777,0.4996330865135506,-8.975239615825204e-05,-0.2906811470180924,0.006616684680462875,22.254349253851426,0.29075645788770904,1.0,0.0,-6.056244605796681,-14.452553801575789,14505.691541827058,168.06173605742853,-0.11079775418696261,10.04166907179879,1.0,14503.748873000204,0.0,1.0,169.44442580350932,3009.2588409429563,1.0,1.0,1.9849282074758248,21.07724535897506,0.014132475832505058,-43.128268434554464,0.0,0.0,1.0,0.3225627711320563,4.232969305443469
0.08,13.510675809482459,0.0,14500.774693512798,169.7695298719189,0.0,9.388483235728337,170.02892956905868,20.980786915001556,0.0,4.902500286799463,0.0,0.0,-11.17895002505384,0.0,1.737190782765045,0.0,3028.825921687474,0.5762335087474278,170.02892956905865,2.284890723897176,0.20953600901797245,13031.045298794272,216.64999999999998,0.0,0.0,0.0,487.232,0.242360180430079,0.92,nominal,156658.94059333723,nan,pitch_program,6.04,0.0,0.0,2.7508085664816058,-0.0,0.0,2.1774672242067887,0.0,0.0,0.92,0.0,0.0,0.0,0.0,0.0,0.0,0.038003972416670036,0.0,0.0,0.038003972416670036,0.0,0.0,0.08,1.0,22.35972452380551,-0.02338347405040481,1.1176302034438883,0.00032815998591068275,-0.19781331304695504,0.0015816988868904915,22.3876511684227,0.1978199087022279,1.0,0.0,-6.056244605796681,-14.452553801575789,14505.691541827058,168.06173605742853,-0.11079775418696261,10.04166907179879,1.0,14495.27147555864,0.0,1.0,169.8612904996725,3039.8881526966916,1.0,1.0,-0.7490479202685634,20.358235520444065,-0.015398035674553966,-43.4063591200609,0.0,0.0,1.0,-0.0923479037681312,5.353273778627554
0.12,20.319258502250513,0.0,14501.144927420399,170.66077604059166,0.0,9.12450739072165,170.9045263119158,20.97104857542536,0.0,5.023787688223519,0.0,0.0,5.127578841937682,0.0,1.9633394938108457,0.0,3059.922641296789,0.5792009342594462,170.90452631191582,2.304675328335099,0.20952377631952226,13030.284547225232,216.64999999999998,0.0,0.0,0.0,491.648,0.24455679837959635,0.92,nominal,156811.8314594374,nan,pitch_program,6.06,0.0,0.0,0.04808426211010326,-0.0,0.0,0.4354934448413579,0.0,0.0,0.92,0.0,0.0,0.0,0.0,0.0,0.0,0.007600794483334009,0.0,0.0,0.007600794483334009,0.0,0.0,0.12,1.0,22.542409181046313,-0.04084592173786858,1.175822976370634,-0.00237234848955191,0.09166929599203533,0.0011583307911810347,22.57309105432406,0.09170730393623543,1.0,0.0,-6.056244605796681,-14.452553801575789,14505.691541827058,168.06173605742853,-0.11079775418696261,10.04166907179879,1.0,14505.84313027162,0.0,1.0,171.10261903178161,3008.8983462177853,1.0,1.0,-0.7490479202685634,20.358235520444065,-0.015398035674553966,-43.4063591200609,0.0,0.0,1.0,-0.0923479037681312,5.353273778627554
0.16,27.163666982177034,0.0,14501.504520761884,171.56139953235478,0.0,8.853404244008011,171.78968704846076,20.961222371131186,0.0,4.650365412624585,0.0,0.0,13.320071551461773,0.0,1.6962444612629397,0.0,3091.5257500686016,0.5822007724535554,171.78968704846076,2.3269159305379805,0.20951189587391908,13029.545702262256,216.64999999999998,0.0,0.0,0.0,496.0640000000001,0.2467534163291137,0.92,nominal,156967.0275966336,nan,pitch_program,6.08,0.0,0.0,-3.265311401288854,-0.0,0.0,-2.525150432062812,0.0,0.0,0.92,0.0,0.0,0.0,0.0,0.0,0.0,-0.04407218914765346,0.0,0.0,-0.04407218914765346,0.0,0.0,0.16,1.0,22.788478962345394,0.03319989188614972,0.7455089546989091,0.0022162629116312224,0.23321602005571843,-0.0002460041148525029,22.800694271263236,0.23322668018463766,1.0,0.0,-6.056244605796681,-14.452553801575789,14505.691541827058,168.06173605742853,-0.11079775418696261,10.04166907179879,1.0,14503.35319673054,0.0,1.0,171.9466576047514,3077.1977101935117,1.0,1.0,-0.7611812131334899,20.635277163111777,0.00853686375760408,-43.38103962212672,0.0,0.0,1.0,0.21453848142004184,4.868856309991614
0.2,34.044332100701084,0.0,14501.852840808804,172.4736294960352,0.0,8.560541478015985,172.68594540938312,20.95130830211903,0.0,4.230187439830186,0.0,0.0,7.545651242111871,0.0,1.388705409280882,0.0,3123.6964369451516,0.5852382208534687,172.68594540938312,2.350356796164119,0.20950038852401606,13028.830060122473,216.64999999999998,0.0,0.0,0.0,500.48,0.24895003427863102,0.92,nominal,157124.81303228386,nan,pitch_program,6.1,0.0,0.0,-3.8055300235734966,-0.0,0.0,-3.5494541052713595,0.0,0.0,0.92,0.0,0.0,0.0,0.0,0.0,0.0,-0.06194966078541464,0.0,0.0,-0.06194966078541464,0.0,0.0,0.2,1.0,23.03884530593878,0.0045659909310376305,0.4764636660085269,0.002825913862601225,0.12659449622650495,-0.0017066103174499042,23.043772076295944,0.12663753307284947,1.0,0.0,31.75843507375499,-3.6933226876318983,14498.37366740766,172.35849312668424,-0.1382751029959232,8.637712478488085,1.0,14502.950991360905,0.0,1.0,172.12990687565346,3104.114156350939,1.0,1.0,-0.7611812131334899,20.635277163111777,0.00853686375760408,-43.38103962212672,0.0,0.0,1.0,0.21453848142004184,4.868856309991614
0.24,40.96169123273987,0.0,14502.189207258803,173.39573574426046,0.0,8.25778989901868,173.59225866469316,20.941306368388897,0.0,4.138574385299663,0.0,0.0,-2.868721797906578,0.0,1.4119831248163857,0.0,3156.403450406609,0.5883097456137272,173.59225866469316,2.372103568147276,0.20948927668155398,13028.139014592136,216.64999999999998,0.0,0.0,0.0,504.89599999999996,0.2511466522281483,0.92,nominal,157285.0299235194,nan,pitch_program,6.12,0.0,0.0,-1.8160877354533225,-0.0,0.0,-2.16276100941693,0.0,0.0,0.92,0.0,0.0,0.0,0.0,0.0,0.0,-0.037747300548081515,0.0,0.0,-0.037747300548081515,0.0,0.0,0.24,1.0,23.260251324569865,0.0030382783380873196,0.6651884585185456,0.001759196210680961,-0.048261651999073604,0.005552013942351433,23.2697609914377,0.04861179572699845,1.0,0.0,31.75843507375499,-3.6933226876318983,14498.37366740766,172.35849312668424,-0.1382751029959232,8.637712478488085,1.0,14503.559838637753,0.0,1.0,174.40881729002885,3205.1951341169856,1.0,1.0,-1.1114201617609234,20.90513105155556,0.06279654633319463,-43.23043895729142,0.0,0.0,1.0,0.08449078060680751,4.421143807757207
0.28,47.91608299637113,0.0,14502.513633850114,174.32496148596778,0.0,7.965312041430699,174.5068433987662,20.93121656994078,0.0,4.323999450078588,0.0,0.0,-6.189481704612525,0.0,1.7078419677337495,0.0,3189.587416792722,0.5914093026814419,174.50684339876622,2.392307265988598,0.20947855982985944,13027.472533539325,216.64999999999998,0.0,0.0,0.0,509.31200000000007,0.2533432701776657,0.92,nominal,157447.39452389698,nan,pitch_program,6.14,0.0,0.0,0.006585746067173053,-0.0,0.0,-0.4325522018833862,0.0,0.0,0.92,0.0,0.0,0.0,0.0,0.0,0.0,-0.0075494601096163065,0.0,0.0,-0.0075494601096163065,0.0,0.0,0.28,1.0,23.418056981487606,0.03414839186664129,0.9460262960720786,0.002028252075046659,-0.10349398905008297,0.0032549845405176157,23.437182523795972,0.10356502546872488,1.0,0.0,31.75843507375499,-3.6933226876318983,14498.37366740766,172.35849312668424,-0.1382751029959232,8.637712478488085,1.0,14499.835512411473,0.0,1.0,173.98061934791193,3237.8592003989365,1.0,1.0,-1.1114201617609234,20.90513105155556,0.06279654633319463,-43.23043895729142,0.0,0.0,1.0,0.08449078060680751,4.421143807757207
0.32,54.90776628107006,0.0,14502.826690486356,175.26035558264593,0.0,7.689004386417005,175.4289401079817,20.921038906774683,0.0,4.465043747266885,0.0,0.0,-0.7482652408400684,0.0,1.9529800376154764,0.0,3223.225005802636,0.5945343180744247,175.4289401079817,2.412581581528654,0.20946821908403607,13026.829442512255,216.64999999999998,0.0,0.0,0.0,513.728,0.255539888127183,0.92,nominal,157611.80187796292,nan,pitch_program,6.16,0.0,0.0,-0.20436520995098661,-0.0,0.0,-0.2500026083374665,0.0,0.0,0.92,0.0,0.0,0.0,0.0,0.0,0.0,-0.004363368654062618,0.0,0.0,-0.004363368654062618,0.0,0.0,0.32,1.0,23.631855437135364,-0.03823278540144194,1.198482583572803,-0.0007698503487642755,-0.014704219993318588,0.0016271624951772715,23.66225715460533,0.01481399382196152,1.0,0.0,31.75843507375499,-3.6933226876318983,14498.37366740766,172.35849312668424,-0.1382751029959232,8.637712478488085,1.0,14506.304297980932,0.0,1.0,174.8334213361279,3271.3551335159977,1.0,1.0,0.5599854402746506,20.661269578786893,0.0012030225546295838,-43.29404081176841,0.0,0.0,1.0,-0.14368028964104557,4.059053328842266
0.36,61.93701308798352,0.0,14503.128826940909,176.20342371085496,0.0,7.417729386086833,176.35948864938428,20.910773378890607,0.0,4.364519776282281,0.0,0.0,5.725298190005646,0.0,1.9539321703421177,0.0,3257.3551715421913,0.5976879769984164,176.35948864938428,2.43380388878461,0.20945823953280085,13026.208814178168,216.64999999999998,0.0,0.0,0.0,518.1440000000001,0.2577365060767004,0.92,nominal,157778.4429290562,nan,pitch_program,6.18,0.0,0.0,-1.7831126939621134,-0.0,0.0,-1.476490676837184,0.0,0.0,0.92,0.0,0.0,0.0,0.0,0.0,0.0,-0.025769623685808436,0.0,0.0,-0.025769623685808436,0.0,0.0,0.36,1.0,23.833523286521192,0.017078488452456634,1.1141940187170865,0.002625691012318353,0.10017895409981681,-0.004200281309021834,23.859558927927832,0.10030134326568259,1.0,0.0,31.75843507375499,-3.6933226876318983,14498.37366740766,172.35849312668424,-0.1382751029959232,8.637712478488085,1.0,14500.86760531122,0.0,1.0,176.75762213619822,3277.5430596646524,1.0,1.0,0.5599854402746506,20.661269578786893,0.0012030225546295838,-43.29404081176841,0.0,0.0,1.0,-0.14368028964104557,4.059053328842266
0.4,69.00417024253105,0.0,14503.419975583907,177.15602883017536,0.0,7.138698177392861,177.29980136070608,20.900419986288547,0.0,4.12514703082867,0.0,0.0,6.152723005985507,0.0,1.8175986467989518,0.0,3292.0317311694953,0.6008747270081828,177.29980136070608,2.455936201562063,0.20944862335823206,13025.610784240525,216.64999999999998,0.0,0.0,0.0,522.5600000000001,0.2599331240262177,0.92,nominal,157947.57328483282,nan,pitch_program,6.2,0.0,0.0,-2.797826154222551,-0.0,0.0,-2.5335590587454773,0.0,0.0,0.92,0.0,0.0,0.0,0.0,0.0,0.0,-0.04421894736883701,0.0,0.0,-0.04421894736883701,0.0,0.0,0.4,1.0,24.04367990372922,-0.04500358335360431,0.8660093163243752,0.002023840005181767,0.11117051017687267,0.001732668162615753,24.059312973804296,0.11120242983098196,1.0,0.0,69.60389581133701,-10.023653412103453,14505.822356216451,177.236471077517,-0.2762817506196476,7.21443395210731,1.0,14508.464138301095,0.0,1.0,176.8267950649164,3324.5299832580718,1.0,1.0,-1.1507104654202995,20.9881899433408,0.014704042995086555,-43.27991884026299,0.0,0.0,1.0,0.11869794040652398,4.630959801006184
0.44,76.10962537817748,0.0,14503.699785675271,178.11820502184122,0.0,6.851383845560243,178.24992684655405,20.889978728968508,0.0,3.9736544849970854,0.0,0.0,1.4307457359242903,0.0,1.7708367357200856,0.0,3327.2625576103715,0.6040947328262993,178.24992684655402,2.4777628040246316,0.20943938209393215,13025.03606997411,216.64999999999998,0.0,0.0,0.0,526.976,0.262129741975735,0.92,nominal,158119.22571359333,nan,pitch_program,6.22,0.0,0.0,-2.3464078086627325,-0.0,0.0,-2.3838380586792813,0.0,0.0,0.92,0.0,0.0,0.0,0.0,0.0,0.0,-0.04160582295830325,0.0,0.0,-0.04160582295830325,0.0,0.0,0.44,1.0,24.238172409248588,0.07509587677116007,0.9150084536965257,0.000789607133830544,0.025349321354567175,0.0023214080559461462,24.255553623892066,0.025467636480936414,1.0,0.0,69.60389581133701,-10.023653412103453,14505.822356216451,177.236471077517,-0.2762817506196476,7.21443395210731,1.0,14503.256392455502,0.0,1.0,178.73979071752487,3309.8653324645334,1.0,1.0,-1.1507104654202995,20.9881899433408,0.014704042995086555,-43.27991884026299,0.0,0.0,1.0,0.11869794040652398,4.630959801006184
0.48,83.25373606292855,0.0,14503.968109047119,179.08861200919375,0.0,6.565499354769738,179.20891923438694,20.87944960693049,0.0,3.9916806698514935,0.0,0.0,-2.2197675420578338,0.0,1.8921221983661032,0.0,3363.0182030003216,0.6073447888603144,179.20891923438694,2.498732726716364,0.2094305205835273,13024.484972604056,216.64999999999998,0.0,0.0,0.0,531.392,0.26432635992525233,0.92,nominal,158293.25722316542,nan,pitch_program,6.240000000000001,0.0,0.0,-1.289819733820923,-0.0,0.0,-1.5086233987925948,0.0,0.0,0.92,0.0,0.0,0.0,0.0,0.0,0.0,-0.026330445481558225,0.0,0.0,-0.026330445481558225,0.0,0.0,0.48,1.0,24.458495285523455,-0.015786655920125812,1.0520088306974804,-0.0003283581531905378,-0.03905694771537916,0.0028070631184894685,24.48111442378275,0.03915906775281827,1.0,0.0,69.60389581133701,-10.023653412103453,14505.822356216451,177.236471077517,-0.2762817506196476,7.21443395210731,1.0,14505.752549104267,0.0,1.0,179.61392058528529,3348.0935837616457,1.0,1.0,-0.016169170088370554,21.029741003606137,-0.0568923487975029,-43.16504659339373,0.0,0.0,1.0,-0.18039758799319058,3.230474799924795
0.52,90.43680836067139,0.0,14504.225165159574,180.06622750625385,0.0,6.28835421498477,180.17599642312814,20.868832620174487,0.0,4.0592825511056025,0.0,0.0,-1.0551107206125072,0.0,2.0591862589800654,0.0,3399.274509332452,0.6106222445445344,180.17599642312817,2.5193364286164095,0.20942203153151748,13023.957038423187,216.64999999999998,0.0,0.0,0.0,535.808,0.26652297787476964,0.92,nominal,158469.55455944568,nan,pitch_program,6.260000000000001,0.0,0.0,-0.9550751517796521,-0.0,0.0,-1.0657848011822406,0.0,0.0,0.92,0.0,0.0,0.0,0.0,0.0,0.0,-0.01860145389834325,0.0,0.0,-0.01860145389834325,0.0,0.0,0.52,1.0,24.652653144874712,-0.023672421802965485,1.1620388364300436,-0.0041003556722694285,-0.016696560321862508,0.0005144578227476238,24.680036501642917,0.017200369474871514,1.0,0.0,69.60389581133701,-10.023653412103453,14505.822356216451,177.236471077517,-0.2762817506196476,7.21443395210731,1.0,14503.157436577174,0.0,1.0,179.73112131563295,3411.030789430746,1.0,1.0,-0.016169170088370554,21.029741003606137,-0.0568923487975029,-43.16504659339373,0.0,0.0,1.0,-0.18039758799319058,3.230474799924795
0.56,97.65913337567673,0.0,14504.471271249422,181.05136778691013,0.0,6.017319510191312,181.15133428048142,20.858127768700506,0.0,4.028536892106834,0.0,0.0,2.6091816878173,0.0,2.1249878733111487,0.0,3436.043021265793,0.6139276959002615,181.15133428048142,2.540243226397351,0.2094139044167936,13023.45161312368,216.64999999999998,0.0,0.0,0.0,540.224,0.268719595824287,0.92,nominal,158648.1761479975,nan,pitch_program,6.28,0.0,0.0,-1.5999660178856299,-0.0,0.0,-1.4931297745449519,0.0,0.0,0.92,0.0,0.0,0.0,0.0,0.0,0.0,-0.026060030725370026,0.0,0.0,-0.026060030725370026,0.0,0.0,0.56,1.0,24.855819644439997,-0.014420410313563309,1.1782092851798063,0.0023753918418035966,0.04363486402961338,-0.0014771672718084208,24.883732743799648,0.04372443102470124,1.0,0.0,69.60389581133701,-10.023653412103453,14505.822356216451,177.236471077517,-0.2762817506196476,7.21443395210731,1.0,14501.78662884384,0.0,1.0,181.33685917700365,3404.9983537812254,1.0,1.0,0.05427760456933768,20.968226518243377,0.024581835224760276,-43.13892465679651,0.0,0.0,1.0,-0.04952645340959745,4.406924099019088
0.6,104.9210332947928,0.0,14504.706518998246,182.04510153724505,0.0,5.744706549292056,182.13572040388823,20.847335052508544,0.0,3.8927935942908465,0.0,0.0,4.1398865556904925,0.0,2.0853390357273285,0.0,3473.3589206169345,0.6172638121205462,182.13572040388823,2.561707561232904,0.2094061361698318,13022.968505811836,216.64999999999998,0.0,0.0,0.0,544.64,0.2709162137738043,0.92,nominal,158829.2905080558,nan,pitch_program,6.3,0.0,0.0,-2.3453432723949006,-0.0,0.0,-2.174900572824911,0.0,0.0,0.92,0.0,0.0,0.0,0.0,0.0,0.0,-0.037959175899305406,0.0,0.0,-0.037959175899305406,0.0,0.0,0.6,1.0,25.067931926867033,0.01733662082518371,1.1019267381602007,-0.0059939284980820694,0.0731785318094907,-0.0012153869831135462,25.092145268683854,0.07343365619490483,1.0,0.0,98.2061730291294,-0.8999799510570993,14510.073255160074,182.22070614701823,0.3009528389527853,5.618889747220141,1.0,14508.531388769874,0.0,1.0,181.54987037407136,3455.4825201338367,1.0,1.0,0.05427760456933768,20.968226518243377,0.024581835224760276,-43.13892465679651,0.0,0.0,1.0,-0.04952645340959745,4.406924099019088
0.64,112.22286362552731,0.0,14504.930767016482,183.04787534942253,0.0,5.467394055886345,183.12950900305518,20.836454471598604,0.0,3.7658639099418467,0.0,0.0,2.203722670996437,0.0,2.055024616770513,0.0,3511.2415951636517,0.6206317936334721,183.1295090030552,2.5833334762080957,0.20939873141937,13022.508004348882,216.64999999999998,0.0,0.0,0.0,549.0559999999999,0.2731128317233216,0.92,nominal,159012.9878402122,nan,pitch_program,6.32,0.0,0.0,-2.3745821203336144,-0.0,0.0,-2.3346458108318737,0.0,0.0,0.92,0.0,0.0,0.0,0.0,0.0,0.0,-0.04074725626690889,0.0,0.0,-0.04074725626690889,0.0,0.0,0.64,1.0,25.286012334894373,-0.06926739674205176,1.1863675822990183,-0.0006871492332895192,0.04062919435501212,0.0024451031505412536,25.313922766197496,0.04070850202872792,1.0,0.0,98.2061730291294,-0.8999799510570993,14510.073255160074,182.22070614701823,0.3009528389527853,5.618889747220141,1.0,14509.325399123485,0.0,1.0,183.3579138002023,3504.2831115619424,1.0,1.0,-0.855629222658691,21.22042919773791,0.008291052627199655,-43.07576295399679,0.0,0.0,1.0,0.006915726090833276,4.407414140888496
0.68,119.56497679320617,0.0,14505.143899377634,184.05913261338617,0.0,5.189566354613367,184.13227826033383,20.82548602597068,0.0,3.7297313856689382,0.0,0.0,-0.331102036943667,0.0,2.114698806866013,0.0,3549.680853480004,0.624030210885467,184.1322782603338,2.6045884302915248,0.20939169395460588,13022.070344385043,216.64999999999998,0.0,0.0,0.0,553.4720000000001,0.27530944967283905,0.92,nominal,159199.21736950218,nan,pitch_program,6.34,0.0,0.0,-1.8406222983423677,-0.0,0.0,-1.939427000840269,0.0,0.0,0.92,0.0,0.0,0.0,0.0,0.0,0.0,-0.03384938676674153,0.0,0.0,-0.03384938676674153,0.0,0.0,0.68,1.0,25.54461171263706,-0.04168706322690143,1.2098565569186637,0.002014445715824742,-0.008397152748838179,-0.00020313654011118204,25.573280553127205,0.008637790821920474,1.0,0.0,98.2061730291294,-0.8999799510570993,14510.073255160074,182.22070614701823,0.3009528389527853,5.618889747220141,1.0,14510.954301648306,0.0,1.0,183.8573264006843,3553.1434833938038,1.0,1.0,-0.855629222658691,21.22042919773791,0.008291052627199655,-43.07576295399679,0.0,0.0,1.0,0.006915726090833276,4.407414140888496
0.72,126.94769662645425,0.0,14505.34600851091,185.0781444053876,0.0,4.916608942951414,185.1434378530317,20.814429715624776,0.0,3.746558682428573,0.0,0.0,-0.4279917914934098,0.0,2.2248517012997158,0.0,3588.6595619866584,0.6274570632539473,185.14343785303168,2.6255183315432533,0.20938502068673348,13021.655333827459,216.64999999999998,0.0,0.0,0.0,557.888,0.27750606762235636,0.92,nominal,159387.89772438322,nan,pitch_program,6.36,0.0,0.0,-1.513490883757583,-0.0,0.0,-1.59867810717412,0.0,0.0,0.92,0.0,0.0,0.0,0.0,0.0,0.0,-0.027902196649739176,0.0,0.0,-0.027902196649739176,0.0,0.0,0.72,1.0,25.69693918520863,-0.007611917963291339,1.3642986854087813,-0.0017002863529614084,-0.00791440430780601,0.0021748305269490838,25.73313141326982,0.008382043727542511,1.0,0.0,98.2061730291294,-0.8999799510570993,14510.073255160074,182.22070614701823,0.3009528389527853,5.618889747220141,1.0,14506.664696645126,0.0,1.0,184.46708351917175,3541.1994890279207,1.0,1.0,0.8756401447471279,21.24988760791991,-0.03502009456010383,-43.07533748362795,0.0,0.0,1.0,-0.2517459631466969,3.7564924376000186
0.76,134.37133034068128,0.0,14505.537304652471,186.10487712844832,0.0,4.6486307696304925,186.16292611319582,20.803285540560893,0.0,3.7244824213959036,0.0,0.0,1.5670458089206474,0.0,2.2936142213357926,0.0,3628.180677914261,0.6309121417442379,186.1629261131958,2.6465091342718545,0.20937870463965944,13021.262538832858,216.64999999999998,0.0,0.0,0.0,562.3040000000001,0.2797026855718737,0.92,nominal,159579.04493818374,nan,pitch_program,6.38,0.0,0.0,-1.7823252402006786,-0.0,0.0,-1.7455958135953669,0.0,0.0,0.92,0.0,0.0,0.0,0.0,0.0,0.0,-0.03046639435626835,0.0,0.0,-0.03046639435626835,0.0,0.0,0.76,1.0,25.938097773582875,0.02249582990040733,1.428790374225147,-0.0030084665662428673,0.02677163171668881,0.0033503430799876836,25.97742989804392,0.02714766904557076,1.0,0.0,98.2061730291294,-0.8999799510570993,14510.073255160074,182.22070614701823,0.3009528389527853,5.618889747220141,1.0,14502.212253602018,0.0,1.0,185.8950391131856,3622.5083864583207,1.0,1.0,0.8756401447471279,21.24988760791991,-0.03502009456010383,-43.07533748362795,0.0,0.0,1.0,-0.2517459631466969,3.7564924376000186
0.8,141.83619792491194,0.0,14505.717903112725,187.1399248929574,0.0,4.381229843312454,187.19120348959154,20.792053500779026,0.0,3.6351220341824306,0.0,0.0,2.8922135514378953,0.0,2.2939858125099546,0.0,3668.2676676427236,0.634397006832008,187.19120348959154,2.6678097958817877,0.20937274197401837,13020.891720631087,216.64999999999998,0.0,0.0,0.0,566.72,0.281899303521391,0.92,nominal,159772.77180650123,nan,pitch_program,6.4,0.0,0.0,-2.266304748042988,-0.0,0.0,-2.162162961153464,0.0,0.0,0.92,0.0,0.0,0.0,0.0,0.0,0.0,-0.037736862636798194,0.0,0.0,-0.037736862636798194,0.0,0.0,0.8,1.0,26.17513299653373,0.0416055013207252,1.4394737088883678,-0.0021384238186860785,0.048513750983135324,-0.0021487229052000634,26.214717297017526,0.04860837274590993,1.0,0.0,148.16267403285156,2.3593000228182355,14505.670800729054,187.16860993904433,-0.06805753574152172,4.3794160787127865,1.0,14500.793777107678,0.0,1.0,187.56720315605656,3708.2300329991485,1.0,1.0,1.875768927168171,21.370420813878077,-0.02334473854944351,-43.03085985626747,0.0,0.0,1.0,-0.2538184740447178,3.791761724387162
0.84,149.342641526499,0.0,14505.887760423884,188.18368910853115,0.0,4.111504949780676,188.22859856952763,20.78073359627918,0.0,3.5365549132280796,0.0,0.0,2.0394326758414323,0.0,2.284935235454733,0.0,3708.9393373466232,0.6379127721102108,188.22859856952763,2.6892843070008636,0.20936713409471025,13020.542966592882,216.64999999999998,0.0,0.0,0.0,571.136,0.2840959214709083,0.92,nominal,159969.16686548505,nan,pitch_program,6.42,0.0,0.0,-2.392551177727322,-0.0,0.0,-2.3464735344125502,0.0,0.0,0.92,0.0,0.0,0.0,0.0,0.0,0.0,-0.04095368898640747,0.0,0.0,-0.04095368898640747,0.0,0.0,0.84,1.0,26.35306771031426,-0.015908370633943902,1.2946503475044229,0.0022244538956223423,0.038746935116830854,0.0006162688898660338,26.38485456361201,0.038815627824708265,1.0,0.0,148.16267403285156,2.3593000228182355,14505.670800729054,187.16860993904433,-0.06805753574152172,4.3794160787127865,1.0,14507.540038428517,0.0,1.0,187.65986436840126,3774.1424680345913,1.0,1.0,1.875768927168171,21.370420813878077,-0.02334473854944351,-43.03085985626747,0.0,0.0,1.0,-0.2538184740447178,3.791761724387162
0.88,156.8910063729796,0.0,14506.046812865387,189.23592114201048,0.0,3.841368854983947,189.27490579880168,20.769325827061355,0.0,3.4891694389407193,0.0,0.0,0.37841764157461116,0.0,2.3262612653461323,0.0,3750.1936801570046,0.6414587409490459,189.27490579880165,2.7105997610741865,0.20936188307690434,13020.21640577303,216.64999999999998,0.0,0.0,0.0,575.552,0.28629253942042565,0.92,nominal,160168.21895995896,nan,pitch_program,6.44,0.0,0.0,-2.1127624161083127,-0.0,0.0,-2.1595046397691604,0.0,0.0,0.92,0.0,0.0,0.0,0.0,0.0,0.0,-0.037690466176065925,0.0,0.0,-0.037690466176065925,0.0,0.0,0.88,1.0,26.608357385028864,-0.056846211253428466,1.467629942921173,0.0017378955623530748,0.006786689988617044,0.00043196713933973935,26.648862112114895,0.007018976962258152,1.0,0.0,148.16267403285156,2.3593000228182355,14505.670800729054,187.16860993904433,-0.06805753574152172,4.3794160787127865,1.0,14502.340802958539,0.0,1.0,188.9700155882278,3767.4620724941847,1.0,1.0,1.3410760508621564,21.445494764582026,0.0059233228732307195,-43.00492601421853,0.0,0.0,1.0,-0.08181619588055228,3.5813945070842754
0.92,164.48162103771364,0.0,14506.195119676871,190.29612923691474,0.0,3.574521934457109,190.3296981808474,20.757830193125546,0.0,3.4816334686078054,0.0,0.0,0.06458055315717134,0.0,2.405516267281852,0.0,3792.0196702483922,0.6450334662434224,190.3296981808474,2.7316922527752565,0.20935698693806745,13019.91191487778,216.64999999999998,0.0,0.0,0.0,579.968,0.28848915736994296,0.92,nominal,160369.8753751854,nan,pitch_program,6.46,0.0,0.0,-1.8815058530045563,-0.0,0.0,-1.937105610357477,0.0,0.0,0.92,0.0,0.0,0.0,0.0,0.0,0.0,-0.033808870859592347,0.0,0.0,-0.033808870859592347,0.0,0.0,0.92,1.0,26.70590722471842,0.015705542704126604,1.5676586096055616,0.0009516298735982592,-9.379215221164703e-05,-0.00012983215546151625,26.751883688361264,0.0009650143899097645,1.0,0.0,148.16267403285156,2.3593000228182355,14505.670800729054,187.16860993904433,-0.06805753574152172,4.3794160787127865,1.0,14504.661851298215,0.0,1.0,189.90616322982117,3772.5398315094417,1.0,1.0,1.3410760508621564,21.445494764582026,0.0059233228732307195,-43.00492601421853,0.0,0.0,1.0,-0.08181619588055228,3.5813945070842754
0.96,172.11480111550503,0.0,14506.33283457833,191.3642175594472,0.0,3.311628811707255,191.39286989730306,20.746246694471758,0.0,3.4557406309301824,0.0,0.0,1.2676313879923975,0.0,2.4643148619881705,0.0,3834.418768729138,0.64863658937151,191.39286989730306,2.752775674991263,0.20935244057863012,13019.629176764889,216.64999999999998,0.0,0.0,0.0,584.384,0.2906857753194603,0.92,nominal,160574.14421598057,nan,pitch_program,6.48,0.0,0.0,-2.024355670503844,-0.0,0.0,-2.0069056584745706,0.0,0.0,0.92,0.0,0.0,0.0,0.0,0.0,0.0,-0.035027111517286096,0.0,0.0,-0.035027111517286096,0.0,0.0,0.96,1.0,26.99356515154231,0.01231926051938102,1.600152312881969,-0.00011778920603343397,0.025223752726875756,-0.00032030735832690285,27.040954102604452,0.025226061379601622,1.0,0.0,148.16267403285156,2.3593000228182355,14505.670800729054,187.16860993904433,-0.06805753574152172,4.3794160787127865,1.0,14502.82253157395,0.0,1.0,191.35250796896614,3784.7674225250844,1.0,1.0,-0.8779208712999178,21.373572181512138,0.0008456021625410988,-42.95237747811639,0.0,0.0,1.0,0.032433043219334025,3.4954991624571217
1.0,179.79086850808335,0.0,14506.460064157702,192.44055482534134,0.0,3.0499145601117164,192.46472175520685,20.73457533109999,0.0,3.3859976524050768,0.0,0.0,2.2245048000168515,0.0,2.4780154257488634,0.0,3877.4088010865394,0.6522691297780323,192.46472175520682,2.7740419160543843,0.2093482404571486,13019.367971191954,216.64999999999998,0.0,0.0,0.0,588.8000000000001,0.2928823932689777,0.92,nominal,160781.11114832672,nan,pitch_program,6.5,0.0,0.0,-2.3511663206525926,-0.0,0.0,-2.282314188216988,0.0,0.0,0.92,0.0,0.0,0.0,0.0,0.0,0.0,-0.03983389714936801,0.0,0.0,-0.03983389714936801,0.0,0.0,1.0,1.0,27.16718391170268,-0.033528278752470886,1.5909745592240518,0.0031122155606933886,0.037001308754941654,-0.0004537801906851138,27.213750309096525,0.03713473645707213,1.0,0.0,178.01169116476527,3.1000170917265457,14499.872869622648,192.2517548912019,-0.09427000198388218,2.920032741113127,1.0,14512.232687256283,0.0,1.0,193.2089553080548,3843.554363240068,1.0,1.0,-0.8779208712999178,21.373572181512138,0.0008456021625410988,-42.95237747811639,0.0,0.0,1.0,0.032433043219334025,3.4954991624571217
1.04,187.51010209636394,0.0,14506.576802468746,193.52108807859952,0.0,2.786912100248591,193.54115430620843,20.722861052321985,0.0,3.3073930477051356,0.0,0.0,1.7168479531797358,0.0,2.482329146082939,0.0,3920.829694008336,0.6559171943007327,193.54115430620843,2.773247548181194,0.20934438674907999,13019.128309070653,216.64999999999998,0.0,0.0,0.0,588.6977777777778,0.29283154563125735,0.92,nominal,160990.0106050199,nan,pitch_program,6.52,0.0,0.0,-2.4643401484392604,-0.0,0.0,-2.427934956394806,0.0,0.0,0.92,0.0,0.0,0.0,0.0,0.0,0.0,-0.04237545901335432,0.0,0.0,-0.04237545901335432,0.0,0.0,1.04,1.0,27.184760169019302,0.08209940488310168,1.633719176356928,0.0037072856089737606,0.02840024943649118,-0.000717315906609876,27.23393038300893,0.028650177604184184,1.0,0.0,178.01169116476527,3.1000170917265457,14499.872869622648,192.2517548912019,-0.09427000198388218,2.920032741113127,1.0,14507.078084068204,0.0,1.0,193.42792806287335,3858.046773429814,1.0,1.0,1.2892820476969535,21.591477222009097,0.14268177879962665,-42.918108462514105,0.0,0.0,1.0,0.23310546971279078,3.5215024121433984
1.08,195.27255169849914,0.0,14506.683008023589,194.60130800547316,0.0,2.523544975368898,194.61766969287177,20.71114880744949,0.0,3.26256932424545,0.0,0.0,0.5681416896988767,0.0,2.519612486050048,0.0,3964.501510822577,0.6595655395561539,194.6176696928718,2.772353801376181,0.20934088080483879,13018.910274383266,216.64999999999998,0.0,0.0,0.0,588.5955555555556,0.29278069799353706,0.92,nominal,161199.9815989764,nan,pitch_program,6.54,0.0,0.0,-2.292132870365644,-0.0,0.0,-2.3192932875714765,0.0,0.0,0.92,0.0,0.0,0.0,0.0,0.0,0.0,-0.04047930418752595,0.0,0.0,-0.04047930418752595,0.0,0.0,1.08,1.0,27.14636377099713,-0.02502519049099016,1.6281366562665909,-0.00013210453407288853,0.013249206281709235,0.0024575524751704702,27.19515620876158,0.013475848131803156,1.0,0.0,178.01169116476527,3.1000170917265457,14499.872869622648,192.2517548912019,-0.09427000198388218,2.920032741113127,1.0,14505.258886997372,0.0,1.0,194.1947312791443,3934.099788140877,1.0,1.0,1.2892820476969535,21.591477222009097,0.14268177879962665,-42.918108462514105,0.0,0.0,1.0,0.23310546971279078,3.5215024121433984
1.12,203.07819740771666,0.0,14506.778720703633,195.68085481674993,0.0,2.262486457351174,195.6939339549994,20.6994385964825,0.0,3.2454840669662874,0.0,0.0,0.3431555063720579,0.0,2.5830526332705808,0.0,4008.4108065405208,0.6632130337424498,195.6939339549994,2.7712951063177718,0.20933772129046357,13018.713784170732,216.64999999999998,0.0,0.0,0.0,588.4933333333333,0.2927298503558167,0.92,nominal,161410.95943478012,nan,pitch_program,6.5600000000000005,0.0,0.0,-2.142186813560116,-0.0,0.0,-2.1776081083623877,0.0,0.0,0.92,0.0,0.0,0.0,0.0,0.0,0.0,-0.038006431309049134,0.0,0.0,-0.038006431309049134,0.0,0.0,1.12,1.0,27.154197061930425,-0.031040520587644428,1.8066568278754853,-0.0012480854341916556,0.00327754636502352,0.0007666112545257264,27.21424976893132,0.0035899471084524033,1.0,0.0,178.01169116476527,3.1000170917265457,14499.872869622648,192.2517548912019,-0.09427000198388218,2.920032741113127,1.0,14505.609691206086,0.0,1.0,195.82710101885561,3995.0204663764753,1.0,1.0,0.19740921746118686,21.655514765521158,-0.04420177874997674,-42.897941198572674,0.0,0.0,1.0,0.367103914393271,2.7799937574654425
1.16,210.92700958501047,0.0,14506.864049652786,196.7596497956624,0.0,2.004248426000029,196.76985744637014,20.687730419421023,0.0,3.215092279001713,0.0,0.0,1.2114381467229445,0.0,2.6314817445077883,0.0,4052.5538565486727,0.6668593730456949,196.76985744637014,2.7701975327839055,0.20933490458746132,13018.53861339895,216.64999999999998,0.0,0.0,0.0,588.3911111111112,0.29267900271809644,0.92,nominal,161622.9267322599,nan,pitch_program,6.58,0.0,0.0,-2.2562639577809143,-0.0,0.0,-2.2405327878972088,0.0,0.0,0.92,0.0,0.0,0.0,0.0,0.0,0.0,-0.03910467414769405,0.0,0.0,-0.03910467414769405,0.0,0.0,1.16,1.0,27.07830354967882,0.018587537060100173,1.7602209673206617,-4.472625110210913e-05,0.024191604376771505,0.0019237495489914302,27.13546105152588,0.02426801465070871,1.0,0.0,178.01169116476527,3.1000170917265457,14499.872869622648,192.2517548912019,-0.09427000198388218,2.920032741113127,1.0,14508.78146761297,0.0,1.0,196.3061851850473,4046.165717415615,1.0,1.0,0.19740921746118686,21.655514765521158,-0.04420177874997674,-42.897941198572674,0.0,0.0,1.0,0.367103914393271,2.7799937574654425
1.2,218.8189629741969,0.0,14506.93906913411,197.83795811345934,0.0,1.7467642095972948,197.84566928721694,20.676024276265053,0.0,3.153864761275148,0.0,0.0,1.8608423579363558,0.0,2.6479981549780187,0.0,4096.940079387515,0.6705053339617247,197.84566928721696,2.76919531681616,0.20933242823062204,13018.384608756503,216.64999999999998,0.0,0.0,0.0,588.2888888888889,0.2926281550803761,0.92,nominal,161835.92845017742,nan,pitch_program,6.6,0.0,0.0,-2.497231586911135,-0.0,0.0,-2.44589182710835,0.0,0.0,0.92,0.0,0.0,0.0,0.0,0.0,0.0,-0.0426888655306606,0.0,0.0,-0.0426888655306606,0.0,0.0,1.2,1.0,27.146607000089165,0.06306482018866198,1.7965389332839712,-0.00013216227888778834,0.034920823072749484,-0.0001943358016607929,27.206061841575686,0.03492161389956141,1.0,0.0,203.6681705702399,-1.170508952334346,14490.377471366146,197.88645887893566,0.024909568298184238,1.7534748008114314,1.0,14505.006280463218,0.0,1.0,198.33660211317297,4106.016687298177,1.0,1.0,0.07279488918118421,21.684796369051707,0.026940747801058023,-42.81309788954548,0.0,0.0,1.0,0.1718013532083167,3.229784209225203
1.24,226.7540428891226,0.0,14507.003773761011,198.91597961290117,0.0,1.4884785761637376,198.92154864124655,20.664320167014594,0.0,3.0889357034564586,0.0,0.0,1.403787614839022,0.0,2.66020218127029,0.0,4141.577071628976,0.6741515236821017,198.92154864124657,2.7682678161915857,0.20933029238567413,13018.251780550041,216.64999999999998,0.0,0.0,0.0,588.1866666666667,0.2925773074426558,0.92,nominal,162049.9998148693,nan,pitch_program,6.62,0.0,0.0,-2.5707513363026533,-0.0,0.0,-2.5457794344637925,0.0,0.0,0.92,0.0,0.0,0.0,0.0,0.0,0.0,-0.044432233160952385,0.0,0.0,-0.044432233160952385,0.0,0.0,1.24,1.0,27.040521550326364,-0.011605378712605174,1.8801607474827593,0.0015865455449370655,0.02427982684603652,-0.002376536093496108,27.105810167468793,0.024447393362961315,1.0,0.0,203.6681705702399,-1.170508952334346,14490.377471366146,197.88645887893566,0.024909568298184238,1.7534748008114314,1.0,14514.029879185997,0.0,1.0,198.7454628242968,4116.773456494077,1.0,1.0,0.07279488918118421,21.684796369051707,0.026940747801058023,-42.81309788954548,0.0,0.0,1.0,0.1718013532083167,3.229784209225203
1.28,234.73223573466257,0.0,14507.058148245242,199.99356508444595,0.0,1.2304772338733847,199.99735035597246,20.65261809166964,0.0,3.0507186485379263,0.0,0.0,0.5515011023289527,0.0,2.6982059930036106,0.0,4186.459022470952,0.6777974502803823,199.9973503559725,2.767276679555097,0.20932849754684038,13018.140159515278,216.64999999999998,0.0,0.0,0.0,588.0844444444444,0.29252645980493547,0.92,nominal,162265.11186419398,nan,pitch_program,6.64,0.0,0.0,-2.439274294012222,-0.0,0.0,-2.460575322102536,0.0,0.0,0.92,0.0,0.0,0.0,0.0,0.0,0.0,-0.04294514086400926,0.0,0.0,-0.04294514086400926,0.0,0.0,1.28,1.0,27.110489855273006,-0.060961590163669074,1.9019979451708378,0.0015267865395474582,0.008080502346800031,0.0010425452223271436,27.177195820977737,0.0082893000823098,1.0,0.0,203.6681705702399,-1.170508952334346,14490.377471366146,197.88645887893566,0.024909568298184238,1.7534748008114314,1.0,14516.984764776595,0.0,1.0,199.74550302451783,4228.145877577662,1.0,1.0,0.6404825376029071,21.759290595446558,-0.006569877914700802,-42.82598147006079,0.0,0.0,1.0,-0.2581612528338506,3.21721011122564
1.32,242.75351828313012,0.0,14507.102246386014,201.07043813528875,0.0,0.9748082840206337,201.07280110225642,20.640918050230198,0.0,3.030619532755996,0.0,0.0,0.5049191171337244,0.0,2.7528464128097103,0.0,4231.574552330272,0.6814421874353295,201.07280110225642,2.7661684983721924,0.20932704192951987,13018.049634667877,216.64999999999998,0.0,0.0,0.0,587.9822222222223,0.2924756121672152,0.92,nominal,162481.20991607517,nan,pitch_program,6.66,0.0,0.0,-2.3513961836202344,-0.0,0.0,-2.3732320113166945,0.0,0.0,0.92,0.0,0.0,0.0,0.0,0.0,0.0,-0.04142071251120365,0.0,0.0,-0.04142071251120365,0.0,0.0,1.32,1.0,27.06377312639827,-0.048400960677325945,2.0236695493849743,0.001302129741937797,0.010177551169390718,0.0007422440657022214,27.139369869900438,0.010287323068878295,1.0,0.0,203.6681705702399,-1.170508952334346,14490.377471366146,197.88645887893566,0.024909568298184238,1.7534748008114314,1.0,14501.842350763658,0.0,1.0,201.47971204851441,4252.529059664739,1.0,1.0,0.6404825376029071,21.759290595446558,-0.006569877914700802,-42.82598147006079,0.0,0.0,1.0,-0.2581612528338506,3.21721011122564
1.36,250.8178606408035,0.0,14507.13616902282,202.14657614683233,0.0,0.7215806177368195,202.14786401660288,20.629220042696264,0.0,2.996316035703616,0.0,0.0,1.2407543827406196,0.0,2.791794400142423,0.0,4276.922010882531,0.6850856102153716,202.14786401660288,2.765024308576162,0.20932592219809626,13017.979998565845,216.64999999999998,0.0,0.0,0.0,587.88,0.2924247645294949,0.92,nominal,162698.28637518513,nan,pitch_program,6.68,0.0,0.0,-2.4735304720811473,-0.0,0.0,-2.453470779928257,0.0,0.0,0.92,0.0,0.0,0.0,0.0,0.0,0.0,-0.04282114321122129,0.0,0.0,-0.04282114321122129,0.0,0.0,1.36,1.0,27.02167805033577,0.030057852415360995,2.0342984779918005,0.0020406099943563478,0.023903913187309857,5.270512958780247e-05,27.098161532252504,0.023990913543385502,1.0,0.0,203.6681705702399,-1.170508952334346,14490.377471366146,197.88645887893566,0.024909568298184238,1.7534748008114314,1.0,14501.212214137246,0.0,1.0,201.61113538713886,4305.378578968826,1.0,1.0,0.4496114075270781,21.81145304720201,0.001867540974892284,-42.66415370290356,0.0,0.0,1.0,-0.1880086816993715,3.171550374936037
1.4000000000000001,258.9252377817807,0.0,14507.15997906094,203.2222100188793,0.0,0.46898818414560317,203.22275117435638,20.61752406906784,0.0,2.939273210183026,0.0,0.0,1.624786144349132,0.0,2.8070485095078,0.0,4322.510329692897,0.6887284373506697,203.22275117435638,2.7639438645940957,0.2093251362707913,13017.93112174338,216.64999999999998,0.0,0.0,0.0,587.7777777777778,0.2923739168917746,0.92,nominal,162916.38370609513,nan,pitch_program,6.7,0.0,0.0,-2.661803838731023,-0.0,0.0,-2.6201372269704697,0.0,0.0,0.92,0.0,0.0,0.0,0.0,0.0,0.0,-0.04573002146470867,0.0,0.0,-0.04573002146470867,0.0,0.0,1.4000000000000001,1.0,26.951372824440533,0.04207196727651356,2.1296874601032028,0.0016619201671743207,0.031231489074846734,-0.0006038918680256584,27.035418174131188,0.03128150530045827,1.0,0.0,264.8293752197225,-5.845487490206498,14510.858431585997,203.1210855700197,0.1921698435681847,0.47834366731150635,1.0,14510.469390170612,0.0,1.0,203.8675717287492,4303.566889625643,1.0,1.0,0.4496114075270781,21.81145304720201,0.001867540974892284,-42.66415370290356,0.0,0.0,1.0,-0.1880086816993715,3.171550374936037
1.44,267.0756327004194,0.0,14507.173678290956,204.2974588088496,0.0,0.21606879142416496,204.2975730680035,20.605830129344923,0.0,2.8852704538278915,0.0,0.0,1.1003884594574653,0.0,2.8246733945720806,0.0,4368.344329501711,0.6923710433038129,204.2975730680035,2.762914988468513,0.20932468408474142,13017.903000291,216.64999999999998,0.0,0.0,0.0,587.6755555555557,0.2923230692540543,0.92,nominal,163135.5239329501,nan,pitch_program,6.720000000000001,0.0,0.0,-2.6873127336426346,-0.0,0.0,-2.673877632308202,0.0,0.0,0.92,0.0,0.0,0.0,0.0,0.0,0.0,-0.04666796847920843,0.0,0.0,-0.04666796847920843,0.0,0.0,1.44,1.0,27.01649192816791,-0.04189316331380954,2.1492103758231242,5.767135212377379e-05,0.02093753812902398,0.0008853857706450552,27.10187625205015,0.02095632927905194,1.0,0.0,264.8293752197225,-5.845487490206498,14510.858431585997,203.1210855700197,0.1921698435681847,0.47834366731150635,1.0,14510.712035627732,0.0,1.0,203.23973223696794,4413.004043266464,1.0,1.0,-0.7228401792152889,21.87382643327604,0.012489665515090165,-42.749450651749505,0.0,0.0,1.0,0.23839887152304504,2.64211682410957
1.48,275.26902708506276,0.0,14507.17727577797,205.37214661791288,0.0,-0.03589736661461096,205.37214975519547,20.594138223527516,0.0,2.8549110646979354,0.0,0.0,0.46473032714741525,0.0,2.8649258968724824,0.0,4414.416442003622,0.6960128182443964,205.3721497551955,2.7618359483874775,0.20932456533856209,13017.895615465599,216.64999999999998,0.0,0.0,0.0,587.5733333333334,0.292272221616334,0.92,nominal,163355.66997904325,nan,pitch_program,6.74,0.0,0.0,-2.570851017546198,-0.0,0.0,-2.5914563404985986,0.0,0.0,0.92,0.0,0.0,0.0,0.0,0.0,0.0,-0.04522944556338382,0.0,0.0,-0.04522944556338382,0.0,0.0,1.48,1.0,27.004298067455125,-0.0007915695423767858,2.198080570306961,-0.001742731707386641,0.005821114353242137,0.0040572720446763804,27.09360944828326,0.007306431588810289,1.0,0.0,264.8293752197225,-5.845487490206498,14510.858431585997,203.1210855700197,0.1921698435681847,0.47834366731150635,1.0,14515.655712518097,0.0,1.0,206.10544556502091,4477.123947687559,1.0,1.0,-0.7228401792152889,21.87382643327604,0.012489665515090165,-42.749450651749505,0.0,0.0,1.0,0.23839887152304504,2.64211682410957
1.52,283.5053937686538,0.0,14507.170843762598,206.44605948813137,0.0,-0.28533102360795487,206.44625666737122,20.582448351615618,0.0,2.833740061874419,0.0,0.0,0.6402416097123802,0.0,2.912929042510828,0.0,4460.716966110461,0.6996530011023465,206.44625666737122,2.7606647971856475,0.2093247776471593,13017.90881893817,216.64999999999998,0.0,0.0,0.0,587.4711111111111,0.29222137397861364,0.92,nominal,163576.77540096952,nan,pitch_program,6.76,0.0,0.0,-2.539620372662704,-0.0,0.0,-2.549987566229883,0.0,0.0,0.92,0.0,0.0,0.0,0.0,0.0,0.0,-0.04450567891562843,0.0,0.0,-0.04450567891562843,0.0,0.0,1.52,1.0,27.026488907526087,0.07438448794048194,2.2315752555872153,0.0018376203390066319,0.012810047656063531,-0.0034293606704669704,27.118564929620188,0.013387855842856065,1.0,0.0,264.8293752197225,-5.845487490206498,14510.858431585997,203.1210855700197,0.1921698435681847,0.47834366731150635,1.0,14505.216627948483,0.0,1.0,206.85851987123246,4495.116361698162,1.0,1.0,-0.5018245254092427,21.905645472800554,0.0487662324654304,-42.694998833198916,0.0,0.0,1.0,0.15030151754214735,2.5323340961499277
1.56,291.78470196485745,0.0,14507.154479344314,207.5192484447458,0.0,-0.5326689076581032,207.51993208180588,20.570760513609226,0.0,2.795375978035916,0.0,0.0,1.3025741096072958,0.0,2.942444808939978,0.0,4507.247399025336,0.7032917216005794,207.51993208180588,2.759463353958341,0.20932531780646144,13017.942411447484,216.64999999999998,0.0,0.0,0.0,587.3688888888889,0.29217052634089336,0.92,nominal,163798.84758048056,nan,pitch_program,6.78,0.0,0.0,-2.682948715173636,-0.0,0.0,-2.6563564853848853,0.0,0.0,0.92,0.0,0.0,0.0,0.0,0.0,0.0,-0.046362166776670884,0.0,0.0,-0.046362166776670884,0.0,0.0,1.56,1.0,26.972065369481186,-0.012616271786481273,2.273905415188185,-0.0024485258041474366,0.02516160691075858,-0.0024013633030982827,27.06775046624862,0.025394256962127812,1.0,0.0,264.8293752197225,-5.845487490206498,14510.858431585997,203.1210855700197,0.1921698435681847,0.47834366731150635,1.0,14507.307918468749,0.0,1.0,207.62772544115953,4453.9678726443235,1.0,1.0,-0.5018245254092427,21.905645472800554,0.0487662324654304,-42.694998833198916,0.0,0.0,1.0,0.15030151754214735,2.5323340961499277
1.6,300.10692706117953,0.0,14507.128232369587,208.59192734739403,0.0,-0.7795921649585745,208.59338416748545,20.559074709508344,0.0,2.7415334261690507,0.0,0.0,1.4050752369779074,0.0,2.955669866583988,0.0,4554.016723872539,0.7069296852304814,208.59338416748548,2.7583151969725477,0.2093261841736575,13017.99629082712,216.64999999999998,0.0,0.0,0.0,587.2666666666668,0.29211967870317307,0.92,nominal,164021.92903918927,nan,pitch_program,6.8,0.0,0.0,-2.8242877426553177,-0.0,0.0,-2.790701491201231,0.0,0.0,0.92,0.0,0.0,0.0,0.0,0.0,0.0,-0.04870692946177705,0.0,0.0,-0.04870692946177705,0.0,0.0,1.6,1.0,26.952272083535856,-0.03921739523203313,2.3293455117024564,0.001103780625103049,0.02662504013187992,0.00200183697088942,27.052769894817118,0.026722994685300316,1.0,0.0,299.7873763548449,-4.72072954752664,14505.49264554348,208.70618426575462,-0.12159663982096436,-0.9860932632773265,1.0,14502.13449624043,0.0,1.0,208.87373606838605,4578.971010141513,1.0,1.0,-0.4377004259237133,22.034255881612506,-0.03747383020246067,-42.71258540640518,0.0,0.0,1.0,-0.18094491096081344,2.9689286924105613
1.6400000000000001,308.47205004302106,0.0,14507.092109078974,209.66412421927612,0.0,-1.026387760045541,209.66663648866506,20.547390939312972,0.0,2.6984297464278004,0.0,0.0,0.7832349204928777,0.0,2.978912720078175,0.0,4601.026041316088,0.7105669718520704,209.66663648866506,2.7572067368148807,0.20932737654680625,13018.070444518351,216.64999999999998,0.0,0.0,0.0,587.1644444444444,0.29206883106545267,0.92,nominal,164246.0240597343,nan,pitch_program,6.82,0.0,0.0,-2.7958051087280027,-0.0,0.0,-2.7947843852226484,0.0,0.0,0.92,0.0,0.0,0.0,0.0,0.0,0.0,-0.04877818940546077,0.0,0.0,-0.04877818940546077,0.0,0.0,1.6400000000000001,1.0,27.008779943471687,0.04026510505641589,2.309225015498574,0.0006237810617358748,0.011414677965575484,-0.0013362094417628157,27.10734836692383,0.011509536547708204,1.0,0.0,299.7873763548449,-4.72072954752664,14505.49264554348,208.70618426575462,-0.12159663982096436,-0.9860932632773265,1.0,14506.662306272294,0.0,1.0,209.98814211355352,4752.118772579679,1.0,1.0,-0.4377004259237133,22.034255881612506,-0.03747383020246067,-42.71258540640518,0.0,0.0,1.0,-0.18094491096081344,2.9689286924105613
1.68,316.88004764410823,0.0,14507.046144297494,210.7356249015302,0.0,-1.2714859846745503,210.73946065995247,20.53570920302311,0.0,2.67590866548739,0.0,0.0,0.39266761722502425,0.0,3.021601979890697,0.0,4648.265339835973,0.7142028074599098,210.7394606599525,2.756049828589396,0.20932889378194783,13018.164801378309,216.64999999999998,0.0,0.0,0.0,587.0622222222222,0.2920179834277324,0.92,nominal,164471.08421059884,nan,pitch_program,6.84,0.0,0.0,-2.6943069446172467,-0.0,0.0,-2.7144024327383267,0.0,0.0,0.92,0.0,0.0,0.0,0.0,0.0,0.0,-0.047375259675427724,0.0,0.0,-0.047375259675427724,0.0,0.0,1.68,1.0,27.006993568363608,-0.0018989004931677046,2.4540044582547713,0.0005965412209964411,0.010232882335085392,0.0022973247630307587,27.118256638076694,0.010504543939595138,1.0,0.0,299.7873763548449,-4.72072954752664,14505.49264554348,208.70618426575462,-0.12159663982096436,-0.9860932632773265,1.0,14510.389765807717,0.0,1.0,210.64085655384503,4665.683617982026,1.0,1.0,-0.5897495294349937,21.99325186002407,-0.016283785133589287,-42.67561537221782,0.0,0.0,1.0,0.45317038481678895,2.985664358603295
1.72,325.3308885700762,0.0,14506.990429943056,211.80629175890778,0.0,-1.5138785906947614,211.81170188884025,20.524029500638754,0.0,2.6525163509834893,0.0,0.0,0.8162486510519309,0.0,3.062029100635677,0.0,4695.727624384601,0.7178366674572153,211.8117018888403,2.754807528389105,0.20933073285202278,13018.279173154151,216.64999999999998,0.0,0.0,0.0,586.96,0.2919671357900121,0.92,nominal,164697.07622832453,nan,pitch_program,6.86,0.0,0.0,-2.7274178374304126,-0.0,0.0,-2.724814756491995,0.0,0.0,0.92,0.0,0.0,0.0,0.0,0.0,0.0,-0.04755698900771285,0.0,0.0,-0.04755698900771285,0.0,0.0,1.72,1.0,26.890416549491356,-0.0367311266594899,2.5590294491911854,-0.0006920061442557684,0.013423090992274674,0.0010391052560190523,27.011932235637126,0.01348102310745218,1.0,0.0,299.7873763548449,-4.72072954752664,14505.49264554348,208.70618426575462,-0.12159663982096436,-0.9860932632773265,1.0,14510.263060462245,0.0,1.0,211.53343691908307,4638.316789218846,1.0,1.0,-0.5897495294349937,21.99325186002407,-0.016283785133589287,-42.67561537221782,0.0,0.0,1.0,0.45317038481678895,2.985664358603295
1.76,333.82454162984453,0.0,14506.925055745507,212.8762627952193,0.0,-1.7546554942692663,212.88349414072206,20.512351832159908,0.0,2.609547995263361,0.0,0.0,1.3502791749604672,0.0,3.081803926039242,0.0,4743.418629864216,0.7214690058570127,212.88349414072206,2.753543800114144,0.2093328908035855,13018.413376171084,216.64999999999998,0.0,0.0,0.0,586.8577777777779,0.2919162881522918,0.92,nominal,164924.0276367081,nan,pitch_program,6.88,0.0,0.0,-2.888446735838706,-0.0,0.0,-2.855720339969364,0.0,0.0,0.92,0.0,0.0,0.0,0.0,0.0,0.0,-0.04984172244863722,0.0,0.0,-0.04984172244863722,0.0,0.0,1.76,1.0,26.907569512372664,0.04332972376622677,2.4751491991429084,-0.002327921180005477,0.023574100990750198,0.00029492113448892614,27.02120534110472,0.023690597987766703,1.0,0.0,299.7873763548449,-4.72072954752664,14505.49264554348,208.70618426575462,-0.12159663982096436,-0.9860932632773265,1.0,14505.643738022838,0.0,1.0,212.72695927315033,4771.976776672426,1.0,1.0,0.14564406546944647,22.070538039470147,-0.0024987805230685754,-42.66248375696786,0.0,0.0,1.0,-0.5047301191530814,2.7491791594019444
1.8,342.36098297712186,0.0,14506.850055584833,213.9457141896341,0.0,-1.9952273327607997,213.9550175906655,20.50067619758657,0.0,2.5606685179079416,0.0,0.0,1.114080053200683,0.0,3.09498532719029,0.0,4791.346322990316,0.7251004332783991,213.9550175906655,2.752341324317742,0.20933536652812637,13018.56734149089,216.64999999999998,0.0,0.0,0.0,586.7555555555556,0.2918654405145715,0.92,nominal,165151.97587371198,nan,pitch_program,6.9,0.0,0.0,-2.9674352185641375,-0.0,0.0,-2.945092242845183,0.0,0.0,0.92,0.0,0.0,0.0,0.0,0.0,0.0,-0.05140155641259285,0.0,0.0,-0.05140155641259285,0.0,0.0,1.8,1.0,26.924584101705165,0.08798612994934507,2.498735765581834,0.0034790757940642396,0.020416204706702707,-0.0007970427138126827,27.04042623619413,0.020725845220267262,1.0,0.0,348.42030508685895,3.57184111878229,14504.175075404988,213.8655077447624,-0.33674699934019636,-1.7620843280272123,1.0,14515.28984735734,0.0,1.0,212.9069352022735,4762.000466845255,1.0,1.0,0.14564406546944647,22.070538039470147,-0.0024987805230685754,-42.66248375696786,0.0,0.0,1.0,-0.5047301191530814,2.7491791594019444
1.84,350.94019085412344,0.0,14506.76544497236,215.01455769163584,0.0,-2.235010083448153,215.02617349849044,20.48900259691874,0.0,2.5300363270874184,0.0,0.0,0.4605714412718113,0.0,3.1255868538388123,0.0,4839.5062928032185,0.7287306150877294,215.02617349849044,2.7511727168692617,0.20933815952488719,13018.741037971415,216.64999999999998,0.0,0.0,0.0,586.6533333333333,0.29181459287685113,0.92,nominal,165380.89899563964,nan,pitch_program,6.92,0.0,0.0,-2.8852556755189216,-0.0,0.0,-2.897222988984174,0.0,0.0,0.92,0.0,0.0,0.0,0.0,0.0,0.0,-0.05056608032224524,0.0,0.0,-0.05056608032224524,0.0,0.0,1.84,1.0,26.829629037710806,0.05067503863304672,2.6257732758808694,0.00011627998705808482,0.008293547537370547,0.0020107949319641523,26.957860589391093,0.008534620556792669,1.0,0.0,348.42030508685895,3.57184111878229,14504.175075404988,213.8655077447624,-0.33674699934019636,-1.7620843280272123,1.0,14510.351725328212,0.0,1.0,214.85238967226618,4861.977948425402,1.0,1.0,-0.5527947429352299,22.092554642140186,0.021473861929088452,-42.59341677732044,0.0,0.0,1.0,-0.4159999661909108,2.1062635892234938
1.8800000000000001,359.56213615181673,0.0,14506.671290597602,216.08256179335012,0.0,-2.4722920973698366,216.09670460095336,20.47733103015642,0.0,2.5132427587492208,0.0,0.0,0.4284626597709703,0.0,3.168759433378633,0.0,4887.8868305177575,0.7323586794116003,216.09670460095336,2.7499404272956958,0.20934126760509775,13018.93432949303,216.64999999999998,0.0,0.0,0.0,586.5511111111111,0.2917637452391309,0.92,nominal,165610.74088163482,nan,pitch_program,6.940000000000001,0.0,0.0,-2.822910089066647,-0.0,0.0,-2.8377726690501524,0.0,0.0,0.92,0.0,0.0,0.0,0.0,0.0,0.0,-0.04952847649803255,0.0,0.0,-0.04952847649803255,0.0,0.0,1.8800000000000001,1.0,26.87429311398221,-0.018203625673627325,2.7408986199483616,-0.0016895846284310505,0.0063292031273220455,0.00113902791639127,27.01370924166198,0.006649127238807533,1.0,0.0,348.42030508685895,3.57184111878229,14504.175075404988,213.8655077447624,-0.33674699934019636,-1.7620843280272123,1.0,14504.299963017856,0.0,1.0,216.00485802951704,4851.448333519599,1.0,1.0,-0.5527947429352299,22.092554642140186,0.021473861929088452,-42.59341677732044,0.0,0.0,1.0,-0.4159999661909108,2.1062635892234938
1.92,368.22678408276585,0.0,14506.5676993492,217.14971022895574,0.0,-2.7069728337121606,217.1665820388623,20.46566149729961,0.0,2.484082274592935,0.0,0.0,1.05772339292763,0.0,3.198290390105432,0.0,4936.486348738751,0.7359845284452824,217.1665820388623,2.7486151509853634,0.20934468725426308,13019.146997489277,216.64999999999998,0.0,0.0,0.0,586.448888888889,0.2917128976014106,0.92,nominal,165841.49430604378,nan,pitch_program,6.960000000000001,0.0,0.0,-2.931313918237562,-0.0,0.0,-2.91260566840008,0.0,0.0,0.92,0.0,0.0,0.0,0.0,0.0,0.0,-0.050834558725831556,0.0,0.0,-0.050834558725831556,0.0,0.0,1.92,1.0,26.810969084122416,-0.12563838697604038,2.7457024745558702,-0.002877941416211166,0.019300014030993434,-0.002144353609110162,26.951488461916757,0.019630877229318885,1.0,0.0,348.42030508685895,3.57184111878229,14504.175075404988,213.8655077447624,-0.33674699934019636,-1.7620843280272123,1.0,14504.799954537657,0.0,1.0,216.46405982549499,4933.459387476294,1.0,1.0,-0.3106435661663701,22.129303493018988,-0.02144746903739673,-42.65352100312553,0.0,0.0,1.0,0.22729601919354392,2.8465812046256347
1.96,376.9341045609531,0.0,14506.45474253109,218.21621789806616,0.0,-2.940732721961982,218.23603199902234,20.45399399834831,0.0,2.4374332825980596,0.0,0.0,1.2886778352165715,0.0,3.2095178532306075,0.0,4985.314913369718,0.73960892874313,218.23603199902232,2.7472953502313677,0.209348416133776,13019.378896522165,216.64999999999998,0.0,0.0,0.0,586.3466666666667,0.2916620499636903,0.92,nominal,166073.20723218165,nan,pitch_program,6.98,0.0,0.0,-3.0815745811198387,-0.0,0.0,-3.0477807985758867,0.0,0.0,0.92,0.0,0.0,0.0,0.0,0.0,0.0,-0.053193809814211325,0.0,0.0,-0.053193809814211325,0.0,0.0,1.96,1.0,26.799534027616044,0.01972519521005072,2.8315633255423154,-0.0032490498279123983,0.021538757218914625,-0.0011535711782778358,26.948713587984727,0.02181295747446819,1.0,0.0,348.42030508685895,3.57184111878229,14504.175075404988,213.8655077447624,-0.33674699934019636,-1.7620843280272123,1.0,14509.930395638337,0.0,1.0,218.3687189448601,4998.670577659609,1.0,1.0,-0.3106435661663701,22.129303493018988,-0.02144746903739673,-42.65352100312553,0.0,0.0,1.0,0.22729601919354392,2.8465812046256347
2.0,385.6840742980395,0.0,14506.332439043823,219.28215802372117,0.0,-3.1742302847080874,219.30513118812468,20.442328533302515,0.0,2.39846087096891,0.0,0.0,0.6913142776080922,0.0,3.2277909844705968,0.0,5034.375972185841,0.7432321402665859,219.30513118812468,2.746064181258889,0.20935245363620453,13019.629988815497,216.64999999999998,0.0,0.0,0.0,586.2444444444444,0.29161120232596993,0.92,nominal,166305.8952960694,nan,pitch_program,7.0,0.0,0.0,-3.070301735649561,-0.0,0.0,-3.065797548234826,0.0,0.0,0.92,0.0,0.0,0.0,0.0,0.0,0.0,-0.05350826141626738,0.0,0.0,-0.05350826141626738,0.0,0.0,2.0,1.0,26.796112468729373,-0.03135772206306502,2.841502031859681,-0.0002586214643303276,0.012771471918868913,-0.0005565016390608708,26.946368225432337,0.012786206400279443,1.0,0.0,386.9891901824653,5.202099602332095,14508.90555834548,219.50059795390732,0.018030822379456763,-3.3345071308652634,1.0,14504.347130561015,0.0,1.0,219.32684459067215,5019.7145081906765,1.0,1.0,1.0238448525945218,22.27256896067502,-0.025238714016482977,-42.48134700851761,0.0,0.0,1.0,-0.22998493593489877,1.7572037068019029
2.04,394.4766666821041,0.0,14506.200828409426,220.34731161283904,0.0,-3.4058859496803247,220.3736322569191,20.43066510216223,0.0,2.381186960732191,0.0,0.0,0.2247687555363927,0.0,3.2667314691660083,0.0,5083.658075987901,0.7468533247410886,220.37363225691908,2.7448487892082998,0.20935679847465516,13019.900194337362,216.64999999999998,0.0,0.0,0.0,586.1422222222222,0.29156035468824965,0.92,nominal,166539.5032509752,nan,pitch_program,7.02,0.0,0.0,-2.9592705421110117,-0.0,0.0,-2.980575943335775,0.0,0.0,0.92,0.0,0.0,0.0,0.0,0.0,0.0,-0.052020863816945206,0.0,0.0,-0.052020863816945206,0.0,0.0,2.04,1.0,26.77498608870821,0.009331653982824754,2.8715863614885118,-0.0013243203864896727,0.001580856457787903,-0.0011128556946318428,26.928534593656803,0.0023433692460379336,1.0,0.0,386.9891901824653,5.202099602332095,14508.90555834548,219.50059795390732,0.018030822379456763,-3.3345071308652634,1.0,14508.864417420988,0.0,1.0,220.4251809184472,5109.097735587941,1.0,1.0,1.0238448525945218,22.27256896067502,-0.025238714016482977,-42.48134700851761,0.0,0.0,1.0,-0.22998493593489877,1.7572037068019029
2.08,403.3118460624735,0.0,14506.060014053865,221.41150788592182,0.0,-3.634421882957481,221.44133500035835,20.419003704927455,0.0,2.364009808716368,0.0,0.0,0.6747410185637011,0.0,3.304423146117096,0.0,5133.151688116309,0.7504718036652964,221.44133500035835,2.7435214034111253,0.20936144725376532,13020.189301930146,216.64999999999998,0.0,0.0,0.0,586.0400000000001,0.29150950705052936,0.92,nominal,166773.98586019178,nan,pitch_program,7.04,0.0,0.0,-2.9832258005121006,-0.0,0.0,-2.9826958290768353,0.0,0.0,0.92,0.0,0.0,0.0,0.0,0.0,0.0,-0.0520578628028928,0.0,0.0,-0.0520578628028928,0.0,0.0,2.08,1.0,26.739726201440813,-0.037323679271106205,2.9814561063751146,-0.0010772532715467979,0.012706652984383877,0.0031027324918994317,26.90545355312369,0.013124269640360883,1.0,0.0,386.9891901824653,5.202099602332095,14508.90555834548,219.50059795390732,0.018030822379456763,-3.3345071308652634,1.0,14502.048488889573,0.0,1.0,222.0050628460514,5139.968892301324,1.0,1.0,-0.26365015607418363,22.280961572857397,-0.026260898392294865,-42.5008092590927,0.0,0.0,1.0,-0.8144371568954659,2.695702339830841
2.12,412.18957653783644,0.0,14505.910100681516,222.4749045983693,0.0,-3.861047734632907,222.5084062808923,20.40734434159819,0.0,2.32513895517304,0.0,0.0,1.2830880633423485,0.0,3.319406303143986,0.0,5182.864190061703,0.7540881425414167,222.5084062808923,2.742102847400665,0.2093663965369967,13020.497097875515,216.64999999999998,0.0,0.0,0.0,585.9377777777778,0.291458659412809,0.92,nominal,167009.3787216797,nan,pitch_program,7.0600000000000005,0.0,0.0,-3.15556700187921,-0.0,0.0,-3.1209927673187354,0.0,0.0,0.92,0.0,0.0,0.0,0.0,0.0,0.0,-0.05447159972064121,0.0,0.0,-0.05447159972064121,0.0,0.0,2.12,1.0,26.775523297880287,0.05556593770714595,3.000980908154052,0.002166408113966731,0.019158479679888,0.001098284471014144,26.94322961079218,0.019311833070431536,1.0,0.0,386.9891901824653,5.202099602332095,14508.90555834548,219.50059795390732,0.018030822379456763,-3.3345071308652634,1.0,14506.084692325183,0.0,1.0,222.8588461139693,5202.215895223635,1.0,1.0,-0.26365015607418363,22.280961572857397,-0.026260898392294865,-42.5008092590927,0.0,0.0,1.0,-0.8144371568954659,2.695702339830841
