time_s,sensor_time_s,imu_valid,imu_ax_mps2,imu_ay_mps2,imu_az_mps2,gyro_p_rps,gyro_q_rps,gyro_r_rps,imu_accel_norm_mps2,imu_gyro_norm_rps,gps_valid,gps_latency_s,gps_x_m,gps_y_m,gps_z_m,gps_vx_mps,gps_vy_mps,gps_vz_mps,baro_valid,baro_alt_m,baro_bias_m,pitot_valid,pitot_airspeed_mps,pitot_qbar_pa,pitot_compressibility_factor,mag_valid,mag_heading_deg,mag_x_ut,mag_y_ut,mag_z_ut,radar_valid,optical_flow_valid,horizon_valid,horizon_roll_deg,horizon_pitch_deg
0.0,0.0,1.0,22.039952029066992,0.06421624096399967,-0.05549153272046388,8.96710374289511e-06,-0.00392686140635816,-0.00033643320647488983,22.040115437070227,0.003941257187258108,1.0,0.0,-6.056244605796681,-14.452553801575789,14505.691541827058,168.06173605742853,-0.11079775418696261,10.04166907179879,1.0,14497.48871022862,0.0,1.0,167.72453538558904,3025.811276576433,1.0,1.0,1.9849282074758248,21.07724535897506,0.014132475832505058,-43.128268434554464,0.0,0.0,1.0,0.3225627711320563,4.232969305443469
0.04,0.04,1.0,22.24873946132101,0.004457972158902777,0.4996330865135506,-8.975239615825204e-05,-0.2906811470180924,0.006616684680462875,22.254349253851426,0.29075645788770904,1.0,0.0,-6.056244605796681,-14.452553801575789,14505.691541827058,168.06173605742853,-0.11079775418696261,10.04166907179879,1.0,14503.748873000204,0.0,1.0,169.44442580350932,3009.2588409429563,1.0,1.0,1.9849282074758248,21.07724535897506,0.014132475832505058,-43.128268434554464,0.0,0.0,1.0,0.3225627711320563,4.232969305443469
0.08,0.08,1.0,22.35972452380551,-0.02338347405040481,1.1176302034438883,0.00032815998591068275,-0.19781331304695504,0.0015816988868904915,22.3876511684227,0.1978199087022279,1.0,0.0,-6.056244605796681,-14.452553801575789,14505.691541827058,168.06173605742853,-0.11079775418696261,10.04166907179879,1.0,14495.27147555864,0.0,1.0,169.8612904996725,3039.8881526966916,1.0,1.0,-0.7490479202685634,20.358235520444065,-0.015398035674553966,-43.4063591200609,0.0,0.0,1.0,-0.0923479037681312,5.353273778627554
0.12,0.12,1.0,22.542409181046313,-0.04084592173786858,1.175822976370634,-0.00237234848955191,0.09166929599203533,0.0011583307911810347,22.57309105432406,0.09170730393623543,1.0,0.0,-6.056244605796681,-14.452553801575789,14505.691541827058,168.06173605742853,-0.11079775418696261,10.04166907179879,1.0,14505.84313027162,0.0,1.0,171.10261903178161,3008.8983462177853,1.0,1.0,-0.7490479202685634,20.358235520444065,-0.015398035674553966,-43.4063591200609,0.0,0.0,1.0,-0.0923479037681312,5.353273778627554
0.16,0.16,1.0,22.788478962345394,0.03319989188614972,0.7455089546989091,0.0022162629116312224,0.23321602005571843,-0.0002460041148525029,22.800694271263236,0.23322668018463766,1.0,0.0,-6.056244605796681,-14.452553801575789,14505.691541827058,168.06173605742853,-0.11079775418696261,10.04166907179879,1.0,14503.35319673054,0.0,1.0,171.9466576047514,3077.1977101935117,1.0,1.0,-0.7611812131334899,20.635277163111777,0.00853686375760408,-43.38103962212672,0.0,0.0,1.0,0.21453848142004184,4.868856309991614
0.2,0.2,1.0,23.03884530593878,0.0045659909310376305,0.4764636660085269,0.002825913862601225,0.12659449622650495,-0.0017066103174499042,23.043772076295944,0.12663753307284947,1.0,0.0,31.75843507375499,-3.6933226876318983,14498.37366740766,172.35849312668424,-0.1382751029959232,8.637712478488085,1.0,14502.950991360905,0.0,1.0,172.12990687565346,3104.114156350939,1.0,1.0,-0.7611812131334899,20.635277163111777,0.00853686375760408,-43.38103962212672,0.0,0.0,1.0,0.21453848142004184,4.868856309991614
0.24,0.24,1.0,23.260251324569865,0.0030382783380873196,0.6651884585185456,0.001759196210680961,-0.048261651999073604,0.005552013942351433,23.2697609914377,0.04861179572699845,1.0,0.0,31.75843507375499,-3.6933226876318983,14498.37366740766,172.35849312668424,-0.1382751029959232,8.637712478488085,1.0,14503.559838637753,0.0,1.0,174.40881729002885,3205.1951341169856,1.0,1.0,-1.1114201617609234,20.90513105155556,0.06279654633319463,-43.23043895729142,0.0,0.0,1.0,0.08449078060680751,4.421143807757207
0.28,0.28,1.0,23.418056981487606,0.03414839186664129,0.9460262960720786,0.002028252075046659,-0.10349398905008297,0.0032549845405176157,23.437182523795972,0.10356502546872488,1.0,0.0,31.75843507375499,-3.6933226876318983,14498.37366740766,172.35849312668424,-0.1382751029959232,8.637712478488085,1.0,14499.835512411473,0.0,1.0,173.98061934791193,3237.8592003989365,1.0,1.0,-1.1114201617609234,20.90513105155556,0.06279654633319463,-43.23043895729142,0.0,0.0,1.0,0.08449078060680751,4.421143807757207
0.32,0.32,1.0,23.631855437135364,-0.03823278540144194,1.198482583572803,-0.0007698503487642755,-0.014704219993318588,0.0016271624951772715,23.66225715460533,0.01481399382196152,1.0,0.0,31.75843507375499,-3.6933226876318983,14498.37366740766,172.35849312668424,-0.1382751029959232,8.637712478488085,1.0,14506.304297980932,0.0,1.0,174.8334213361279,3271.3551335159977,1.0,1.0,0.5599854402746506,20.661269578786893,0.0012030225546295838,-43.29404081176841,0.0,0.0,1.0,-0.14368028964104557,4.059053328842266
0.36,0.36,1.0,23.833523286521192,0.017078488452456634,1.1141940187170865,0.002625691012318353,0.10017895409981681,-0.004200281309021834,23.859558927927832,0.10030134326568259,1.0,0.0,31.75843507375499,-3.6933226876318983,14498.37366740766,172.35849312668424,-0.1382751029959232,8.637712478488085,1.0,14500.86760531122,0.0,1.0,176.75762213619822,3277.5430596646524,1.0,1.0,0.5599854402746506,20.661269578786893,0.0012030225546295838,-43.29404081176841,0.0,0.0,1.0,-0.14368028964104557,4.059053328842266
0.4,0.4,1.0,24.04367990372922,-0.04500358335360431,0.8660093163243752,0.002023840005181767,0.11117051017687267,0.001732668162615753,24.059312973804296,0.11120242983098196,1.0,0.0,69.60389581133701,-10.023653412103453,14505.822356216451,177.236471077517,-0.2762817506196476,7.21443395210731,1.0,14508.464138301095,0.0,1.0,176.8267950649164,3324.5299832580718,1.0,1.0,-1.1507104654202995,20.9881899433408,0.014704042995086555,-43.27991884026299,0.0,0.0,1.0,0.11869794040652398,4.630959801006184
0.44,0.44,1.0,24.238172409248588,0.07509587677116007,0.9150084536965257,0.000789607133830544,0.025349321354567175,0.0023214080559461462,24.255553623892066,0.025467636480936414,1.0,0.0,69.60389581133701,-10.023653412103453,14505.822356216451,177.236471077517,-0.2762817506196476,7.21443395210731,1.0,14503.256392455502,0.0,1.0,178.73979071752487,3309.8653324645334,1.0,1.0,-1.1507104654202995,20.9881899433408,0.014704042995086555,-43.27991884026299,0.0,0.0,1.0,0.11869794040652398,4.630959801006184
0.48,0.48,1.0,24.458495285523455,-0.015786655920125812,1.0520088306974804,-0.0003283581531905378,-0.03905694771537916,0.0028070631184894685,24.48111442378275,0.03915906775281827,1.0,0.0,69.60389581133701,-10.023653412103453,14505.822356216451,177.236471077517,-0.2762817506196476,7.21443395210731,1.0,14505.752549104267,0.0,1.0,179.61392058528529,3348.0935837616457,1.0,1.0,-0.016169170088370554,21.029741003606137,-0.0568923487975029,-43.16504659339373,0.0,0.0,1.0,-0.18039758799319058,3.230474799924795
0.52,0.52,1.0,24.652653144874712,-0.023672421802965485,1.1620388364300436,-0.0041003556722694285,-0.016696560321862508,0.0005144578227476238,24.680036501642917,0.017200369474871514,1.0,0.0,69.60389581133701,-10.023653412103453,14505.822356216451,177.236471077517,-0.2762817506196476,7.21443395210731,1.0,14503.157436577174,0.0,1.0,179.73112131563295,3411.030789430746,1.0,1.0,-0.016169170088370554,21.029741003606137,-0.0568923487975029,-43.16504659339373,0.0,0.0,1.0,-0.18039758799319058,3.230474799924795
0.56,0.56,1.0,24.855819644439997,-0.014420410313563309,1.1782092851798063,0.0023753918418035966,0.04363486402961338,-0.0014771672718084208,24.883732743799648,0.04372443102470124,1.0,0.0,69.60389581133701,-10.023653412103453,14505.822356216451,177.236471077517,-0.2762817506196476,7.21443395210731,1.0,14501.78662884384,0.0,1.0,181.33685917700365,3404.9983537812254,1.0,1.0,0.05427760456933768,20.968226518243377,0.024581835224760276,-43.13892465679651,0.0,0.0,1.0,-0.04952645340959745,4.406924099019088
0.6,0.6,1.0,25.067931926867033,0.01733662082518371,1.1019267381602007,-0.0059939284980820694,0.0731785318094907,-0.0012153869831135462,25.092145268683854,0.07343365619490483,1.0,0.0,98.2061730291294,-0.8999799510570993,14510.073255160074,182.22070614701823,0.3009528389527853,5.618889747220141,1.0,14508.531388769874,0.0,1.0,181.54987037407136,3455.4825201338367,1.0,1.0,0.05427760456933768,20.968226518243377,0.024581835224760276,-43.13892465679651,0.0,0.0,1.0,-0.04952645340959745,4.406924099019088
0.64,0.64,1.0,25.286012334894373,-0.06926739674205176,1.1863675822990183,-0.0006871492332895192,0.04062919435501212,0.0024451031505412536,25.313922766197496,0.04070850202872792,1.0,0.0,98.2061730291294,-0.8999799510570993,14510.073255160074,182.22070614701823,0.3009528389527853,5.618889747220141,1.0,14509.325399123485,0.0,1.0,183.3579138002023,3504.2831115619424,1.0,1.0,-0.855629222658691,21.22042919773791,0.008291052627199655,-43.07576295399679,0.0,0.0,1.0,0.006915726090833276,4.407414140888496
0.68,0.68,1.0,25.54461171263706,-0.04168706322690143,1.2098565569186637,0.002014445715824742,-0.008397152748838179,-0.00020313654011118204,25.573280553127205,0.008637790821920474,1.0,0.0,98.2061730291294,-0.8999799510570993,14510.073255160074,182.22070614701823,0.3009528389527853,5.618889747220141,1.0,14510.954301648306,0.0,1.0,183.8573264006843,3553.1434833938038,1.0,1.0,-0.855629222658691,21.22042919773791,0.008291052627199655,-43.07576295399679,0.0,0.0,1.0,0.006915726090833276,4.407414140888496
0.72,0.72,1.0,25.69693918520863,-0.007611917963291339,1.3642986854087813,-0.0017002863529614084,-0.00791440430780601,0.0021748305269490838,25.73313141326982,0.008382043727542511,1.0,0.0,98.2061730291294,-0.8999799510570993,14510.073255160074,182.22070614701823,0.3009528389527853,5.618889747220141,1.0,14506.664696645126,0.0,1.0,184.46708351917175,3541.1994890279207,1.0,1.0,0.8756401447471279,21.24988760791991,-0.03502009456010383,-43.07533748362795,0.0,0.0,1.0,-0.2517459631466969,3.7564924376000186
0.76,0.76,1.0,25.938097773582875,0.02249582990040733,1.428790374225147,-0.0030084665662428673,0.02677163171668881,0.0033503430799876836,25.97742989804392,0.02714766904557076,1.0,0.0,98.2061730291294,-0.8999799510570993,14510.073255160074,182.22070614701823,0.3009528389527853,5.618889747220141,1.0,14502.212253602018,0.0,1.0,185.8950391131856,3622.5083864583207,1.0,1.0,0.8756401447471279,21.24988760791991,-0.03502009456010383,-43.07533748362795,0.0,0.0,1.0,-0.2517459631466969,3.7564924376000186
0.8,0.8,1.0,26.17513299653373,0.0416055013207252,1.4394737088883678,-0.0021384238186860785,0.048513750983135324,-0.0021487229052000634,26.214717297017526,0.04860837274590993,1.0,0.0,148.16267403285156,2.3593000228182355,14505.670800729054,187.16860993904433,-0.06805753574152172,4.3794160787127865,1.0,14500.793777107678,0.0,1.0,187.56720315605656,3708.2300329991485,1.0,1.0,1.875768927168171,21.370420813878077,-0.02334473854944351,-43.03085985626747,0.0,0.0,1.0,-0.2538184740447178,3.791761724387162
0.84,0.84,1.0,26.35306771031426,-0.015908370633943902,1.2946503475044229,0.0022244538956223423,0.038746935116830854,0.0006162688898660338,26.38485456361201,0.038815627824708265,1.0,0.0,148.16267403285156,2.3593000228182355,14505.670800729054,187.16860993904433,-0.06805753574152172,4.3794160787127865,1.0,14507.540038428517,0.0,1.0,187.65986436840126,3774.1424680345913,1.0,1.0,1.875768927168171,21.370420813878077,-0.02334473854944351,-43.03085985626747,0.0,0.0,1.0,-0.2538184740447178,3.791761724387162
0.88,0.88,1.0,26.608357385028864,-0.056846211253428466,1.467629942921173,0.0017378955623530748,0.006786689988617044,0.00043196713933973935,26.648862112114895,0.007018976962258152,1.0,0.0,148.16267403285156,2.3593000228182355,14505.670800729054,187.16860993904433,-0.06805753574152172,4.3794160787127865,1.0,14502.340802958539,0.0,1.0,188.9700155882278,3767.4620724941847,1.0,1.0,1.3410760508621564,21.445494764582026,0.0059233228732307195,-43.00492601421853,0.0,0.0,1.0,-0.08181619588055228,3.5813945070842754
0.92,0.92,1.0,26.70590722471842,0.015705542704126604,1.5676586096055616,0.0009516298735982592,-9.379215221164703e-05,-0.00012983215546151625,26.751883688361264,0.0009650143899097645,1.0,0.0,148.16267403285156,2.3593000228182355,14505.670800729054,187.16860993904433,-0.06805753574152172,4.3794160787127865,1.0,14504.661851298215,0.0,1.0,189.90616322982117,3772.5398315094417,1.0,1.0,1.3410760508621564,21.445494764582026,0.0059233228732307195,-43.00492601421853,0.0,0.0,1.0,-0.08181619588055228,3.5813945070842754
0.96,0.96,1.0,26.99356515154231,0.01231926051938102,1.600152312881969,-0.00011778920603343397,0.025223752726875756,-0.00032030735832690285,27.040954102604452,0.025226061379601622,1.0,0.0,148.16267403285156,2.3593000228182355,14505.670800729054,187.16860993904433,-0.06805753574152172,4.3794160787127865,1.0,14502.82253157395,0.0,1.0,191.35250796896614,3784.7674225250844,1.0,1.0,-0.8779208712999178,21.373572181512138,0.0008456021625410988,-42.95237747811639,0.0,0.0,1.0,0.032433043219334025,3.4954991624571217
1.0,1.0,1.0,27.16718391170268,-0.033528278752470886,1.5909745592240518,0.0031122155606933886,0.037001308754941654,-0.0004537801906851138,27.213750309096525,0.03713473645707213,1.0,0.0,178.01169116476527,3.1000170917265457,14499.872869622648,192.2517548912019,-0.09427000198388218,2.920032741113127,1.0,14512.232687256283,0.0,1.0,193.2089553080548,3843.554363240068,1.0,1.0,-0.8779208712999178,21.373572181512138,0.0008456021625410988,-42.95237747811639,0.0,0.0,1.0,0.032433043219334025,3.4954991624571217
1.04,1.04,1.0,27.184760169019302,0.08209940488310168,1.633719176356928,0.0037072856089737606,0.02840024943649118,-0.000717315906609876,27.23393038300893,0.028650177604184184,1.0,0.0,178.01169116476527,3.1000170917265457,14499.872869622648,192.2517548912019,-0.09427000198388218,2.920032741113127,1.0,14507.078084068204,0.0,1.0,193.42792806287335,3858.046773429814,1.0,1.0,1.2892820476969535,21.591477222009097,0.14268177879962665,-42.918108462514105,0.0,0.0,1.0,0.23310546971279078,3.5215024121433984
1.08,1.08,1.0,27.14636377099713,-0.02502519049099016,1.6281366562665909,-0.00013210453407288853,0.013249206281709235,0.0024575524751704702,27.19515620876158,0.013475848131803156,1.0,0.0,178.01169116476527,3.1000170917265457,14499.872869622648,192.2517548912019,-0.09427000198388218,2.920032741113127,1.0,14505.258886997372,0.0,1.0,194.1947312791443,3934.099788140877,1.0,1.0,1.2892820476969535,21.591477222009097,0.14268177879962665,-42.918108462514105,0.0,0.0,1.0,0.23310546971279078,3.5215024121433984
1.12,1.12,1.0,27.154197061930425,-0.031040520587644428,1.8066568278754853,-0.0012480854341916556,0.00327754636502352,0.0007666112545257264,27.21424976893132,0.0035899471084524033,1.0,0.0,178.01169116476527,3.1000170917265457,14499.872869622648,192.2517548912019,-0.09427000198388218,2.920032741113127,1.0,14505.609691206086,0.0,1.0,195.82710101885561,3995.0204663764753,1.0,1.0,0.19740921746118686,21.655514765521158,-0.04420177874997674,-42.897941198572674,0.0,0.0,1.0,0.367103914393271,2.7799937574654425
1.16,1.16,1.0,27.07830354967882,0.018587537060100173,1.7602209673206617,-4.472625110210913e-05,0.024191604376771505,0.0019237495489914302,27.13546105152588,0.02426801465070871,1.0,0.0,178.01169116476527,3.1000170917265457,14499.872869622648,192.2517548912019,-0.09427000198388218,2.920032741113127,1.0,14508.78146761297,0.0,1.0,196.3061851850473,4046.165717415615,1.0,1.0,0.19740921746118686,21.655514765521158,-0.04420177874997674,-42.897941198572674,0.0,0.0,1.0,0.367103914393271,2.7799937574654425
1.2,1.2,1.0,27.146607000089165,0.06306482018866198,1.7965389332839712,-0.00013216227888778834,0.034920823072749484,-0.0001943358016607929,27.206061841575686,0.03492161389956141,1.0,0.0,203.6681705702399,-1.170508952334346,14490.377471366146,197.88645887893566,0.024909568298184238,1.7534748008114314,1.0,14505.006280463218,0.0,1.0,198.33660211317297,4106.016687298177,1.0,1.0,0.07279488918118421,21.684796369051707,0.026940747801058023,-42.81309788954548,0.0,0.0,1.0,0.1718013532083167,3.229784209225203
1.24,1.24,1.0,27.040521550326364,-0.011605378712605174,1.8801607474827593,0.0015865455449370655,0.02427982684603652,-0.002376536093496108,27.105810167468793,0.024447393362961315,1.0,0.0,203.6681705702399,-1.170508952334346,14490.377471366146,197.88645887893566,0.024909568298184238,1.7534748008114314,1.0,14514.029879185997,0.0,1.0,198.7454628242968,4116.773456494077,1.0,1.0,0.07279488918118421,21.684796369051707,0.026940747801058023,-42.81309788954548,0.0,0.0,1.0,0.1718013532083167,3.229784209225203
1.28,1.28,1.0,27.110489855273006,-0.060961590163669074,1.9019979451708378,0.0015267865395474582,0.008080502346800031,0.0010425452223271436,27.177195820977737,0.0082893000823098,1.0,0.0,203.6681705702399,-1.170508952334346,14490.377471366146,197.88645887893566,0.024909568298184238,1.7534748008114314,1.0,14516.984764776595,0.0,1.0,199.74550302451783,4228.145877577662,1.0,1.0,0.6404825376029071,21.759290595446558,-0.006569877914700802,-42.82598147006079,0.0,0.0,1.0,-0.2581612528338506,3.21721011122564
1.32,1.32,1.0,27.06377312639827,-0.048400960677325945,2.0236695493849743,0.001302129741937797,0.010177551169390718,0.0007422440657022214,27.139369869900438,0.010287323068878295,1.0,0.0,203.6681705702399,-1.170508952334346,14490.377471366146,197.88645887893566,0.024909568298184238,1.7534748008114314,1.0,14501.842350763658,0.0,1.0,201.47971204851441,4252.529059664739,1.0,1.0,0.6404825376029071,21.759290595446558,-0.006569877914700802,-42.82598147006079,0.0,0.0,1.0,-0.2581612528338506,3.21721011122564
1.36,1.36,1.0,27.02167805033577,0.030057852415360995,2.0342984779918005,0.0020406099943563478,0.023903913187309857,5.270512958780247e-05,27.098161532252504,0.023990913543385502,1.0,0.0,203.6681705702399,-1.170508952334346,14490.377471366146,197.88645887893566,0.024909568298184238,1.7534748008114314,1.0,14501.212214137246,0.0,1.0,201.61113538713886,4305.378578968826,1.0,1.0,0.4496114075270781,21.81145304720201,0.001867540974892284,-42.66415370290356,0.0,0.0,1.0,-0.1880086816993715,3.171550374936037
1.4000000000000001,1.4000000000000001,1.0,26.951372824440533,0.04207196727651356,2.1296874601032028,0.0016619201671743207,0.031231489074846734,-0.0006038918680256584,27.035418174131188,0.03128150530045827,1.0,0.0,264.8293752197225,-5.845487490206498,14510.858431585997,203.1210855700197,0.1921698435681847,0.47834366731150635,1.0,14510.469390170612,0.0,1.0,203.8675717287492,4303.566889625643,1.0,1.0,0.4496114075270781,21.81145304720201,0.001867540974892284,-42.66415370290356,0.0,0.0,1.0,-0.1880086816993715,3.171550374936037
1.44,1.44,1.0,27.01649192816791,-0.04189316331380954,2.1492103758231242,5.767135212377379e-05,0.02093753812902398,0.0008853857706450552,27.10187625205015,0.02095632927905194,1.0,0.0,264.8293752197225,-5.845487490206498,14510.858431585997,203.1210855700197,0.1921698435681847,0.47834366731150635,1.0,14510.712035627732,0.0,1.0,203.23973223696794,4413.004043266464,1.0,1.0,-0.7228401792152889,21.87382643327604,0.012489665515090165,-42.749450651749505,0.0,0.0,1.0,0.23839887152304504,2.64211682410957
1.48,1.48,1.0,27.004298067455125,-0.0007915695423767858,2.198080570306961,-0.001742731707386641,0.005821114353242137,0.0040572720446763804,27.09360944828326,0.007306431588810289,1.0,0.0,264.8293752197225,-5.845487490206498,14510.858431585997,203.1210855700197,0.1921698435681847,0.47834366731150635,1.0,14515.655712518097,0.0,1.0,206.10544556502091,4477.123947687559,1.0,1.0,-0.7228401792152889,21.87382643327604,0.012489665515090165,-42.749450651749505,0.0,0.0,1.0,0.23839887152304504,2.64211682410957
1.52,1.52,1.0,27.026488907526087,0.07438448794048194,2.2315752555872153,0.0018376203390066319,0.012810047656063531,-0.0034293606704669704,27.118564929620188,0.013387855842856065,1.0,0.0,264.8293752197225,-5.845487490206498,14510.858431585997,203.1210855700197,0.1921698435681847,0.47834366731150635,1.0,14505.216627948483,0.0,1.0,206.85851987123246,4495.116361698162,1.0,1.0,-0.5018245254092427,21.905645472800554,0.0487662324654304,-42.694998833198916,0.0,0.0,1.0,0.15030151754214735,2.5323340961499277
1.56,1.56,1.0,26.972065369481186,-0.012616271786481273,2.273905415188185,-0.0024485258041474366,0.02516160691075858,-0.0024013633030982827,27.06775046624862,0.025394256962127812,1.0,0.0,264.8293752197225,-5.845487490206498,14510.858431585997,203.1210855700197,0.1921698435681847,0.47834366731150635,1.0,14507.307918468749,0.0,1.0,207.62772544115953,4453.9678726443235,1.0,1.0,-0.5018245254092427,21.905645472800554,0.0487662324654304,-42.694998833198916,0.0,0.0,1.0,0.15030151754214735,2.5323340961499277
1.6,1.6,1.0,26.952272083535856,-0.03921739523203313,2.3293455117024564,0.001103780625103049,0.02662504013187992,0.00200183697088942,27.052769894817118,0.026722994685300316,1.0,0.0,299.7873763548449,-4.72072954752664,14505.49264554348,208.70618426575462,-0.12159663982096436,-0.9860932632773265,1.0,14502.13449624043,0.0,1.0,208.87373606838605,4578.971010141513,1.0,1.0,-0.4377004259237133,22.034255881612506,-0.03747383020246067,-42.71258540640518,0.0,0.0,1.0,-0.18094491096081344,2.9689286924105613
1.6400000000000001,1.6400000000000001,1.0,27.008779943471687,0.04026510505641589,2.309225015498574,0.0006237810617358748,0.011414677965575484,-0.0013362094417628157,27.10734836692383,0.011509536547708204,1.0,0.0,299.7873763548449,-4.72072954752664,14505.49264554348,208.70618426575462,-0.12159663982096436,-0.9860932632773265,1.0,14506.662306272294,0.0,1.0,209.98814211355352,4752.118772579679,1.0,1.0,-0.4377004259237133,22.034255881612506,-0.03747383020246067,-42.71258540640518,0.0,0.0,1.0,-0.18094491096081344,2.9689286924105613
1.68,1.68,1.0,27.006993568363608,-0.0018989004931677046,2.4540044582547713,0.0005965412209964411,0.010232882335085392,0.0022973247630307587,27.118256638076694,0.010504543939595138,1.0,0.0,299.7873763548449,-4.72072954752664,14505.49264554348,208.70618426575462,-0.12159663982096436,-0.9860932632773265,1.0,14510.389765807717,0.0,1.0,210.64085655384503,4665.683617982026,1.0,1.0,-0.5897495294349937,21.99325186002407,-0.016283785133589287,-42.67561537221782,0.0,0.0,1.0,0.45317038481678895,2.985664358603295
1.72,1.72,1.0,26.890416549491356,-0.0367311266594899,2.5590294491911854,-0.0006920061442557684,0.013423090992274674,0.0010391052560190523,27.011932235637126,0.01348102310745218,1.0,0.0,299.7873763548449,-4.72072954752664,14505.49264554348,208.70618426575462,-0.12159663982096436,-0.9860932632773265,1.0,14510.263060462245,0.0,1.0,211.53343691908307,4638.316789218846,1.0,1.0,-0.5897495294349937,21.99325186002407,-0.016283785133589287,-42.67561537221782,0.0,0.0,1.0,0.45317038481678895,2.985664358603295
1.76,1.76,1.0,26.907569512372664,0.04332972376622677,2.4751491991429084,-0.002327921180005477,0.023574100990750198,0.00029492113448892614,27.02120534110472,0.023690597987766703,1.0,0.0,299.7873763548449,-4.72072954752664,14505.49264554348,208.70618426575462,-0.12159663982096436,-0.9860932632773265,1.0,14505.643738022838,0.0,1.0,212.72695927315033,4771.976776672426,1.0,1.0,0.14564406546944647,22.070538039470147,-0.0024987805230685754,-42.66248375696786,0.0,0.0,1.0,-0.5047301191530814,2.7491791594019444
1.8,1.8,1.0,26.924584101705165,0.08798612994934507,2.498735765581834,0.0034790757940642396,0.020416204706702707,-0.0007970427138126827,27.04042623619413,0.020725845220267262,1.0,0.0,348.42030508685895,3.57184111878229,14504.175075404988,213.8655077447624,-0.33674699934019636,-1.7620843280272123,1.0,14515.28984735734,0.0,1.0,212.9069352022735,4762.000466845255,1.0,1.0,0.14564406546944647,22.070538039470147,-0.0024987805230685754,-42.66248375696786,0.0,0.0,1.0,-0.5047301191530814,2.7491791594019444
1.84,1.84,1.0,26.829629037710806,0.05067503863304672,2.6257732758808694,0.00011627998705808482,0.008293547537370547,0.0020107949319641523,26.957860589391093,0.008534620556792669,1.0,0.0,348.42030508685895,3.57184111878229,14504.175075404988,213.8655077447624,-0.33674699934019636,-1.7620843280272123,1.0,14510.351725328212,0.0,1.0,214.85238967226618,4861.977948425402,1.0,1.0,-0.5527947429352299,22.092554642140186,0.021473861929088452,-42.59341677732044,0.0,0.0,1.0,-0.4159999661909108,2.1062635892234938
1.8800000000000001,1.8800000000000001,1.0,26.87429311398221,-0.018203625673627325,2.7408986199483616,-0.0016895846284310505,0.0063292031273220455,0.00113902791639127,27.01370924166198,0.006649127238807533,1.0,0.0,348.42030508685895,3.57184111878229,14504.175075404988,213.8655077447624,-0.33674699934019636,-1.7620843280272123,1.0,14504.299963017856,0.0,1.0,216.00485802951704,4851.448333519599,1.0,1.0,-0.5527947429352299,22.092554642140186,0.021473861929088452,-42.59341677732044,0.0,0.0,1.0,-0.4159999661909108,2.1062635892234938
1.92,1.92,1.0,26.810969084122416,-0.12563838697604038,2.7457024745558702,-0.002877941416211166,0.019300014030993434,-0.002144353609110162,26.951488461916757,0.019630877229318885,1.0,0.0,348.42030508685895,3.57184111878229,14504.175075404988,213.8655077447624,-0.33674699934019636,-1.7620843280272123,1.0,14504.799954537657,0.0,1.0,216.46405982549499,4933.459387476294,1.0,1.0,-0.3106435661663701,22.129303493018988,-0.02144746903739673,-42.65352100312553,0.0,0.0,1.0,0.22729601919354392,2.8465812046256347
1.96,1.96,1.0,26.799534027616044,0.01972519521005072,2.8315633255423154,-0.0032490498279123983,0.021538757218914625,-0.0011535711782778358,26.948713587984727,0.02181295747446819,1.0,0.0,348.42030508685895,3.57184111878229,14504.175075404988,213.8655077447624,-0.33674699934019636,-1.7620843280272123,1.0,14509.930395638337,0.0,1.0,218.3687189448601,4998.670577659609,1.0,1.0,-0.3106435661663701,22.129303493018988,-0.02144746903739673,-42.65352100312553,0.0,0.0,1.0,0.22729601919354392,2.8465812046256347
2.0,2.0,1.0,26.796112468729373,-0.03135772206306502,2.841502031859681,-0.0002586214643303276,0.012771471918868913,-0.0005565016390608708,26.946368225432337,0.012786206400279443,1.0,0.0,386.9891901824653,5.202099602332095,14508.90555834548,219.50059795390732,0.018030822379456763,-3.3345071308652634,1.0,14504.347130561015,0.0,1.0,219.32684459067215,5019.7145081906765,1.0,1.0,1.0238448525945218,22.27256896067502,-0.025238714016482977,-42.48134700851761,0.0,0.0,1.0,-0.22998493593489877,1.7572037068019029
2.04,2.04,1.0,26.77498608870821,0.009331653982824754,2.8715863614885118,-0.0013243203864896727,0.001580856457787903,-0.0011128556946318428,26.928534593656803,0.0023433692460379336,1.0,0.0,386.9891901824653,5.202099602332095,14508.90555834548,219.50059795390732,0.018030822379456763,-3.3345071308652634,1.0,14508.864417420988,0.0,1.0,220.4251809184472,5109.097735587941,1.0,1.0,1.0238448525945218,22.27256896067502,-0.025238714016482977,-42.48134700851761,0.0,0.0,1.0,-0.22998493593489877,1.7572037068019029
2.08,2.08,1.0,26.739726201440813,-0.037323679271106205,2.9814561063751146,-0.0010772532715467979,0.012706652984383877,0.0031027324918994317,26.90545355312369,0.013124269640360883,1.0,0.0,386.9891901824653,5.202099602332095,14508.90555834548,219.50059795390732,0.018030822379456763,-3.3345071308652634,1.0,14502.048488889573,0.0,1.0,222.0050628460514,5139.968892301324,1.0,1.0,-0.26365015607418363,22.280961572857397,-0.026260898392294865,-42.5008092590927,0.0,0.0,1.0,-0.8144371568954659,2.695702339830841
2.12,2.12,1.0,26.775523297880287,0.05556593770714595,3.000980908154052,0.002166408113966731,0.019158479679888,0.001098284471014144,26.94322961079218,0.019311833070431536,1.0,0.0,386.9891901824653,5.202099602332095,14508.90555834548,219.50059795390732,0.018030822379456763,-3.3345071308652634,1.0,14506.084692325183,0.0,1.0,222.8588461139693,5202.215895223635,1.0,1.0,-0.26365015607418363,22.280961572857397,-0.026260898392294865,-42.5008092590927,0.0,0.0,1.0,-0.8144371568954659,2.695702339830841
2.16,2.16,1.0,26.70148772446783,0.024302335866765664,3.1072123461169108,-0.00040786531302324126,0.01792383427384942,-0.00023574685918672703,26.881681604157436,0.01793002414308478,1.0,0.0,386.9891901824653,5.202099602332095,14508.90555834548,219.50059795390732,0.018030822379456763,-3.3345071308652634,1.0,14505.02441947503,0.0,1.0,224.13362074266024,5239.436167035085,1.0,1.0,-2.753498157607498,22.289333534099157,0.004278258559991774,-42.45693411099444,0.0,0.0,1.0,0.1345195239461923,2.3749782781012203
2.2,2.2,1.0,26.66820601520771,-0.008943973558833838,3.163639211031841,-0.001980562908143919,0.0033398160118406086,0.002842020302488393,26.855202570857696,0.0048118686417875775,1.0,0.0,431.6618189991712,0.9824591276232669,14500.279373433232,224.80715647516286,0.3161770666188828,-4.17497544169564,1.0,14507.15766469433,0.0,1.0,225.0235371248376,5311.726927917098,1.0,1.0,-2.753498157607498,22.289333534099157,0.004278258559991774,-42.45693411099444,0.0,0.0,1.0,0.1345195239461923,2.3749782781012203
2.24,2.24,1.0,26.62399804027905,0.02583246001017342,3.2254285810101977,0.0018275008298490594,0.003488777185690123,0.0009033279307342422,26.81867499515907,0.004040708710725818,1.0,0.0,431.6618189991712,0.9824591276232669,14500.279373433232,224.80715647516286,0.3161770666188828,-4.17497544169564,1.0,14500.10435231567,0.0,1.0,226.1160195768544,5290.946231241605,1.0,1.0,0.48882795498473625,22.331479057920408,-0.04125906303333317,-42.47081625441831,0.0,0.0,1.0,-0.31925629917746534,2.614957375255401
2.2800000000000002,2.2800000000000002,1.0,26.64777470445841,-0.0010545337900223918,3.199412144893024,0.000640769350349159,0.01760707209899436,0.0019225311408097362,26.83915303962672,0.017723309489113926,1.0,0.0,431.6618189991712,0.9824591276232669,14500.279373433232,224.80715647516286,0.3161770666188828,-4.17497544169564,1.0,14511.956758791097,0.0,1.0,226.53860574841576,5400.019315682895,1.0,1.0,0.48882795498473625,22.331479057920408,-0.04125906303333317,-42.47081625441831,0.0,0.0,1.0,-0.31925629917746534,2.614957375255401
2.32,2.32,1.0,26.607669356014757,-0.0021255426480979783,3.32185221829671,-0.001221833303950927,0.024502274223658183,0.001346855301101926,26.814227104974346,0.024569662959757797,1.0,0.0,431.6618189991712,0.9824591276232669,14500.279373433232,224.80715647516286,0.3161770666188828,-4.17497544169564,1.0,14514.096948057522,0.0,1.0,227.81735758254197,5437.380353303255,1.0,1.0,0.08295295909956021,22.40701708617647,0.06961810462545165,-42.442193882844784,0.0,0.0,1.0,0.16271025672814457,2.0066368144176883
2.36,2.36,1.0,26.567333667117204,0.050812556665404005,3.312080452981119,0.0007536726618691541,0.009069420447516963,0.0006737164990266755,26.7730401154384,0.009125585113084447,1.0,0.0,431.6618189991712,0.9824591276232669,14500.279373433232,224.80715647516286,0.3161770666188828,-4.17497544169564,1.0,14507.574021566157,0.0,1.0,228.72354773193638,5530.765528008411,1.0,1.0,0.08295295909956021,22.40701708617647,0.06961810462545165,-42.442193882844784,0.0,0.0,1.0,0.16271025672814457,2.0066368144176883
2.4,2.4,1.0,26.556240558630158,-0.05932689623349379,3.4695226512945974,0.0013864998138556795,-0.0011147696590945208,-0.0005387356978552423,26.781990585397054,0.001858851602146638,1.0,0.0,479.168454206095,6.515715031239981,14496.089988272677,230.0355189147525,0.04360444195591789,-5.490600477577473,1.0,14510.62861381596,0.0,1.0,229.8098556855665,5602.9121925449335,1.0,1.0,-0.9718278307432127,22.400217725974468,-0.0667368829927928,-42.48539479413709,0.0,0.0,1.0,-0.06541509704264097,2.2790500213926452
2.44,2.44,1.0,26.5703265815968,-0.06927404956318277,3.474101846739629,-0.004707508076612011,0.016039166470966017,-0.0035036957289953656,26.79657510183292,0.017078974709744968,1.0,0.0,479.168454206095,6.515715031239981,14496.089988272677,230.0355189147525,0.04360444195591789,-5.490600477577473,1.0,14498.614755186623,0.0,1.0,231.31031263184556,5599.222787988598,1.0,1.0,-0.9718278307432127,22.400217725974468,-0.0667368829927928,-42.48539479413709,0.0,0.0,1.0,-0.06541509704264097,2.2790500213926452
2.48,2.48,1.0,26.514013755993147,0.0441980558762528,3.522268170746253,0.000426335958781526,0.020857007779140613,-0.002465872491128719,26.74698584864824,0.021006595702097654,1.0,0.0,479.168454206095,6.515715031239981,14496.089988272677,230.0355189147525,0.04360444195591789,-5.490600477577473,1.0,14509.052035198816,0.0,1.0,232.05719107008895,5642.749784133523,1.0,1.0,-0.6819656050385632,22.452396988194803,0.047809818070674026,-42.38331384973201,0.0,0.0,1.0,-0.5823263724081379,2.0558218139699114
2.52,2.52,1.0,26.512660991077837,-0.04689268434528909,3.48735008998932,-0.0003970096166505065,0.011583015777522902,0.001763767969835208,26.741073321798698,0.01172325673989417,1.0,0.0,479.168454206095,6.515715031239981,14496.089988272677,230.0355189147525,0.04360444195591789,-5.490600477577473,1.0,14499.880104337264,0.0,1.0,233.19528365904645,5714.5777697740195,1.0,1.0,-0.6819656050385632,22.452396988194803,0.047809818070674026,-42.38331384973201,0.0,0.0,1.0,-0.5823263724081379,2.0558218139699114
2.56,2.56,1.0,26.501753598522118,-0.010919555675168181,3.6876715707917094,-0.004045715377268412,-0.006269736215811399,7.176439037553493e-05,26.757092230799323,0.007462074460728002,1.0,0.0,479.168454206095,6.515715031239981,14496.089988272677,230.0355189147525,0.04360444195591789,-5.490600477577473,1.0,14502.402208062644,0.0,1.0,233.926910981061,5715.708486760051,1.0,1.0,-0.2718868449665738,22.47955684112696,0.06408661370859216,-42.35145537332367,0.0,0.0,1.0,-0.029839003841576492,2.311100415865147
2.6,2.6,1.0,26.45332121355833,0.07717967325929875,3.770439287796205,-0.00019850172323039077,0.011657226766815014,-0.0016347131062875958,26.720785399247095,0.011772961639576605,1.0,0.0,522.1590297144422,4.503432607252925,14506.15315101014,235.04845014196584,0.036850614960082545,-6.191553367897808,1.0,14499.563207349473,0.0,1.0,235.4930095024743,5722.865947560426,1.0,1.0,-0.2718868449665738,22.47955684112696,0.06408661370859216,-42.35145537332367,0.0,0.0,1.0,-0.029839003841576492,2.311100415865147
2.64,2.64,1.0,26.42324986737287,-0.05931209676547658,3.7686115025224787,0.002227185524053325,0.027862547588813832,-0.0011112458132737763,26.69071157042067,0.02797350140320276,1.0,0.0,522.1590297144422,4.503432607252925,14506.15315101014,235.04845014196584,0.036850614960082545,-6.191553367897808,1.0,14505.338248113101,0.0,1.0,236.75374846459565,5743.742317310127,1.0,1.0,1.195757194914078,22.59175436619395,0.028811628387503944,-42.38623620237975,0.0,0.0,1.0,0.06142492001479758,1.2696276663713584
2.68,2.68,1.0,26.443421500421305,0.06773240044511453,3.775148754202772,0.0028487120418152503,0.012830531349931779,0.003012013055316213,26.711624369239928,0.013483690802749844,1.0,0.0,522.1590297144422,4.503432607252925,14506.15315101014,235.04845014196584,0.036850614960082545,-6.191553367897808,1.0,14494.374830327952,0.0,1.0,237.66930893227354,5876.448106690014,1.0,1.0,1.195757194914078,22.59175436619395,0.028811628387503944,-42.38623620237975,0.0,0.0,1.0,0.06142492001479758,1.2696276663713584
2.72,2.72,1.0,26.323281025779828,0.03202187215535467,3.9945048286798888,0.0021253509449528684,-0.012802969709655823,-7.496788108718124e-05,26.62465432994058,0.012978396288015375,1.0,0.0,522.1590297144422,4.503432607252925,14506.15315101014,235.04845014196584,0.036850614960082545,-6.191553367897808,1.0,14504.786602684399,0.0,1.0,238.02428148857564,5885.133778442119,1.0,1.0,-0.7927198490573568,22.475703645192965,-0.008257148168456439,-42.294386279749425,0.0,0.0,1.0,-0.025110456462002613,1.793953016776829
2.7600000000000002,2.7600000000000002,1.0,26.436845455589385,-0.0021240082688422364,4.071470959680226,0.0007672109124201012,-0.00011459650934218584,-0.002039666251745679,26.748526649698814,0.0021821969119674247,1.0,0.0,522.1590297144422,4.503432607252925,14506.15315101014,235.04845014196584,0.036850614960082545,-6.191553367897808,1.0,14507.939071055325,0.0,1.0,239.74754278966057,6042.160423699204,1.0,1.0,-0.7927198490573568,22.475703645192965,-0.008257148168456439,-42.294386279749425,0.0,0.0,1.0,-0.025110456462002613,1.793953016776829
2.8000000000000003,2.8000000000000003,1.0,26.294985141761373,0.005218190761288001,4.030056557588303,-0.004311052781826266,0.035115177888463266,0.00034032985573976583,26.602022981200637,0.03538045673301603,1.0,0.0,567.9157358659304,-2.7442798217251054,14497.45447650742,240.4518848351337,-0.336661701762928,-7.619654740524241,1.0,14499.557930047597,0.0,1.0,240.2647255864831,6009.786819368898,1.0,1.0,-1.048900212464882,22.590673977058216,-0.021694958498944844,-42.336632389582206,0.0,0.0,1.0,-0.22556650889395413,1.8614190110609266
2.84,2.84,1.0,26.319391120447392,0.009776643576666395,3.977884536636173,-0.002077820708936031,0.019754179492488585,0.0014223430034749859,26.61830216074372,0.019914015314332623,1.0,0.0,567.9157358659304,-2.7442798217251054,14497.45447650742,240.4518848351337,-0.336661701762928,-7.619654740524241,1.0,14507.238346507245,0.0,1.0,242.00570414271527,6124.883567751961,1.0,1.0,-1.048900212464882,22.590673977058216,-0.021694958498944844,-42.336632389582206,0.0,0.0,1.0,-0.22556650889395413,1.8614190110609266
2.88,2.88,1.0,26.269392015179925,0.04984368985143606,4.190660843473725,0.0018395398760121715,-0.023130762741344405,-0.004296270558447325,26.601599191508033,0.023598178587831448,1.0,0.0,567.9157358659304,-2.7442798217251054,14497.45447650742,240.4518848351337,-0.336661701762928,-7.619654740524241,1.0,14498.716010281438,0.0,1.0,242.6861651516552,6136.388054899246,1.0,1.0,0.6002589253583046,22.677940377238837,-0.012494784984274197,-42.30192394241872,0.0,0.0,1.0,-0.2654290514445181,1.748156183944789
2.92,2.92,1.0,26.24599561592575,-0.03334596605249394,4.341498094987054,0.0007752349501114198,-0.007793581304254046,-0.0011886871151586221,26.602669105437933,0.007921734395423555,1.0,0.0,567.9157358659304,-2.7442798217251054,14497.45447650742,240.4518848351337,-0.336661701762928,-7.619654740524241,1.0,14495.086673257283,0.0,1.0,244.1628142756092,6243.621397257303,1.0,1.0,0.6002589253583046,22.677940377238837,-0.012494784984274197,-42.30192394241872,0.0,0.0,1.0,-0.2654290514445181,1.748156183944789
2.96,2.96,1.0,26.24643432831106,-0.03239623447333465,4.350551682246661,0.005333739707932976,0.043377011204057674,-0.0015129191840678885,26.60457976375971,0.04372988457252599,1.0,0.0,567.9157358659304,-2.7442798217251054,14497.45447650742,240.4518848351337,-0.336661701762928,-7.619654740524241,1.0,14503.141586912863,0.0,1.0,244.34397295429613,6232.361412884084,1.0,1.0,1.2168476573990261,22.599638518972277,-0.03044897477984714,-42.31744593508629,0.0,0.0,1.0,-0.01959410908427266,1.6238089937413027
3.0,3.0,1.0,26.23976096105244,0.02543477889055996,4.280804899950287,0.0015962969850003737,0.028387371190226933,0.0015792781031255918,26.58666945694002,0.02847604478299364,1.0,0.0,625.4390763712613,-2.279000549709126,14502.872403773623,245.64250646086296,-0.16980942102249125,-8.432644139040471,1.0,14505.113434979168,0.0,1.0,245.7127448683357,6305.536505607608,1.0,1.0,1.2168476573990261,22.599638518972277,-0.03044897477984714,-42.31744593508629,0.0,0.0,1.0,-0.01959410908427266,1.6238089937413027
3.04,3.04,1.0,26.208132098817675,-0.008571146797055123,4.352205229110861,0.00047481900814659106,-0.037102499496554496,-1.71496165488728e-05,26.567046353140853,0.037105541581974946,1.0,0.0,625.4390763712613,-2.279000549709126,14502.872403773623,245.64250646086296,-0.16980942102249125,-8.432644139040471,1.0,14496.99951402698,0.0,1.0,246.74828090648796,6262.559249612208,1.0,1.0,-1.3176768269462686,22.71285450032299,-0.010865495067703124,-42.30763832458478,0.0,0.0,1.0,-0.025045771717528396,2.2571890332776654
3.08,3.08,1.0,26.21214641486384,0.017544344386933915,4.697441122818093,0.002428861683159635,-0.021339903102837787,0.0004447956190858829,26.629736772649892,0.021482287509880897,1.0,0.0,625.4390763712613,-2.279000549709126,14502.872403773623,245.64250646086296,-0.16980942102249125,-8.432644139040471,1.0,14504.636439366403,0.0,1.0,247.5464499064295,6440.937527554628,1.0,1.0,-1.3176768269462686,22.71285450032299,-0.010865495067703124,-42.30763832458478,0.0,0.0,1.0,-0.025045771717528396,2.2571890332776654
3.12,3.12,1.0,26.155820396851638,0.054727356006925944,4.639643970699159,0.001252128524519945,0.060662656304694376,-6.530913161998989e-05,26.564190781778027,0.060675612572647884,1.0,0.0,625.4390763712613,-2.279000549709126,14502.872403773623,245.64250646086296,-0.16980942102249125,-8.432644139040471,1.0,14509.108707197465,0.0,1.0,249.30658705470654,6541.497965649451,1.0,1.0,1.6433434741146629,22.654721904580253,-0.021686668197432576,-42.36130270509055,0.0,0.0,1.0,0.4370997649632534,1.950989692553833
3.16,3.16,1.0,26.188356731525285,0.06232454307153749,4.427543746264963,0.001356381129926487,0.04329471458894023,0.002041135588343802,26.560065065270166,0.043364020980502,1.0,0.0,625.4390763712613,-2.279000549709126,14502.872403773623,245.64250646086296,-0.16980942102249125,-8.432644139040471,1.0,14499.46153055453,0.0,1.0,250.1335047086684,6642.118524258059,1.0,1.0,1.6433434741146629,22.654721904580253,-0.021686668197432576,-42.36130270509055,0.0,0.0,1.0,0.4370997649632534,1.950989692553833
3.2,3.2,1.0,26.03335462353427,0.006906875102637384,4.655338314801217,0.0014991053478324052,-0.05838714792546518,-0.0011493062344199029,26.446318751101693,0.058417696501441484,1.0,0.0,664.463913541637,3.4569094297159464,14506.837801606222,251.09057132909746,-0.13095458462721551,-9.325940406166742,1.0,14494.635176312951,0.0,1.0,251.4177805140731,6678.375018760215,1.0,1.0,-0.8020993878944752,22.7216746111652,-0.07034457240411825,-42.23565926134551,0.0,0.0,1.0,0.5317679510565062,1.0222413929710548
3.24,3.24,1.0,26.041609050673078,-0.05107509351181665,4.959405374537328,-8.754458763207249e-05,-0.04028878652958638,0.0013491935418370566,26.509690912612786,0.04031146620125271,1.0,0.0,664.463913541637,3.4569094297159464,14506.837801606222,251.09057132909746,-0.13095458462721551,-9.325940406166742,1.0,14495.241943396268,0.0,1.0,252.3732426783219,6508.8619483172,1.0,1.0,-0.8020993878944752,22.7216746111652,-0.07034457240411825,-42.23565926134551,0.0,0.0,1.0,0.5317679510565062,1.0222413929710548
3.2800000000000002,3.2800000000000002,1.0,26.055872469106582,0.004739243417253117,4.819811567276316,-0.0022996570220907755,0.09519165309290316,-1.5604982631991307e-05,26.497907391543677,0.09521942808321394,1.0,0.0,664.463913541637,3.4569094297159464,14506.837801606222,251.09057132909746,-0.13095458462721551,-9.325940406166742,1.0,14501.683326989065,0.0,1.0,252.8205906724257,6740.947610437036,1.0,1.0,-0.740356698231406,22.72294933263606,-0.00808649597976032,-42.33447984826192,0.0,0.0,1.0,-0.09486680751131221,1.7333804669612154
3.3200000000000003,3.3200000000000003,1.0,26.077682990028563,-0.009181937724229821,4.544257526993872,0.00317159472379725,0.06134588907633376,-0.001800990826685214,26.470661323587024,0.06145421619071932,1.0,0.0,664.463913541637,3.4569094297159464,14506.837801606222,251.09057132909746,-0.13095458462721551,-9.325940406166742,1.0,14497.406594471813,0.0,1.0,254.13291952850454,6738.96727908284,1.0,1.0,-0.740356698231406,22.72294933263606,-0.00808649597976032,-42.33447984826192,0.0,0.0,1.0,-0.09486680751131221,1.7333804669612154
3.36,3.36,1.0,25.997624704115424,0.05714896502709776,4.937477104540685,-0.000575738727097849,-0.10726971518127998,-0.002008838243649968,26.46239664917181,0.10729006804566749,1.0,0.0,664.463913541637,3.4569094297159464,14506.837801606222,251.09057132909746,-0.13095458462721551,-9.325940406166742,1.0,14495.580336690553,0.0,1.0,255.5230500153334,6729.492454216813,1.0,1.0,0.332198780409719,22.82060721170837,0.03483554493793628,-42.20658452938589,0.0,0.0,1.0,-0.40198766784840967,1.6518304309447391
3.4,3.4,1.0,25.926304449845375,0.010094099512652952,5.435923150700109,0.0003492739554405217,-0.06453378267017647,0.0012603308237401582,26.490047656001572,0.06454703348569,1.0,0.0,723.3112374759797,-0.5566383451275277,14493.37679649427,256.08810680189976,0.21876907680071708,-10.226485023145447,1.0,14491.931358618885,0.0,1.0,255.88516284775974,6860.406291231382,1.0,1.0,0.332198780409719,22.82060721170837,0.03483554493793628,-42.20658452938589,0.0,0.0,1.0,-0.40198766784840967,1.6518304309447391
3.44,3.44,1.0,25.847501792267977,-0.0019023660914587008,5.107828631078048,0.0022351332902384117,0.16234968995091845,-6.1007193085893933e-05,26.347357853203302,0.1623650866715566,1.0,0.0,723.3112374759797,-0.5566383451275277,14493.37679649427,256.08810680189976,0.21876907680071708,-10.226485023145447,1.0,14493.341681181288,0.0,1.0,257.03071240434366,6998.724408136223,1.0,1.0,2.5313206052148485,22.78867259097602,0.016070938469974115,-42.29269106307512,0.0,0.0,1.0,-0.09077395151229199,1.9353849012940307
3.48,3.48,1.0,25.938762997628785,0.006455315471697212,4.530191385497245,0.0012130237207049865,0.08704713212325514,0.0030390808497459294,26.331390041307873,0.08710861409666511,1.0,0.0,723.3112374759797,-0.5566383451275277,14493.37679649427,256.08810680189976,0.21876907680071708,-10.226485023145447,1.0,14493.48048591414,0.0,1.0,257.9787964854265,7054.150443037698,1.0,1.0,2.5313206052148485,22.78867259097602,0.016070938469974115,-42.29269106307512,0.0,0.0,1.0,-0.09077395151229199,1.9353849012940307
3.52,3.52,1.0,25.892270107776632,-0.06635852955480538,5.266914628944092,-0.001367003943054864,-0.21074291824429636,-0.0005897087080788104,26.4226123707913,0.21074817685157538,1.0,0.0,723.3112374759797,-0.5566383451275277,14493.37679649427,256.08810680189976,0.21876907680071708,-10.226485023145447,1.0,14497.219618488289,0.0,1.0,259.6548405033397,7066.40775128832,1.0,1.0,-0.8197210580862828,22.81722119023128,0.028270861984047005,-42.2279037851478,0.0,0.0,1.0,0.06913398090220209,2.262622302380171
3.56,3.56,1.0,25.739207528586842,-0.006555565049608623,6.083888465291111,-0.0017093134350414324,-0.07971076357089932,-0.0010611404918017093,26.448450730301705,0.07973614989838902,1.0,0.0,723.3112374759797,-0.5566383451275277,14493.37679649427,256.08810680189976,0.21876907680071708,-10.226485023145447,1.0,14490.378483446733,0.0,1.0,259.9677311119182,7090.651146017156,1.0,1.0,-0.8197210580862828,22.81722119023128,0.028270861984047005,-42.2279037851478,0.0,0.0,1.0,0.06913398090220209,2.262622302380171
3.6,3.6,1.0,25.81379841603106,0.017228529403269525,5.274042408942485,-0.0020071554247959875,0.3103721151397095,-0.0024950398279698686,26.347068315412947,0.3103886334145301,1.0,0.0,763.4613144452969,-0.09366238549082458,14496.098544595596,261.2034460276107,0.027856919521483538,-10.622855323368588,1.0,14503.08141833663,0.0,1.0,261.61413329001954,7174.803644595392,1.0,1.0,0.5213997456682499,22.7890475242278,0.047244418420058366,-42.279142661177566,0.0,0.0,1.0,-0.2490437632817925,1.5353188368535227
3.64,3.64,1.0,25.88097923373178,-0.049663724980309895,4.316028552801273,-0.0014555804108358804,0.08215799043363363,-0.0021259750084939525,26.23843850252965,0.08219838122592309,1.0,0.0,763.4613144452969,-0.09366238549082458,14496.098544595596,261.2034460276107,0.027856919521483538,-10.622855323368588,1.0,14499.057363178508,0.0,1.0,262.3874333170842,7222.314811947699,1.0,1.0,0.5213997456682499,22.7890475242278,0.047244418420058366,-42.279142661177566,0.0,0.0,1.0,-0.2490437632817925,1.5353188368535227
3.68,3.68,1.0,25.722895465199205,-0.0569025625700685,5.857945763094926,0.0017659627746584481,-0.4191956005753737,0.0003643496584499221,26.3815488093204,0.41919947866969415,1.0,0.0,763.4613144452969,-0.09366238549082458,14496.098544595596,261.2034460276107,0.027856919521483538,-10.622855323368588,1.0,14492.225174334164,0.0,1.0,264.2116905882548,7311.0980444828,1.0,1.0,1.8452855126963252,22.779189254923438,0.028152810671935268,-42.204407705614024,0.0,0.0,1.0,-0.12081534434753252,2.0458936758421298
3.72,3.72,1.0,25.573475470266214,-0.01325092673421044,7.0675350064030695,0.0022990796984278796,-0.041694456667693405,0.0025692626457197013,26.532110249320535,0.041836761284982094,1.0,0.0,763.4613144452969,-0.09366238549082458,14496.098544595596,261.2034460276107,0.027856919521483538,-10.622855323368588,1.0,14490.429578664554,0.0,1.0,264.430267592498,7352.254257683931,1.0,1.0,1.8452855126963252,22.779189254923438,0.028152810671935268,-42.204407705614024,0.0,0.0,1.0,-0.12081534434753252,2.0458936758421298
3.7600000000000002,3.7600000000000002,1.0,25.73563009621275,0.015208737075051425,5.196292589787364,0.0010339889825016517,0.6018869342962421,0.0014987721947877456,26.2549870392932,0.6018896885043278,1.0,0.0,763.4613144452969,-0.09366238549082458,14496.098544595596,261.2034460276107,0.027856919521483538,-10.622855323368588,1.0,14495.377929588578,0.0,1.0,265.6110235063813,7400.6484527605035,1.0,1.0,-0.08901997136975334,22.936367990624632,-0.05804433012735944,-42.14696319712494,0.0,0.0,1.0,0.40112680537517953,1.424597595293294
3.8000000000000003,3.8000000000000003,1.0,25.89015588524447,0.07387211195140239,3.145284465183763,0.0005435237286555047,0.17294268972580543,-0.0019524333843813435,26.080614318265386,0.17295456439123041,1.0,0.0,825.1446384790506,1.3489450846153628,14497.666592019525,266.2565904085316,-0.24713589408384287,-11.654057006651318,1.0,14489.867183485256,0.0,1.0,266.670386292365,7565.332329272667,1.0,1.0,-0.08901997136975334,22.936367990624632,-0.05804433012735944,-42.14696319712494,0.0,0.0,1.0,0.40112680537517953,1.424597595293294
3.84,3.84,1.0,25.79303911938015,0.018957490986988464,4.984653903969146,0.0020920253146670775,-0.5984057518994961,-0.0007325872371264977,26.270287416446248,0.5984098571718036,1.0,0.0,825.1446384790506,1.3489450846153628,14497.666592019525,266.2565904085316,-0.24713589408384287,-11.654057006651318,1.0,14493.255031311322,0.0,1.0,267.82946632341043,7487.342342501526,1.0,1.0,1.9243504887093328,23.161907848101002,0.0010394310631968026,-41.98920767930147,0.0,0.0,1.0,-0.6957730088024753,1.1093224860489832
3.88,3.88,1.0,25.380145597872602,0.04672784888187608,8.08635502129658,-0.0015282877879024285,-0.5733688466229448,0.0022354223253927565,26.63725045104171,0.5733752410544612,1.0,0.0,825.1446384790506,1.3489450846153628,14497.666592019525,266.2565904085316,-0.24713589408384287,-11.654057006651318,1.0,14489.025572419388,0.0,1.0,269.053253453974,7538.653996760864,1.0,1.0,1.9243504887093328,23.161907848101002,0.0010394310631968026,-41.98920767930147,0.0,0.0,1.0,-0.6957730088024753,1.1093224860489832
3.92,3.92,1.0,25.229078423033553,0.04923617598297061,8.76949524207962,-0.0013725848186611118,0.19586166949099548,0.0006266825429613399,26.709789761011965,0.1958674814661536,1.0,0.0,825.1446384790506,1.3489450846153628,14497.666592019525,266.2565904085316,-0.24713589408384287,-11.654057006651318,1.0,14488.231054269601,0.0,1.0,270.00508276182296,7648.992197015526,1.0,1.0,-1.7449487114466906,21.84686297383853,0.017956434665668045,-42.66812908827977,0.0,0.0,1.0,0.15415034574385136,2.85284729496017
3.96,3.96,1.0,25.515161104736908,-0.004882550952777889,5.754032485597557,-0.0016710203643095244,0.9281118767475413,0.0028394033996411573,26.155923992191422,0.9281177243650545,1.0,0.0,825.1446384790506,1.3489450846153628,14497.666592019525,266.2565904085316,-0.24713589408384287,-11.654057006651318,1.0,14497.337420038679,0.0,1.0,270.0761629549685,7820.24164583876,1.0,1.0,-1.7449487114466906,21.84686297383853,0.017956434665668045,-42.66812908827977,0.0,0.0,1.0,0.15415034574385136,2.85284729496017
4.0,4.0,1.0,26.09793528687152,-0.08111236945859941,2.1632153513575334,-0.0011410837233270302,0.45732032137154754,0.0031657441579283465,26.18756014046673,0.4573327020315873,1.0,0.0,868.748283644553,3.5729625046960436,14491.770726954097,271.36122460356296,-0.1957257673268677,-12.503202909727731,1.0,14492.750640014201,0.0,1.0,271.60498731765426,7658.225217659997,1.0,1.0,-0.7464173656776686,24.01551331032311,-0.07066124103522413,-41.56316097321396,0.0,0.0,1.0,0.2732283722469435,-0.13299187306514804
4.04,4.04,1.0,26.000984453241337,0.009544685015309752,2.595686232391623,0.0002104956436379422,-0.30851400943372415,-0.000872081233240238,26.130229058615946,0.30851531380300296,1.0,0.0,868.748283644553,3.5729625046960436,14491.770726954097,271.36122460356296,-0.1957257673268677,-12.503202909727731,1.0,14495.194791781458,0.0,1.0,273.13798245563567,8111.689542527342,1.0,1.0,-0.7464173656776686,24.01551331032311,-0.07066124103522413,-41.56316097321396,0.0,0.0,1.0,0.2732283722469435,-0.13299187306514804
4.08,4.08,1.0,25.53094319018981,0.03151910237954649,6.186265063782243,-0.0020505705137503147,-0.9920925682045938,-0.0010615101311056653,26.269753121677542,0.9920952552703681,1.0,0.0,868.748283644553,3.5729625046960436,14491.770726954097,271.36122460356296,-0.1957257673268677,-12.503202909727731,1.0,14488.748270026952,0.0,1.0,273.29373538478785,7916.847114555961,1.0,1.0,0.21394760297270757,23.034680809804858,-0.030545095397866175,-42.13677043781706,0.0,0.0,1.0,0.06611444583003628,0.8985602842532744
4.12,4.12,1.0,25.045408876617312,-0.03919457029458048,10.040423514603805,-0.0039869374396233346,-0.3837032545193099,-0.001137398642094343,26.98303441727581,0.3837256531358424,1.0,0.0,868.748283644553,3.5729625046960436,14491.770726954097,271.36122460356296,-0.1957257673268677,-12.503202909727731,1.0,14483.572103404587,0.0,1.0,274.8761224196011,7865.841657474077,1.0,1.0,0.21394760297270757,23.034680809804858,-0.030545095397866175,-42.13677043781706,0.0,0.0,1.0,0.06611444583003628,0.8985602842532744
4.16,4.16,1.0,25.04192827596546,-0.04283597444442355,9.104712683478018,-0.0008261164080709746,0.3841542003447067,-0.0001388825691314628,26.64574637250739,0.3841551137225285,1.0,0.0,868.748283644553,3.5729625046960436,14491.770726954097,271.36122460356296,-0.1957257673268677,-12.503202909727731,1.0,14487.399662664096,0.0,1.0,275.24916437206565,7919.90417501962,1.0,1.0,0.25057743110548675,21.885495904759228,0.057223412742803084,-42.730725655414176,0.0,0.0,1.0,-0.15161574072764533,2.7577287253693803
4.2,4.2,1.0,25.474847866155574,-0.019238885352542433,5.712781724445039,0.0020110598867282216,0.8503327424814627,7.537539904712517e-05,26.107549080096238,0.8503351239243057,1.0,0.0,935.5135677078589,-4.978190887468631,14488.133614152352,276.4610357550587,-0.12803306832788064,-12.673473954951026,1.0,14489.15838113984,0.0,1.0,276.8235186119057,8004.085715415182,1.0,1.0,0.25057743110548675,21.885495904759228,0.057223412742803084,-42.730725655414176,0.0,0.0,1.0,-0.15161574072764533,2.7577287253693803
4.24,4.24,1.0,25.795207278602945,0.016739755954229392,2.9881500331460566,-0.003934072795109418,0.10266246486431342,-0.0003221948850970976,25.967711477642972,0.10273832016495886,1.0,0.0,935.5135677078589,-4.978190887468631,14488.133614152352,276.4610357550587,-0.12803306832788064,-12.673473954951026,1.0,14484.856130488994,0.0,1.0,277.96487092300947,8113.454673405347,1.0,1.0,-1.2602042416995005,23.748981616675447,0.021448542285332002,-41.82772578335075,0.0,0.0,1.0,0.06537686525202098,0.13790809244377428
4.28,4.28,1.0,25.541252650850474,0.010626450386613449,5.143483856866142,0.0005527594253276251,-0.658889635807479,-0.001301737858507131,26.054004031662135,0.6588911535594835,1.0,0.0,935.5135677078589,-4.978190887468631,14488.133614152352,276.4610357550587,-0.12803306832788064,-12.673473954951026,1.0,14487.085608037443,0.0,1.0,278.9848413129271,8134.933429286804,1.0,1.0,-1.2602042416995005,23.748981616675447,0.021448542285332002,-41.82772578335075,0.0,0.0,1.0,0.06537686525202098,0.13790809244377428
4.32,4.32,1.0,24.955726048759512,-0.045570040012944325,9.615958791196041,-0.004520845052198431,-0.8924073235672573,-0.00204371542656923,26.744289160926698,0.8924211147038187,1.0,0.0,935.5135677078589,-4.978190887468631,14488.133614152352,276.4610357550587,-0.12803306832788064,-12.673473954951026,1.0,14482.544638540901,0.0,1.0,280.0032850262192,8367.178434415051,1.0,1.0,1.2490965365466862,21.892834515169877,-0.0176216245347708,-42.72148590851908,0.0,0.0,1.0,0.6762001425626258,2.5846411059082617
4.36,4.36,1.0,24.653140794978565,0.018395777099605846,12.668351910921295,0.00028653289110234294,-0.12648160793537958,0.0035621832624604614,27.71759061680136,0.12653208445533531,1.0,0.0,935.5135677078589,-4.978190887468631,14488.133614152352,276.4610357550587,-0.12803306832788064,-12.673473954951026,1.0,14481.130143801967,0.0,1.0,280.84482685910257,8272.950015756704,1.0,1.0,1.2490965365466862,21.892834515169877,-0.0176216245347708,-42.72148590851908,0.0,0.0,1.0,0.6762001425626258,2.5846411059082617
4.4,4.4,1.0,24.80284667022491,0.009705959560894295,10.581675456679648,-0.0013323422081939651,0.6380737628114181,0.0005519187905011501,26.965777434052114,0.638075392519123,1.0,0.0,983.3282690693441,1.2003508490603525,14494.529214832823,281.29617897558927,-0.3674751855925118,-12.650186110686992,1.0,14482.784493527804,0.0,1.0,281.8088050085708,8289.705548916643,1.0,1.0,-1.4322066786564354,21.507300855489653,0.017841674799897057,-42.951261652675484,0.0,0.0,1.0,0.13604801867675795,3.290599877936373
4.44,4.44,1.0,25.4870212095016,0.10270680242909229,5.540337457862927,0.0005959249311417598,1.247893680468615,-0.003913210914629802,26.08244884913701,1.2478999583699375,1.0,0.0,983.3282690693441,1.2003508490603525,14494.529214832823,281.29617897558927,-0.3674751855925118,-12.650186110686992,1.0,14485.189411245252,0.0,1.0,283.11443997537833,8295.833565118703,1.0,1.0,-1.4322066786564354,21.507300855489653,0.017841674799897057,-42.951261652675484,0.0,0.0,1.0,0.13604801867675795,3.290599877936373
4.48,4.48,1.0,26.07965391587937,-0.032143761428748426,0.9981722217060855,-0.00027503239177572886,0.4944466362553215,-0.0043301442522301345,26.098768732981,0.49446567312227435,1.0,0.0,983.3282690693441,1.2003508490603525,14494.529214832823,281.29617897558927,-0.3674751855925118,-12.650186110686992,1.0,14479.062837468433,0.0,1.0,282.93229292848287,8224.945277117326,1.0,1.0,-1.1024665982765978,24.587106737095095,-0.01861797955789804,-41.2088312259665,0.0,0.0,1.0,-0.3369250952176552,-0.5815221049720424
4.5200000000000005,4.5200000000000005,1.0,26.13776264900932,-0.06441963040576197,1.3349363811947268,-0.0020900007033862714,-0.27435232430708706,-0.0011842155617624735,26.17190939397746,0.2743628406365154,1.0,0.0,983.3282690693441,1.2003508490603525,14494.529214832823,281.29617897558927,-0.3674751855925118,-12.650186110686992,1.0,14487.681556128677,0.0,1.0,284.6922110010334,8513.524343029147,1.0,1.0,-1.1024665982765978,24.587106737095095,-0.01861797955789804,-41.2088312259665,0.0,0.0,1.0,-0.3369250952176552,-0.5815221049720424
4.5600000000000005,4.5600000000000005,1.0,25.596495533367925,0.043306250906839046,5.181967496107348,0.0007229605721627328,-1.0446182265567336,-0.000480160844465465,26.115804528135925,1.044618587083803,1.0,0.0,983.3282690693441,1.2003508490603525,14494.529214832823,281.29617897558927,-0.3674751855925118,-12.650186110686992,1.0,14484.746561778862,0.0,1.0,285.7855852919606,8466.282431640611,1.0,1.0,1.3259132646516558,23.673759394589357,-0.0035281755840377692,-41.780093473694464,0.0,0.0,1.0,-0.4710199598301002,0.4901065667164256
4.6000000000000005,4.6000000000000005,1.0,24.922514582056845,0.026407875205752,10.204336219552612,-0.0027464164993739235,-0.7299644622509179,0.001803515699863043,26.930668542581376,0.7299718567326685,1.0,0.0,1050.742432812849,1.6718861808585128,14487.204205585775,286.607571971361,-0.009740363781446887,-14.01894498085318,1.0,14477.826735260429,0.0,1.0,287.2215801358346,8655.978641606698,1.0,1.0,1.3259132646516558,23.673759394589357,-0.0035281755840377692,-41.780093473694464,0.0,0.0,1.0,-0.4710199598301002,0.4901065667164256
4.64,4.64,1.0,24.617093978679186,0.01695792974563232,11.807427760519305,0.0004645272754602892,0.034376533221460705,-0.0007217022175441302,27.302325063012237,0.03438724583339942,1.0,0.0,1050.742432812849,1.6718861808585128,14487.204205585775,286.607571971361,-0.009740363781446887,-14.01894498085318,1.0,14478.764040387588,0.0,1.0,287.94892020926864,8759.861170506201,1.0,1.0,0.7672585271484665,21.527266275275025,-0.008110950308195183,-42.91191413255687,0.0,0.0,1.0,-0.7564696031565403,3.2884796597887487
