time_s,x_m,y_m,altitude_m,vx_mps,vy_mps,vz_mps,speed_mps,mass_kg,roll_deg,pitch_deg,yaw_deg,p_dps,q_dps,r_dps,alpha_deg,beta_deg,qbar_pa,mach,airspeed_mps,load_factor_g,density_kgpm3,pressure_pa,temperature_k,wind_x_mps,wind_y_mps,wind_z_mps,thrust_n,mass_flow_kgps,propulsion_throttle_actual,propulsion_health,energy_j_per_kg,target_distance_m,guidance_mode,pitch_command_deg,heading_command_deg,roll_command_deg
0.0,0.0,0.0,14500.0,168.0,0.0,10.0,168.2973558912914,21.0,0.0,4.0,0.0,0.0,0.0,0.0,0.5935562450052811,0.0,2967.811486241532,0.5703651498833013,168.29735589129137,2.248005065083861,0.20956160755836276,13032.637272130847,216.64999999999998,0.0,0.0,0.0,478.40000000000003,0.23796694453104436,0.92,nominal,156358.425,nan,pitch_program,6.000000000000001,0.0,0.0
0.04,6.737639783316654,0.0,14500.393475421926,168.8829682267017,0.0,9.676405761284657,169.15995325584055,20.990437389859768,0.0,4.339834280684275,0.0,0.0,-16.592933380646375,0.0,1.0605710608507573,0.0,2998.126078763367,0.5732885200843033,169.15995325584055,2.2666637922353754,0.20954860538516928,13031.828666924224,216.64999999999998,0.0,0.0,0.0,482.816,0.24016356248056167,0.92,nominal,156507.82856850553,nan,pitch_program,6.0200000000000005,0.0,0.0
0.08,13.510675809482459,0.0,14500.774693512798,169.7695298719189,0.0,9.388483235728337,170.02892956905868,20.980786915001556,0.0,4.902500286799463,0.0,0.0,-11.17895002505384,0.0,1.737190782765045,0.0,3028.825921687474,0.5762335087474278,170.02892956905865,2.284890723897176,0.20953600901797245,13031.045298794272,216.64999999999998,0.0,0.0,0.0,487.232,0.242360180430079,0.92,nominal,156658.94059333723,nan,pitch_program,6.04,0.0,0.0
0.12,20.319258502250513,0.0,14501.144927420399,170.66077604059166,0.0,9.12450739072165,170.9045263119158,20.97104857542536,0.0,5.023787688223519,0.0,0.0,5.127578841937682,0.0,1.9633394938108457,0.0,3059.922641296789,0.5792009342594462,170.90452631191582,2.304675328335099,0.20952377631952226,13030.284547225232,216.64999999999998,0.0,0.0,0.0,491.648,0.24455679837959635,0.92,nominal,156811.8314594374,nan,pitch_program,6.06,0.0,0.0
0.16,27.163666982177034,0.0,14501.504520761884,171.56139953235478,0.0,8.853404244008011,171.78968704846076,20.961222371131186,0.0,4.650365412624585,0.0,0.0,13.320071551461773,0.0,1.6962444612629397,0.0,3091.5257500686016,0.5822007724535554,171.78968704846076,2.3269159305379805,0.20951189587391908,13029.545702262256,216.64999999999998,0.0,0.0,0.0,496.0640000000001,0.2467534163291137,0.92,nominal,156967.0275966336,nan,pitch_program,6.08,0.0,0.0
0.2,34.044332100701084,0.0,14501.852840808804,172.4736294960352,0.0,8.560541478015985,172.68594540938312,20.95130830211903,0.0,4.230187439830186,0.0,0.0,7.545651242111871,0.0,1.388705409280882,0.0,3123.6964369451516,0.5852382208534687,172.68594540938312,2.350356796164119,0.20950038852401606,13028.830060122473,216.64999999999998,0.0,0.0,0.0,500.48,0.24895003427863102,0.92,nominal,157124.81303228386,nan,pitch_program,6.1,0.0,0.0
0.24,40.96169123273987,0.0,14502.189207258803,173.39573574426046,0.0,8.25778989901868,173.59225866469316,20.941306368388897,0.0,4.138574385299663,0.0,0.0,-2.868721797906578,0.0,1.4119831248163857,0.0,3156.403450406609,0.5883097456137272,173.59225866469316,2.372103568147276,0.20948927668155398,13028.139014592136,216.64999999999998,0.0,0.0,0.0,504.89599999999996,0.2511466522281483,0.92,nominal,157285.0299235194,nan,pitch_program,6.12,0.0,0.0
0.28,47.91608299637113,0.0,14502.513633850114,174.32496148596778,0.0,7.965312041430699,174.5068433987662,20.93121656994078,0.0,4.323999450078588,0.0,0.0,-6.189481704612525,0.0,1.7078419677337495,0.0,3189.587416792722,0.5914093026814419,174.50684339876622,2.392307265988598,0.20947855982985944,13027.472533539325,216.64999999999998,0.0,0.0,0.0,509.31200000000007,0.2533432701776657,0.92,nominal,157447.39452389698,nan,pitch_program,6.14,0.0,0.0
0.32,54.90776628107006,0.0,14502.826690486356,175.26035558264593,0.0,7.689004386417005,175.4289401079817,20.921038906774683,0.0,4.465043747266885,0.0,0.0,-0.7482652408400684,0.0,1.9529800376154764,0.0,3223.225005802636,0.5945343180744247,175.4289401079817,2.412581581528654,0.20946821908403607,13026.829442512255,216.64999999999998,0.0,0.0,0.0,513.728,0.255539888127183,0.92,nominal,157611.80187796292,nan,pitch_program,6.16,0.0,0.0
0.36,61.93701308798352,0.0,14503.128826940909,176.20342371085496,0.0,7.417729386086833,176.35948864938428,20.910773378890607,0.0,4.364519776282281,0.0,0.0,5.725298190005646,0.0,1.9539321703421177,0.0,3257.3551715421913,0.5976879769984164,176.35948864938428,2.43380388878461,0.20945823953280085,13026.208814178168,216.64999999999998,0.0,0.0,0.0,518.1440000000001,0.2577365060767004,0.92,nominal,157778.4429290562,nan,pitch_program,6.18,0.0,0.0
0.4,69.00417024253105,0.0,14503.419975583907,177.15602883017536,0.0,7.138698177392861,177.29980136070608,20.900419986288547,0.0,4.12514703082867,0.0,0.0,6.152723005985507,0.0,1.8175986467989518,0.0,3292.0317311694953,0.6008747270081828,177.29980136070608,2.455936201562063,0.20944862335823206,13025.610784240525,216.64999999999998,0.0,0.0,0.0,522.5600000000001,0.2599331240262177,0.92,nominal,157947.57328483282,nan,pitch_program,6.2,0.0,0.0
0.44,76.10962537817748,0.0,14503.699785675271,178.11820502184122,0.0,6.851383845560243,178.24992684655405,20.889978728968508,0.0,3.9736544849970854,0.0,0.0,1.4307457359242903,0.0,1.7708367357200856,0.0,3327.2625576103715,0.6040947328262993,178.24992684655402,2.4777628040246316,0.20943938209393215,13025.03606997411,216.64999999999998,0.0,0.0,0.0,526.976,0.262129741975735,0.92,nominal,158119.22571359333,nan,pitch_program,6.22,0.0,0.0
0.48,83.25373606292855,0.0,14503.968109047119,179.08861200919375,0.0,6.565499354769738,179.20891923438694,20.87944960693049,0.0,3.9916806698514935,0.0,0.0,-2.2197675420578338,0.0,1.8921221983661032,0.0,3363.0182030003216,0.6073447888603144,179.20891923438694,2.498732726716364,0.2094305205835273,13024.484972604056,216.64999999999998,0.0,0.0,0.0,531.392,0.26432635992525233,0.92,nominal,158293.25722316542,nan,pitch_program,6.240000000000001,0.0,0.0
0.52,90.43680836067139,0.0,14504.225165159574,180.06622750625385,0.0,6.28835421498477,180.17599642312814,20.868832620174487,0.0,4.0592825511056025,0.0,0.0,-1.0551107206125072,0.0,2.0591862589800654,0.0,3399.274509332452,0.6106222445445344,180.17599642312817,2.5193364286164095,0.20942203153151748,13023.957038423187,216.64999999999998,0.0,0.0,0.0,535.808,0.26652297787476964,0.92,nominal,158469.55455944568,nan,pitch_program,6.260000000000001,0.0,0.0
0.56,97.65913337567673,0.0,14504.471271249422,181.05136778691013,0.0,6.017319510191312,181.15133428048142,20.858127768700506,0.0,4.028536892106834,0.0,0.0,2.6091816878173,0.0,2.1249878733111487,0.0,3436.043021265793,0.6139276959002615,181.15133428048142,2.540243226397351,0.2094139044167936,13023.45161312368,216.64999999999998,0.0,0.0,0.0,540.224,0.268719595824287,0.92,nominal,158648.1761479975,nan,pitch_program,6.28,0.0,0.0
0.6,104.9210332947928,0.0,14504.706518998246,182.04510153724505,0.0,5.744706549292056,182.13572040388823,20.847335052508544,0.0,3.8927935942908465,0.0,0.0,4.1398865556904925,0.0,2.0853390357273285,0.0,3473.3589206169345,0.6172638121205462,182.13572040388823,2.561707561232904,0.2094061361698318,13022.968505811836,216.64999999999998,0.0,0.0,0.0,544.64,0.2709162137738043,0.92,nominal,158829.2905080558,nan,pitch_program,6.3,0.0,0.0
0.64,112.22286362552731,0.0,14504.930767016482,183.04787534942253,0.0,5.467394055886345,183.12950900305518,20.836454471598604,0.0,3.7658639099418467,0.0,0.0,2.203722670996437,0.0,2.055024616770513,0.0,3511.2415951636517,0.6206317936334721,183.1295090030552,2.5833334762080957,0.20939873141937,13022.508004348882,216.64999999999998,0.0,0.0,0.0,549.0559999999999,0.2731128317233216,0.92,nominal,159012.9878402122,nan,pitch_program,6.32,0.0,0.0
0.68,119.56497679320617,0.0,14505.143899377634,184.05913261338617,0.0,5.189566354613367,184.13227826033383,20.82548602597068,0.0,3.7297313856689382,0.0,0.0,-0.331102036943667,0.0,2.114698806866013,0.0,3549.680853480004,0.624030210885467,184.1322782603338,2.6045884302915248,0.20939169395460588,13022.070344385043,216.64999999999998,0.0,0.0,0.0,553.4720000000001,0.27530944967283905,0.92,nominal,159199.21736950218,nan,pitch_program,6.34,0.0,0.0
0.72,126.94769662645425,0.0,14505.34600851091,185.0781444053876,0.0,4.916608942951414,185.1434378530317,20.814429715624776,0.0,3.746558682428573,0.0,0.0,-0.4279917914934098,0.0,2.2248517012997158,0.0,3588.6595619866584,0.6274570632539473,185.14343785303168,2.6255183315432533,0.20938502068673348,13021.655333827459,216.64999999999998,0.0,0.0,0.0,557.888,0.27750606762235636,0.92,nominal,159387.89772438322,nan,pitch_program,6.36,0.0,0.0
0.76,134.37133034068128,0.0,14505.537304652471,186.10487712844832,0.0,4.6486307696304925,186.16292611319582,20.803285540560893,0.0,3.7244824213959036,0.0,0.0,1.5670458089206474,0.0,2.2936142213357926,0.0,3628.180677914261,0.6309121417442379,186.1629261131958,2.6465091342718545,0.20937870463965944,13021.262538832858,216.64999999999998,0.0,0.0,0.0,562.3040000000001,0.2797026855718737,0.92,nominal,159579.04493818374,nan,pitch_program,6.38,0.0,0.0
0.8,141.83619792491194,0.0,14505.717903112725,187.1399248929574,0.0,4.381229843312454,187.19120348959154,20.792053500779026,0.0,3.6351220341824306,0.0,0.0,2.8922135514378953,0.0,2.2939858125099546,0.0,3668.2676676427236,0.634397006832008,187.19120348959154,2.6678097958817877,0.20937274197401837,13020.891720631087,216.64999999999998,0.0,0.0,0.0,566.72,0.281899303521391,0.92,nominal,159772.77180650123,nan,pitch_program,6.4,0.0,0.0
0.84,149.342641526499,0.0,14505.887760423884,188.18368910853115,0.0,4.111504949780676,188.22859856952763,20.78073359627918,0.0,3.5365549132280796,0.0,0.0,2.0394326758414323,0.0,2.284935235454733,0.0,3708.9393373466232,0.6379127721102108,188.22859856952763,2.6892843070008636,0.20936713409471025,13020.542966592882,216.64999999999998,0.0,0.0,0.0,571.136,0.2840959214709083,0.92,nominal,159969.16686548505,nan,pitch_program,6.42,0.0,0.0
0.88,156.8910063729796,0.0,14506.046812865387,189.23592114201048,0.0,3.841368854983947,189.27490579880168,20.769325827061355,0.0,3.4891694389407193,0.0,0.0,0.37841764157461116,0.0,2.3262612653461323,0.0,3750.1936801570046,0.6414587409490459,189.27490579880165,2.7105997610741865,0.20936188307690434,13020.21640577303,216.64999999999998,0.0,0.0,0.0,575.552,0.28629253942042565,0.92,nominal,160168.21895995896,nan,pitch_program,6.44,0.0,0.0
0.92,164.48162103771364,0.0,14506.195119676871,190.29612923691474,0.0,3.574521934457109,190.3296981808474,20.757830193125546,0.0,3.4816334686078054,0.0,0.0,0.06458055315717134,0.0,2.405516267281852,0.0,3792.0196702483922,0.6450334662434224,190.3296981808474,2.7316922527752565,0.20935698693806745,13019.91191487778,216.64999999999998,0.0,0.0,0.0,579.968,0.28848915736994296,0.92,nominal,160369.8753751854,nan,pitch_program,6.46,0.0,0.0
0.96,172.11480111550503,0.0,14506.33283457833,191.3642175594472,0.0,3.311628811707255,191.39286989730306,20.746246694471758,0.0,3.4557406309301824,0.0,0.0,1.2676313879923975,0.0,2.4643148619881705,0.0,3834.418768729138,0.64863658937151,191.39286989730306,2.752775674991263,0.20935244057863012,13019.629176764889,216.64999999999998,0.0,0.0,0.0,584.384,0.2906857753194603,0.92,nominal,160574.14421598057,nan,pitch_program,6.48,0.0,0.0
1.0,179.79086850808335,0.0,14506.460064157702,192.44055482534134,0.0,3.0499145601117164,192.46472175520685,20.73457533109999,0.0,3.3859976524050768,0.0,0.0,2.2245048000168515,0.0,2.4780154257488634,0.0,3877.4088010865394,0.6522691297780323,192.46472175520682,2.7740419160543843,0.2093482404571486,13019.367971191954,216.64999999999998,0.0,0.0,0.0,588.8000000000001,0.2928823932689777,0.92,nominal,160781.11114832672,nan,pitch_program,6.5,0.0,0.0
1.04,187.51010209636394,0.0,14506.576802468746,193.52108807859952,0.0,2.786912100248591,193.54115430620843,20.722861052321985,0.0,3.3073930477051356,0.0,0.0,1.7168479531797358,0.0,2.482329146082939,0.0,3920.829694008336,0.6559171943007327,193.54115430620843,2.773247548181194,0.20934438674907999,13019.128309070653,216.64999999999998,0.0,0.0,0.0,588.6977777777778,0.29283154563125735,0.92,nominal,160990.0106050199,nan,pitch_program,6.52,0.0,0.0
1.08,195.27255169849914,0.0,14506.683008023589,194.60130800547316,0.0,2.523544975368898,194.61766969287177,20.71114880744949,0.0,3.26256932424545,0.0,0.0,0.5681416896988767,0.0,2.519612486050048,0.0,3964.501510822577,0.6595655395561539,194.6176696928718,2.772353801376181,0.20934088080483879,13018.910274383266,216.64999999999998,0.0,0.0,0.0,588.5955555555556,0.29278069799353706,0.92,nominal,161199.9815989764,nan,pitch_program,6.54,0.0,0.0
1.12,203.07819740771666,0.0,14506.778720703633,195.68085481674993,0.0,2.262486457351174,195.6939339549994,20.6994385964825,0.0,3.2454840669662874,0.0,0.0,0.3431555063720579,0.0,2.5830526332705808,0.0,4008.4108065405208,0.6632130337424498,195.6939339549994,2.7712951063177718,0.20933772129046357,13018.713784170732,216.64999999999998,0.0,0.0,0.0,588.4933333333333,0.2927298503558167,0.92,nominal,161410.95943478012,nan,pitch_program,6.5600000000000005,0.0,0.0
1.16,210.92700958501047,0.0,14506.864049652786,196.7596497956624,0.0,2.004248426000029,196.76985744637014,20.687730419421023,0.0,3.215092279001713,0.0,0.0,1.2114381467229445,0.0,2.6314817445077883,0.0,4052.5538565486727,0.6668593730456949,196.76985744637014,2.7701975327839055,0.20933490458746132,13018.53861339895,216.64999999999998,0.0,0.0,0.0,588.3911111111112,0.29267900271809644,0.92,nominal,161622.9267322599,nan,pitch_program,6.58,0.0,0.0
1.2,218.8189629741969,0.0,14506.93906913411,197.83795811345934,0.0,1.7467642095972948,197.84566928721694,20.676024276265053,0.0,3.153864761275148,0.0,0.0,1.8608423579363558,0.0,2.6479981549780187,0.0,4096.940079387515,0.6705053339617247,197.84566928721696,2.76919531681616,0.20933242823062204,13018.384608756503,216.64999999999998,0.0,0.0,0.0,588.2888888888889,0.2926281550803761,0.92,nominal,161835.92845017742,nan,pitch_program,6.6,0.0,0.0
1.24,226.7540428891226,0.0,14507.003773761011,198.91597961290117,0.0,1.4884785761637376,198.92154864124655,20.664320167014594,0.0,3.0889357034564586,0.0,0.0,1.403787614839022,0.0,2.66020218127029,0.0,4141.577071628976,0.6741515236821017,198.92154864124657,2.7682678161915857,0.20933029238567413,13018.251780550041,216.64999999999998,0.0,0.0,0.0,588.1866666666667,0.2925773074426558,0.92,nominal,162049.9998148693,nan,pitch_program,6.62,0.0,0.0
1.28,234.73223573466257,0.0,14507.058148245242,199.99356508444595,0.0,1.2304772338733847,199.99735035597246,20.65261809166964,0.0,3.0507186485379263,0.0,0.0,0.5515011023289527,0.0,2.6982059930036106,0.0,4186.459022470952,0.6777974502803823,199.9973503559725,2.767276679555097,0.20932849754684038,13018.140159515278,216.64999999999998,0.0,0.0,0.0,588.0844444444444,0.29252645980493547,0.92,nominal,162265.11186419398,nan,pitch_program,6.64,0.0,0.0
1.32,242.75351828313012,0.0,14507.102246386014,201.07043813528875,0.0,0.9748082840206337,201.07280110225642,20.640918050230198,0.0,3.030619532755996,0.0,0.0,0.5049191171337244,0.0,2.7528464128097103,0.0,4231.574552330272,0.6814421874353295,201.07280110225642,2.7661684983721924,0.20932704192951987,13018.049634667877,216.64999999999998,0.0,0.0,0.0,587.9822222222223,0.2924756121672152,0.92,nominal,162481.20991607517,nan,pitch_program,6.66,0.0,0.0
1.36,250.8178606408035,0.0,14507.13616902282,202.14657614683233,0.0,0.7215806177368195,202.14786401660288,20.629220042696264,0.0,2.996316035703616,0.0,0.0,1.2407543827406196,0.0,2.791794400142423,0.0,4276.922010882531,0.6850856102153716,202.14786401660288,2.765024308576162,0.20932592219809626,13017.979998565845,216.64999999999998,0.0,0.0,0.0,587.88,0.2924247645294949,0.92,nominal,162698.28637518513,nan,pitch_program,6.68,0.0,0.0
1.4000000000000001,258.9252377817807,0.0,14507.15997906094,203.2222100188793,0.0,0.46898818414560317,203.22275117435638,20.61752406906784,0.0,2.939273210183026,0.0,0.0,1.624786144349132,0.0,2.8070485095078,0.0,4322.510329692897,0.6887284373506697,203.22275117435638,2.7639438645940957,0.2093251362707913,13017.93112174338,216.64999999999998,0.0,0.0,0.0,587.7777777777778,0.2923739168917746,0.92,nominal,162916.38370609513,nan,pitch_program,6.7,0.0,0.0
1.44,267.0756327004194,0.0,14507.173678290956,204.2974588088496,0.0,0.21606879142416496,204.2975730680035,20.605830129344923,0.0,2.8852704538278915,0.0,0.0,1.1003884594574653,0.0,2.8246733945720806,0.0,4368.344329501711,0.6923710433038129,204.2975730680035,2.762914988468513,0.20932468408474142,13017.903000291,216.64999999999998,0.0,0.0,0.0,587.6755555555557,0.2923230692540543,0.92,nominal,163135.5239329501,nan,pitch_program,6.720000000000001,0.0,0.0
1.48,275.26902708506276,0.0,14507.17727577797,205.37214661791288,0.0,-0.03589736661461096,205.37214975519547,20.594138223527516,0.0,2.8549110646979354,0.0,0.0,0.46473032714741525,0.0,2.8649258968724824,0.0,4414.416442003622,0.6960128182443964,205.3721497551955,2.7618359483874775,0.20932456533856209,13017.895615465599,216.64999999999998,0.0,0.0,0.0,587.5733333333334,0.292272221616334,0.92,nominal,163355.66997904325,nan,pitch_program,6.74,0.0,0.0
1.52,283.5053937686538,0.0,14507.170843762598,206.44605948813137,0.0,-0.28533102360795487,206.44625666737122,20.582448351615618,0.0,2.833740061874419,0.0,0.0,0.6402416097123802,0.0,2.912929042510828,0.0,4460.716966110461,0.6996530011023465,206.44625666737122,2.7606647971856475,0.2093247776471593,13017.90881893817,216.64999999999998,0.0,0.0,0.0,587.4711111111111,0.29222137397861364,0.92,nominal,163576.77540096952,nan,pitch_program,6.76,0.0,0.0
1.56,291.78470196485745,0.0,14507.154479344314,207.5192484447458,0.0,-0.5326689076581032,207.51993208180588,20.570760513609226,0.0,2.795375978035916,0.0,0.0,1.3025741096072958,0.0,2.942444808939978,0.0,4507.247399025336,0.7032917216005794,207.51993208180588,2.759463353958341,0.20932531780646144,13017.942411447484,216.64999999999998,0.0,0.0,0.0,587.3688888888889,0.29217052634089336,0.92,nominal,163798.84758048056,nan,pitch_program,6.78,0.0,0.0
1.6,300.10692706117953,0.0,14507.128232369587,208.59192734739403,0.0,-0.7795921649585745,208.59338416748545,20.559074709508344,0.0,2.7415334261690507,0.0,0.0,1.4050752369779074,0.0,2.955669866583988,0.0,4554.016723872539,0.7069296852304814,208.59338416748548,2.7583151969725477,0.2093261841736575,13017.99629082712,216.64999999999998,0.0,0.0,0.0,587.2666666666668,0.29211967870317307,0.92,nominal,164021.92903918927,nan,pitch_program,6.8,0.0,0.0
1.6400000000000001,308.47205004302106,0.0,14507.092109078974,209.66412421927612,0.0,-1.026387760045541,209.66663648866506,20.547390939312972,0.0,2.6984297464278004,0.0,0.0,0.7832349204928777,0.0,2.978912720078175,0.0,4601.026041316088,0.7105669718520704,209.66663648866506,2.7572067368148807,0.20932737654680625,13018.070444518351,216.64999999999998,0.0,0.0,0.0,587.1644444444444,0.29206883106545267,0.92,nominal,164246.0240597343,nan,pitch_program,6.82,0.0,0.0
1.68,316.88004764410823,0.0,14507.046144297494,210.7356249015302,0.0,-1.2714859846745503,210.73946065995247,20.53570920302311,0.0,2.67590866548739,0.0,0.0,0.39266761722502425,0.0,3.021601979890697,0.0,4648.265339835973,0.7142028074599098,210.7394606599525,2.756049828589396,0.20932889378194783,13018.164801378309,216.64999999999998,0.0,0.0,0.0,587.0622222222222,0.2920179834277324,0.92,nominal,164471.08421059884,nan,pitch_program,6.84,0.0,0.0
1.72,325.3308885700762,0.0,14506.990429943056,211.80629175890778,0.0,-1.5138785906947614,211.81170188884025,20.524029500638754,0.0,2.6525163509834893,0.0,0.0,0.8162486510519309,0.0,3.062029100635677,0.0,4695.727624384601,0.7178366674572153,211.8117018888403,2.754807528389105,0.20933073285202278,13018.279173154151,216.64999999999998,0.0,0.0,0.0,586.96,0.2919671357900121,0.92,nominal,164697.07622832453,nan,pitch_program,6.86,0.0,0.0
1.76,333.82454162984453,0.0,14506.925055745507,212.8762627952193,0.0,-1.7546554942692663,212.88349414072206,20.512351832159908,0.0,2.609547995263361,0.0,0.0,1.3502791749604672,0.0,3.081803926039242,0.0,4743.418629864216,0.7214690058570127,212.88349414072206,2.753543800114144,0.2093328908035855,13018.413376171084,216.64999999999998,0.0,0.0,0.0,586.8577777777779,0.2919162881522918,0.92,nominal,164924.0276367081,nan,pitch_program,6.88,0.0,0.0
1.8,342.36098297712186,0.0,14506.850055584833,213.9457141896341,0.0,-1.9952273327607997,213.9550175906655,20.50067619758657,0.0,2.5606685179079416,0.0,0.0,1.114080053200683,0.0,3.09498532719029,0.0,4791.346322990316,0.7251004332783991,213.9550175906655,2.752341324317742,0.20933536652812637,13018.56734149089,216.64999999999998,0.0,0.0,0.0,586.7555555555556,0.2918654405145715,0.92,nominal,165151.97587371198,nan,pitch_program,6.9,0.0,0.0
1.84,350.94019085412344,0.0,14506.76544497236,215.01455769163584,0.0,-2.235010083448153,215.02617349849044,20.48900259691874,0.0,2.5300363270874184,0.0,0.0,0.4605714412718113,0.0,3.1255868538388123,0.0,4839.5062928032185,0.7287306150877294,215.02617349849044,2.7511727168692617,0.20933815952488719,13018.741037971415,216.64999999999998,0.0,0.0,0.0,586.6533333333333,0.29181459287685113,0.92,nominal,165380.89899563964,nan,pitch_program,6.92,0.0,0.0
1.8800000000000001,359.56213615181673,0.0,14506.671290597602,216.08256179335012,0.0,-2.4722920973698366,216.09670460095336,20.47733103015642,0.0,2.5132427587492208,0.0,0.0,0.4284626597709703,0.0,3.168759433378633,0.0,4887.8868305177575,0.7323586794116003,216.09670460095336,2.7499404272956958,0.20934126760509775,13018.93432949303,216.64999999999998,0.0,0.0,0.0,586.5511111111111,0.2917637452391309,0.92,nominal,165610.74088163482,nan,pitch_program,6.940000000000001,0.0,0.0
1.92,368.22678408276585,0.0,14506.5676993492,217.14971022895574,0.0,-2.7069728337121606,217.1665820388623,20.46566149729961,0.0,2.484082274592935,0.0,0.0,1.05772339292763,0.0,3.198290390105432,0.0,4936.486348738751,0.7359845284452824,217.1665820388623,2.7486151509853634,0.20934468725426308,13019.146997489277,216.64999999999998,0.0,0.0,0.0,586.448888888889,0.2917128976014106,0.92,nominal,165841.49430604378,nan,pitch_program,6.960000000000001,0.0,0.0
1.96,376.9341045609531,0.0,14506.45474253109,218.21621789806616,0.0,-2.940732721961982,218.23603199902234,20.45399399834831,0.0,2.4374332825980596,0.0,0.0,1.2886778352165715,0.0,3.2095178532306075,0.0,4985.314913369718,0.73960892874313,218.23603199902232,2.7472953502313677,0.209348416133776,13019.378896522165,216.64999999999998,0.0,0.0,0.0,586.3466666666667,0.2916620499636903,0.92,nominal,166073.20723218165,nan,pitch_program,6.98,0.0,0.0
2.0,385.6840742980395,0.0,14506.332439043823,219.28215802372117,0.0,-3.1742302847080874,219.30513118812468,20.442328533302515,0.0,2.39846087096891,0.0,0.0,0.6913142776080922,0.0,3.2277909844705968,0.0,5034.375972185841,0.7432321402665859,219.30513118812468,2.746064181258889,0.20935245363620453,13019.629988815497,216.64999999999998,0.0,0.0,0.0,586.2444444444444,0.29161120232596993,0.92,nominal,166305.8952960694,nan,pitch_program,7.0,0.0,0.0
2.04,394.4766666821041,0.0,14506.200828409426,220.34731161283904,0.0,-3.4058859496803247,220.3736322569191,20.43066510216223,0.0,2.381186960732191,0.0,0.0,0.2247687555363927,0.0,3.2667314691660083,0.0,5083.658075987901,0.7468533247410886,220.37363225691908,2.7448487892082998,0.20935679847465516,13019.900194337362,216.64999999999998,0.0,0.0,0.0,586.1422222222222,0.29156035468824965,0.92,nominal,166539.5032509752,nan,pitch_program,7.02,0.0,0.0
2.08,403.3118460624735,0.0,14506.060014053865,221.41150788592182,0.0,-3.634421882957481,221.44133500035835,20.419003704927455,0.0,2.364009808716368,0.0,0.0,0.6747410185637011,0.0,3.304423146117096,0.0,5133.151688116309,0.7504718036652964,221.44133500035835,2.7435214034111253,0.20936144725376532,13020.189301930146,216.64999999999998,0.0,0.0,0.0,586.0400000000001,0.29150950705052936,0.92,nominal,166773.98586019178,nan,pitch_program,7.04,0.0,0.0
2.12,412.18957653783644,0.0,14505.910100681516,222.4749045983693,0.0,-3.861047734632907,222.5084062808923,20.40734434159819,0.0,2.32513895517304,0.0,0.0,1.2830880633423485,0.0,3.319406303143986,0.0,5182.864190061703,0.7540881425414167,222.5084062808923,2.742102847400665,0.2093663965369967,13020.497097875515,216.64999999999998,0.0,0.0,0.0,585.9377777777778,0.291458659412809,0.92,nominal,167009.3787216797,nan,pitch_program,7.0600000000000005,0.0,0.0
2.16,421.1098309709181,0.0,14505.75112748134,223.53771390136126,0.0,-4.087463368917445,223.57508110932014,20.39568701217443,0.0,2.280617420524658,0.0,0.0,0.9619286619058326,0.0,3.3281735570103437,0.0,5232.806356077134,0.7577031378286032,223.57508110932014,2.74076384375844,0.20937164505181247,13020.8235030344,216.64999999999998,0.0,0.0,0.0,585.8355555555556,0.29140781177508873,0.92,nominal,167245.7327408344,nan,pitch_program,7.08,0.0,0.0
2.2,430.072584335642,0.0,14505.583114094637,224.59980873732167,0.0,-4.31283547671272,224.64121312593258,20.38403171665618,0.0,2.2585788544813203,0.0,0.0,0.18912867613899237,0.0,3.3586550602613814,0.0,5282.971250852155,0.761316293509096,224.64121312593258,2.739541544139508,0.20937719217222595,13021.168478476688,216.64999999999998,0.0,0.0,0.0,585.7333333333333,0.2913569641373684,0.92,nominal,167483.01396318153,nan,pitch_program,7.1,0.0,0.0
2.24,439.07780193996626,0.0,14505.40614699307,225.66090132386142,0.0,-4.535023411022429,225.7064660651884,20.372378455043442,0.0,2.250009290227832,0.0,0.0,0.29195254091836637,0.0,3.4013063372027696,0.0,5333.342778073478,0.7649264699681649,225.7064660651884,2.7382565009055533,0.2093830350669029,13021.531848121685,216.64999999999998,0.0,0.0,0.0,585.6311111111112,0.2913061164996481,0.92,nominal,167721.1456032276,nan,pitch_program,7.12,0.0,0.0
2.2800000000000002,448.12544319575693,0.0,14505.220355038848,226.72102799717635,0.0,-4.754278353863502,226.77087048111454,20.36072722733621,0.0,2.221890067781011,0.0,0.0,1.1340876222695346,0.0,3.4231909342797207,0.0,5383.921920828037,0.7685337707543894,226.77087048111454,2.736783068671186,0.2093891695057893,13021.913348902322,216.64999999999998,0.0,0.0,0.0,585.5288888888889,0.29125526886192776,0.92,nominal,167960.13304412292,nan,pitch_program,7.140000000000001,0.0,0.0
2.32,457.2154756726041,0.0,14505.02580773649,227.78049570410317,0.0,-4.972973631175067,227.83477497946473,20.349078033534486,0.0,2.1750818204972697,0.0,0.0,1.2139397976514554,0.0,3.4257821585703616,0.0,5434.724911947614,0.7721393773038767,227.83477497946475,2.735306516400337,0.20939559321951087,13022.312839686194,216.64999999999998,0.0,0.0,0.0,585.4266666666667,0.2912044212242075,0.92,nominal,168200.0536824107,nan,pitch_program,7.16,0.0,0.0
2.36,466.34787472861626,0.0,14504.822514223846,228.83932073934784,0.0,-5.191403706521541,228.89819874540342,20.337430873638272,0.0,2.1460653201568043,0.0,0.0,0.27787666233557856,0.0,3.445643166192874,0.0,5485.7525591865015,0.7757433546357657,228.89819874540342,2.734037276964715,0.20940230593294484,13022.73030336342,216.64999999999998,0.0,0.0,0.0,585.3244444444445,0.29115357358648714,0.92,nominal,168440.91040355837,nan,pitch_program,7.180000000000001,0.0,0.0
2.4,475.52260773657923,0.0,14504.610536159233,229.89714345825743,0.0,-5.406943675734507,229.96071753710277,20.32578574764757,0.0,2.1429913695098852,0.0,0.0,-0.061059441653225625,0.0,3.4902806257800383,0.0,5536.9842896372975,0.7793442649808627,229.96071753710277,2.7328239045942135,0.20940930563782553,13023.165615039947,216.64999999999998,0.0,0.0,0.0,585.2222222222222,0.29110272594876685,0.92,nominal,168682.60471951554,nan,pitch_program,7.2,0.0,0.0
2.44,484.73963054670674,0.0,14504.390017405482,230.95383670342906,0.0,-5.618579498773107,231.02217019935168,20.31414265556237,0.0,2.1271709647803294,0.0,0.0,0.8822245141173776,0.0,3.5207715689431525,0.0,5588.411805784457,0.782941562178976,231.02217019935168,2.7313526097785816,0.20941658761219425,13023.618481057145,216.64999999999998,0.0,0.0,0.0,585.12,0.29105187831104656,0.92,nominal,168925.09792599856,nan,pitch_program,7.22,0.0,0.0
2.48,493.9989044825259,0.0,14504.161063890217,232.00975881121474,0.0,-5.828996506304812,232.08297090460678,20.302501597382683,0.0,2.080644215186541,0.0,0.0,1.4415878377463398,0.0,3.519836501194876,0.0,5640.054660017056,0.7865366498738768,232.08297090460675,2.7297200538966666,0.2094241483873502,13024.088685696495,216.64999999999998,0.0,0.0,0.0,585.0177777777778,0.2910010306733263,0.92,nominal,169168.48378915328,nan,pitch_program,7.239999999999999,0.0,0.0
2.52,503.30040427590063,0.0,14503.923682141052,233.0651081178355,0.0,-6.039886301085938,233.143356861199,20.290862573108505,0.0,2.0432001971632454,0.0,0.0,0.45931852789848715,0.0,3.5276890503427314,0.0,5691.9242226651795,0.7901303319722253,233.14335686119904,2.7283530716285576,0.20943198777789768,13024.576217428239,216.64999999999998,0.0,0.0,0.0,584.9155555555557,0.290950183035606,0.92,nominal,169412.81560172274,nan,pitch_program,7.26,0.0,0.0
2.56,512.6441002410621,0.0,14503.677903118021,234.11949127889383,0.0,-6.248468832122291,234.2028598446954,20.279225582739837,0.0,2.043437628486413,0.0,0.0,-0.39839248150034917,0.0,3.5722549061518296,0.0,5743.997453452553,0.7937210216463642,234.20285984469544,2.727234966100098,0.2094401047926087,13025.081014607902,216.64999999999998,0.0,0.0,0.0,584.8133333333333,0.2908993353978856,0.92,nominal,169657.98268832936,nan,pitch_program,7.28,0.0,0.0
2.6,522.0299454821378,0.0,14503.42387878905,235.17257861021656,0.0,-6.452192439356076,235.26107310274043,20.267590626276675,0.0,2.04136128830423,0.0,0.0,0.5465646471503061,0.0,3.6129334577313363,0.0,5796.253812321381,0.7973073403994834,235.26107310274043,2.7258357207793558,0.2094484944446005,13025.602767101227,216.64999999999998,0.0,0.0,0.0,584.7111111111111,0.2908484877601653,0.92,nominal,169903.8880396531,nan,pitch_program,7.300000000000001,0.0,0.0
2.64,531.4578940820878,0.0,14503.16175764337,236.22474639144616,0.0,-6.653765007540577,236.31843642948942,20.255957703719023,0.0,1.9966609241195865,0.0,0.0,1.6757777235721187,0.0,3.610090021348424,0.0,5848.7142985858845,0.8008907787081152,236.31843642948942,2.7240280899684874,0.2094571518621617,13026.141171936459,216.64999999999998,0.0,0.0,0.0,584.6088888888889,0.290797640122445,0.92,nominal,170150.63294883264,nan,pitch_program,7.320000000000001,0.0,0.0
2.68,540.9279195137909,0.0,14502.891548809326,237.27642200723312,0.0,-6.8565942944460385,237.37546909037002,20.24432681506688,0.0,1.9488054337205434,0.0,0.0,0.7286696502227187,0.0,3.604025183935656,0.0,5901.404383038569,0.8044730963794882,237.37546909037002,2.7224956831614975,0.20946607677695492,13026.696212425697,216.64999999999998,0.0,0.0,0.0,584.5066666666668,0.29074679248472474,0.92,nominal,170398.33807006758,nan,pitch_program,7.34,0.0,0.0
2.72,550.4399962425615,0.0,14502.613244529965,238.32720440756214,0.0,-7.057992653971656,238.4316917295757,20.232697960320245,0.0,1.9512481403076527,0.0,0.0,-0.7673709588320794,0.0,3.6475506343297583,0.0,5954.300141314198,0.8080526688613625,238.4316917295757,2.7215050766412814,0.20947526947936976,13027.26790662827,216.64999999999998,0.0,0.0,0.0,584.4044444444444,0.29069594484700434,0.92,nominal,170646.88798498348,nan,pitch_program,7.36,0.0,0.0
2.7600000000000002,559.9940750097928,0.0,14502.327000898309,239.37650202997958,0.0,-7.253456608246731,239.4863719648292,20.22107113947912,0.0,1.965553986921783,0.0,0.0,0.11622976521081696,0.0,3.7011684731161787,0.0,6007.364373479624,0.8116270140866546,239.4863719648292,2.720274508426008,0.2094847248483554,13027.85593606601,216.64999999999998,0.0,0.0,0.0,584.3022222222222,0.29064509720928405,0.92,nominal,170896.10626179766,nan,pitch_program,7.380000000000001,0.0,0.0
2.8000000000000003,569.5901010104518,0.0,14502.033019482109,240.42468900404808,0.0,-7.445512991803405,240.53994833790986,20.2094463525435,0.0,1.9230818583426024,0.0,0.0,1.9820157615142733,0.0,3.696860492814046,0.0,6060.618184190765,0.8151976182875537,240.53994833790986,2.7182529178316077,0.20949443626067982,13028.459888840083,216.64999999999998,0.0,0.0,0.0,584.2,0.29059424957156377,0.92,nominal,171146.0954837064,nan,pitch_program,7.400000000000001,0.0,0.0
2.84,579.2280463294185,0.0,14501.731313994207,241.47250395465184,0.0,-7.639852710034537,241.59333085902924,20.197823599513395,0.0,1.8609298084226145,0.0,0.0,1.1130457404823224,0.0,3.673083740460301,0.0,6114.107109171163,0.8187675655179237,241.59333085902927,2.7164506371916333,0.2095044032988888,13029.079738989014,216.64999999999998,0.0,0.0,0.0,584.0977777777779,0.2905434019338435,0.92,nominal,171397.07214816147,nan,pitch_program,7.42,0.0,0.0
2.88,588.9078918139766,0.0,14501.421822961933,242.519547661007,0.0,-7.834034877907207,242.64604488877976,20.186202880388795,0.0,1.8657851290843135,0.0,0.0,-1.25726449264344,0.0,3.7159498476112924,0.0,6167.807177768445,0.8223352472095524,242.64604488877973,2.7156519560343266,0.20951462803036167,13029.715615083129,216.64999999999998,0.0,0.0,0.0,583.9955555555556,0.29049255429612314,0.92,nominal,171648.91987023348,nan,pitch_program,7.44,0.0,0.0
2.92,598.6295856006061,0.0,14501.104706446398,243.56485516599886,0.0,-8.020811843035833,243.69688568928285,20.174584195169704,0.0,1.9018536149524747,0.0,0.0,-0.4530119354987583,0.0,3.7879740594659026,0.0,6221.656503015118,0.8258965804670375,243.69688568928285,2.714746239181212,0.20952510520440928,13030.36719058205,216.64999999999998,0.0,0.0,0.0,583.8933333333333,0.29044170665840285,0.92,nominal,171901.34451680025,nan,pitch_program,7.46,0.0,0.0
2.96,608.3930608585472,0.0,14500.780239745996,244.60879861994516,0.0,-8.20244005395833,244.74628574328082,20.162967543856123,0.0,1.8603452824647317,0.0,0.0,2.4828420351823888,0.0,3.780918731453493,0.0,6275.675969266785,0.8294530309882965,244.74628574328082,2.7124143152850304,0.20953582576260968,13031.033902142475,216.64999999999998,0.0,0.0,0.0,583.7911111111111,0.29039085902068257,0.92,nominal,172154.4487306709,nan,pitch_program,7.48,0.0,0.0
3.0,618.1982890183928,0.0,14500.448438060605,245.65258680905313,0.0,-8.38800700380018,245.79575274498782,20.15135292644805,0.0,1.7762334632374372,0.0,0.0,1.6737723120419856,0.0,3.731884550123841,0.0,6329.942477951219,0.8330097083974938,245.79575274498782,2.7101616819481147,0.20954678924001602,13031.715720849359,216.64999999999998,0.0,0.0,0.0,583.688888888889,0.2903400113829623,0.92,nominal,172408.59870884463,nan,pitch_program,7.499999999999999,0.0,0.0
3.04,628.0452616047999,0.0,14500.109156992829,246.69579978997803,0.0,-8.575308808519749,246.84479649200304,20.139740342945487,0.0,1.7860635239535114,0.0,0.0,-2.0398418655170927,0.0,3.7769010452938487,0.0,6384.431086755005,0.836564951382933,246.84479649200304,2.709701798183523,0.20955800044629713,13032.412945816028,216.64999999999998,0.0,0.0,0.0,583.5866666666667,0.29028916374524194,0.92,nominal,172663.6722420129,nan,pitch_program,7.52,0.0,0.0
3.08,637.9339226358321,0.0,14499.762567867254,247.73688246575932,0.0,-8.752788672197743,247.8914565760458,20.12812979334843,0.0,1.8543924580759072,0.0,0.0,-1.238520288285974,0.0,3.8778672485682217,0.0,6439.0397248052395,0.8401121160579237,247.89145657604584,2.7094022496001804,0.2095694537594411,13033.125227409535,216.64999999999998,0.0,0.0,0.0,583.4844444444444,0.2902383161075216,0.92,nominal,172919.1837078722,nan,pitch_program,7.54,0.0,0.0
3.12,647.8641872401504,0.0,14499.409059917361,248.77625234317756,0.0,-8.922610784290848,248.93621012846705,20.116521277656886,0.0,1.8090116039386799,0.0,0.0,3.4233292138092963,0.0,3.8631019557901203,0.0,6493.791524709156,0.8436528194359538,248.93621012846705,2.706514141980043,0.20958113635547984,13033.85176810725,216.64999999999998,0.0,0.0,0.0,583.3822222222223,0.2901874684698013,0.92,nominal,173175.24821400075,nan,pitch_program,7.5600000000000005,0.0,0.0
3.16,657.8360289446662,0.0,14499.04863497021,249.81589887831868,0.0,-9.099454470441925,249.98156612846873,20.104914795870847,0.0,1.6884350436124718,0.0,0.0,2.499172775059187,0.0,3.7744910166451477,0.0,6548.81688941396,0.847195564528203,249.98156612846876,2.703489227013409,0.20959304821230237,13034.592566534091,216.64999999999998,0.0,0.0,0.0,583.28,0.29013662083208097,0.92,nominal,173432.48699815158,nan,pitch_program,7.580000000000001,0.0,0.0
3.2,667.8494580867754,0.0,14498.681009821988,250.85527245700527,0.0,-9.280879102612236,251.026895842648,20.093310347990318,0.0,1.7114656456856208,0.0,0.0,-3.4701286987481956,0.0,3.830268168865096,0.0,6604.08365300975,0.8507382205369548,251.026895842648,2.703720738565362,0.2096051987294719,13035.348207248935,216.64999999999998,0.0,0.0,0.0,583.1777777777778,0.2900857731943607,0.92,nominal,173690.7413431686,nan,pitch_program,7.6,0.0,0.0
3.24,677.9044098228758,0.0,14498.306393590048,251.8918092784284,0.0,-9.447946511702915,252.0689335774009,20.0817079340153,0.0,1.831602080281021,0.0,0.0,-2.32701138743886,0.0,3.9796426255220854,0.0,6659.419252911773,0.8542697199215934,252.0689335774009,2.7045598697363027,0.20961758103619102,13036.118262956861,216.64999999999998,0.0,0.0,0.0,583.0755555555556,0.2900349255566404,0.92,nominal,173949.1900321239,nan,pitch_program,7.62,0.0,0.0
3.2800000000000002,688.0007699364786,0.0,14497.925365627563,252.9261550663071,0.0,-9.603729433729479,253.10841853968807,20.07010755394579,0.0,1.7683721633197615,0.0,0.0,5.321975332328813,0.0,3.9428762139715046,0.0,6714.860333342098,0.8577925678782737,253.10841853968807,2.7004724583296627,0.20963017602219658,13036.901545190523,216.64999999999998,0.0,0.0,0.0,582.9733333333334,0.28998407791892006,0.92,nominal,174208.0155546625,nan,pitch_program,7.640000000000001,0.0,0.0
3.3200000000000003,698.1385221687555,0.0,14497.537867577208,253.96168040791858,0.0,-9.772779363139101,254.14964554784328,20.058509207781785,0.0,1.5850800693201113,0.0,0.0,3.6457030412587015,0.0,3.7888096554943957,0.0,6770.634302024954,0.8613213196844077,254.14964554784325,2.69613780045988,0.2096429856549303,13037.69817630513,216.64999999999998,0.0,0.0,0.0,582.8711111111111,0.2899332302811997,0.92,nominal,174468.30089512322,nan,pitch_program,7.660000000000001,0.0,0.0
3.36,708.3177105223242,0.0,14497.143373688967,254.9973445508007,0.0,-9.95049035649926,255.19141440552923,20.046912895523292,0.0,1.644375501686872,0.0,0.0,-6.307748058081638,0.0,3.87903402310856,0.0,6826.678882106545,0.8648519078360221,255.1914144055292,2.6979291970005415,0.20965602735512612,13038.509239696197,216.64999999999998,0.0,0.0,0.0,582.7688888888889,0.28988238264347943,0.92,nominal,174729.74005873417,nan,pitch_program,7.68,0.0,0.0
3.4,718.5382478493353,0.0,14496.74221056521,256.0287851665883,0.0,-10.104616397687591,256.2281056137743,20.035318617170308,0.0,1.8506653050199275,0.0,0.0,-3.686404580450776,0.0,4.110768821776559,0.0,6882.692407539015,0.8683652876704344,256.22810561377423,2.7009170748455817,0.20966929036772397,13039.334066506495,216.64999999999998,0.0,0.0,0.0,582.6666666666667,0.28983153500575914,0.92,nominal,174990.89805245103,nan,pitch_program,7.699999999999999,0.0,0.0
3.44,728.7999702278889,0.0,14496.33528587594,257.0574593699639,0.0,-10.242690571136027,257.26144314272335,20.02372637272283,0.0,1.7315969300783232,0.0,0.0,9.287830846239064,0.0,4.0133928004313155,0.0,6938.7637390224345,0.8718673017778921,257.2614431427234,2.6939082402323438,0.20968274472290777,13040.170792913035,216.64999999999998,0.0,0.0,0.0,582.5644444444445,0.28978068736803886,0.92,nominal,175252.21149517363,nan,pitch_program,7.72,0.0,0.0
3.48,739.102894228977,0.0,14495.92234621585,258.0892370945954,0.0,-10.407245577549993,258.2989838628516,20.012136162180862,0.0,1.4416623924652299,0.0,0.0,4.879565806207116,0.0,3.7508186027956665,0.0,6995.300445157049,0.8753835606353886,258.2989838628517,2.68758811462113,0.20969639883668528,13041.019942307374,216.64999999999998,0.0,0.0,0.0,582.4622222222222,0.2897298397303185,0.92,nominal,175515.6194088085,nan,pitch_program,7.74,0.0,0.0
3.52,749.4471224628821,0.0,14495.502442463281,259.12150431220255,0.0,-10.585172042062261,259.3376175262256,20.000547985544404,0.0,1.5988619022760246,0.0,0.0,-12.156887205880045,0.0,3.9381068313141614,0.0,7052.137420629341,0.8789035235126826,259.3376175262256,2.693087644177068,0.20971028413437864,13041.883469030428,216.64999999999998,0.0,0.0,0.0,582.36,0.28967899209259823,0.92,nominal,175780.31895947194,nan,pitch_program,7.759999999999999,0.0,0.0
3.56,759.8325088583332,0.0,14495.076242948271,260.1466900500993,0.0,-10.720015955652357,260.3674693315428,19.988961842813456,0.0,1.944751565456278,0.0,0.0,-4.671429813827305,0.0,4.304437045838597,0.0,7108.735647308263,0.8823937243906855,260.3674693315428,2.700022452156847,0.20972437855936424,13042.760001380684,216.64999999999998,0.0,0.0,0.0,582.2577777777778,0.28962814445487794,0.92,nominal,176043.7489809646,nan,pitch_program,7.780000000000001,0.0,0.0
3.6,770.2588068259298,0.0,14494.645210401019,261.1688075162288,0.0,-10.83484193470813,261.39345787375606,19.977377733988014,0.0,1.6706148391067523,0.0,0.0,17.60078931343893,0.0,4.046223714670385,0.0,7165.357556168766,0.8858708325458252,261.3934578737561,2.685502748725017,0.2097386337762524,13043.64653338005,216.64999999999998,0.0,0.0,0.0,582.1555555555557,0.28957729681715766,0.92,nominal,176307.18236217866,nan,pitch_program,7.8,0.0,0.0
3.64,780.7261262215977,0.0,14494.208527130699,262.1980747987728,0.0,-11.004371536376656,262.42889822024836,19.965795659068082,0.0,1.213822925141651,0.0,0.0,4.7687471120267055,0.0,3.617098521372912,0.0,7222.734629525579,0.889379973169542,262.42889822024836,2.6772963786861768,0.20975307686335767,13044.544749029023,216.64999999999998,0.0,0.0,0.0,582.0533333333333,0.28952644917943726,0.92,nominal,176574.093363133,nan,pitch_program,7.82,0.0,0.0
3.68,791.2346615364108,0.0,14493.764553059613,263.227308700628,0.0,-11.188043812309914,263.46496611527283,19.95421561805366,0.0,1.6262826772135799,0.0,0.0,-24.168960284325323,0.0,4.0600806727658485,0.0,7280.387522981495,0.8928912405754105,263.4649661152729,2.691847683244821,0.2097677621097893,13045.45802456754,216.64999999999998,0.0,0.0,0.0,581.9511111111111,0.289475601541717,0.92,nominal,176842.17033932297,nan,pitch_program,7.840000000000001,0.0,0.0
3.72,801.7841117055476,0.0,14493.31489659133,264.2434948833448,0.0,-11.287581434220886,264.48446850958646,19.942637610944747,0.0,2.168948163659105,0.0,0.0,-2.41330622491037,0.0,4.614941555907261,0.0,7337.361064308856,0.896346366966788,264.48446850958646,2.705035454994841,0.2097826363597667,13046.383054237378,216.64999999999998,0.0,0.0,0.0,581.848888888889,0.2894247539039967,0.92,nominal,177106.8835720566,nan,pitch_program,7.860000000000001,0.0,0.0
3.7600000000000002,812.3741095274452,0.0,14492.861852465529,265.2582609729724,0.0,-11.373415285207084,265.50197662099487,19.93106163774134,0.0,1.494058724522791,0.0,0.0,34.423937032891175,0.0,3.9492124228915437,0.0,7394.453574028437,0.8997947346692835,265.50197662099487,2.6763252273397673,0.20979762373720184,13047.315119304298,216.64999999999998,0.0,0.0,0.0,581.7466666666668,0.2893739062662764,0.92,nominal,177372.07348030873,nan,pitch_program,7.88,0.0,0.0
3.8000000000000003,823.0050224310025,0.0,14492.403192112919,266.2894274646149,0.0,-11.570482182312896,266.54068214320233,19.919487698443444,0.0,0.5898453450092058,0.0,0.0,9.754382409195115,0.0,3.077826451837369,0.0,7452.963416489486,0.9033149410784751,266.5406821432024,2.6657237486638388,0.20981279799854896,13048.258806682505,216.64999999999998,0.0,0.0,0.0,581.6444444444444,0.289323058628556,0.92,nominal,177643.89338261596,nan,pitch_program,7.9,0.0,0.0
3.84,833.6773180766871,0.0,14491.935365625146,267.32394672682744,0.0,-11.813534011389452,267.58485024277053,19.907915793051057,0.0,1.0796688450242582,0.0,0.0,-34.24561759080489,0.0,3.6100277705276733,0.0,7512.02563026806,0.906853660337964,267.5848502427706,2.6768760357563726,0.20982827664180304,13049.221423572808,216.64999999999998,0.0,0.0,0.0,581.5422222222222,0.2892722109908357,0.92,nominal,177918.16399303082,nan,pitch_program,7.92,0.0,0.0
3.88,844.3906547883955,0.0,14491.460152810883,268.3387245969516,0.0,-11.928280430610737,268.60371366075697,19.896345921564176,0.0,2.4678927323263133,0.0,0.0,-32.80063284972766,0.0,5.013147794440539,0.0,7569.907764020501,0.9103066212180254,268.60371366075697,2.717385473624569,0.20984400084030552,13050.199311545064,216.64999999999998,0.0,0.0,0.0,581.44,0.28922136335311543,0.92,nominal,178186.65520373778,nan,pitch_program,7.9399999999999995,0.0,0.0
3.92,855.1440743475672,0.0,14490.983089721653,269.330604651921,0.0,-11.918572023952843,269.5941894055945,19.884778083982805,0.0,2.8999169847378443,0.0,0.0,11.19936715027234,0.0,5.433749473312925,0.0,7626.4124347719135,0.9136633753611204,269.5941894055945,2.7240837685915746,0.20985978744733325,13051.181080703773,216.64999999999998,0.0,0.0,0.0,581.3377777777778,0.2891705157153951,0.92,nominal,178448.5127974486,nan,pitch_program,7.959999999999999,0.0,0.0
3.96,865.9372247180557,0.0,14490.506084088189,270.33119404116167,0.0,-11.94971601477102,270.59517768163175,19.873212280306944,0.0,1.5754665579994847,0.0,0.0,53.388705424974326,0.0,4.106520634199648,0.0,7683.728400488831,0.91705575681043,270.5951776816318,2.674341722309895,0.20987557334049387,13052.162805467082,216.64999999999998,0.0,0.0,0.0,581.2355555555556,0.28911966807767486,0.92,nominal,178714.19658180035,nan,pitch_program,7.9799999999999995,0.0,0.0
4.0,876.771020555165,0.0,14490.02436575095,271.362509207793,0.0,-12.157268214865976,271.6347006072636,19.861648510536593,0.0,-0.06316748260907064,0.0,0.0,26.232164012224082,0.0,2.502016249185033,0.0,7743.465856774122,0.9205787334261059,271.6347006072636,2.664770936381219,0.20989151639966477,13053.154304385243,216.64999999999998,0.0,0.0,0.0,581.1333333333333,0.2890688204399545,0.92,nominal,178991.30273339042,nan,pitch_program,8.0,0.0,0.0
4.04,887.6463967734204,0.0,14489.531693885916,272.4064611761483,0.0,-12.47798451223316,272.69209777329434,19.850086774671748,0.0,-0.2324536271247293,0.0,0.0,-17.767835987775925,0.0,2.390231754318778,0.0,7804.475742330383,0.9241622864171515,272.69209777329434,2.670502335708041,0.20990782323199764,13054.168426357908,216.64999999999998,0.0,0.0,0.0,581.0311111111112,0.28901797280223424,0.92,nominal,179274.25607984627,nan,pitch_program,8.020000000000001,0.0,0.0
4.08,898.5633925600681,0.0,14489.027460473702,273.4391090233289,0.0,-12.710746820216999,273.7343775052735,19.838527072712413,0.0,1.3151792989771363,0.0,0.0,-56.930943514541404,0.0,3.976643019842165,0.0,7864.875389585511,0.9276946059381701,273.7343775052735,2.6845017167612752,0.20992451404916293,13055.206428348945,216.64999999999998,0.0,0.0,0.0,580.9288888888889,0.2889671251645139,0.92,nominal,179554.07585935423,nan,pitch_program,8.04,0.0,0.0
4.12,909.521028716417,0.0,14488.517850469596,274.4374468334468,0.0,-12.747692172815798,274.7333541457859,19.826969404658588,0.0,2.938952430117175,0.0,0.0,-22.002126332496346,0.0,5.598444948749507,0.0,7923.021553078682,0.9310801698900113,274.7333541457859,2.753663876732176,0.20994138418736347,13056.255582315935,216.64999999999998,0.0,0.0,0.0,580.8266666666667,0.2889162775267936,0.92,nominal,179823.03151840458,nan,pitch_program,8.06,0.0,0.0
4.16,920.5180787273889,0.0,14488.009422501686,275.41494417084425,0.0,-12.673447535605082,275.7063795871742,19.815413770510272,0.0,2.9390374832080344,0.0,0.0,21.997873667503658,0.0,5.573691852336236,0.0,7979.882749350664,0.9343777843936889,275.7063795871742,2.719512165489284,0.20995821654643723,13057.302386798867,216.64999999999998,0.0,0.0,0.0,580.7244444444444,0.28886542988907327,0.92,nominal,180085.84147570966,nan,pitch_program,8.08,0.0,0.0
4.2,931.5545031756303,0.0,14487.502281369507,276.41118787977894,0.0,-12.704270364709702,276.70298746238734,19.803860170267463,0.0,1.454916909815579,0.0,0.0,49.01614677627781,0.0,4.086464403593018,0.0,8038.320279371516,0.9377553205237752,276.70298746238734,2.661957206950354,0.20997500764709948,13058.34662542101,216.64999999999998,0.0,0.0,0.0,580.6222222222223,0.288814582251353,0.92,nominal,180356.1358828973,nan,pitch_program,8.1,0.0,0.0
4.24,942.6313914003055,0.0,14486.990443215856,277.4360640360933,0.0,-12.9027452826557,277.73593657225626,19.792308603930163,0.0,0.3381679663988115,0.0,0.0,6.016230717725215,0.0,3.000909555202278,0.0,8099.1010381824635,0.9412560182664823,277.73593657225626,2.6486028238368116,0.20999195562453032,13059.400620210065,216.64999999999998,0.0,0.0,0.0,580.52,0.28876373461363264,0.92,nominal,180637.47006179695,nan,pitch_program,8.120000000000001,0.0,0.0
4.28,953.7494292005096,0.0,14486.46919852663,278.4639442439531,0.0,-13.149499615627233,278.77424124915274,19.780759071498373,0.0,0.9775171666482962,0.0,0.0,-37.98376928227479,0.0,3.681104436431918,0.0,8160.441275933505,0.9447748661980274,278.77424124915274,2.660966201105468,0.2100092164769142,13060.474072693789,216.64999999999998,0.0,0.0,0.0,580.4177777777778,0.28871288697591235,0.92,nominal,180921.2719577516,nan,pitch_program,8.14,0.0,0.0
4.32,964.908145465143,0.0,14485.940968709845,279.46571955554083,0.0,-13.23502738051118,279.77893837181364,19.76921157297209,0.0,2.837885654189709,0.0,0.0,-51.323928031601696,0.0,5.549291752142282,0.0,8220.052090211291,0.9481798170477836,279.7789383718136,2.726849293527732,0.2100267100870292,13061.56200038181,216.64999999999998,0.0,0.0,0.0,580.3155555555556,0.28866203933819207,0.92,nominal,181196.68017902793,nan,pitch_program,8.16,0.0,0.0
4.36,976.1060909745316,0.0,14485.413324240275,280.42658502929396,0.0,-13.129749261846646,280.73378832422503,19.757666108351316,0.0,4.0108398931180895,0.0,0.0,-7.323928031601692,0.0,6.691506678954565,0.0,8276.94446261323,0.951415834234976,280.7337883242251,2.8203129030003917,0.21004418576673625,13062.648812977684,216.64999999999998,0.0,0.0,0.0,580.2133333333334,0.2886111917004717,0.92,nominal,181459.10852959627,nan,pitch_program,8.18,0.0,0.0
4.4,987.3421137861916,0.0,14484.891684566664,281.3770726443566,0.0,-12.960813702586785,281.6754155082418,19.746122677636052,0.0,3.423798456889537,0.0,0.0,36.67607196839831,0.0,6.061097187709748,0.0,8333.247477351866,0.9546070390349659,281.6754155082418,2.74747603080189,0.21006146399589068,13063.723346122844,216.64999999999998,0.0,0.0,0.0,580.1111111111111,0.2885603440627514,0.92,nominal,181718.78288932604,nan,pitch_program,8.2,0.0,0.0
4.44,998.6167798466923,0.0,14484.373941782778,282.3643290529798,0.0,-12.959426112440523,282.66156627087327,19.734581280826298,0.0,1.1800404401049258,0.0,0.0,71.45301764502787,0.0,3.8078501213332268,0.0,8392.384465471448,0.9579491356743162,282.66156627087327,2.6574421494239657,0.21007861455409807,13064.78993941126,216.64999999999998,0.0,0.0,0.0,580.0088888888889,0.2885094964250311,0.92,nominal,181991.96623953572,nan,pitch_program,8.22,0.0,0.0
4.48,1009.9318955378309,0.0,14483.851143876738,283.39642792915,0.0,-13.209614678081103,283.70412278101503,19.72304191792205,0.0,-0.8332547024458022,0.0,0.0,28.332445435993378,0.0,1.8354724922644596,0.0,8455.103843497707,0.9614823932054262,283.70412278101503,2.6609327269210974,0.21009593398727364,13065.867035034671,216.64999999999998,0.0,0.0,0.0,579.9066666666668,0.28845864878731087,0.92,nominal,182282.07346157145,nan,pitch_program,8.240000000000002,0.0,0.0
4.5200000000000005,1021.2886670441237,0.0,14483.315056897389,284.4424261619987,0.0,-13.59773636719093,284.76725976705205,19.71150458892331,0.0,-1.0865518974790942,0.0,0.0,-15.667554564006625,0.0,1.6503823883019209,0.0,8519.311090480951,0.9650853986310085,284.76725976705205,2.6668034842036987,0.210113695148315,13066.971601715948,216.64999999999998,0.0,0.0,0.0,579.8044444444445,0.2884078011495905,0.92,nominal,182578.99772034062,nan,pitch_program,8.26,0.0,0.0
4.5600000000000005,1032.6871748132928,0.0,14482.764655866396,285.4791525292152,0.0,-13.898571444859044,285.81727872367475,19.699969293830083,0.0,0.4201465827421886,0.0,0.0,-59.66755456400663,0.0,3.207394647609619,0.0,8582.998132961444,0.9686439466331606,285.81727872367475,2.6634721015344907,0.21013193211206502,13068.105758569716,216.64999999999998,0.0,0.0,0.0,579.7022222222222,0.2883569535118702,0.92,nominal,182873.16242095557,nan,pitch_program,8.280000000000001,0.0,0.0
4.6000000000000005,1044.1264870735574,0.0,14482.206657805636,286.47958527396094,0.0,-13.970243269195072,286.82001407806456,19.68843603264236,0.0,2.526566875931848,0.0,0.0,-41.88809387849382,0.0,5.318397188854017,0.0,8644.087953972705,0.9720422489871753,286.82001407806456,2.744396679696746,0.21015042241128146,13069.255670357228,216.64999999999998,0.0,0.0,0.0,579.6,0.2883061058741499,0.92,nominal,183154.7921586402,nan,pitch_program,8.3,0.0,0.0
4.64,1055.6049971435025,0.0,14481.649851192551,287.4424664466734,0.0,-13.857687223451782,287.7763141958177,19.67690480536015,0.0,3.322088676281918,0.0,0.0,2.111906121506184,0.0,6.082198276765262,0.0,8702.589439166539,0.975283180831333,287.77631419581763,2.783718518407829,0.21016887485149605,13070.40322769325,216.64999999999998,0.0,0.0,0.0,579.4977777777779,0.2882552582364296,0.92,nominal,183424.07501926238,nan,pitch_program,8.32,0.0,0.0
4.68,1067.1219065926157,0.0,14481.097961361873,288.40696202723996,0.0,-13.751549098105354,288.73462010707937,19.665375611983446,0.0,2.3576148013804086,0.0,0.0,46.11190612150619,0.0,5.087470682433563,0.0,8761.40828465299,0.9785309103741779,288.7346201070793,2.6995927056569027,0.21018716594953243,13071.54075115852,216.64999999999998,0.0,0.0,0.0,579.3955555555556,0.28820441059870927,0.92,nominal,183694.89974697912,nan,pitch_program,8.34,0.0,0.0
4.72,1078.6781051018036,0.0,14480.546789894654,289.40941583777277,0.0,-13.836861948978365,289.7400019399392,19.653848452512253,0.0,0.34195936273729766,0.0,0.0,50.586088533680744,0.0,3.0792253358548156,0.0,8823.296267821368,0.9819381817288121,289.7400019399392,2.6407123597377375,0.21020543482786788,13072.676892780493,216.64999999999998,0.0,0.0,0.0,579.2933333333333,0.28815356296098893,0.92,nominal,183980.28853919837,nan,pitch_program,8.36,0.0,0.0
4.76,1090.2750770339553,0.0,14479.987921451911,290.4418678586485,0.0,-14.123836861844074,290.7850776310927,19.642323326946567,0.0,-0.8014813688101331,0.0,0.0,6.58608853368074,0.0,1.9825499736274657,0.0,8887.844539649368,0.9854799768453629,290.78507763109275,2.6462938596260166,0.21022396044794384,13073.829001172408,216.64999999999998,0.0,0.0,0.0,579.1911111111111,0.28810271532326864,0.92,nominal,184278.15423636668,nan,pitch_program,8.379999999999999,0.0,0.0
4.8,1101.9134772434545,0.0,14479.415934039205,291.4764724091978,0.0,-14.464975144308687,291.8351751829024,19.63080023528639,0.0,-0.18492642518729813,0.0,0.0,-37.41391146631926,0.0,2.656135324015835,0.0,8952.960384139127,0.9890387912091303,291.8351751829024,2.6431600118975793,0.21024292263210137,13075.008259486427,216.64999999999998,0.0,0.0,0.0,579.088888888889,0.28805186768554836,0.92,nominal,184578.44900656323,nan,pitch_program,8.4,0.0,0.0
4.84,1113.5928575659707,0.0,14478.83353589393,292.48487097027623,0.0,-14.617309888755619,292.8499026718005,19.619279177531723,0.0,2.124795970712209,0.0,0.0,-74.05526676146596,0.0,4.985846326019819,0.0,9016.156512133426,0.9924777352925414,292.8499026718005,2.7037327917866896,0.21026223170399808,13076.209090750433,216.64999999999998,0.0,0.0,0.0,578.9866666666667,0.288001020047828,0.92,nominal,184869.38564221573,nan,pitch_program,8.42,0.0,0.0
4.88,1125.3114267085164,0.0,14478.25074443656,293.4342420687093,0.0,-14.488967639303732,293.791736782522,19.607760153682566,0.0,4.215804071712673,0.0,0.0,-30.275315394969823,0.0,7.042614615372316,0.0,9075.077419343934,0.9956696413737861,293.7917367825219,2.8706288396028694,0.21028155559110395,13077.41084337236,216.64999999999998,0.0,0.0,0.0,578.8844444444444,0.2879501724101077,0.92,nominal,185139.9299637741,nan,pitch_program,8.44,0.0,0.0
4.92,1137.067054967485,0.0,14477.676816531923,294.34543760205673,0.0,-14.202311799135131,294.6878726679911,19.596243163738915,0.0,4.546815874143593,0.0,0.0,13.724684605030182,0.0,7.3092229508224325,0.0,9131.350584341437,0.9987066747004509,294.6878726679911,2.8635844536197275,0.2103005873209014,13078.594426730024,216.64999999999998,0.0,0.0,0.0,578.7822222222222,0.2878993247723874,0.92,nominal,185397.98050163584,nan,pitch_program,8.460000000000003,0.0,0.0
4.96,1148.8593225173363,0.0,14477.113375528916,295.27484269686744,0.0,-13.992735350359837,295.6062065861355,19.584728207700774,0.0,3.117832001317427,0.0,0.0,57.72468460503019,0.0,5.830983363096841,0.0,9189.167603982654,1.00181893787352,295.6062065861355,2.7201014550519473,0.2103192729754768,13079.756487668146,216.64999999999998,0.0,0.0,0.0,578.6800000000001,0.2878484771346671,0.92,nominal,185663.49857025314,nan,pitch_program,8.48,0.0,0.0
5.0,1160.689825163342,0.0,14476.55380226792,296.2582438349977,0.0,-14.019492880542062,296.58977261669787,19.573215285568143,0.0,0.9225728581231054,0.0,0.0,47.656452554373125,0.0,3.631894876455056,0.0,9251.235567683072,1.0051522747727888,296.5897726166978,2.6260377278688813,0.21033783200553877,13080.910673827233,216.64999999999998,0.0,0.0,0.0,578.5777777777778,0.2877976294969468,0.92,nominal,185949.24295542293,nan,pitch_program,8.5,0.0,0.0
5.04,1172.5604613155615,0.0,14475.988620710756,297.276371017027,0.0,-14.255755590862616,297.61798892627354,19.561704397341018,0.0,-0.10368272224834736,0.0,0.0,3.6564525543731223,0.0,2.6418075359804005,0.0,9316.321310921185,1.0086369329031424,297.61798892627354,2.6232880587144716,0.21035657870498164,13082.076531145925,216.64999999999998,0.0,0.0,0.0,578.4755555555556,0.28774678185922653,0.92,nominal,186249.18747355285,nan,pitch_program,8.52,0.0,0.0
5.08,1184.4719491559922,0.0,14475.412887045728,298.29570782014724,0.0,-14.518135243789798,298.6487996876593,19.550195543019402,0.0,0.6300573725916008,0.0,0.0,-40.34354744562688,0.0,3.416460179677865,0.0,9381.819612486877,1.0121303837140918,298.6487996876593,2.636709250052309,0.21037567712879637,13083.26426220481,216.64999999999998,0.0,0.0,0.0,578.3733333333333,0.2876959342215062,0.92,nominal,186550.8605661868,nan,pitch_program,8.54,0.0,0.0
5.12,1196.4236783951692,0.0,14474.830221036951,299.28256407247295,0.0,-14.579310941758965,299.63746338755834,19.538688722603297,0.0,2.8320796961444223,0.0,0.0,-64.54795030666246,0.0,5.6209931037089005,0.0,9444.906386036402,1.015480996778633,299.6374633875583,2.741927249734198,0.21039500727996915,13084.466404389084,216.64999999999998,0.0,0.0,0.0,578.2711111111112,0.2876450865837859,0.92,nominal,186840.8985197972,nan,pitch_program,8.56,0.0,0.0
5.16,1208.4136972277768,0.0,14474.250499628903,300.2099349604246,0.0,-14.378604782803867,300.55407055044594,19.5271839360927,0.0,4.533993525723124,0.0,0.0,-20.547950306662454,0.0,7.276088958753971,0.0,9503.648466111716,1.0185874079226218,300.554070550446,2.9205542470341204,0.21041424150565943,13085.66258096719,216.64999999999998,0.0,0.0,0.0,578.1688888888889,0.28759423894606556,0.92,nominal,187110.283324407,nan,pitch_program,8.58,0.0,0.0
5.2,1220.4400537196175,0.0,14473.681906659165,301.1082188372251,0.0,-14.052273458619604,301.4359398623231,19.51568118348761,0.0,4.475911680709989,0.0,0.0,23.452049693337553,0.0,7.147881951465693,0.0,9560.357604701907,1.0215760913727119,301.43593986232304,2.850582885837453,0.21043310821570768,13086.835901745944,216.64999999999998,0.0,0.0,0.0,578.0666666666667,0.2875433913083453,0.92,nominal,187370.14559028012,nan,pitch_program,8.6,0.0,0.0
5.24,1232.5028224845282,0.0,14473.124137036355,302.0390617678941,0.0,-13.866662858594974,302.35720459824284,19.504180464788032,0.0,2.6578341604597617,0.0,0.0,66.63164339879167,0.0,5.286447017410801,0.0,9619.73071880812,1.0246982871814478,302.3572045982429,2.6824365772037027,0.21045161743564517,13087.986990213178,216.64999999999998,0.0,0.0,0.0,577.9644444444444,0.28749254367062493,0.92,nominal,187642.80240469944,nan,pitch_program,8.620000000000001,0.0,0.0
5.28,1244.6040202972497,0.0,14472.568542516863,303.02752112415834,0.0,-13.942848958638034,303.348119486071,19.492681779993962,0.0,0.7395834689671187,0.0,0.0,26.630203886176893,0.0,3.3740087349669454,0.0,9683.73586764762,1.0280565295942565,303.348119486071,2.608937813430282,0.21047005609472055,13089.133690500095,216.64999999999998,0.0,0.0,0.0,577.8622222222223,0.28744169603290465,0.92,nominal,187937.4550953408,nan,pitch_program,8.64,0.0,0.0
