time_s,x_m,y_m,altitude_m,vx_mps,vy_mps,vz_mps,speed_mps,mass_kg,roll_deg,pitch_deg,yaw_deg,p_dps,q_dps,r_dps,alpha_deg,beta_deg,qbar_pa,mach,airspeed_mps,load_factor_g,density_kgpm3,pressure_pa,temperature_k,wind_x_mps,wind_y_mps,wind_z_mps,thrust_n,mass_flow_kgps,propulsion_throttle_actual,propulsion_health,energy_j_per_kg,target_distance_m,guidance_mode,pitch_command_deg,heading_command_deg,roll_command_deg,elevator_command_deg,aileron_command_deg,rudder_command_deg,elevator_deg,aileron_deg,rudder_deg,throttle,elevator_saturated,aileron_saturated,rudder_saturated,elevator_failed,aileron_failed,rudder_failed,elevator_raw_rad,aileron_raw_rad,rudder_raw_rad,elevator_effective_rad,aileron_effective_rad,rudder_effective_rad,imu_ax_mps2,imu_ay_mps2,imu_az_mps2,gyro_p_rps,gyro_q_rps,gyro_r_rps,gps_valid,gps_x_m,gps_y_m,gps_z_m,gps_vx_mps,gps_vy_mps,gps_vz_mps,baro_alt_m,pitot_airspeed_mps,pitot_qbar_pa,mag_heading_deg
0.0,0.0,0.0,1000.0,92.0,0.0,14.0,93.05912099305473,18.0,0.0,8.000000000000004,0.0,0.0,0.0,0.0,-0.6525417911147219,0.0,4813.4120263251225,0.2766044123965224,93.05912099305475,1.8255010316395077,1.1116425003060326,89874.56291621955,281.65,0.0,0.0,0.0,342.0,0.1835489183360271,0.9,nominal,14136.65,nan,fixed_pitch,26.0,12.000000000000002,0.0,-20.05352282957881,-0.0,14.32394487827058,-0.875,0.0,0.875,0.9,1.0,0.0,1.0,0.0,0.0,0.0,-0.015271630954950384,0.0,0.015271630954950384,-0.015271630954950384,0.0,0.015271630954950384,17.96056864228607,0.11675732850390258,-0.5622234893076903,0.00137549877701089,-0.0017271349075047198,0.0019280334633471235,1.0,-0.49813771915299343,-0.6559407614011687,997.407221941231,91.98344916694978,0.24651826149516026,13.948980899356233,999.1546776618185,93.02269950565217,4854.514922071296,0.19321811565037783
0.025,2.3111251333924625,4.645338431329378e-05,1000.3450635993931,92.4450053356985,0.001858135372531751,13.80254397572591,93.46972362841264,17.9954112770416,0.0013615355553477592,8.117163664792285,-0.00971237832743065,0.0,-4.6865527945085415,-0.3846033604636813,-0.3746792923985618,0.01075381796489586,4855.817375890151,0.2778259739640994,93.46972362841265,1.8557093828085274,1.1116048254487132,89870.80127295671,281.6477570866039,0.0,0.0,0.0,347.0625,0.1862659253508696,0.9,nominal,14178.328535532908,nan,fixed_pitch,26.0,12.000000000000002,0.0,-8.856193117961084,0.0031996085550638704,5.075158809545339,-1.75,0.0,1.75,0.9,0.0,0.0,0.0,0.0,0.0,0.0,-0.030543261909900768,0.0,0.030543261909900768,-0.030543261909900768,0.0,0.030543261909900768,18.218672025196426,0.08193692791490642,-0.5461771192205238,-0.0021959569100821206,-0.08120592691715003,-0.008287087158436937,1.0,-0.49813771915299343,-0.6559407614011687,997.407221941231,91.98344916694978,0.24651826149516026,13.948980899356233,999.1546776618185,93.9935386928432,4867.658542013287,0.19321811565037783
0.05,4.633548963941853,0.0001832697551670443,1000.6853028999727,92.89695322197561,0.00547265483415002,13.609572023184688,93.88857437691834,17.99075462890783,0.005490918700875247,8.405993189200307,-0.03887047713628621,-0.0024173422768333603,-11.553274435113364,-1.1535330921674785,0.07135015425342368,0.041792805690641435,4899.270333664466,0.27907204621460624,93.88857437691833,1.8857664409916801,1.1115676782761563,89867.09234566866,281.64554553115016,0.0,0.0,0.0,352.125,0.18898293236571212,0.9,nominal,14220.90272494908,nan,fixed_pitch,26.0,12.000000000000002,0.0,-6.986586991540505,0.010180587836380576,5.149631516585538,-2.625,0.0,2.625,0.9,0.0,0.0,0.0,0.0,0.0,0.0,-0.04581489286485115,0.0,0.04581489286485115,-0.04581489286485115,0.0,0.04581489286485115,18.550990897102707,0.18791137790769058,-0.324857429719593,-0.0030554600063192237,-0.20374960470715767,-0.01836867155669703,1.0,-0.49813771915299343,-0.6559407614011687,997.407221941231,91.98344916694978,0.24651826149516026,13.948980899356233,1001.3155264875384,94.47193154271524,5004.234748770892,0.4820371315051062
0.07500000000000001,6.967427953842465,0.00044846147996601527,1001.0209491968529,93.35515959602452,0.010607668991958839,13.425851875206508,94.31563727344918,17.986030055598686,0.013975307367063799,8.90693664014,-0.09713536035939543,-0.01140501229840838,-20.038256737944007,-2.30066467629043,0.7230820759472484,0.10241385397746837,4943.778493903454,0.2803425230745056,94.3156372734492,1.9057833657629921,1.1115310334962099,89863.43360787148,281.64336383022044,0.0,0.0,0.0,357.1875,0.19169993938055463,0.9,nominal,14264.381808589736,nan,fixed_pitch,26.0,12.000000000000002,0.0,-4.593465925377661,0.021860134910840823,5.267244477664919,-3.5,0.0,3.5,0.9,0.0,0.0,0.0,0.0,0.0,0.0,-0.061086523819801536,0.0,0.061086523819801536,-0.061086523819801536,0.0,0.061086523819801536,18.669930792705724,0.2501209687304509,0.21879804313322243,0.0024132651137628307,-0.3495705601978128,-0.0395866354976141,1.0,-0.49813771915299343,-0.6559407614011687,997.407221941231,91.98344916694978,0.24651826149516026,13.948980899356233,1001.3155264875384,94.09637069792772,4931.4919263828115,0.4820371315051062
0.1,9.312825818888635,0.0008706847932724829,1001.3524003578723,93.8159146018468,0.016888932532258705,13.258046440772715,94.7480971484005,17.981237557114174,0.028773540876562417,9.63971314379808,-0.19402272722986097,-0.03259766213325942,-29.31288427427302,-3.813989297060596,1.5960018190165952,0.20152547416619365,4989.056836372481,0.28162903811427936,94.74809714840052,1.9258726177536438,1.11149484763462,89859.82071783482,281.64120939767383,0.0,0.0,0.0,362.25,0.19441694639539714,0.9,nominal,14308.513473590898,nan,fixed_pitch,26.0,12.000000000000002,0.0,-1.8729606995733605,0.03966720632578576,5.431529119422042,-2.6864803497866805,0.0,4.375,0.9,0.0,0.0,0.0,0.0,0.0,0.0,-0.046887927393906514,0.0,0.07635815477475191,-0.046887927393906514,0.0,0.07635815477475191,18.90953905500406,0.32330975462111594,1.0446564371361398,-0.004881868314741645,-0.5164492952477622,-0.06509566478574108,1.0,-0.49813771915299343,-0.6559407614011687,997.407221941231,91.98344916694978,0.24651826149516026,13.948980899356233,1000.588641970042,95.07022047614234,4991.582590046662,0.056450417189062345
0.125,11.66973055087818,0.001465754196302562,1001.6803503061476,94.27618927958179,0.023802776121203163,13.117997931011674,95.18446460095107,17.97637713345429,0.05218145357828961,10.450113493692355,-0.3386989904382777,-0.07308718915724814,-32.420571341877,-5.675585534114206,2.528761026152886,0.3474928102978865,5034.955210704988,0.28292716648809724,95.18446460095107,1.949713787206868,1.111459044901568,89856.24610754248,281.63907772301,0.0,0.0,0.0,367.3125,0.19713395341023965,0.9,nominal,14353.169758014636,nan,fixed_pitch,26.0,12.000000000000002,0.0,-0.6506729845237149,0.06507933415585368,5.6452176182509985,-1.8114803497866803,0.03253966707792684,5.010108809125499,0.9,0.0,0.0,0.0,0.0,0.0,0.0,-0.03161629643895613,0.0005679243280126256,0.08744289460241209,-0.03161629643895613,0.0005679243280126256,0.08744289460241209,19.008074903288982,0.33659978183364925,1.9429896033236558,-0.00018350424625585482,-0.5694414892755343,-0.1015492767429516,1.0,-0.49813771915299343,-0.6559407614011687,997.407221941231,91.98344916694978,0.24651826149516026,13.948980899356233,1000.588641970042,95.23883781461146,5040.087559988411,0.056450417189062345
0.15000000000000002,14.038095165297223,0.002219874753830104,1002.0055569173555,94.73458457676175,0.030164822301101683,13.008264448315236,95.62351891038853,17.97144878461903,0.08621859952133226,11.183061624625982,-0.5368831551668041,-0.12624071684555294,-29.327706648879936,-7.751271984053873,3.364976385432922,0.5449061549800724,5081.349174629496,0.2842332821612833,95.62351891038853,1.9771678867740732,1.111423542533523,89852.70151295759,281.6369638800372,0.0,0.0,0.0,372.375,0.19985096042508213,0.9,nominal,14398.246479146299,nan,fixed_pitch,26.0,12.000000000000002,0.0,-1.0221526899950966,0.09825080171854617,5.899680252301309,-1.4168165198908884,0.06539523439823651,5.454894530713403,0.9,0.0,0.0,0.0,0.0,0.0,0.0,-0.024728113168743734,0.0011413621553626797,0.09520586990997984,-0.024728113168743734,0.0011413621553626797,0.09520586990997984,19.167123570023318,0.44030510147949065,2.79041770555084,-0.0009326273537364751,-0.5130378401729562,-0.13464381581569815,1.0,-0.49813771915299343,-0.6559407614011687,997.407221941231,91.98344916694978,0.24651826149516026,13.948980899356233,1001.6955340061114,95.46630833910757,5163.853041520937,-0.8739119001177281
0.17500000000000002,16.417880407583116,0.0030897123436358347,1002.3286873264797,95.19140969143575,0.03479350359222922,12.925216364963605,96.06490986677593,17.966452510608406,0.13156547577203354,11.745285064694214,-0.7910958377851806,-0.2071957090077289,-22.508015461804177,-9.92301345718139,4.01394211286701,0.7954465437350489,5128.204924956351,0.2855463463229979,96.06490986677592,2.0052558545102417,1.1113882676809426,89849.1796601104,281.63486353237784,0.0,0.0,0.0,377.4375,0.20256796743992464,0.9,nominal,14443.720075426112,nan,fixed_pitch,26.0,12.000000000000002,0.0,-2.4216818296783713,0.13674166902159526,6.185740836248586,-1.91924917478463,0.10106845170991588,5.820317683480995,0.9,0.0,0.0,0.0,0.0,0.0,0.0,-0.033497217266175924,0.001763977252230925,0.10158370708879252,-0.033497217266175924,0.001763977252230925,0.10158370708879252,19.372090830375775,0.3550427692734247,3.3908663776563395,-0.004268310744738874,-0.39572955400093524,-0.171520376096484,1.0,-0.49813771915299343,-0.6559407614011687,997.407221941231,91.98344916694978,0.24651826149516026,13.948980899356233,1001.6955340061114,96.24344723634265,5069.673971503472,-0.8739119001177281
0.2,18.809092417758862,0.004006932563222302,1002.6502164117945,95.6484804070298,0.03668880878345866,12.861163412595747,96.50928802228387,17.961388311422407,0.18762201249047222,12.14861100304421,-1.1019616087098163,-0.3318025189898382,-16.16692495918507,-12.120411368005618,4.492550497044965,1.0992225711216308,5175.595418909785,0.2868682942574234,96.50928802228388,2.032989917507593,1.1113531684886242,89845.67537131063,281.6327735933233,0.0,0.0,0.0,382.5,0.20528497445476715,0.9,nominal,14489.661082058796,nan,fixed_pitch,26.0,12.000000000000002,0.0,-3.791720015883431,0.17778077780856266,6.497594342616973,-2.79424917478463,0.13942461475923928,6.158956013048984,0.9,0.0,0.0,0.0,0.0,0.0,0.0,-0.04876884822112631,0.0024334185858734063,0.10749406091320761,-0.04876884822112631,0.0024334185858734063,0.10749406091320761,19.596180511279528,0.33158839619791014,3.6927058227896103,-0.007117285523479703,-0.2801046447788959,-0.21004624859600274,1.0,16.580021213173083,-1.4582900724896477,1004.1765733122902,95.50313739605023,0.08559324570877332,12.852354092359594,1002.1164379905838,97.10406188297623,5174.639798459331,-1.621339219833785
0.225,21.211779806154503,0.004880217677363433,1002.9704740071234,96.10749553582558,0.03493140456564523,12.810303813155159,96.95749482199453,17.956256187061037,0.25294650804295227,12.452651152246824,-1.4689568799697932,-0.514445148693578,-12.2166856970058,-14.296042512924618,4.864281133791804,1.4552837561108105,5223.615550365036,0.2882016282433541,96.95749482199453,2.060633998394059,1.1113182089394187,89842.18505027119,281.6306919189537,0.0,0.0,0.0,387.5625,0.20800198146960966,0.9,nominal,14536.158300000503,nan,fixed_pitch,26.0,12.000000000000002,0.0,-4.621089098227454,0.21918026892000342,6.831346757619214,-3.66924917478463,0.17930244183962135,6.495151385334099,0.9,0.0,0.0,0.0,0.0,0.0,0.0,-0.06404047917607669,0.003129417966967031,0.11336177708955096,-0.06404047917607669,0.003129417966967031,0.11336177708955096,19.84579097632828,0.2980336771490375,4.0505245932518985,-0.012589687226455593,-0.21241728833912418,-0.2481380912257423,1.0,16.580021213173083,-1.4582900724896477,1004.1765733122902,95.50313739605023,0.08559324570877332,12.852354092359594,1002.1164379905838,96.72387762125274,5266.824190942297,-1.621339219833785
0.25,23.62601506817693,0.005596255423217401,1003.2897168614637,96.56941048089705,0.028641509834158727,12.769714173614913,97.4100480496745,17.951056137524297,0.32567589352570847,12.72128349124252,-1.8907950983143238,-0.7679509977910906,-10.828327221401205,-16.4136434932192,5.195059836608061,1.8618596426228229,5272.32691582954,0.28954788829999106,97.4100480496745,2.0890925233692843,1.1112833609973947,89838.70589763943,281.62861684040047,0.0,0.0,0.0,392.625,0.21071898848445217,0.9,nominal,14583.26983237942,nan,fixed_pitch,26.0,12.000000000000002,0.0,-4.831372448713455,0.2594453336994772,7.1840162399945235,-4.250310811749043,0.21937388776954925,6.839583812664312,0.9,0.0,0.0,0.0,0.0,0.0,0.0,-0.07418191789813368,0.003828796634479154,0.11937325699709928,-0.07418191789813368,0.003828796634479154,0.11937325699709928,19.99073228273701,0.15207371302376377,4.252817940715083,-0.008944205294845563,-0.19082406235306937,-0.28552401552423196,1.0,16.580021213173083,-1.4582900724896477,1004.1765733122902,95.50313739605023,0.08559324570877332,12.852354092359594,1004.5778126768063,96.9276644668843,5227.6088999199565,-2.2304518960584496
0.275,26.05187215314178,0.006020450150523802,1003.6081990630668,97.03428339859404,0.016967789092256044,12.739288064122153,97.86696022133933,17.945788162812185,0.40367312068837113,12.98856850155814,-2.3654634208550442,-1.104374718483065,-10.809016546297784,-18.442585333943114,5.519214765454224,2.3164919796877532,5321.737250524602,0.2909071125794638,97.86696022133933,2.1188663319946284,1.111248596919774,89835.23514341371,281.62654670609004,0.0,0.0,0.0,397.6875,0.21343599549929468,0.9,nominal,14631.00529682443,nan,fixed_pitch,26.0,12.000000000000002,0.0,-4.701671845486738,0.29728004656630225,7.552433268889413,-4.47599132861789,0.25832696716792575,7.1960085407768615,0.9,0.0,0.0,0.0,0.0,0.0,0.0,-0.07812078597509767,0.004508656123771595,0.12559404203818886,-0.07812078597509767,0.004508656123771595,0.12559404203818886,20.301555643381686,0.07710281620047305,4.643523849790803,-0.02193093816955897,-0.19016194999480496,-0.3194559730671183,1.0,16.580021213173083,-1.4582900724896477,1004.1765733122902,95.50313739605023,0.08559324570877332,12.852354092359594,1004.5778126768063,97.02069045982226,5347.085671371502,-2.2304518960584496
0.30000000000000004,28.48941468587877,0.005997641578228798,1003.9262028577289,97.50170130947961,-0.0009123428918001615,12.720151786482491,98.32794119957207,17.940452262924705,0.48434194594936086,13.251633712118876,-2.8900828891122243,-1.536688915731818,-10.680680076716882,-20.355030251043633,5.833311760251988,2.8161201348078997,5371.821288888681,0.2922784397115094,98.32794119957205,2.149526912287387,1.1112138858930103,89831.76971110037,281.62447968142476,0.0,0.0,0.0,402.75,0.2161530025141372,0.9,nominal,14679.344907527997,nan,fixed_pitch,26.0,12.000000000000002,0.0,-4.602927508265597,0.33085733160423975,7.932617111850092,-4.539459418441743,0.29459214938608275,7.564312826313477,0.9,0.0,0.0,0.0,0.0,0.0,0.0,-0.07922851311247542,0.005141602957314135,0.13202216447000814,-0.07922851311247542,0.005141602957314135,0.13202216447000814,20.511366064696226,-0.02202562031012594,4.937950860596366,-0.025406311343913905,-0.1876086986980464,-0.3583055731630562,1.0,16.580021213173083,-1.4582900724896477,1004.1765733122902,95.50313739605023,0.08559324570877332,12.852354092359594,1004.1236155941577,97.98927168249024,5349.631383373784,-2.8375819704285337
0.325,30.938699509738523,0.005352865472054347,1004.2440213799639,97.97139295439011,-0.025791044246978038,12.712740889403426,98.79275420557215,17.93504843786185,0.5643523321500353,13.492289719159318,-3.460882491430609,-2.0800325979256873,-9.829129156193623,-22.12418591858098,6.118886563631669,3.357123785737948,5422.559078318917,0.293661166975836,98.79275420557215,2.1803581192201698,1.1111791959180184,89828.30640593733,281.6224138610302,0.0,0.0,0.0,407.8125,0.2188700095289797,0.9,nominal,14728.27377402712,nan,fixed_pitch,26.0,12.000000000000002,0.0,-4.698506034666028,0.35754408865384646,8.320129373819745,-4.618982726553886,0.3260681190199646,7.942221100066611,0.9,0.0,0.0,0.0,0.0,0.0,0.0,-0.08061645667111023,0.005690962262683128,0.1386179081175284,-0.08061645667111023,0.005690962262683128,0.1386179081175284,20.65720911442182,-0.13550772045274262,5.209520888045739,-0.034910188579933166,-0.16900391338839083,-0.3854274714677605,1.0,16.580021213173083,-1.4582900724896477,1004.1765733122902,95.50313739605023,0.08559324570877332,12.852354092359594,1004.1236155941577,98.38013863405462,5466.002596352028,-2.8375819704285337
0.35000000000000003,33.399785458231996,0.0038922089146470567,1004.561930218555,98.44343793973881,-0.05842626229629161,12.716353543643992,99.26136979948585,17.929576687623626,0.6395252220275318,13.697351883496296,-4.073310168295008,-2.7512949451314563,-8.452187038551017,-23.723517362025046,6.362966183598958,3.935334199716931,5473.953102405848,0.29505520791725426,99.26136979948585,2.2108689284488157,1.1111444969138258,89824.84222475078,281.62034745357937,0.0,0.0,0.0,412.875,0.2215870165438222,0.9,nominal,14777.79702021293,nan,fixed_pitch,26.0,12.000000000000002,0.0,-4.94576097373043,0.37417960746465995,8.710558836649959,-4.782371850142159,0.35012386324231226,8.326389968358285,0.9,0.0,0.0,0.0,0.0,0.0,0.0,-0.08346813483967351,0.006110814203380698,0.14532291975287853,-0.08346813483967351,0.006110814203380698,0.14532291975287853,20.936064548583936,-0.21213883305456968,5.479253039270411,-0.04703864512381262,-0.14875695486731713,-0.4115483170045333,1.0,16.580021213173083,-1.4582900724896477,1004.1765733122902,95.50313739605023,0.08559324570877332,12.852354092359594,1005.2757464895045,99.17486650798189,5479.880339805394,-3.829710629544352
0.375,35.87273919691001,0.0014038796792252097,1004.8801711387983,98.91814954712055,-0.09953316941687387,12.729636809735645,99.73391534471158,17.924037012210032,0.7049015952996751,13.866343810833238,-4.722179842149693,-3.5681141072891247,-7.0549525898972725,-25.126785150615223,6.565412606211154,4.54603921559381,5526.023220521174,0.29646094208195467,99.73391534471159,2.241012171141589,1.1111097624939568,89821.37453329175,281.6182788875978,0.0,0.0,0.0,417.9375,0.2243040235586647,0.9,nominal,14827.935065291345,nan,fixed_pitch,26.0,12.000000000000002,0.0,-5.217894692516618,0.3774683048991763,9.099698490037815,-5.000133271329387,0.36379608407074426,8.71304422919805,0.9,0.0,0.0,0.0,0.0,0.0,0.0,-0.0872687886232128,0.006349439472896583,0.15207130967139743,-0.0872687886232128,0.006349439472896583,0.15207130967139743,21.2011652943259,-0.32547050226108054,5.783937137772902,-0.06201636747599599,-0.12291757847956547,-0.4382916989528408,1.0,16.580021213173083,-1.4582900724896477,1004.1765733122902,95.50313739605023,0.08559324570877332,12.852354092359594,1005.2757464895045,99.47020663275649,5458.747088103612,-3.829710629544352
0.4,38.357635223567236,-0.002340355728878673,1005.1989533328864,99.39584106628894,-0.1497694163241553,12.751287763520663,100.2105333374748,17.918429411621066,0.7548761491554267,14.007799672169039,-5.401747342340463,-4.5482148947168595,-5.993855425808255,-26.308560973518844,6.734752989790195,5.184004943971438,5578.791305108391,0.29787879390841115,100.21053333747481,2.2710282710857874,1.1110749698295255,89817.9010525548,281.61620680333624,0.0,0.0,0.0,423.0,0.2270210305735072,0.9,nominal,14878.709811592522,nan,fixed_pitch,26.0,12.000000000000002,0.0,-5.420036170343896,0.36415575991586047,9.483349884393464,-5.210084720836641,0.36397592199330236,9.098197056795756,0.9,0.0,0.0,0.0,0.0,0.0,0.0,-0.09093313268644901,0.0063525782367651685,0.15879349463634349,-0.09093313268644901,0.0063525782367651685,0.15879349463634349,21.420219810802486,-0.49567119636151685,5.95212016241636,-0.07678917166812692,-0.10529900263444521,-0.45965807126134584,1.0,35.63080690696031,-1.610611069313848,1007.35331071747,99.47331556481805,-0.13712745437118204,12.91351864083892,1005.0727825085759,100.11087254353882,5561.906223914063,-7.177673582395486
0.42500000000000004,40.854552038196815,-0.007583278434579685,1005.5184644529767,99.87667258518319,-0.20971690822804046,12.780444803612276,100.69127805946083,17.912753885856727,0.7832744362767586,14.13163126016992,-6.105698638398507,-5.709444709962826,-5.319435209966771,-27.244733027571378,6.880275328907298,5.843517920614512,5632.26972033284,0.29930892555972183,100.69127805946083,2.2732925769067984,1.1110400984446869,89814.41973851188,281.6141299810556,0.0,0.0,0.0,422.97039473684214,0.22700514164359586,0.9,nominal,14930.134388051614,nan,fixed_pitch,26.0,12.000000000000002,0.0,-5.5328673987826065,0.3309426269395493,9.857037575513116,-5.371476059809624,0.3474592744664258,9.477617316154436,0.9,0.0,0.0,0.0,0.0,0.0,0.0,-0.0937499429357298,0.006064308356029794,0.16541562741092328,-0.0937499429357298,0.006064308356029794,0.16541562741092328,21.424955650889363,-0.5596965818763842,6.188246313201911,-0.10022494540703633,-0.0946910455837866,-0.47545892142250407,1.0,35.63080690696031,-1.610611069313848,1007.35331071747,99.47331556481805,-0.13712745437118204,12.91351864083892,1005.0727825085759,100.83963802161293,5625.492863518236,-7.177673582395486
0.45,43.36339681470219,-0.01456157092210833,1005.8388376964676,100.3537910602152,-0.2791316995011458,12.814929739637664,101.16908479814792,17.907078757315638,0.783340405731475,14.244029863964558,-6.827113660330559,-7.070253449183942,-4.877992345221869,-27.91270551975352,7.007399404392911,6.518838685690443,5685.6708285829,0.30073033744683053,101.1690847981479,2.275882350770839,1.1110051338085445,89810.92914069098,281.61204755497295,0.0,0.0,0.0,422.9407894736842,0.2269892527136845,0.9,nominal,14981.501297143486,nan,fixed_pitch,26.0,12.000000000000002,0.0,-5.590132007788107,0.2743010809154638,10.215915807521446,-5.480804033798865,0.3108801776909448,9.738808658077218,0.9,0.0,0.0,1.0,0.0,0.0,0.0,-0.09565807604637677,0.005425882679892009,0.1699742763051781,-0.09565807604637677,0.005425882679892009,0.1699742763051781,21.401546271746426,-0.7844902776722442,6.329992709096444,-0.12223543916553245,-0.08032997684484981,-0.4904464173516522,1.0,35.63080690696031,-1.610611069313848,1007.35331071747,99.47331556481805,-0.13712745437118204,12.91351864083892,1004.4350876971844,101.20457971559986,5630.647321360085,-6.714087362702739
0.47500000000000003,45.88407477125778,-0.023523966738800195,1006.1601985271499,100.82711826222338,-0.3584958326676746,12.854433227290874,101.64385249448831,17.901404025997795,0.747319734767238,14.346893670065475,-7.557010369192086,-8.650041330672671,-4.4920916698183015,-28.234753602772113,7.116230529752716,7.2019606386493695,5738.978461982779,0.30214272954866367,101.64385249448831,2.2787316269183964,1.1109700622356085,89807.42789306137,281.6099587095735,0.0,0.0,0.0,422.91118421052636,0.22697336378377314,0.9,nominal,15032.797285846922,nan,fixed_pitch,26.0,12.000000000000002,0.0,-5.633702806473426,0.18952056524002164,10.549613823417541,-5.557253420136146,0.2502003714654832,9.869404329038609,0.9,0.0,0.0,1.0,0.0,0.0,0.0,-0.09699236954909149,0.004366820271785552,0.17225360075230553,-0.09699236954909149,0.004366820271785552,0.17225360075230553,21.39444552522279,-0.9287365429990077,6.455262521092033,-0.15267980717945784,-0.07616651195279425,-0.49350786465815744,1.0,35.63080690696031,-1.610611069313848,1007.35331071747,99.47331556481805,-0.13712745437118204,12.91351864083892,1004.4350876971844,101.23316103496325,5799.304800832904,-6.714087362702739
0.5,48.416489375643174,-0.034728305595371545,1006.482663569967,101.29658417541572,-0.4481735542628538,12.898601712685561,102.1154873233454,17.895729691903203,0.6663789456503839,14.440124836329263,-8.284289673600624,-10.469231487434522,-4.076593401209848,-28.130314634533097,7.204432984619404,7.88300963902912,5792.177094678555,0.3035458233196693,102.11548732334542,2.2816709425362816,1.1109348710063245,89803.91472606323,281.6078626867952,0.0,0.0,0.0,422.88157894736844,0.22695747485386178,0.9,nominal,15084.009588340574,nan,fixed_pitch,26.0,12.000000000000002,0.0,-5.683599689319219,0.07135105274396959,10.84669543701956,-5.620426554727682,0.1607757121047264,9.934702164519305,0.9,0.0,0.0,1.0,0.0,0.0,0.0,-0.09809494874651932,0.002806065533465978,0.17339326297586924,-0.09809494874651932,0.002806065533465978,0.17339326297586924,21.364445197750058,-1.1790691097348447,6.706725009811731,-0.1832143228267565,-0.07185527370185617,-0.49115826127874646,1.0,35.63080690696031,-1.610611069313848,1007.35331071747,99.47331556481805,-0.13712745437118204,12.91351864083892,1007.2159586315795,101.81841676433666,5783.944693087944,-6.334648372916114
0.525,50.960544439299134,-0.04843289728397822,1006.8063376612296,101.7622025462383,-0.5481836675442668,12.946963650502555,102.58396677923126,17.890055755031856,0.5308399962614195,14.52403504407178,-8.996797233001125,-12.548952878926068,-3.644535169951068,-27.55859179342404,7.269734505070353,8.551341512721264,5845.259170218576,0.30493955217925406,102.58396677923128,2.284552699128842,1.1108995486888662,89800.38849872885,281.60575880520196,0.0,0.0,0.0,422.8519736842105,0.22694158592395042,0.9,nominal,15135.132491306707,nan,fixed_pitch,26.0,12.000000000000002,0.0,-5.735557540673903,-0.08528390008642737,11.098679027942097,-5.677992047700792,0.037745906009149524,9.967351082259652,0.9,0.0,0.0,1.0,0.0,0.0,0.0,-0.09909965613443375,0.0006587903390079721,0.1739630940876511,-0.09909965613443375,0.0006587903390079721,0.1739630940876511,21.273463896995416,-1.34056708325114,6.775202290288037,-0.22088867801250783,-0.06432550468632028,-0.4800866102041622,1.0,35.63080690696031,-1.610611069313848,1007.35331071747,99.47331556481805,-0.13712745437118204,12.91351864083892,1007.2159586315795,103.05658793340275,5749.780543857421,-6.334648372916114
0.55,53.516146196534145,-0.06488946279078112,1007.1313119975523,102.22407028940043,-0.658262620272116,12.998973452911072,103.04934336054265,17.884382215383756,0.3303489236124544,14.600307468255334,-9.68197221190738,-14.910726357146931,-3.2501801470030527,-26.50331486228977,7.310955403596358,9.19609379898444,5898.225711047953,0.30632407245985294,103.04934336054264,2.2872800601370367,1.110864085340994,89796.84821882946,281.6036464720159,0.0,0.0,0.0,422.8223684210526,0.22692569699403903,0.9,nominal,15186.167864320305,nan,fixed_pitch,26.0,12.000000000000002,0.0,-5.774922664986765,-0.2853600220335991,11.298988261501076,-5.726457356343778,-0.12380705801222479,9.983675541129827,0.9,0.0,0.0,1.0,0.0,0.0,0.0,-0.09994553534324913,-0.0021608407995209484,0.17424800964354203,-0.09994553534324913,-0.0021608407995209484,0.17424800964354203,21.29788154554692,-1.637091153129738,6.798854735219266,-0.25538378012888724,-0.056385105568878324,-0.46212120205364554,1.0,35.63080690696031,-1.610611069313848,1007.35331071747,99.47331556481805,-0.13712745437118204,12.91351864083892,1007.4874737161601,103.58353501051677,5953.016088954636,-10.710379643397097
0.5750000000000001,56.08320498910425,-0.08433688948539637,1007.4576641954463,102.68235170280434,-0.7778970677846101,13.054087915763455,103.51173694986939,17.878709072958905,0.053996305270627314,14.671567227875592,-10.327272727072945,-17.576342029378463,-2.9341594676364804,-24.965169442043088,7.327668345022033,9.806566889298391,5951.085634691623,0.3076997407597821,103.51173694986937,2.2897793447701367,1.1108284725033726,89793.2930422028,281.6015251827296,0.0,0.0,0.0,422.79276315789474,0.2269098080641277,0.9,nominal,15237.124545771752,nan,fixed_pitch,26.0,12.000000000000002,0.0,-5.7908080616180575,-0.5338065298389291,11.442416193900522,-5.758632708980918,-0.32880679392557693,9.991837770564914,0.9,0.0,0.0,1.0,0.0,0.0,0.0,-0.10050710118475745,-0.005738761156927809,0.1743904674214875,-0.10050710118475745,-0.005738761156927809,0.1743904674214875,21.33231205016763,-1.890286097823977,6.95472885750982,-0.3060866597011031,-0.04986160789910386,-0.4357415850785454,1.0,35.63080690696031,-1.610611069313848,1007.35331071747,99.47331556481805,-0.13712745437118204,12.91351864083892,1007.4874737161601,103.18029388284762,5990.919014747293,-10.710379643397097
0.6000000000000001,58.66163680617839,-0.10699548551859984,1007.7854593524627,103.13727268296564,-0.9063438413281388,13.111806280654372,103.97133229684292,17.8730363277573,-0.3096038228274027,14.740477413742315,-10.920490355894353,-20.567954486269258,-2.705230122731292,-22.957890094188276,7.319442081063383,10.372513346741753,6003.85563167152,0.30906710646713775,103.97133229684292,2.2919611413162313,1.1107927030836104,89789.72226117195,281.599394514209,0.0,0.0,0.0,422.7631578947369,0.22689391913421636,0.9,nominal,15288.018244749093,nan,fixed_pitch,26.0,12.000000000000002,0.0,-5.781343856361496,-0.8355615941856377,11.524902361704097,-5.769988282671206,-0.5821841940556072,9.995918885282457,0.9,0.0,0.0,1.0,0.0,0.0,0.0,-0.10070529333410583,-0.010161031039339945,0.1744616963104602,-0.10070529333410583,-0.010161031039339945,0.1744616963104602,21.326053507688123,-1.95893556779494,7.016530706965198,-0.3587277881439107,-0.0444432493737003,-0.3978849571207972,1.0,59.77527051617138,-0.03956452108210477,1007.0400131887376,103.25249904465299,-0.9196579753218274,12.984312102593748,1006.7368410802886,104.36817622834612,5945.98486145183,-12.031047289959218
0.625,61.25136506828383,-0.13306166567691827,1008.1147508810528,103.58913048421766,-1.0426472063327372,13.171661143604908,104.42838562840612,17.867363979778947,-0.7722656964160551,14.809163416463566,-11.450014178948882,-23.90831322472964,-2.5539930267599305,-20.506056325944655,7.285472777654265,10.884370173030106,6056.561091544089,0.3104269314153298,104.42838562840612,2.2937064063276718,1.1107567712651116,89786.1352954412,281.59725411927315,0.0,0.0,0.0,422.73355263157896,0.22687803020430497,0.9,nominal,15338.872384205226,nan,fixed_pitch,26.0,12.000000000000002,0.0,-5.750716944584048,-1.1956167409229506,11.543482188933066,-5.760352613627627,-0.8889004674892789,9.997959442641227,0.9,0.0,0.0,1.0,0.0,0.0,0.0,-0.10053711918366287,-0.01551423988020473,0.17449731075494657,-0.10053711918366287,-0.01551423988020473,0.17449731075494657,21.211731490163565,-2.141893049054173,7.1151329999926265,-0.41778033615787513,-0.04240347133227469,-0.35601067146102233,1.0,59.77527051617138,-0.03956452108210477,1007.0400131887376,103.25249904465299,-0.9196579753218274,12.984312102593748,1006.7368410802886,103.79346041517907,6056.4816843598455,-12.031047289959218
0.65,63.85232279002763,-0.16270310823449863,1008.4455805563368,104.03830886975172,-1.185657702303214,13.233187011358613,104.88323381333396,17.86169202902384,-1.3462032089271814,14.879181273841553,-11.905064339793931,-27.62104986732324,-2.475024018040275,-17.643710256918116,7.22479515924702,11.33345312927018,6109.237344313831,0.31178021712926207,104.88323381333396,2.294882546914204,1.110720672501713,89782.5316915563,281.5951037263838,0.0,0.0,0.0,422.7039473684211,0.22686214127439364,0.9,nominal,15389.71922013404,nan,fixed_pitch,26.0,12.000000000000002,0.0,-5.703748807248032,-1.61904614814678,11.496287537417592,-5.732050710437829,-1.2539733078180295,9.998979721320614,0.9,0.0,0.0,1.0,0.0,0.0,0.0,-0.10004315778842021,-0.021885962953548964,0.17451511797718977,-0.10004315778842021,-0.021885962953548964,0.17451511797718977,21.27919708017826,-2.3012357548250377,7.077675119988026,-0.48516052641948937,-0.04435307207613116,-0.3051959409040914,1.0,59.77527051617138,-0.03956452108210477,1007.0400131887376,103.25249904465299,-0.9196579753218274,12.984312102593748,1006.72963423215,105.00881170242454,6055.1692641694135,-12.644642583442439
0.675,66.46445493578202,-0.19605443765429423,1008.777978000214,104.48528583017533,-1.3340531767918242,13.295897755086578,105.33629740030575,17.85602047549198,-2.0440161843867073,14.951780358673888,-12.275893609980898,-31.731006631187736,-2.478754928535117,-14.413413124936435,7.136795756132053,11.712127958668878,6161.93021078543,0.31312821385838324,105.33629740030575,2.2953720297052724,1.1106844035738193,89778.9111285033,281.5929431429986,0.0,0.0,0.0,422.6743421052631,0.22684625234448222,0.9,nominal,15440.60033295863,nan,fixed_pitch,26.0,12.000000000000002,0.0,-5.6428051550191665,-2.1110316154543725,11.382528980790296,-5.687427932728498,-1.682502461636201,9.999489860660308,0.9,0.0,0.0,1.0,0.0,0.0,0.0,-0.09926434339600684,-0.029365207628461287,0.17452402158831137,-0.09926434339600684,-0.029365207628461287,0.17452402158831137,21.21449430700635,-2.3910818254538198,6.961019516859746,-0.5556355773651044,-0.03905303264715567,-0.24939762937221951,1.0,59.77527051617138,-0.03956452108210477,1007.0400131887376,103.25249904465299,-0.9196579753218274,12.984312102593748,1006.72963423215,105.51592891298682,6253.75062271922,-12.644642583442439
0.7000000000000001,69.08772063159043,-0.23321346442338817,1009.1119601487947,104.93062783233633,-1.4863610707637573,13.359285943222854,105.78807327593101,17.85034931918337,-2.8786928206657962,15.028121791142278,-12.55395410409431,-36.264637756392055,-2.589515956387281,-10.865527332512285,7.02166942975726,12.013969864110107,6214.695341040187,0.3144723987535338,105.78807327593101,2.295094534147863,1.110647962646352,89775.27342348841,281.5907722590328,0.0,0.0,0.0,422.64473684210526,0.22683036341457088,0.9,nominal,15491.56602771005,nan,fixed_pitch,26.0,12.000000000000002,0.0,-5.568116415580651,-2.6768957597912055,11.202454304882544,-5.627772174154574,-2.1796991107137034,9.999744930330154,0.9,0.0,0.0,1.0,0.0,0.0,0.0,-0.09822315399111704,-0.03804292618474653,0.17452847339387217,-0.09822315399111704,-0.03804292618474653,0.17452847339387217,21.227433004169043,-2.4835473402402766,6.9583278612416635,-0.6364409582065981,-0.049042653635962614,-0.1910147661514273,1.0,59.77527051617138,-0.03956452108210477,1007.0400131887376,103.25249904465299,-0.9196579753218274,12.984312102593748,1009.8724944280199,105.8959141255114,6328.6852574002905,-12.360742051172634
0.7250000000000001,71.7220949408037,-0.2742379929792452,1009.447531102203,105.37497236853082,-1.6409811422342822,13.422838136335084,106.23911805174238,17.844678560098004,-3.8636313864739495,15.109294451879904,-12.732033202266068,-41.25051813888116,-2.836935457296647,-7.057553164155443,6.8806492470840475,12.233917043925164,6267.596436782227,0.31581442648494246,106.2391180517424,2.2940154897123226,1.1106113492849672,89771.61853355175,281.5885910478357,0.0,0.0,0.0,422.6151315789474,0.22681447448465955,0.9,nominal,15542.673733089447,nan,fixed_pitch,26.0,12.000000000000002,0.0,-5.47979279564948,-3.3221481168822,10.957307059101312,-5.553782484902027,-2.7509236137979514,9.999872465165076,0.9,0.0,0.0,1.0,0.0,0.0,0.0,-0.09693179030113264,-0.048012674531635165,0.17453069929665255,-0.09693179030113264,-0.048012674531635165,0.17453069929665255,21.23160252848616,-2.62618399679421,6.883524782102293,-0.7182217317083627,-0.048264209859082904,-0.1189525810941643,1.0,59.77527051617138,-0.03956452108210477,1007.0400131887376,103.25249904465299,-0.9196579753218274,12.984312102593748,1009.8724944280199,105.45851593122435,6257.184806709675,-12.360742051172634
0.75,74.36757003868475,-0.3191432055130158,1009.7846824424727,105.81900391524185,-1.7962085013508229,13.48605361078818,106.69002575961517,17.839008198235888,-5.012683234891286,15.196179052630523,-12.804364718886669,-46.71997030637098,-3.249027002656242,-3.053390564586811,6.716050980944734,12.368418881941023,6320.7027510201415,0.3171560629415775,106.69002575961517,2.2921450750968657,1.1105745644211935,89767.94655208173,281.5863995641239,0.0,0.0,0.0,422.5855263157895,0.2267985855547482,0.9,nominal,15593.985754368148,nan,fixed_pitch,26.0,12.000000000000002,0.0,-5.3794199295728315,-4.05254282904661,10.649294035118329,-5.466601207237429,-3.4017332214222806,9.999936232582538,0.9,0.0,0.0,1.0,0.0,0.0,0.0,-0.09541018995979,-0.059371444988292096,0.17453181224804276,-0.09541018995979,-0.059371444988292096,0.17453181224804276,21.340927417733777,-2.7252005417858847,6.7332346528363205,-0.8125287809991052,-0.056068478471133665,-0.052587287678958435,1.0,59.77527051617138,-0.03956452108210477,1007.0400131887376,103.25249904465299,-0.9196579753218274,12.984312102593748,1009.5347272887612,107.07722837862265,6257.4696720351485,-11.820688442266917
0.775,77.02415571990201,-0.36789963180993906,1010.1233939078006,106.26342724869087,-1.9502570518769304,13.548458613116944,107.14140284688061,17.83333823359702,-6.340218515590371,15.28929268159566,-12.766715645631349,-52.70780300712583,-3.8502522911905586,1.0775332373737219,6.531253358620069,12.41557724180349,6374.086202733517,0.31849911090313676,107.1414028468806,2.2895345921541432,1.1105376102787003,89764.25770144993,281.5841979395993,0.0,0.0,0.0,422.5559210526316,0.22678269662483683,0.9,nominal,15645.566682864712,nan,fixed_pitch,26.0,12.000000000000002,0.0,-5.270341368866072,-4.874147041854792,10.281543536748167,-5.368471288051751,-4.137940131638536,9.999968116291269,0.9,0.0,0.0,1.0,0.0,0.0,0.0,-0.09369749977528397,-0.07222067954750004,0.17453236872373784,-0.09369749977528397,-0.07222067954750004,0.17453236872373784,21.288441655352916,-2.742809811430873,6.6758574744503045,-0.9170956572862964,-0.0648667680440271,0.019445309559534704,1.0,59.77527051617138,-0.03956452108210477,1007.0400131887376,103.25249904465299,-0.9196579753218274,12.984312102593748,1009.5347272887612,107.35848215315639,6289.049095948383,-11.820688442266917
0.8,79.69187920739968,-0.42043170539973285,1010.4636343036476,106.70893949990692,-2.1012829435917517,13.609615833879152,107.59384184213145,17.8276686661814,-7.861216650011571,15.388701579238516,-12.616442268069886,-59.25315454175162,-4.662816205164215,5.2612635459297294,6.330688162751659,12.375280156661846,6427.818261815556,0.319845331759602,107.59384184213145,2.28637345730502,1.1105004902737312,89760.552323067,281.5819863770263,0.0,0.0,0.0,422.5263157894737,0.22676680769492547,0.9,nominal,15697.480600518664,nan,fixed_pitch,26.0,12.000000000000002,0.0,-5.1570253486195226,-5.793422096346488,9.858030944392684,-5.262748318335636,-4.965681113992511,9.928999530341976,0.9,0.0,0.0,0.0,0.0,0.0,0.0,-0.09185228585875152,-0.0866674850432692,0.1732937332334381,-0.09185228585875152,-0.0866674850432692,0.1732937332334381,21.346324790471055,-2.725313561351704,6.441872240096605,-1.0381428517580724,-0.08405714430756908,0.09142283473805615,1.0,77.05304888426917,-0.40812247244674915,1010.9932863364478,106.63656263808743,-2.0895026392320264,13.824535071725276,1009.953280514471,106.92302887741826,6404.669412562492,-13.481591790102435
0.8250000000000001,82.37078295401354,-0.4766217497319157,1010.8053632883575,107.1561498645544,-2.247601773287313,13.669159388397349,108.0478509083431,17.821999495989026,-9.591670522910645,15.493846612216364,-12.351433468914271,-66.4004436908512,-5.707919223522053,9.4623608374213,6.119825743307215,12.248180794610048,6481.961465866264,0.32119623609751174,108.04785090834307,2.2829664253254456,1.1104632088201432,89756.83085791685,281.57976513862565,0.0,0.0,0.0,422.4967105263158,0.22675091876501408,0.9,nominal,15749.783458847538,nan,fixed_pitch,26.0,12.000000000000002,0.0,-5.046035853496058,-6.817992428816853,9.379573899645996,-5.154392085915847,-5.840681113992512,9.654286714993987,0.9,0.0,0.0,0.0,0.0,0.0,0.0,-0.08996111283796998,-0.10193911599821959,0.16849909010819247,-0.08996111283796998,-0.10193911599821959,0.16849909010819247,21.35379578677971,-2.7079594628023074,6.306039004949464,-1.159889348335972,-0.09958665246562375,0.16402902097345776,1.0,77.05304888426917,-0.40812247244674915,1010.9932863364478,106.63656263808743,-2.0895026392320264,13.824535071725276,1009.953280514471,107.93498831169278,6487.60842986446,-13.481591790102435
0.8500000000000001,85.06092063056184,-0.5363183536728797,1011.1485345658258,107.6055070619322,-2.3878641576385635,13.726851098730807,108.50379480173771,17.8163307230199,-11.548360202835308,15.60317856725041,-11.968069458042011,-74.16354869343212,-7.009979743484371,13.722322241091975,5.905480756704901,12.033672440859547,6536.562101463315,0.32255290819287086,108.50379480173771,2.279330965047196,1.110425770980984,89753.09381177324,281.5775345253221,0.0,0.0,0.0,422.46710526315786,0.2267350298351027,0.9,nominal,15802.516519688757,nan,fixed_pitch,26.0,12.000000000000002,0.0,-4.948139148831123,-7.955305430841705,8.839824337586442,-5.051265617373486,-6.715681113992512,9.247055526290216,0.9,0.0,0.0,0.0,0.0,0.0,0.0,-0.0881612164159514,-0.11721074695316996,0.16139156504850133,-0.0881612164159514,-0.11721074695316996,0.16139156504850133,21.341912482736674,-2.7912411887206465,6.113345605254779,-1.2948651647584979,-0.1246963306351254,0.23600631640569814,1.0,77.05304888426917,-0.40812247244674915,1010.9932863364478,106.63656263808743,-2.0895026392320264,13.824535071725276,1010.4904228420456,108.08102747826773,6584.036397094583,-11.377746292587085
0.875,87.76235643562413,-0.5993298948108529,1011.4930976043944,108.05743220249177,-2.5204616455189237,13.782521542744576,108.96200843036465,17.81066234727402,-13.74772027146371,15.714364933572675,-11.462257550211133,-82.522381332796,-8.606663034942047,18.038044072443867,5.696460026516691,11.731349188309805,6591.663590679703,0.3239163435896436,108.96200843036463,2.2755522282072604,1.1103881822808852,89749.3417364702,281.57529486557144,0.0,0.0,0.0,422.4375,0.22671914090519138,0.9,nominal,15855.71842621156,nan,fixed_pitch,26.0,12.000000000000002,0.0,-4.872473488341713,-9.210422232269066,8.235550066029852,-4.961869552857599,-7.590681113992511,8.741302796160035,0.9,0.0,0.0,0.0,0.0,0.0,0.0,-0.08660096075182391,-0.13248237790812034,0.15256451470677934,-0.08660096075182391,-0.13248237790812034,0.15256451470677934,21.317345652692108,-2.7308975479463276,5.941598115176619,-1.440378166891547,-0.14772943444697437,0.3156328228890717,1.0,77.05304888426917,-0.40812247244674915,1010.9932863364478,106.63656263808743,-2.0895026392320264,13.824535071725276,1010.4904228420456,109.05191328135497,6591.0279950777385,-11.377746292587085
0.9,90.47516308251957,-0.6654198426563643,1011.83900017497,108.51226587581789,-2.643597913820461,13.83610282302371,109.42274990496004,17.80499436875139,-16.205680598578713,15.824354581279362,-10.829918914153012,-91.45656247100528,-10.54279422534859,22.3824342903568,5.503795204561048,11.341748814274636,6647.3007179849055,0.32528730953890844,109.42274990496004,2.271757556422778,1.1103504484291218,89745.57520225648,281.57304649886265,0.0,0.0,0.0,422.40789473684214,0.22670325197528002,0.9,nominal,15909.420029447585,nan,fixed_pitch,26.0,12.000000000000002,0.0,-4.82793429449123,-10.58790886373257,7.565082308558326,-4.894901923674414,-8.465681113992511,8.15319255235918,0.9,0.0,1.0,0.0,0.0,0.0,0.0,-0.0854321551303227,-0.14775400886307072,0.14230005458774786,-0.0854321551303227,-0.14775400886307072,0.14230005458774786,21.3821047943943,-2.6537782284787483,5.779723930916533,-1.5978965980230269,-0.18248197421168502,0.39213373476676805,1.0,77.05304888426917,-0.40812247244674915,1010.9932863364478,106.63656263808743,-2.0895026392320264,13.824535071725276,1011.6750090421032,109.66101431451484,6587.914749233415,-10.892678715201574
0.925,93.1994186169651,-0.7343023439638197,1012.1861918193225,108.97022137782133,-2.7553000522982143,13.887665774098096,109.88615966609554,17.79932678745201,-18.937566439530478,15.92923709241802,-10.067237132822594,-100.94576620275151,-12.861514082076178,26.714631653982153,5.340682894356802,10.86693003574043,6703.494454040335,0.3266662235017735,109.88615966609551,2.268095503253103,1.1103125749412515,89741.79476002771,281.5707897531744,0.0,0.0,0.0,422.3782894736842,0.22668736304536866,0.9,nominal,15963.639761086279,nan,fixed_pitch,26.0,12.000000000000002,0.0,-4.825306835387583,-12.091919935739202,6.827657895528129,-4.860104379530999,-9.232840556996255,7.490425223943655,0.9,0.0,1.0,0.0,0.0,0.0,0.0,-0.08482482341341203,-0.16114346703125182,0.13073258253225037,-0.08482482341341203,-0.16114346703125182,0.13073258253225037,21.37129124759082,-2.596077179267211,5.613773615967351,-1.760281742267608,-0.22584224451814106,0.46645844753294363,1.0,77.05304888426917,-0.40812247244674915,1010.9932863364478,106.63656263808743,-2.0895026392320264,13.824535071725276,1011.6750090421032,111.2141540749928,6740.938657761146,-10.892678715201574
0.9500000000000001,95.93520223129084,-0.8056371578181322,1012.5346279320496,109.43134457302935,-2.853392554172499,13.937444509084683,110.35222418951555,17.793659603375875,-21.956019954850106,16.024036276041357,-9.170801402762406,-110.88998615114583,-15.600338651700012,30.985521266877544,5.222634333598703,10.310808341422483,6760.24721140602,0.32805304526191137,110.35222418951554,2.2647338563515738,1.1102745666938656,89738.00089688376,281.56852491844165,0.0,0.0,0.0,422.34868421052636,0.22667147411545732,0.9,nominal,16018.379400796384,nan,fixed_pitch,26.0,12.000000000000002,0.0,-4.878040549573748,-13.721514014836803,6.0231422529676015,-4.8690724645523735,-9.616420278498127,6.756783738455628,0.9,0.0,1.0,0.0,0.0,0.0,0.0,-0.08498134602463381,-0.1678381961153424,0.1179281230812621,-0.08498134602463381,-0.1678381961153424,0.1179281230812621,21.34387818507341,-2.5296980745556,5.551463408614549,-1.9347010416820822,-0.2740398236545632,0.5419543309729385,1.0,77.05304888426917,-0.40812247244674915,1010.9932863364478,106.63656263808743,-2.0895026392320264,13.824535071725276,1012.8598014398916,109.78561098008268,6785.926410824768,-9.204883846531862
0.9750000000000001,98.68258911047005,-0.8790232581481575,1012.8842741470935,109.89547516716823,-2.9354440132010136,13.98584860175669,110.82073928143407,17.78799281652299,-25.265728464295933,16.102567535532962,-8.137696173611172,-120.98175761014483,-18.790279116574624,35.14142847697206,5.16799786723353,9.679218094236852,6817.537932122321,0.32944716781798694,110.82073928143407,2.261885870329121,1.1102364274461953,89734.1939883801,281.56625221804387,0.0,0.0,0.0,422.31907894736844,0.22665558518554593,0.9,nominal,16073.619694506386,nan,fixed_pitch,26.0,12.000000000000002,0.0,-5.001691001807776,-14.32394487827058,5.1518956596327605,-4.935381733180075,-9.808210139249063,5.954339699044194,0.9,0.0,1.0,0.0,0.0,0.0,0.0,-0.08613866108677658,-0.17118556065738766,0.10392283253052945,-0.08613866108677658,-0.17118556065738766,0.10392283253052945,21.336562992172755,-2.4293213128350684,5.467443382332167,-2.114287350556157,-0.330228704982276,0.6090026083139779,1.0,77.05304888426917,-0.40812247244674915,1010.9932863364478,106.63656263808743,-2.0895026392320264,13.824535071725276,1012.8598014398916,110.51879008837672,6846.08519584156,-9.204883846531862
1.0,101.4416441539803,-0.9539904532646737,1013.2351109028104,110.36220174041044,-2.9986878046606473,14.033470228676357,111.29126645069694,17.782326426893352,-28.866845416900095,16.157274199405798,-6.965583083292386,-131.05466435612956,-22.452043149303904,39.12777194950811,5.1965515101575175,8.980708912138914,6875.316199090593,0.3308472876933233,111.29126645069694,2.259840284124774,1.1101981593423198,89730.37424884501,281.5639717791317,0.0,0.0,0.0,422.2894736842105,0.22663969625563457,0.9,nominal,16129.315094435056,nan,fixed_pitch,26.0,12.000000000000002,0.0,-5.214222589127193,-14.32394487827058,4.2147830059626985,-5.074802161153634,-9.904105069624531,5.084561352503446,0.9,0.0,1.0,0.0,0.0,0.0,0.0,-0.08857200659945479,-0.17285924292841032,0.08874233662084116,-0.08857200659945479,-0.17285924292841032,0.08874233662084116,21.361747642656727,-2.316170733176904,5.4680853162236245,-2.2868991466426816,-0.3916281371217562,0.6838016835134473,1.0,100.40062722336454,-1.65455652520977,1014.4314418892558,110.44053886834656,-2.7647939469328104,13.847773016413516,1014.0729923412332,112.08649673868823,6814.8139021523475,-6.840676568976
1.0250000000000001,104.21241488402433,-1.029988603255924,1013.5871367146901,110.83082920176066,-3.0399259996500128,14.08103247518791,111.76309465651212,17.77666043448696,-32.75670908358795,16.179184542357234,-5.652705286686378,-141.01513631479773,-26.60163425724459,42.891995359423156,5.328577701749654,8.22702753371301,6933.496872777304,0.33225129121837504,111.76309465651212,2.2589611222762014,1.1101597625544135,89726.5416957773,281.5616836113545,0.0,0.0,0.0,422.2598684210526,0.2266238073257232,0.9,nominal,16185.388957863359,nan,fixed_pitch,26.0,12.000000000000002,0.0,-5.534826414017349,-14.32394487827058,3.2129272712690056,-5.304814287585492,-9.952052534812266,4.209561352503447,0.9,0.0,1.0,0.0,0.0,0.0,0.0,-0.09258647552520419,-0.17369608406392162,0.07347070566589078,-0.09258647552520419,-0.17369608406392162,0.07347070566589078,21.303826565646155,-2.2115471969368947,5.82793101475582,-2.464094313758874,-0.46610979257577795,0.7473727776128324,1.0,100.40062722336454,-1.65455652520977,1014.4314418892558,110.44053886834656,-2.7647939469328104,13.847773016413516,1014.0729923412332,111.49260568440573,6898.929516806866,-6.840676568976
1.05,106.99492468917046,-1.1063703836922958,1013.9403664583797,111.30039220584561,-3.0552712174548744,14.12918974758432,112.2352261560982,17.770994839303818,-36.93051212414463,16.158514849958937,-4.198590518267465,-150.8086666955962,-31.257060380159405,46.3479332366738,5.584228565465353,7.434434293743268,6991.957610834358,0.3336562124363487,112.2352261560982,2.2599851517302296,1.1101212354702736,89722.69616857174,281.55938761802054,0.0,0.0,0.0,422.23026315789474,0.22660791839581185,0.9,nominal,16241.731289884323,nan,fixed_pitch,26.0,12.000000000000002,0.0,-5.977122537832388,-14.32394487827058,2.1502407587318557,-5.64096841270894,-9.976026267406132,3.3345613525034463,0.9,0.0,1.0,0.0,0.0,0.0,0.0,-0.09845347180276934,-0.17411450463167727,0.0581990747109404,-0.09845347180276934,-0.17411450463167727,0.0581990747109404,21.252515353886437,-2.1612327247791687,6.159333667451794,-2.6312356839997637,-0.5471395065547402,0.8098928728063083,1.0,100.40062722336454,-1.65455652520977,1014.4314418892558,110.44053886834656,-2.7647939469328104,13.847773016413516,1013.473164739516,111.62965430070103,7005.546639442579,-3.335822598591703
1.075,109.78916388768953,-1.1823757344912953,1014.2948278085241,111.76956794076246,-3.0402140319599784,14.178454005778082,112.70628987336424,17.76532964134392,-41.38179815293044,16.084654530364038,-2.603920410091006,-160.40371051475233,-36.42695500687558,49.41541553293146,5.982600304182042,6.623723309227187,7050.527279813353,0.33505797553181715,112.70628987336424,2.2640850454364605,1.1100825750819623,89718.83736731794,281.55708361924457,0.0,0.0,0.0,422.2006578947369,0.2265920294659005,0.9,nominal,16298.188261637864,nan,fixed_pitch,26.0,12.000000000000002,0.0,-6.555348261506549,-14.32394487827058,1.0307022260735488,-6.098158337107744,-9.988013133703065,2.4595613525034463,0.9,0.0,1.0,0.0,0.0,0.0,0.0,-0.10643294129047244,-0.1743237149155551,0.042927443755990016,-0.10643294129047244,-0.1743237149155551,0.042927443755990016,21.103468080244777,-2.005971072742206,6.587388664949308,-2.800582038714381,-0.63488535723286,0.864662654172353,1.0,100.40062722336454,-1.65455652520977,1014.4314418892558,110.44053886834656,-2.7647939469328104,13.847773016413516,1013.473164739516,112.96280335377426,6976.020465696391,-3.335822598591703
1.1,112.595079532855,-1.257115115918428,1014.6505529747109,112.2366258066188,-2.9895752570853023,14.22900664747157,113.17447752407138,17.759664840607275,-46.10280697635258,15.946010891855444,-0.8702651188738806,-169.78433291255507,-42.11163324060921,52.02850549812275,6.540846403653669,5.819995468355043,7108.976975090759,0.33645120488588254,113.17447752407138,2.2730093093236334,1.1100437778873042,89714.96494278578,281.5547714056644,0.0,0.0,0.0,422.17105263157896,0.22657614053598915,0.9,nominal,16354.554026752718,nan,fixed_pitch,26.0,12.000000000000002,0.0,-7.285848882762565,-14.32394487827058,-0.14218558196777545,-6.6920036099351545,-9.994006566851533,1.5845613525034463,0.9,0.0,1.0,0.0,0.0,0.0,0.0,-0.11679749654871477,-0.17442832005749404,0.027655812801039632,-0.11679749654871477,-0.17442832005749404,0.027655812801039632,20.96040464444269,-1.823322023860621,7.212303856471445,-2.9651429649749206,-0.7324097720607573,0.9099373715673049,1.0,100.40062722336454,-1.65455652520977,1014.4314418892558,110.44053886834656,-2.7647939469328104,13.847773016413516,1014.6493198885411,113.63829248606332,7061.674148599559,-0.4224790090901577
1.125,115.41256394865187,-1.3295524205251912,1015.0075640562889,112.69937663187463,-2.8974921842705306,14.280443263119379,113.6374762741685,17.754000437093875,-51.08479811305959,15.729877669464253,1.000404668941452,-178.94722569499095,-48.31570313564678,54.14048863301878,7.27361546317994,5.052203581919081,7167.010447963217,0.33782902479427657,113.6374762741685,2.289217849747338,1.1100048414871653,89711.07865585314,281.5524508336341,0.0,0.0,0.0,422.1414473684211,0.2265602516060778,0.9,nominal,16410.561935033707,nan,fixed_pitch,26.0,12.000000000000002,0.0,-8.186914387292697,-14.32394487827058,-1.3663132819644939,-7.439458998613927,-9.997003283425766,0.7095613525034464,0.9,0.0,1.0,0.0,0.0,0.0,0.0,-0.12984305409293329,-0.17448062262846348,0.012384181846089248,-0.12984305409293329,-0.17448062262846348,0.012384181846089248,20.79413950708648,-1.6903281931430307,8.150412344808965,-3.126561471959447,-0.8389206809879753,0.9479333894267983,1.0,100.40062722336454,-1.65455652520977,1014.4314418892558,110.44053886834656,-2.7647939469328104,13.847773016413516,1014.6493198885411,113.21616353518843,7190.30355962766,-0.4224790090901577
1.1500000000000001,118.24144174878144,-1.3984890785687192,1015.365850944314,113.15511200518287,-2.7574663217411204,14.33147552100835,114.09239319091469,17.74833643080372,-56.31842779695571,15.422256057975755,3.006542215920077,-187.90089586205633,-55.06612410615369,55.72801785172505,8.192950368385741,4.352512143438988,7224.2533653557875,0.3391828347505453,114.0923931909147,2.3163022324489515,1.1099657669952758,89707.17861802578,281.55012196886196,0.0,0.0,0.0,422.1118421052631,0.2265443626761664,0.9,nominal,16465.874614178196,nan,fixed_pitch,26.0,12.000000000000002,0.0,-9.279355252670314,-14.32394487827058,-2.6423878810180654,-8.314458998613926,-9.998501641712881,-0.16543864749655365,0.9,0.0,1.0,0.0,0.0,0.0,0.0,-0.14511468504788366,-0.1745067739139482,-0.0028874491088611356,-0.14511468504788366,-0.1745067739139482,-0.0028874491088611356,20.666934236463675,-1.6265947686446378,9.26430872006171,-3.279763455224731,-0.9592837101429134,0.9699642534478976,1.0,100.40062722336454,-1.65455652520977,1014.4314418892558,110.44053886834656,-2.7647939469328104,13.847773016413516,1015.4761798383089,114.59517109590551,7107.126148904509,4.385516311281484
1.175,121.0814539902514,-1.4625469904762671,1015.7253438624762,113.60048965879865,-2.562316476301922,14.37971672648618,114.53564060840422,17.742672821736818,-61.79271069361368,15.004337214433829,5.1428103736776025,-196.66590404656503,-62.189060597980486,56.79367365115841,9.30254379437136,3.7552842607228336,7280.23750332156,0.3405019685029911,114.53564060840422,2.3596991388702233,1.1099265620322993,89703.26559025807,281.5477852648939,0.0,0.0,0.0,422.08223684210526,0.22652847374625507,0.9,nominal,16520.069428177718,nan,fixed_pitch,26.0,12.000000000000002,0.0,-10.62185995698076,-14.32394487827058,-3.956038461768652,-9.157229499306963,-9.999250820856442,-1.0404386474965537,0.9,1.0,1.0,0.0,0.0,0.0,0.0,-0.1598238051236583,-0.1745198495566906,-0.01815908006381152,-0.1598238051236583,-0.1745198495566906,-0.01815908006381152,20.56060972138681,-1.6118217950662475,10.706246794343553,-3.435386312831467,-1.0860089334946834,0.9895995841552443,1.0,100.40062722336454,-1.65455652520977,1014.4314418892558,110.44053886834656,-2.7647939469328104,13.847773016413516,1015.4761798383089,114.39573140718183,7272.519479856196,4.385516311281484
1.2000000000000002,123.93223922125831,-1.5201474703325726,1016.0858804693538,114.03140924027647,-2.3040191942522195,14.42146427510464,114.96281759599063,17.73700960989316,-67.48945399823663,14.443436076978108,7.378538749130632,-205.27441546404518,-68.62784213959893,57.379841688293176,10.57501592303253,3.294313456654147,7334.3843185122205,0.3417733414933352,114.96281759599064,2.3926776871697197,1.1098872443125134,89699.34134090622,281.5454417769492,0.0,0.0,0.0,422.0526315789474,0.2265125848163437,0.9,nominal,16572.623314509292,nan,fixed_pitch,26.0,12.000000000000002,0.0,-12.371565815055606,-14.32394487827058,-5.213317076084533,-9.57861474965348,-9.99962541042822,-1.9154386474965537,0.9,1.0,1.0,0.0,0.0,0.0,0.0,-0.1671783651615456,-0.17452638737806175,-0.033430711018761904,-0.1671783651615456,-0.17452638737806175,-0.033430711018761904,19.96996738755613,-1.5398490666043199,12.15319050189423,-3.5826609578130406,-1.2008734953619502,1.0037647311345124,1.0,123.34559620797395,-2.1095207299407353,1016.1737785050152,113.96800173498643,-2.259727494870247,14.46668930545298,1015.263020550553,114.30024853075679,7452.233788530348,6.788223375542627
1.225,126.79326171129796,-1.569716577146968,1016.4470545369056,114.44089960158578,-1.9827642725758194,14.446962702071875,115.36622377063355,17.731346795272753,-73.3777778713882,13.69353345679161,9.632770051984421,-213.7661237201895,-72.45841177517998,57.622490030489026,11.935033100045757,2.996677831070751,7385.685445046052,0.3429740589732035,115.36622377063354,2.396881791047371,1.10984785814387,89695.41029251466,281.5430941455101,0.0,0.0,0.0,422.0230263157895,0.22649669588643234,0.9,nominal,16622.623300922292,nan,fixed_pitch,26.0,12.000000000000002,0.0,-14.687679342939461,-14.32394487827058,-6.219303590965585,-9.789307374826741,-9.99981270521411,-2.7904386474965537,0.9,1.0,1.0,0.0,0.0,0.0,0.0,-0.1708556451804893,-0.17452965628874734,-0.04870234197371229,-0.1708556451804893,-0.17452965628874734,-0.04870234197371229,19.356133154349422,-1.5834818597778968,13.233647040687629,-3.728659938080451,-1.2631221794546097,1.0057141093302897,1.0,123.34559620797395,-2.1095207299407353,1016.1737785050152,113.96800173498643,-2.259727494870247,14.46668930545298,1015.263020550553,115.37971393341051,7388.279617998332,6.788223375542627
1.25,129.66382478461296,-1.6098997991530335,1016.8081597816429,114.82252293259984,-1.607328880242616,14.444209789490566,115.73863000389927,17.72568437787559,-79.42810927230848,12.723795233534208,11.821174658670598,-222.1821513481263,-73.8114584865615,57.8083148465418,13.310514107345352,2.876126237138816,7433.181170981734,0.34408262560088265,115.73863000389929,2.412792045941657,1.109808480549354,89691.48013265667,281.5407469614193,0.0,0.0,0.0,421.9934210526316,0.226480806956521,0.9,nominal,16669.196977712396,nan,fixed_pitch,26.0,12.000000000000002,0.0,-17.435726881055547,-14.32394487827058,-6.927788098037466,-9.894653687413369,-9.999906352607054,-3.6654386474965532,0.9,1.0,1.0,0.0,0.0,0.0,0.0,-0.1726942851899611,-0.17453129074409013,-0.06397397292866266,-0.1726942851899611,-0.17453129074409013,-0.06397397292866266,18.68011858068617,-1.6923638196079334,14.464312567330891,-3.8753741797527694,-1.2880653858757718,1.0068147621442516,1.0,123.34559620797395,-2.1095207299407353,1016.1737785050152,113.96800173498643,-2.259727494870247,14.46668930545298,1015.3423279766217,114.66876623907741,7514.695370740607,11.932237513796052
1.2750000000000001,132.5431844324875,-1.6393805903088206,1017.1683122305825,115.17438591498129,-1.1792316462314847,14.406097957585624,116.077842056665,17.72002235770168,-85.6123492712461,11.516690114427062,13.844207890248159,-230.57058438309397,-72.26187633111692,58.249130985648996,14.61151426604807,2.9306186317351397,7476.551452379387,0.3450925133576232,116.077842056665,2.4391233997492368,1.1097692079193853,89687.56048163083,281.5384059705012,0.0,0.0,0.0,421.9638157894737,0.22646491802660962,0.9,nominal,16712.046337402076,nan,fixed_pitch,26.0,12.000000000000002,0.0,-20.05352282957881,-14.32394487827058,-7.248273654952366,-9.947326843706685,-9.999953176303528,-4.540438647496553,0.9,1.0,1.0,0.0,0.0,0.0,0.0,-0.17361360519469704,-0.17453210797176155,-0.07924560388361304,-0.17361360519469704,-0.17453210797176155,-0.07924560388361304,18.16745712043207,-1.8161210024017926,15.534576452189569,-4.023624843750653,-1.2605749479827477,1.0179457614026215,1.0,123.34559620797395,-2.1095207299407353,1016.1737785050152,113.96800173498643,-2.259727494870247,14.46668930545298,1015.3423279766217,116.19059929135399,7374.650794098953,11.932237513796052
