time_s,x_m,y_m,altitude_m,vx_mps,vy_mps,vz_mps,speed_mps,mass_kg,roll_deg,pitch_deg,yaw_deg,p_dps,q_dps,r_dps,alpha_deg,beta_deg,qbar_pa,mach,airspeed_mps,load_factor_g,density_kgpm3,pressure_pa,temperature_k,wind_x_mps,wind_y_mps,wind_z_mps,thrust_n,mass_flow_kgps,propulsion_throttle_actual,propulsion_health,energy_j_per_kg,target_distance_m,guidance_mode,pitch_command_deg,heading_command_deg,roll_command_deg,elevator_command_deg,aileron_command_deg,rudder_command_deg,elevator_deg,aileron_deg,rudder_deg,throttle,elevator_saturated,aileron_saturated,rudder_saturated,elevator_failed,aileron_failed,rudder_failed,elevator_raw_rad,aileron_raw_rad,rudder_raw_rad,elevator_effective_rad,aileron_effective_rad,rudder_effective_rad,imu_ax_mps2,imu_ay_mps2,imu_az_mps2,gyro_p_rps,gyro_q_rps,gyro_r_rps,gps_valid,gps_x_m,gps_y_m,gps_z_m,gps_vx_mps,gps_vy_mps,gps_vz_mps,baro_alt_m,pitot_airspeed_mps,pitot_qbar_pa,mag_heading_deg
0.0,0.0,-120.0,1000.0,88.0,4.0,14.0,89.19641248391103,18.0,-5.018455958195359e-17,8.000000000000004,3.0000000000000004,0.0,0.0,0.0,-0.6802501273997699,-6.663809789559333,4603.010869089943,0.2704914765006901,91.00252169218186,1.7964389517083164,1.1116425003060326,89874.56291621955,281.65,-1.7826439091004773,9.86942436359809,0.3586780454497614,334.4,0.17947005348411538,0.88,nominal,13784.65,1538.473269186046,target_intercept,18.965424854227184,4.730938623779238,0.0,-20.05352282957881,-0.0,5.342830552065215,-2.6999999999999997,0.0,2.6999999999999997,0.88,0.0,0.0,0.0,0.0,0.0,0.0,-0.047123889803846894,0.0,0.047123889803846894,-0.047123889803846894,0.0,0.047123889803846894,17.50544931893502,1.6044302316757102,-0.7617014070394992,0.0011795551696321186,0.002982802560093238,0.0017401726722909368,1.0,-0.7658830172640091,-121.33930817381692,1000.335930710274,88.01166284655733,4.253777560437563,14.24831216786183,1001.3249718431521,91.52995941362157,4677.67612456939,4.278327064146713
0.03,2.6556207227512005,-119.87772995620709,1000.412670722683,88.52069075837335,4.0756681264304575,13.755690756098712,89.67576479291262,17.994615898395477,0.0801329894564675,8.388483675084816,2.816953163926686,1.801441826976003,-12.953726625800904,-6.03025107087283,-0.08687218635435189,-6.530532181287751,4647.094589951899,0.271790460867151,91.43910873750103,1.8320498080000354,1.1115974440580425,89870.06428207623,281.64731764030256,-1.737654675042008,10.04690527549587,0.38086315943698384,340.34,0.1826580083815306,0.88,nominal,13831.568312939491,1535.8267877398612,target_intercept,18.98307577992858,4.734772278224343,0.0,-2.8523450499033633,0.16160152873722106,1.3038320027208683,-2.791407029942018,0.09696091724233263,1.862299201632521,0.88,0.0,0.0,0.0,0.0,0.0,0.0,-0.04871924343580415,0.001692287251632445,0.03250325272574925,-0.04871924343580415,0.001692287251632445,0.03250325272574925,17.946637923974524,1.488038726921636,-0.38386653317068614,0.03446754386968663,-0.22632873747137552,-0.10078787035416817,1.0,-0.7658830172640091,-121.33930817381692,1000.335930710274,88.01166284655733,4.253777560437563,14.24831216786183,1001.3249718431521,91.83186564416951,4573.010823783559,4.278327064146713
0.06,5.327139326819664,-119.75330376984037,1000.8185346231006,89.05062013561542,4.147539545557278,13.528796680588423,90.16786218184579,17.98913615814403,0.24309973185080136,9.096114842709524,2.4634543501538997,3.6412368965774617,-23.62077182815789,-11.580076042681743,0.80736692709408,-6.224963091382337,4693.001291224851,0.27313633708885476,91.89147469922733,1.8563688891423453,1.1115531323557926,89865.64002877621,281.6446795249498,-1.6959898592719087,10.211129355173762,0.40139116939672026,346.28000000000003,0.1858459632789458,0.88,nominal,13879.798767783797,1533.167526236207,target_intercept,19.001223016717585,4.738586963451582,0.0,0.1832493985628429,0.35669614347165224,1.9083916949183908,-1.0066131728391015,0.25280205297992436,1.8899546976040429,0.88,0.0,0.0,0.0,0.0,0.0,0.0,-0.017568714159989077,0.004412228180300823,0.03298593218672433,-0.017568714159989077,0.004412228180300823,0.03298593218672433,18.139376823961506,1.4505205010505133,0.595657868779588,0.06199572171050795,-0.4136332744008664,-0.19807268545550968,1.0,-0.7658830172640091,-121.33930817381692,1000.335930710274,88.01166284655733,4.253777560437563,14.24831216786183,1001.2146557877347,91.58508280081656,4667.4848017530385,3.2040909106981137
0.09,8.014624875394958,-119.62685350696138,1001.2186420022928,89.5828516191765,4.215008762632771,13.336912639740113,90.66822399193956,17.983560779245664,0.4940020292962969,9.785929640645335,1.9434566356096483,5.520129567946469,-23.1036330601625,-16.95065726976324,1.655734031599427,-5.754645570299925,4740.299603466154,0.27451594723233663,92.35519162952107,1.8830012373952283,1.1115094504659275,89861.2786989651,281.6420788269851,-1.657826517677134,10.361382077277707,0.42017275965971335,352.22,0.18903391817636103,0.88,nominal,13928.964216518045,1530.495099384268,target_intercept,19.019833143378317,4.742388138765958,0.0,0.4012565093700174,0.5910712059961799,2.572348270948696,-0.16189136351363015,0.4557635447896776,2.299390841610834,0.88,0.0,0.0,0.0,0.0,0.0,0.0,-0.0028255373238558618,0.007954574467140521,0.040131940976312494,-0.0028255373238558618,0.007954574467140521,0.040131940976312494,18.334926957285273,1.445589374904445,1.3501637977210987,0.0967195303873774,-0.4058995548284402,-0.29991509870668903,1.0,-0.7658830172640091,-121.33930817381692,1000.335930710274,88.01166284655733,4.253777560437563,14.24831216786183,1001.2146557877347,92.84753452960541,4802.292394526872,3.2040909106981137
0.12,10.718133968376248,-119.49856880331053,1001.6139365795917,90.11696976604301,4.276156788361481,13.176485909964528,91.17550952765801,17.977889761700375,0.8353419561163263,10.26707116188271,1.260620512495861,7.415117710852363,-16.29710080876531,-22.22651461913373,2.2731803346835044,-5.12479128484196,4788.903851943406,0.27592633588674675,92.82926417071062,1.9117593488797395,1.1114662953053893,89856.96999892435,281.63950941223266,-1.623326668962608,10.497009704672017,0.4371262130840022,358.16,0.19222187307377622,0.88,nominal,13978.96407997228,1527.8091719993056,target_intercept,19.03887611587909,4.746183538881737,0.0,-1.0877824074639821,0.8612695626741391,3.2949538663608946,-0.7174259898838413,0.6990671555203545,2.8967286564608705,0.88,0.0,0.0,0.0,0.0,0.0,0.0,-0.012521445662852562,0.01220102355638144,0.0505574525921139,-0.012521445662852562,0.01220102355638144,0.0505574525921139,18.56822262085587,1.3210418132020447,1.757783844367564,0.12798194796012075,-0.27936384498393224,-0.39059065749693006,1.0,-0.7658830172640091,-121.33930817381692,1000.335930710274,88.01166284655733,4.253777560437563,14.24831216786183,1000.5136716452788,92.86380428908164,4796.070823053091,1.654374487121228
0.15,13.4377992888348,-119.36871115984722,1002.0050129151407,90.65551068195168,4.328588115443523,13.035877851632026,91.69019796816497,17.97212310550816,1.2662999901085688,10.56416446739224,0.4190180146795644,9.293481047560157,-10.407500679030589,-27.405548145397216,2.6969524533295717,-4.340122817916735,4838.927015662292,0.2773702845099764,93.31462737523931,1.9410893222797059,1.1114236019207888,89852.7074422238,281.63696741605156,-1.592636947428426,10.61742213279545,0.45217776659943126,364.1,0.19540982797119144,0.88,nominal,14029.858661624905,1525.1094560318345,target_intercept,19.058334973688588,4.749984053468599,0.0,-2.4746044610270728,1.1614683865250632,4.07341376936649,-1.7717330725697802,0.9765078941231796,3.602739724204242,0.88,0.0,0.0,0.0,0.0,0.0,0.0,-0.030922575582818294,0.01704327792416567,0.06287967027975647,-0.030922575582818294,0.01704327792416567,0.06287967027975647,18.85535320817292,1.2837698869952532,2.0296093094499383,0.1602193178723486,-0.18336909791019665,-0.4779696354985987,1.0,-0.7658830172640091,-121.33930817381692,1000.335930710274,88.01166284655733,4.253777560437563,14.24831216786183,1000.5136716452788,93.55140235872406,4764.936777768191,1.654374487121228
0.18,16.17381447468421,-119.23762093681344,1002.3922328309649,91.2005061949803,4.369674101126234,12.907330527471,92.21293598685642,17.966260810669024,1.7847276071980882,10.783339353850975,-0.5774534295593087,11.128694412717282,-8.172268574455096,-32.43592028404107,3.0444997081198193,-3.40679576142697,4890.501391901473,0.27885105318927467,93.81237754334956,1.971086971143683,1.1113813307735092,89848.48708008826,281.6344504865987,-1.5658877864642469,10.722095457157224,0.46526193214465283,370.04,0.19859778286860666,0.88,nominal,14081.722571749822,1522.395687885282,target_intercept,19.078201617733836,4.753803986592417,0.0,-3.020687140021792,1.4887006910018705,4.90657178775087,-2.5211055130409874,1.2838235722503941,4.385038962332219,0.88,0.0,0.0,0.0,0.0,0.0,0.0,-0.044001591992746066,0.022406948350484686,0.07653336772093283,-0.044001591992746066,0.022406948350484686,0.07653336772093283,19.171695992239417,1.0935994950102221,2.2994464977127524,0.19344518833216404,-0.14156737313696963,-0.566429402021419,1.0,-0.7658830172640091,-121.33930817381692,1000.335930710274,88.01166284655733,4.253777560437563,14.24831216786183,1002.570478137239,93.51275236780657,4914.834924636301,-0.7591938315291454
0.21,18.926383370118607,-119.10572288522756,1002.7759182313494,91.7522965144799,4.396601719529418,12.789513346150292,92.74365570750683,17.960302877182965,2.388249936728515,10.990068036322672,-1.7234754782088946,12.902336730203913,-8.252258221244125,-37.23891920664627,3.389397560022884,-2.3336261507170333,4943.683512488886,0.28036967118935924,94.32286049366354,2.0019376912712685,1.111339446687382,89844.3053994377,281.6319565314962,-1.5431925594524727,10.810574252802013,0.47632178160025157,375.98,0.20178573776602185,0.88,nominal,14134.565295519744,1519.6676139632702,target_intercept,19.098469387900156,4.75766114342374,0.0,-3.0281951541759016,1.8417580270723515,5.788421929034815,-2.8253592977219357,1.6185842451435686,5.227068742353777,0.88,0.0,0.0,0.0,0.0,0.0,0.0,-0.0493118222970825,0.02824962429866231,0.09122955978215258,-0.0493118222970825,0.02824962429866231,0.09122955978215258,19.408454393418634,1.0360249138082152,2.569930229102038,0.22571552875923753,-0.14592498330425094,-0.649022291738868,1.0,17.59275952714144,-122.13755809094354,1002.9559801860236,91.63206480436072,4.506512123634484,12.686456100623772,1002.570478137239,94.12834219694189,4975.606787172167,-0.7591938315291454
0.24,21.695688775703836,-118.97352931786457,1003.1564371085694,92.31018018617426,4.40645224543305,12.683962574001796,93.28166536878466,17.954249305049984,3.073597611312737,11.185789771284131,-3.0100950002877767,14.596763704010252,-8.52203134818362,-41.73014347153323,3.7399913083045733,-1.1321420893993075,4998.4628489888755,0.2819252406555422,94.84577365898761,2.033512809540641,1.1112979094597544,89840.15838549218,281.6294831587943,-1.5246469553806015,10.882473555826179,0.4853091944782724,381.92,0.20497369266343707,0.88,nominal,14188.338620957711,1516.9249922546965,target_intercept,19.119129617069813,4.761576888422611,0.0,-3.02991576911974,2.2180052882665113,6.705529572132335,-2.948093180560618,1.9782368710173341,6.114145240220911,0.88,0.0,0.0,0.0,0.0,0.0,0.0,-0.051453932656374476,0.03452674678360287,0.10671196538699454,-0.051453932656374476,0.03452674678360287,0.10671196538699454,19.690491566756318,0.8186408830070101,2.952091519345396,0.25462018112204343,-0.14783261710976034,-0.7265099825474414,1.0,17.59275952714144,-122.13755809094354,1002.9559801860236,91.63206480436072,4.506512123634484,12.686456100623772,1003.8560258588434,94.83998136497235,5113.775419796175,-2.447552122885478
0.27,24.48188911577452,-118.8416394874837,1003.5341818179468,92.87334466902283,4.396327679362244,12.591490312578475,93.82607033957672,17.94810009427008,3.835615073313491,11.34659156907519,-4.424372832025996,16.1900909764022,-8.136482672281886,-45.8298295855247,4.0799667197563405,0.1838915190862891,5054.80527322178,0.2835162074505235,95.3805936578145,2.0655595115721472,1.1112566762334892,89836.04175860468,281.6270278181833,-1.510328592692133,10.937480538323786,0.4921850672904733,387.86,0.20816164756085226,0.88,nominal,14242.974221808567,1514.16760246618,target_intercept,19.140172347723034,4.765576145841482,0.0,-3.2505138287729216,2.6124943789943007,7.6418508084566055,-3.129545569488,2.358791375803514,7.030768581162327,0.88,0.0,0.0,0.0,0.0,0.0,0.0,-0.05462087427876659,0.041168675875418226,0.12271006068705279,-0.05462087427876659,0.041168675875418226,0.12271006068705279,19.996869994950224,0.6423139682906682,3.1835015821706993,0.2821292082011349,-0.13924528316240126,-0.8015474864414877,1.0,17.59275952714144,-122.13755809094354,1002.9559801860236,91.63206480436072,4.506512123634484,12.686456100623772,1003.8560258588434,95.86968734156005,5134.8867571571855,-2.447552122885478
0.3,27.28512406577797,-118.7107357399692,1003.9095223922833,93.44116500011505,4.363458250483622,12.511352477883202,94.37597695021903,17.941855244843257,4.667133502231966,11.459303310579,-5.950733013702221,17.65772138016033,-7.444303462092106,-49.46194776605768,4.404458049478935,1.5987333996746529,5112.6728794684195,0.28514093285398207,95.92676867987855,2.0980316552889455,1.111215706593068,89831.95148304605,281.62458810445014,-1.5002967490428538,10.975355869474885,0.49691948368436056,393.8,0.21134960245826748,0.88,nominal,14298.401830422421,1511.3952557016664,target_intercept,19.161588063405613,4.769687301740485,0.0,-3.607868102802856,3.0193607739786614,8.583833432686554,-3.4165390894769136,2.755133014708602,7.962607492076863,0.88,0.0,0.0,0.0,0.0,0.0,0.0,-0.05962985613446129,0.04808614243706247,0.13897371778070955,-0.05962985613446129,0.04808614243706247,0.13897371778070955,20.2711817226377,0.3298918529504497,3.590101148443054,0.3067080262650256,-0.12777221528019658,-0.8631192670393903,1.0,17.59275952714144,-122.13755809094354,1002.9559801860236,91.63206480436072,4.506512123634484,12.686456100623772,1003.6233523700214,95.57098830449954,5021.970842158328,-4.98536451603806
0.32999999999999996,30.105512977066354,-118.58157814939865,1004.2827909976843,94.01296370961282,4.305253019018248,12.44228684670027,94.9304116234535,17.93551475676951,5.559517497725137,11.528024445969313,-7.572101393354628,18.976491819764004,-7.002235656981779,-52.550861839795196,4.725390373529779,3.09460058972324,5172.013205067365,0.28679739872038224,96.48361931408405,2.1311784930476785,1.1111749642607813,89827.88393633188,281.622161858515,-1.4945921242899574,10.995934756854064,0.49949184460675794,399.74,0.21453755735568267,0.88,nominal,14354.541357836597,1508.6078006743726,target_intercept,19.183368233155207,4.773942020642211,0.0,-3.9557998698208587,3.4331377833590673,9.52033316335638,-3.740095557683281,3.161935875898881,8.897242894844572,0.88,0.0,0.0,0.0,0.0,0.0,0.0,-0.06527698182078676,0.05518619177136629,0.1552861828647094,-0.06527698182078676,0.05518619177136629,0.1552861828647094,20.511525411207913,0.0330523076294855,3.776602117959937,0.32968845852485185,-0.12276843847868045,-0.9194197012847967,1.0,17.59275952714144,-122.13755809094354,1002.9559801860236,91.63206480436072,4.506512123634484,12.686456100623772,1003.6233523700214,96.44203558976648,5248.736126631166,-4.98536451603806
0.36,32.94314454204936,-118.4549984769225,1004.6542969943309,94.5877188327668,4.219322415871952,12.383533221556075,95.4881727267048,17.92907863004884,6.50311973349953,11.562498847935931,-9.26980131668774,20.126764054719185,-6.968999835503127,-55.021912559930016,5.0586984518826,4.651599666607415,5232.741258140956,0.2884827251889831,97.050176284978,2.165348292221784,1.1111344154522762,89823.83574502925,281.6197470695368,-1.4932366386513456,10.999127663428633,0.4998909579285791,405.68,0.21772551225309789,0.88,nominal,14411.28862696196,1505.8051280795678,target_intercept,19.205504653077373,4.778375004032308,0.0,-4.241834599994523,3.848762299682177,10.4392551392976,-4.041138983070026,3.574031730168859,9.822450241516389,0.88,0.0,0.0,0.0,0.0,0.0,0.0,-0.07053118078526735,0.062378621262196135,0.1714340973277732,-0.07053118078526735,0.062378621262196135,0.1714340973277732,20.84111910533841,-0.25060261422525865,4.1261832599497215,0.3483141902903901,-0.12391186775428313,-0.9603047668104446,1.0,17.59275952714144,-122.13755809094354,1002.9559801860236,91.63206480436072,4.506512123634484,12.686456100623772,1004.4725844830351,96.43394205921743,5199.472791719194,-7.878712232731378
0.39,35.798064894099724,-118.33189291681154,1005.024346706176,95.16401173501214,4.10351867036527,12.334990394835533,96.04780051110097,17.922546864681244,7.487355919949497,11.568081619180028,-11.022863048999472,21.091822233418156,-7.15749818506514,-56.805193609535934,5.413672155219086,6.247893269622705,5294.734299508328,0.290193055389583,97.62514165022465,2.200804801075634,1.1110940267184377,89819.8035692918,281.6173417464098,-1.4962333056590293,10.984920697126826,0.4981150871408533,411.62,0.2209134671505131,0.88,nominal,14468.512001136245,1502.9871747597172,target_intercept,19.227988592256885,4.783023692251652,0.0,-4.499554781387713,4.260968216065601,11.325700219408347,-4.316188462060638,3.9861936217069043,10.724400228251563,0.88,0.0,0.0,0.0,0.0,0.0,0.0,-0.07533169979954848,0.06957220332078279,0.18717609428462118,-0.07533169979954848,0.06957220332078279,0.18717609428462118,21.060219210692154,-0.5933115783460928,4.494083007216406,0.3706018350673018,-0.12735345150760397,-0.9916672607042337,1.0,17.59275952714144,-122.13755809094354,1002.9559801860236,91.63206480436072,4.506512123634484,12.686456100623772,1004.4725844830351,97.33617826437096,5271.3456735169675,-7.878712232731378
0.42,38.6702700119063,-118.21321275656429,1005.3932514378353,95.74017059355235,3.9560053415750454,12.296824388644193,96.607671194322,17.91591946066673,8.500664860359512,11.54483933710905,-12.80781675054119,21.856744904703117,-7.340210289947253,-57.838920105165364,5.791788037264157,7.860064163765315,5357.840200884904,0.2919238147652212,98.20697603764587,2.2156261843358847,1.1110537640703437,89815.7840154985,281.614943865654,-1.5035662050229839,10.953375671281055,0.49417195891013177,413.57684210526315,0.22196369010892084,0.88,nominal,14526.060796007963,1500.1539274826869,target_intercept,19.250810408427306,4.7879278934438965,0.0,-4.772998678262384,4.6640809351425165,12.163167157764326,-4.590274591781686,4.392926009768272,11.58766038595922,0.88,0.0,0.0,0.0,0.0,0.0,0.0,-0.08011540519722907,0.07667102266695291,0.2022428263379053,-0.08011540519722907,0.07667102266695291,0.2022428263379053,21.17194537954097,-0.8646739124401202,4.921072364731648,0.3785239548300716,-0.12463486400326435,-1.0085133638663526,1.0,36.99392398197935,-117.39968824863942,1007.2990022770929,95.4776556721861,3.852728955253291,12.21180136319064,1004.7044827904457,98.35739479980361,5301.970127004439,-12.86714514318152
0.44999999999999996,41.559512087283416,-118.09990930561361,1005.761284979419,96.30806917923736,3.776781698355862,12.267784719458652,97.15969746223374,17.90926054996346,9.530640198056394,11.491605041035402,-14.599200110710944,22.408412002325147,-7.417090370944808,-58.070875607170805,6.190947802345683,9.464044424208408,5421.16852111221,0.29365053489528214,98.78744760972326,2.2212095600231696,1.111013597617081,89811.77409925775,281.6125516476338,-1.5152006136100669,10.904629835683219,0.4880787294604023,413.5421052631579,0.22194504709782484,0.88,nominal,14583.152310819813,1497.3056147610616,target_intercept,19.273958689803585,4.793126930615592,0.0,-5.073096327227838,5.052349632147881,12.93566375026765,-4.879967633049377,4.788580183196037,12.396462404544279,0.88,0.0,0.0,0.0,0.0,0.0,0.0,-0.08517150258746609,0.08357649069252408,0.21635908455899094,-0.08517150258746609,0.08357649069252408,0.21635908455899094,21.04005669253628,-1.2081806238645063,5.248042267988465,0.38688127590794474,-0.12602416057608973,-1.0109505974313195,1.0,36.99392398197935,-117.39968824863942,1007.2990022770929,95.4776556721861,3.852728955253291,12.21180136319064,1004.7044827904457,98.33656992977782,5399.353390374633,-12.86714514318152
0.48,44.465399565858306,-117.992927269479,1006.1286990643587,96.86291595249632,3.5660678711538822,12.247136164654968,97.69919995126695,17.902602198550525,10.564331072549196,11.408929796639313,-16.37024499753772,22.736297286681975,-7.381809756631511,-57.45860895251963,6.607626509986328,11.034961209755014,5484.177265272686,0.29535869678093984,99.36167177361361,2.2287935413354067,1.1109734998781862,89807.77107691814,281.61016345608164,-1.531083131547899,10.838895279422252,0.4798619099277814,413.5073684210526,0.2219264040867288,0.88,nominal,14639.318842238314,1494.4426070582456,target_intercept,19.29742092847423,4.798659708195199,0.0,-5.385223959231032,5.420333999546877,13.628480414824867,-5.18312142875837,5.167632473006541,13.135673210712632,0.88,0.0,0.0,0.0,0.0,0.0,0.0,-0.09046253446250627,0.09019220118694113,0.22926074699295032,-0.09046253446250627,0.09019220118694113,0.22926074699295032,21.102510611937408,-1.6901709526666548,5.740436618708091,0.39748623193608995,-0.12877476489607845,-0.9995618930459689,1.0,36.99392398197935,-117.39968824863942,1007.2990022770929,95.4776556721861,3.852728955253291,12.21180136319064,1007.2774183781389,99.48357709797794,5414.950390118169,-16.30746335767795
0.51,47.38749730396746,-117.89320926464843,1006.4957410707357,97.40325793697167,3.3239334943521825,12.234733545900836,98.22490466042868,17.895944406427923,11.588584641948332,11.299221317305474,-18.093333804148298,22.83366059972343,-7.230724419152646,-55.970736912185046,7.036718755171865,12.547313480342128,5546.687961068732,0.297043844661714,99.92814937891491,2.2384690512985723,1.1109334438515492,89803.77225267586,281.6077776830402,-1.5511418863683786,10.75645800810207,0.46955725101275875,413.47263157894736,0.22190776107563284,0.88,nominal,14694.417406946483,1491.5653170717226,target_intercept,19.321184118328222,4.804565233140422,0.0,-5.692566155999459,5.763093907013824,14.227769146476696,-5.4887882651030235,5.5249093334109105,13.790930772171071,0.88,0.0,0.0,0.0,0.0,0.0,0.0,-0.09579742717087514,0.09642785874218554,0.24069714888898916,-0.09579742717087514,0.09642785874218554,0.24069714888898916,20.92203844106761,-2.015243463980508,6.118259098582879,0.4002835697447988,-0.12648380891927358,-0.9772827531805155,1.0,36.99392398197935,-117.39968824863942,1007.2990022770929,95.4776556721861,3.852728955253291,12.21180136319064,1007.2774183781389,99.82369261603789,5622.577153563348,-16.30746335767795
0.54,50.325332999663175,-117.80168128055261,1006.8626528271707,97.92785652319061,3.05093280319386,12.23039188116725,98.73578763428756,17.889287173595655,12.590353391302482,11.165674576622294,-19.740263172573403,22.698338560079552,-6.925508029034495,-53.58859618806234,7.470583039303734,13.97560700485976,5608.537482757473,0.29870202655223477,100.48555077399803,2.250443342496848,1.1108934031436395,89799.77499157282,281.60539275662336,-1.575286845895516,10.657676699454912,0.457209587431864,413.4378947368421,0.22188911806453684,0.88,nominal,14748.327514229139,1488.6741929420568,target_intercept,19.345234884720277,4.810882049297732,0.0,-5.986777145207989,6.076238269212758,14.32394487827058,-5.787581593166003,5.855706694892019,14.110739235830778,0.88,0.0,0.0,0.0,0.0,0.0,0.0,-0.10101235452856569,0.10220136185694075,0.24627885955559567,-0.10101235452856569,0.10220136185694075,0.24627885955559567,20.86585168210964,-2.485217146030034,6.62127886927016,0.3942842815606981,-0.12314676735409666,-0.936738432991994,1.0,36.99392398197935,-117.39968824863942,1007.2990022770929,95.4776556721861,3.852728955253291,12.21180136319064,1007.1672610438239,100.89140302418001,5598.329354551923,-20.727860601488327
0.57,53.27840084784821,-117.71925784519121,1007.2296634356695,98.43559493950121,2.747447845380313,12.233686949963321,99.23093225978654,17.88263050005372,13.556162171648616,11.012706848704202,-21.278206279065863,22.333197916263178,-6.413423659310304,-50.16075068356462,7.8984482728384675,15.29004686055168,5669.571228130002,0.3003295960894652,101.03264915139702,2.2643799881909668,1.1108533527526245,89795.77679767163,281.60300718766814,-1.60341021915543,10.542981142764262,0.4428726428455327,413.40315789473686,0.22187047505344087,0.88,nominal,14800.93773750458,1485.769717622314,target_intercept,19.36955977737132,4.817648457429503,0.0,-6.2552010702664855,6.354338060653924,14.32394487827058,-6.0681532794262925,6.1548855143491625,14.23866262129466,0.88,0.0,0.0,0.0,0.0,0.0,0.0,-0.10590925424168028,0.10742301730869758,0.24851154382223828,-0.10590925424168028,0.10742301730869758,0.24851154382223828,20.834919802337446,-2.8102456623387346,7.093365038014082,0.3887545889038314,-0.11192248587251441,-0.8751377078502548,1.0,36.99392398197935,-117.39968824863942,1007.2990022770929,95.4776556721861,3.852728955253291,12.21180136319064,1007.1672610438239,100.60152455917088,5648.282841699465,-20.727860601488327
0.6,56.24617873248297,-117.64681193579496,1007.5969875599684,98.92592948782513,2.414863646541627,12.244137476630724,99.71002955574815,17.875974385802117,14.473026714688823,10.844955076267905,-22.672988384314067,21.747420891759766,-5.630247508766377,-45.647715055151096,8.306215349766417,16.460573378480643,5729.6861766402735,0.3019243351530682,101.5686982028183,2.2795870563088623,1.110813269254955,89791.775332676,281.6006195808602,-1.63538692643822,10.41287036888731,0.4266087961109138,413.3684210526316,0.22185183204234488,0.88,nominal,14852.19599505905,1482.852390940002,target_intercept,19.394145578533152,4.824901345192112,0.0,-6.493414234357643,6.593666921874768,14.32394487827058,-6.323309852385102,6.418154358864526,14.289831975480212,0.88,0.0,0.0,0.0,0.0,0.0,0.0,-0.11036257654791665,0.11201792546341169,0.2494046175288953,-0.11036257654791665,0.11201792546341169,0.2494046175288953,20.829837017434194,-3.130700340056555,7.611073932098795,0.37885750798506573,-0.09597182505518631,-0.79532090636227,1.0,36.99392398197935,-117.39968824863942,1007.2990022770929,95.4776556721861,3.852728955253291,12.21180136319064,1007.6441716527396,101.77787055581041,5780.681162154822,-21.56403793368894
0.63,59.22815039991718,-117.58514696345574,1007.9648215709399,99.39905558114043,2.0554990779740248,12.261133699047928,100.17351309836411,17.869318830840847,15.3292896146764,10.667065839851398,-23.89215779389308,20.957686722872374,-4.537025221359447,-40.10919408540209,8.67765162046822,17.459709763919612,5788.849832820674,0.3034859100744881,102.09358558436509,2.2951287957887136,1.110773131225759,89787.76845789085,281.59822865978884,-1.6710751478903207,10.267910479013079,0.4084888098766347,413.3336842105263,0.22183318903124885,0.88,nominal,14902.12458069272,1479.9227078594915,target_intercept,19.41897975672649,4.832675104336509,0.0,-6.698739169987026,6.792356198449344,14.32394487827058,-6.548567442946256,6.642675462615417,14.310299717154434,0.88,0.0,0.0,0.0,0.0,0.0,0.0,-0.11429406316831808,0.11593655796407652,0.24976184701155812,-0.11429406316831808,0.11593655796407652,0.24976184701155812,20.679004507612753,-3.5373528621446,8.104594645902335,0.3654040133205145,-0.08231551700668238,-0.6989340135581462,1.0,59.627744783267694,-120.33614402574753,1007.0910052721207,99.4292902604625,2.0327162934976943,12.077716830036627,1007.6441716527396,101.94516439673025,5858.371195907643,-21.56403793368894
0.6599999999999999,62.22382930310745,-117.53497590526933,1008.3333370493857,99.85596343967565,1.672368606213637,12.283849281527804,100.62257800509873,17.862663835169908,16.115210656852895,10.48417421904871,-24.906962841475952,19.989042447548023,-3.142480913309158,-33.66141648686057,8.996447975492933,18.263962202424366,5847.108407616272,0.3050160356801253,102.60788809600015,2.309918814731959,1.1107329199475189,89783.75430495873,281.59583330917894,-1.7103169490251533,10.108732181603072,0.38859152270038405,413.298947368421,0.22181454602015285,0.88,nominal,14950.823721971448,1476.9811366338351,target_intercept,19.444051038858724,4.841000833040935,0.0,-6.864236724431581,6.950192133526014,14.32394487827058,-6.737969011837452,6.827185465161775,14.318486813824121,0.88,0.0,0.0,0.0,0.0,0.0,0.0,-0.1175997441539123,0.1191568650113736,0.24990473880462324,-0.1175997441539123,0.1191568650113736,0.24990473880462324,20.70304565490863,-3.7794112406074962,8.411256956325028,0.3470437784727484,-0.05253713771591777,-0.5891727323918879,1.0,59.627744783267694,-120.33614402574753,1007.0910052721207,99.4292902604625,2.0327162934976943,12.077716830036627,1008.4408938474022,102.78484460035041,5854.696989315748,-24.40740454478632
0.69,65.23278241729936,-117.4969050647354,1008.7026741550688,100.29843713973027,1.2690280177976496,12.311236856105692,101.05915830695166,17.856009398789304,16.823397918027638,10.302117990228476,-25.693702042200776,18.875353755313622,-1.4933238412412386,-26.457241293202472,9.248094819447196,18.85461710145736,5904.589117133773,0.3065184848322063,103.11287488528141,2.3228450669794856,1.1106926201332248,89779.73134803728,281.59343261799205,-1.7529389767096273,9.936028048231078,0.36700350602888476,413.26421052631576,0.22179590300905686,0.88,nominal,14998.470818357564,1474.0280974167033,target_intercept,19.469349991400332,4.849905718347929,0.0,-6.9807916187523205,7.068501373267585,14.32394487827058,-6.8836625759863725,6.971975010025261,14.321761652491997,0.88,0.0,0.0,0.0,0.0,0.0,0.0,-0.12014257654727656,0.12168391929170547,0.2499618955218493,-0.12014257654727656,0.12168391929170547,0.2499618955218493,20.605367223717288,-3.960667211781559,8.807218508354183,0.33053698403007775,-0.029390539408175327,-0.4594921547626024,1.0,59.627744783267694,-120.33614402574753,1007.0910052721207,99.4292902604625,2.0327162934976943,12.077716830036627,1008.4408938474022,103.68465541076436,5972.104492581769,-24.40740454478632
0.72,68.25465205146037,-117.47142150967352,1009.072936459727,100.72898780536705,0.8494518353961197,12.342076821936077,101.48584833853937,17.84935552169903,17.44909209994736,10.127139267600974,-26.2345998988563,17.65921609679895,0.34543191266717815,-18.675333916723943,9.421191191720068,19.218207580808695,5961.495441209722,0.307998918662463,103.61045033062167,2.3328916514424094,1.1106522204896745,89775.69846001615,281.5910259130118,-1.7987532202449965,9.750549500261652,0.3438186875327065,413.2294736842105,0.22177725999796086,0.88,nominal,15045.313818829287,1471.063942582106,target_intercept,19.494869527640528,4.859412555507906,0.0,-7.041550261089925,7.150005871514444,14.32394487827058,-6.978395187048504,7.07879352691877,14.323071587959147,0.88,0.0,0.0,0.0,0.0,0.0,0.0,-0.12179597251932195,0.1235482541135944,0.24998475820873972,-0.12179597251932195,0.1235482541135944,0.24998475820873972,20.561697996636003,-4.175422322838192,9.093789149582346,0.30585333090004035,0.0043220901240665485,-0.3253339016306685,1.0,59.627744783267694,-120.33614402574753,1007.0910052721207,99.4292902604625,2.0327162934976943,12.077716830036627,1008.7597174913523,103.18413875929079,6029.0614944941135,-26.528755236769975
0.75,71.28917395194964,-117.45888369607752,1009.444187755998,101.15073001630893,0.41792711986640235,12.375043209034027,101.90577285088024,17.842702203899094,17.990329293021396,9.965376625274263,-26.518356799733514,16.39135332368931,2.3016106410814143,-10.512937710628735,9.508338683001435,19.346785800558347,6018.095906343231,0.3094645570530057,104.10304318321353,2.3396853819218704,1.1106117140650933,89771.654947201,281.588612779586,-1.847557833496484,9.553103539478077,0.3191379424347595,413.19473684210527,0.2217586169868649,0.88,nominal,15091.659114024955,1468.0889401353036,target_intercept,19.520605299484135,4.869539380136331,0.0,-7.043950471084716,7.198677241014228,13.966606330227025,-7.017728357470231,7.150723755376045,14.109192433319874,0.88,0.0,0.0,0.0,0.0,0.0,0.0,-0.12248246584842913,0.12480367343188556,0.2462518627589023,-0.12248246584842913,0.12480367343188556,0.2462518627589023,20.506612248710297,-4.27172763580917,9.169328306964129,0.2850353755747257,0.037861886396365195,-0.18375471659347217,1.0,59.627744783267694,-120.33614402574753,1007.0910052721207,99.4292902604625,2.0327162934976943,12.077716830036627,1008.7597174913523,104.23365259780647,5957.549908752516,-26.528755236769975
0.78,74.33618251932803,-117.45953305768785,1009.8164446651565,101.56695224594668,-0.02164538701098656,12.408563638618482,102.32213205669065,17.836049445389488,18.44731194718098,9.823773926493855,-26.536374694270837,15.129630185504212,4.298523269484531,-2.037741453965823,9.50649260645272,19.233510303299006,6074.681012506487,0.31092304351136285,104.59322471433642,2.342898070284544,1.1105710990550575,89767.60062974432,281.58619310967646,-1.899138023781137,9.344549236884514,0.2930686546105642,413.16,0.2217399739757689,0.88,nominal,15137.825791388976,1465.1032723164376,target_intercept,19.546556060065303,4.880299917676205,0.0,-6.977406120868144,7.2181969384459945,13.271745822556985,-6.9935350155089795,7.191207665218014,13.60672446686214,0.88,0.0,0.0,0.0,0.0,0.0,0.0,-0.12206021237414438,0.12551025095270846,0.23748214235841442,-0.12206021237414438,0.12551025095270846,0.23748214235841442,20.58973838946188,-4.3728256051186305,9.30360402723088,0.2639780371212844,0.0755053687466934,-0.03382775158692755,1.0,59.627744783267694,-120.33614402574753,1007.0910052721207,99.4292902604625,2.0327162934976943,12.077716830036627,1010.2309762822974,105.25643311304178,6260.539263163184,-27.075026492925616
0.8099999999999999,77.39561583652574,-117.47349487104317,1010.1896763391647,101.98111057325661,-0.4653937785107971,12.441055800275842,102.73822742557634,17.829397246170213,18.822184194306406,9.70927496574164,-26.28117742531318,13.938808693603274,6.295339717600543,6.724312710414077,9.415992922430508,18.871537149653097,6131.562729663134,0.3123824251283088,105.08370197165094,2.3421001555513437,1.1105303788342815,89763.53584479676,281.5837671037954,-1.95326698675143,9.125793994959292,0.26572424936991146,413.1252631578947,0.2217213309646729,0.88,nominal,15184.148276746193,1462.1070311665762,target_intercept,19.572723779129824,4.891703593998099,0.0,-6.838041034646299,7.2125515465496,12.442493781081994,-6.900238626991371,7.204013994016965,12.908186055394053,0.88,0.0,0.0,0.0,0.0,0.0,0.0,-0.12043188321429228,0.12573376355534313,0.22529034712664536,-0.12043188321429228,0.12573376355534313,0.22529034712664536,20.53728258026731,-4.341126006231216,9.322662282704503,0.241755323124695,0.11061567559050993,0.11445325911642391,1.0,59.627744783267694,-120.33614402574753,1007.0910052721207,99.4292902604625,2.0327162934976943,12.077716830036627,1010.2309762822974,105.34476110223721,6135.149168120575,-27.075026492925616
0.84,80.46752283553117,-117.50076494705064,1010.5638111752353,102.39689996684767,-0.9090025335820819,12.471161202350693,103.15755556507571,17.822745606241273,19.119362961623814,9.627096088896847,-25.748008810330283,12.89074343740594,8.28605686833689,15.677967261366422,9.239658897814577,18.256326484264136,6189.081450910505,0.3138513204680333,105.57737424621037,2.3371596382728415,1.1104895612233516,89759.46137328926,281.58133522736097,-2.0097068833316563,8.897789599621962,0.23722369995274525,413.0905263157895,0.2217026879535769,0.88,nominal,15230.986233942462,1459.1002085883954,target_intercept,19.599113545683338,4.903754965580775,0.0,-6.637339048603266,7.187074982097353,11.484094803482119,-6.742498879958508,7.1938505868651985,12.053731304246893,0.88,0.0,0.0,0.0,0.0,0.0,0.0,-0.11767880526730587,0.12555637863732405,0.21037729840981864,-0.11767880526730587,0.12555637863732405,0.21037729840981864,20.49590049889255,-4.280697629940083,9.205936386485892,0.22519164927948448,0.14421233467423814,0.2743665202579548,1.0,81.50005786335453,-117.20385213872177,1010.1642727116705,102.62056732850381,-0.8160349632534117,12.366115849340938,1010.2735614897808,106.10522961696688,6222.331950565771,-25.181221477977857
0.87,83.55206460635041,-117.54120098256742,1010.9387417475991,102.81805902730807,-1.3478678505591701,12.497685745461025,103.58359985479302,17.816094525602665,19.345796405356893,9.580743733710335,-24.93587103296876,12.064361578943897,10.251428073302082,24.693728101807825,8.98306628107963,17.386593745116624,6247.584796691205,0.31533837015965327,106.07714824679778,2.328242207523557,1.1104486579500683,89755.37838614521,281.5788981786406,-2.0682098676056815,8.66152807909168,0.20769100988646,413.05578947368423,0.2216840449424809,0.88,nominal,15278.70349119803,1456.0826928417953,target_intercept,19.625733455201676,4.916453315749443,0.0,-6.387594021558853,7.148417814763379,10.406137753947338,-6.529555964918715,7.166590923604106,11.06517517406716,0.88,0.0,0.0,0.0,0.0,0.0,0.0,-0.11396225028106693,0.12508060776043306,0.19312373909740863,-0.11396225028106693,0.12508060776043306,0.19312373909740863,20.530874928075278,-4.132168985139915,9.099030509164546,0.209420030914114,0.17801393444205574,0.4330342148361613,1.0,81.50005786335453,-117.20385213872177,1010.1642727116705,102.62056732850381,-0.8160349632534117,12.366115849340938,1010.2735614897808,105.78104759576512,6288.166155225515,-25.181221477977857
0.8999999999999999,86.64951005856686,-117.5945163893276,1011.3143296198899,103.2481817405482,-1.7771802253393323,12.519595743026919,104.0196408369661,17.80944400425439,19.511220268026232,9.572595565964868,-23.848304349313796,11.545522398305918,12.147078375437328,33.62225435433723,8.65486040058607,16.264945866502657,6307.407093226338,0.31685171727003186,106.58576329723567,2.3158269777754072,1.1104076841239083,89751.28839180418,281.5764568574707,-2.1285191586564967,8.418037387654675,0.17725467345683427,413.021052631579,0.22166540193138493,0.88,nominal,15327.648510492605,1453.0542705429978,target_intercept,19.65259442382639,4.929792328862292,0.0,-6.096887734451888,7.104633531591405,9.222193483388283,-6.269955026638619,7.129416488396485,9.959386159659834,0.88,0.0,0.0,0.0,0.0,0.0,0.0,-0.10943135916681267,0.12443179146849077,0.17382407996361776,-0.10943135916681267,0.12443179146849077,0.17382407996361776,20.47398869442024,-3.9721957946871664,8.854156013285706,0.2048491439086761,0.21409199843789953,0.5877435878122532,1.0,81.50005786335453,-117.20385213872177,1010.1642727116705,102.62056732850381,-0.8160349632534117,12.366115849340938,1010.7454342688127,107.16543448244849,6244.643758756028,-23.886935607278197
0.9299999999999999,89.7602256714321,-117.66027620717666,1011.6904115437799,103.69052042884098,-2.1919939283023298,12.536064129664828,104.46856832583029,17.80279404219645,19.628395967957164,9.60407721889642,-22.493819529272873,11.426693651284834,13.923744869845649,42.30064810297103,8.266169590587602,14.898401528084863,6368.848178339078,0.3183984835403825,107.10561514510617,2.3006531042328975,1.1103666575593358,89747.19316866141,281.5740123249654,-2.1903701494042327,8.16837693312039,0.1460471166400488,412.9863157894737,0.2216467589202889,0.88,nominal,15378.134658390143,1450.0146338712811,target_intercept,19.67970986868792,4.943759825801235,0.0,-5.7723601671875615,7.065231422003256,7.949070467525882,-5.971398110967985,7.090905448560548,8.753196744379462,0.88,0.0,0.0,0.0,0.0,0.0,0.0,-0.10422055798376105,0.12375964702498697,0.15277210326427007,-0.10422055798376105,0.12375964702498697,0.15277210326427007,20.54724494071596,-3.6608182345676585,8.626004461350588,0.20263142499926728,0.24500628185502488,0.7362451567616888,1.0,81.50005786335453,-117.20385213872177,1010.1642727116705,102.62056732850381,-0.8160349632534117,12.366115849340938,1010.7454342688127,107.11929795202502,6529.056240487353,-23.886935607278197
0.96,92.88465976447745,-117.73789522903175,1012.066806872861,104.14780310151184,-2.587300728502917,12.546510969371333,104.9327115509532,17.796144639428842,19.713352078604146,9.675496849020735,-20.886082960849237,11.806513703010728,15.544452529748307,50.555926975127825,7.829308843385966,13.29884244696395,6432.153587627936,0.3199842940851128,107.63859607555786,2.2836227075652316,1.1103255979666793,89743.09468429103,281.5715657553264,-2.2534915478342255,7.913632967425933,0.1142041209282416,412.95157894736843,0.22162811590919293,0.88,nominal,15430.421928337513,1446.963392636727,target_intercept,19.707095263644128,4.958337568045461,0.0,-5.423153062057982,7.0412667452563955,6.606233085657286,-5.642451081621983,7.061122226578057,7.465018549146157,0.88,0.0,0.0,0.0,0.0,0.0,0.0,-0.09847934925701891,0.12323983173954015,0.13028915240505057,-0.09847934925701891,0.12323983173954015,0.13028915240505057,20.606270116415615,-3.329363910323169,8.203392377970486,0.20491482034061348,0.2724249190229397,0.8831728015548479,1.0,81.50005786335453,-117.20385213872177,1010.1642727116705,102.62056732850381,-0.8160349632534117,12.366115849340938,1011.7343598377159,107.44786362435384,6366.7607302782135,-21.445381015552755
0.99,96.02332237081505,-117.82663863078953,1012.4433250014487,104.62208687792031,-2.958113391926279,12.550604286256231,105.41370482760196,17.789495795951566,19.785666377427603,9.785994893234784,-19.044042218663005,12.78935085606357,16.984734611805326,58.20789130312079,7.356388333243535,11.483379742896696,6497.498215991025,0.32161290263084075,108.18596884940762,2.2657104617073984,1.1102845261404117,89738.99501441457,281.56911838749056,-2.317606547386833,7.654913860443975,0.08186423255549694,412.91684210526313,0.2216094728980969,0.88,nominal,15484.701915865851,1443.9000906123802,target_intercept,19.734767626421707,4.973501147022298,0.0,-5.059477891857351,7.0455070634720816,5.215695778362813,-5.292667167763203,7.051753128714472,6.11542488667615,0.88,0.0,0.0,0.0,0.0,0.0,0.0,-0.09237446828967098,0.12307631013387901,0.10673429943089993,-0.09237446828967098,0.12307631013387901,0.10673429943089993,20.703011231859954,-2.939386229682161,7.83210229986604,0.22227960889552115,0.2958542238822335,1.0202015058849687,1.0,81.50005786335453,-117.20385213872177,1010.1642727116705,102.62056732850381,-0.8160349632534117,12.366115849340938,1011.7343598377159,107.5774184288876,6473.9807938162,-21.445381015552755
1.02,99.17676201135671,-117.92562555862821,1012.8197717843946,105.11465468472198,-3.2995642612894627,12.548226098197448,105.91239649830518,17.782847511764622,19.868795094050867,9.933787523880493,-16.992062780815896,14.48491287561763,18.225471683412714,65.07213603659278,6.8581319094596935,9.474607341911636,6564.974429866848,0.32328593978107995,108.74828202954606,2.247895947248201,1.1102434632587344,89734.89627298363,281.5666714834014,-2.3824340229340746,7.393345277557336,0.04916815969466701,412.8821052631579,0.2215908298870009,0.88,nominal,15541.086880976536,1440.8242253022142,target_intercept,19.762744991340117,4.98921998325719,0.0,-4.690032181773488,7.092626143956578,3.802110489944778,-4.931086176169375,7.076276937859736,4.727436248637328,0.88,0.0,0.0,0.0,0.0,0.0,0.0,-0.08606368947373273,0.12350433134859456,0.08250932771685066,-0.08606368947373273,0.12350433134859456,0.08250932771685066,20.62445211040646,-2.5102201425216237,7.3076778571059275,0.25133740589227793,0.31732031450356724,1.1347228051348395,1.0,81.50005786335453,-117.20385213872177,1010.1642727116705,102.62056732850381,-0.8160349632534117,12.366115849340938,1013.4024844766392,108.08077157731498,6627.870454824861,-18.143620495473506
1.05,102.34554072936416,-118.03383623883134,1013.195954399031,105.62595726691477,-3.607022673437733,12.539420487884431,106.42880496975795,17.776199786868013,19.990426076206816,10.116564681595452,-14.760025017323725,17.007920955285577,19.249158391680982,70.9633938873451,6.342867923009023,7.300723017941057,6634.585173107323,0.32500279483750244,109.32533023746518,2.2311102914150984,1.1102024303532037,89730.8005592389,281.5642262964063,-2.4476897479058985,7.130065281982219,0.016258160247777338,412.84736842105264,0.22157218687590494,0.88,nominal,15599.603369852644,1437.735270104603,target_intercept,19.79104590452468,5.005457465361544,0.0,-4.320488683544296,7.199367430265629,2.3927018923602983,-4.564727680594327,7.150131233303271,3.3265956348711097,0.88,0.0,0.0,0.0,0.0,0.0,0.0,-0.07966952748329507,0.12479333197082491,0.05806004671097196,-0.07966952748329507,0.12479333197082491,0.05806004671097196,20.66465056610205,-1.960499123240259,6.917471665441952,0.29442248816678146,0.3374298111373103,1.2390102260235036,1.0,101.09892719624281,-119.38735481115249,1014.7625386095784,105.34227969090325,-3.634553620113895,12.354997895140585,1013.4024844766392,108.47945855721812,6634.990774648622,-18.143620495473506
1.08,105.53020890390768,-118.15012312235362,1013.5716843235887,106.15560581811745,-3.876229450742469,12.524330818585579,106.96212724053176,17.769552621261735,20.182829917707867,10.331873257511212,-12.383318777685066,20.477873176997967,20.04014111111033,75.69929150008936,5.815627913369771,4.995510689295572,6706.242827166779,0.32676064576412367,109.91616424552555,2.216192200890477,1.1101614479838868,89726.709925287,281.56178405189667,-2.5130876277272307,6.866219383149544,-0.016722577106306955,412.8126315789474,0.22155354386480894,0.88,nominal,15660.191089981774,1434.6326976113392,target_intercept,19.81968897343591,5.0221712579470275,0.0,-3.953404835100429,7.384663540366177,1.0169926228237003,-4.197933973297989,7.2908506175410155,1.9408338276426642,0.88,0.0,0.0,0.0,0.0,0.0,0.0,-0.07326776961537762,0.12724934854715256,0.033873940526448626,-0.07326776961537762,0.12724934854715256,0.033873940526448626,20.758142343988943,-1.447910070940399,6.326152625462412,0.3577829926000818,0.3478089260278499,1.3201549845424825,1.0,101.09892719624281,-119.38735481115249,1014.7625386095784,105.34227969090325,-3.634553620113895,12.354997895140585,1014.7420835284578,110.3191092436358,6672.95981957649,-13.19765458022951
1.1099999999999999,108.7312815711665,-118.2732263381301,1013.946778074573,106.7024222419608,-4.103440525882647,12.503125032811592,107.51080537340081,17.76290601494579,20.48319539674372,10.577439006589216,-9.902720841720566,25.018930281079964,20.583902912480518,79.10459396719992,5.277426263834315,2.598191753947162,6779.774648331187,0.3285546517659518,110.51915577185734,2.203858366537497,1.1101205361590114,89722.62636808255,281.5593459425153,-2.578340944716044,6.602955552688385,-0.04963055591395179,412.77789473684214,0.22153490085371297,0.88,nominal,15722.707807223645,1431.5160025819634,target_intercept,19.848692507560383,5.0393137989927,0.0,-3.5885535139187126,7.669727520586734,-0.2935598373506591,-3.832305697670423,7.518176759368448,0.6001976286466701,0.88,0.0,0.0,0.0,0.0,0.0,0.0,-0.06688635236728727,0.13121693819789684,0.010475424782546632,-0.06688635236728727,0.13121693819789684,0.010475424782546632,20.810724367679043,-0.7547151450170069,5.729992693244315,0.43873185865282427,0.35956640865518463,1.3760298941826699,1.0,101.09892719624281,-119.38735481115249,1014.7625386095784,105.34227969090325,-3.634553620113895,12.354997895140585,1014.7420835284578,110.80980644025925,6812.129045788443,-13.19765458022951
1.14,111.94921807640826,-118.40179336379565,1014.3210553866537,107.26455017472489,-4.285567522184961,12.47591040268959,108.07265220003264,17.75625996792018,20.933944851851635,10.85144441536944,-7.364170013579552,30.75993856652379,20.862604944698887,81.01597807617378,4.724871225048453,0.1531673726553577,6854.935176178924,0.3303783110104747,111.13211782718561,2.194694008364447,1.1100797145335621,89718.55184925332,281.5569131399867,-2.643163609495874,6.341419229696583,-0.0823225962879272,412.74315789473684,0.22151625784261694,0.88,nominal,15786.940654582137,1428.3847230066667,target_intercept,19.878074288113908,5.056832992686869,0.0,-3.2231351494254015,8.078129789994605,-1.5059297625596946,-3.46680336872341,7.854148577744142,-0.6634788060771487,0.88,0.0,0.0,0.0,0.0,0.0,0.0,-0.06050713330345451,0.1370807526224651,-0.011579889683247208,-0.06050713330345451,0.1370807526224651,-0.011579889683247208,20.87355224184235,-0.2220189212212404,5.19832507516085,0.53521429591457,0.3617248002576829,1.4126359455105195,1.0,101.09892719624281,-119.38735481115249,1014.7625386095784,105.34227969090325,-3.634553620113895,12.354997895140585,1015.2562748717928,111.63886287420345,6806.2871523241365,-8.58971471651835
1.17,115.18440676550075,-118.53440238544886,1014.6943347679122,107.83962296974964,-4.420300721773509,12.442646041950153,108.64503109325305,17.749614480184903,21.583029464202966,11.15274726512189,-4.818452399447234,37.834588937491255,20.847588920827498,81.28735454002286,4.150245667870229,-2.290316995504528,6931.42528366847,0.3322239678027247,111.75247533457608,2.189165247069029,1.1100390028941045,89714.48834349295,281.55448682400856,-2.7072714135905755,6.0827483370302255,-0.1146564578712218,412.7084210526316,0.22149761483152094,0.88,nominal,15852.623588678707,1425.238457661455,target_intercept,19.90785149508575,5.074673085168069,0.0,-2.852150397390624,8.635867999723256,-2.585894020864551,-3.0980115859237385,8.32318023093161,-1.8169279349495904,0.88,0.0,0.0,0.0,0.0,0.0,0.0,-0.05407050243930045,0.1452668992666586,-0.031711374736331704,-0.05407050243930045,0.1452668992666586,-0.031711374736331704,20.974351490100723,0.5087124469978143,4.7284731815332,0.6624461177671481,0.3619642766900497,1.4190733729326674,1.0,101.09892719624281,-119.38735481115249,1014.7625386095784,105.34227969090325,-3.634553620113895,12.354997895140585,1015.2562748717928,112.77814346344924,6946.9732452054195,-8.58971471651835
1.2,118.4371560952575,-118.66958834790623,1015.0664267633496,108.42497765855857,-4.5061987485792105,12.403066514579418,109.22507801043544,17.742969551739957,22.48421075582782,11.480976379388668,-2.320803951559529,46.381722659989464,20.490261999384643,79.79579667881603,3.5421843148802097,-4.678555306552799,7008.916745429459,0.33408343496611537,112.37747450016037,2.187653297872298,1.1099984218934549,89710.43791188874,281.5520682260382,-2.7703832772810673,5.828068330295633,-0.14649145871304595,412.67368421052635,0.22147897182042497,0.88,nominal,15919.460007211655,1422.076878694824,target_intercept,19.938040801682334,5.09277568937108,0.0,-2.469370969668662,9.371442583914463,-3.4984188006350267,-2.7208272161706923,8.952137642721322,-2.825822454360852,0.88,0.0,0.0,0.0,0.0,0.0,0.0,-0.047487393300050085,0.15624427695721085,-0.049319905905384064,-0.047487393300050085,0.15624427695721085,-0.049319905905384064,21.055281067979582,1.2591353801789913,4.022704214496672,0.8120302794259305,0.35346663558491137,1.3934955007157184,1.0,101.09892719624281,-119.38735481115249,1014.7625386095784,105.34227969090325,-3.634553620113895,12.354997895140585,1015.344074305197,111.57196319651244,7067.083363865933,-2.252396893973334
1.23,121.70769299889872,-118.80587026174344,1015.4371257672948,109.01789678804037,-4.542730461240328,12.356633464841764,109.80994768560703,17.736325182585343,23.697345323474412,11.836427126266285,0.06955400818741692,56.54583194868553,19.7117803997886,76.448212981203,2.887108612603343,-6.9538031952918695,7087.080388602981,0.33594867962983194,113.00441350880772,2.1905092562740753,1.1099579939435027,89706.40279103062,281.5496586825126,-2.832222486077721,5.578487301085346,-0.17768908736433178,412.63894736842104,0.22146032880932895,0.88,nominal,15987.148794763716,1418.8997380828635,target_intercept,19.968658620565318,5.1110809041511684,0.0,-2.0690678661845445,10.315961809293706,-4.208032690273485,-2.329771606179004,9.770432142664752,-3.6551485959084316,0.88,0.0,0.0,0.0,0.0,0.0,0.0,-0.04066218534730028,0.17052621023218426,-0.06379437764824987,-0.04066218534730028,0.17052621023218426,-0.06379437764824987,21.137967412802457,1.8949667044747665,3.233125858516812,0.9854658956379091,0.3429367851169195,1.3370543215301478,1.0,101.09892719624281,-119.38735481115249,1014.7625386095784,105.34227969090325,-3.634553620113895,12.354997895140585,1015.344074305197,112.90874474685988,7057.505565227746,-2.252396893973334
1.26,124.99616858294844,-118.94177806987271,1015.8062018981351,109.61585280165758,-4.530260270975673,12.302537694677348,110.39706009349344,17.729681372721064,25.28870087550034,12.219682387085383,2.2899143904207095,68.4778614397599,18.39155802625331,71.18899233281935,2.1716248738538773,-9.054774789659309,7165.615101100687,0.33781250492356013,113.63087183735703,2.198119346096722,1.1099177441010681,89702.38548142108,281.5472596876621,-2.8925179082119272,5.335091155763481,-0.20811360552956487,412.6042105263158,0.22144168579823295,0.88,nominal,16055.411328487546,1415.7068672435685,target_intercept,19.999721450610714,5.12952845780162,0.0,-1.6485122718971377,11.503304559801693,-4.679129634587568,-1.921016005609884,10.810155592946916,-4.2695372191159136,0.88,0.0,0.0,0.0,0.0,0.0,0.0,-0.033528054281402334,0.1886728077498036,-0.07451748201001528,-0.033528054281402334,0.1886728077498036,-0.07451748201001528,21.222762959497018,2.4937585228294097,2.5145036213046286,1.1918800396777836,0.3203175068337757,1.2463422874453172,1.0,127.76544174891976,-117.5846057382939,1015.6138648191547,109.61724677632601,-4.428077159509185,12.21021336604141,1014.9952902464444,114.27514869761171,7173.546259492826,0.7525217012554879
1.29,128.30267029555105,-119.07587749045032,1016.1733953595284,110.2167237534208,-4.469980685920356,12.239782046441574,110.98431955377644,17.723038122147116,27.33133806984852,12.630875515748965,4.27457500813157,82.33650163932772,16.355215064994926,64.00892768637009,1.3860883560474306,-10.91733001700646,7244.274400505267,0.3396691504688996,114.25491224451999,2.210947563019029,1.1098777006824878,89698.38880880506,281.544872930163,-2.9510051842664162,5.0989388907771644,-0.23763263865285444,412.5694736842105,0.22142304278713695,0.88,nominal,16124.016421009903,1412.4981696646262,target_intercept,20.031246224481713,5.148058806098133,0.0,-1.2113721821480685,12.9703636483606,-4.8761508566256415,-1.4952297115327948,12.106280426195127,-4.63350540162175,0.88,0.0,0.0,0.0,0.0,0.0,0.0,-0.026096681539892298,0.21129445360684734,-0.08086992516724174,-0.026096681539892298,0.21129445360684734,-0.08086992516724174,21.363111241408085,3.1186266914386396,1.5396760667175475,1.434631066036107,0.28632530355820784,1.1174691133565953,1.0,127.76544174891976,-117.5846057382939,1015.6138648191547,109.61724677632601,-4.428077159509185,12.21021336604141,1014.9952902464444,114.03273096484301,7342.423608346641,0.7525217012554879
1.3199999999999998,131.62723872508744,-119.2067920030242,1016.5384168299744,110.81894765121322,-4.363817085796003,12.167382348200286,111.57027942641318,17.716395430863503,29.905591347531303,13.068489780847843,5.955270318342122,98.29028645932014,13.3630336084296,54.95574946182474,0.5294510172154663,-12.47558703330238,7322.8872345831705,0.34151473787998937,114.87523061366238,2.229487015705482,1.1098378952207155,89694.41591987574,281.5425002906051,-3.0074278784923334,4.87105798505082,-0.26611775186864745,412.53473684210525,0.22140439977604096,0.88,nominal,16192.800091049627,1409.2736069807586,target_intercept,20.06325049843071,5.1666141420810785,0.0,-0.7722471405570237,14.32394487827058,-4.763608858636634,-1.061440168947332,13.4368790974404,-4.71156747583068,0.88,0.0,0.0,0.0,0.0,0.0,0.0,-0.01852562576105582,0.23451778144273894,-0.08223236538312373,-0.01852562576105582,0.23451778144273894,-0.08223236538312373,21.559409721533804,3.577571923151014,0.5101790225754784,1.7117734337748252,0.2334961297614211,0.9586675388343329,1.0,127.76544174891976,-117.5846057382939,1015.6138648191547,109.61724677632601,-4.428077159509185,12.21021336604141,1016.422637581977,114.49104931699844,7182.438247922867,5.381417495654131
1.3499999999999999,134.96988638785817,-119.33322282476287,1016.90095853246,111.42158875902432,-4.214360724622075,12.084723416184863,112.1542322783588,17.709753298870222,33.0920343810814,13.527487209287541,7.261521618274233,116.26641733144524,9.099483506211579,44.14651954702115,-0.38290251960281174,-13.663879368526612,7401.3704857160365,0.34334750959071364,115.49123625920964,2.242425058078574,1.109798361257831,89690.4701617471,281.540143769539,-3.0615385798236754,4.652439929510539,-0.29344500881118263,412.5,0.22138575676494499,0.88,nominal,16261.677693966376,1406.0331794247827,target_intercept,20.09575226711461,5.185139343167304,0.0,-0.36330329174587034,14.32394487827058,-4.306016819133912,-0.6425580426264551,13.969118565938508,-4.46823708181262,0.88,0.0,0.0,0.0,0.0,0.0,0.0,-0.011214753479001714,0.24380711257709559,-0.07798544883733345,-0.011214753479001714,0.24380711257709559,-0.07798544883733345,21.565216511445822,4.048044731823489,-0.5312072070992077,2.02715244222964,0.1587362917067684,0.7676751702702392,1.0,127.76544174891976,-117.5846057382939,1015.6138648191547,109.61724677632601,-4.428077159509185,12.21021336604141,1016.422637581977,115.14410152551648,7398.451197772629,5.381417495654131
1.38,138.33049978792886,-119.45398848718969,1017.2607471700068,112.02044666902314,-4.025522080894181,11.992954584891375,112.73249868439221,17.703111726167272,36.944897570265574,13.989683769187836,8.125966107655625,135.3386125257239,3.4457173877948435,31.78271750986567,-1.3144572837765485,-14.420927831074575,7479.256818475244,0.3451568787410649,116.09936858465225,2.2436501170897816,1.1097591285726183,89686.5545058274,281.53780514339496,-3.1130999009476676,4.444035913189289,-0.3194955108513388,412.46526315789475,0.221367113753849,0.88,nominal,16330.228236047991,1402.777002725288,target_intercept,20.128766513147117,5.203583322899411,0.0,-0.10425586135965449,14.32394487827058,-3.4834021286623904,-0.31957673386637475,14.182014353337753,-3.877336109922482,0.88,0.0,0.0,0.0,0.0,0.0,0.0,-0.005577666218737907,0.24752284503083824,-0.06767228132461608,-0.005577666218737907,0.24752284503083824,-0.06767228132461608,21.519026470210864,4.545047809950964,-1.6234061915471447,2.362825695906925,0.05804713962061669,0.5573844786596591,1.0,127.76544174891976,-117.5846057382939,1015.6138648191547,109.61724677632601,-4.428077159509185,12.21021336604141,1017.2826683822096,115.86994262247245,7477.550061241045,7.289585388767155
1.41,141.70880362860066,-119.56807030530113,1017.617587207487,112.6101280223935,-3.802727270381256,11.894667916007695,113.30041832555101,17.696470712754657,41.505040414566416,14.42632930201322,8.483121598261336,155.01184599098744,-3.9802847686026386,18.159542207118662,-2.1972687225423866,-14.696865718052162,7555.941835399336,0.34692932866964016,116.69508147001001,2.2488045766453992,1.1097202184617128,89682.67107687311,281.5354856831513,-3.1618854480181966,4.246752684682293,-0.3441559144147134,412.4305263157895,0.221348470742753,0.88,nominal,16397.91190796073,1399.5053305046636,target_intercept,20.16230293291795,5.221900898031487,0.0,-0.09923301567133803,14.32394487827058,-2.2732804686928514,-0.18737050294935273,14.26717266829745,-2.9149027251847035,0.88,0.0,0.0,0.0,0.0,0.0,0.0,-0.003270232197583951,0.2490091380123353,-0.050874649929828514,-0.003270232197583951,0.2490091380123353,-0.050874649929828514,21.3677566029804,4.884685797582106,-2.6860974602227112,2.703623357962419,-0.07063107082742558,0.31926402012036875,1.0,127.76544174891976,-117.5846057382939,1015.6138648191547,109.61724677632601,-4.428077159509185,12.21021336604141,1017.2826683822096,116.78613180541048,7528.511502649152,7.289585388767155
1.44,145.10454991973165,-119.67464358910267,1017.9713766566708,113.19154303769999,-3.5524427933846945,11.792981639460345,113.85964904655384,17.689830258632373,46.80712917392354,14.809881713329128,8.256730140169593,174.95395129618117,-14.27436242514292,3.6712711878373936,-2.909651732997988,-14.462720085527819,7631.626627700898,0.3486700085247335,117.2801072568514,2.256011920788229,1.1096816420196531,89678.8209813677,281.5331860517316,-3.2076807832752285,4.061448606959062,-0.36731892413011724,412.3957894736842,0.221329827731657,0.88,nominal,16464.898841392343,1396.2183746393791,target_intercept,20.196367874894335,5.24005495942291,0.0,-0.35359895549664955,14.32394487827058,-0.6148821906251515,-0.28710757447773083,14.301235994281328,-1.5348904044489724,0.88,0.0,0.0,0.0,0.0,0.0,0.0,-0.005010972482051242,0.2496036552049341,-0.026788891214901987,-0.005010972482051242,0.2496036552049341,-0.026788891214901987,21.265095798146486,4.975518762361927,-3.7009134307754388,3.055424611977418,-0.24929382754898458,0.06579076704939223,1.0,127.76544174891976,-117.5846057382939,1015.6138648191547,109.61724677632601,-4.428077159509185,12.21021336604141,1017.7357197890544,117.40818979456787,7643.8022119058805,7.90783363911091
