time_s,x_m,y_m,altitude_m,vx_mps,vy_mps,vz_mps,speed_mps,mass_kg,roll_deg,pitch_deg,yaw_deg,p_dps,q_dps,r_dps,alpha_deg,beta_deg,qbar_pa,mach,airspeed_mps,load_factor_g,density_kgpm3,pressure_pa,temperature_k,wind_x_mps,wind_y_mps,wind_z_mps,thrust_n,mass_flow_kgps,propulsion_throttle_actual,propulsion_health,energy_j_per_kg,target_distance_m,guidance_mode,pitch_command_deg,heading_command_deg,roll_command_deg,elevator_command_deg,aileron_command_deg,rudder_command_deg,elevator_deg,aileron_deg,rudder_deg,throttle,elevator_saturated,aileron_saturated,rudder_saturated,elevator_failed,aileron_failed,rudder_failed,elevator_raw_rad,aileron_raw_rad,rudder_raw_rad,elevator_effective_rad,aileron_effective_rad,rudder_effective_rad,imu_ax_mps2,imu_ay_mps2,imu_az_mps2,gyro_p_rps,gyro_q_rps,gyro_r_rps,gps_valid,gps_x_m,gps_y_m,gps_z_m,gps_vx_mps,gps_vy_mps,gps_vz_mps,baro_alt_m,pitot_airspeed_mps,pitot_qbar_pa,mag_heading_deg
0.0,0.0,0.0,14500.0,168.0,0.0,10.0,168.2973558912914,21.0,0.0,4.0,0.0,0.0,0.0,0.0,0.5935562450052811,0.0,2967.811486241532,0.5703651498833013,168.29735589129137,2.248005065083861,0.20956160755836276,13032.637272130847,216.64999999999998,0.0,0.0,0.0,478.40000000000003,0.23796694453104436,0.92,nominal,156358.425,nan,pitch_program,6.000000000000001,0.0,0.0,-13.62160000000002,-0.0,0.0,-4.8,0.0,0.0,0.92,0.0,0.0,0.0,0.0,0.0,0.0,-0.08377580409572781,0.0,0.0,-0.08377580409572781,0.0,0.0,22.039952029066992,0.06421624096399967,-0.05549153272046388,8.96710374289511e-06,-0.00392686140635816,-0.00033643320647488983,1.0,-6.056244605796681,-14.452553801575789,14505.691541827058,168.06173605742853,-0.11079775418696261,10.04166907179879,14497.48871022862,167.72453538558904,3025.811276576433,1.9849282074758248
0.04,6.737639783316654,0.0,14500.393475421926,168.8829682267017,0.0,9.676405761284657,169.15995325584055,20.990437389859768,0.0,4.339834280684275,0.0,0.0,-16.592933380646375,0.0,1.0605710608507573,0.0,2998.126078763367,0.5732885200843033,169.15995325584055,2.2666637922353754,0.20954860538516928,13031.828666924224,216.64999999999998,0.0,0.0,0.0,482.816,0.24016356248056167,0.92,nominal,156507.82856850553,nan,pitch_program,6.0200000000000005,0.0,0.0,1.0551273188844021,-0.0,0.0,-0.1158981448924788,0.0,0.0,0.92,0.0,0.0,0.0,0.0,0.0,0.0,-0.0020228042253272044,0.0,0.0,-0.0020228042253272044,0.0,0.0,22.229701799850368,0.018228895277338106,0.5780288579627947,0.0016566528452349883,-0.2877126789388407,0.0013767453507283647,1.0,-6.056244605796681,-14.452553801575789,14505.691541827058,168.06173605742853,-0.11079775418696261,10.04166907179879,14500.839272637817,168.5093564391019,2996.7806337655993,1.9849282074758248
0.08,13.510675809482459,0.0,14500.774693512798,169.7695298719189,0.0,9.388483235728337,170.02892956905868,20.980786915001556,0.0,4.902500286799463,0.0,0.0,-11.17895002505384,0.0,1.737190782765045,0.0,3028.825921687474,0.5762335087474278,170.02892956905865,2.284890723897176,0.20953600901797245,13031.045298794272,216.64999999999998,0.0,0.0,0.0,487.232,0.242360180430079,0.92,nominal,156658.94059333723,nan,pitch_program,6.04,0.0,0.0,2.7508085664816058,-0.0,0.0,2.1774672242067887,0.0,0.0,0.92,0.0,0.0,0.0,0.0,0.0,0.0,0.038003972416670036,0.0,0.0,0.038003972416670036,0.0,0.0,22.38449831644655,-0.09850995865402717,1.1512450068861027,-0.0007234979904981245,-0.19574574372399067,-0.0010110360653498307,1.0,-6.056244605796681,-14.452553801575789,14505.691541827058,168.06173605742853,-0.11079775418696261,10.04166907179879,14498.436346107757,170.17237324325444,3033.7956190464083,-1.3519140969314785
0.12,20.319258502250513,0.0,14501.144927420399,170.66077604059166,0.0,9.12450739072165,170.9045263119158,20.97104857542536,0.0,5.023787688223519,0.0,0.0,5.127578841937682,0.0,1.9633394938108457,0.0,3059.922641296789,0.5792009342594462,170.90452631191582,2.304675328335099,0.20952377631952226,13030.284547225232,216.64999999999998,0.0,0.0,0.0,491.648,0.24455679837959635,0.92,nominal,156811.8314594374,nan,pitch_program,6.06,0.0,0.0,0.04808426211010326,-0.0,0.0,0.4354934448413579,0.0,0.0,0.92,0.0,0.0,0.0,0.0,0.0,0.0,0.007600794483334009,0.0,0.0,0.007600794483334009,0.0,0.0,22.558762101284355,0.05904495682862113,1.107636628288623,0.0025758485247319492,0.09121922929599512,-0.0016870644637166283,1.0,-6.056244605796681,-14.452553801575789,14505.691541827058,168.06173605742853,-0.11079775418696261,10.04166907179879,14504.20631506412,169.55375290410038,3012.4485777003356,-1.3519140969314785
0.16,27.163666982177034,0.0,14501.504520761884,171.56139953235478,0.0,8.853404244008011,171.78968704846076,20.961222371131186,0.0,4.650365412624585,0.0,0.0,13.320071551461773,0.0,1.6962444612629397,0.0,3091.5257500686016,0.5822007724535554,171.78968704846076,2.3269159305379805,0.20951189587391908,13029.545702262256,216.64999999999998,0.0,0.0,0.0,496.0640000000001,0.2467534163291137,0.92,nominal,156967.0275966336,nan,pitch_program,6.08,0.0,0.0,-3.265311401288854,-0.0,0.0,-2.525150432062812,0.0,0.0,0.92,0.0,0.0,0.0,0.0,0.0,0.0,-0.04407218914765346,0.0,0.0,-0.04407218914765346,0.0,0.0,22.82946519858649,0.046982028512211366,0.7885228377577012,-0.0033350055580084787,0.23390341237642231,-0.0007976974584626732,1.0,-6.056244605796681,-14.452553801575789,14505.691541827058,168.06173605742853,-0.11079775418696261,10.04166907179879,14500.624349922766,172.05528379479918,3173.0502412675205,2.5645389082053014
0.2,34.044332100701084,0.0,14501.852840808804,172.4736294960352,0.0,8.560541478015985,172.68594540938312,20.95130830211903,0.0,4.230187439830186,0.0,0.0,7.545651242111871,0.0,1.388705409280882,0.0,3123.6964369451516,0.5852382208534687,172.68594540938312,2.350356796164119,0.20950038852401606,13028.830060122473,216.64999999999998,0.0,0.0,0.0,500.48,0.24895003427863102,0.92,nominal,157124.81303228386,nan,pitch_program,6.1,0.0,0.0,-3.8055300235734966,-0.0,0.0,-3.5494541052713595,0.0,0.0,0.92,0.0,0.0,0.0,0.0,0.0,0.0,-0.06194966078541464,0.0,0.0,-0.06194966078541464,0.0,0.0,23.061545173740964,0.01569705562906564,0.5103189692371245,-0.0015223624262669768,0.13573170776481386,0.00040760521965742236,1.0,37.72213463933037,3.7455582405776395,14513.871921370648,172.51155543776952,0.13664514932576818,8.439271670206146,14499.143020634916,173.10316049835123,3120.4063192428484,2.5645389082053014
0.24,40.96169123273987,0.0,14502.189207258803,173.39573574426046,0.0,8.25778989901868,173.59225866469316,20.941306368388897,0.0,4.138574385299663,0.0,0.0,-2.868721797906578,0.0,1.4119831248163857,0.0,3156.403450406609,0.5883097456137272,173.59225866469316,2.372103568147276,0.20948927668155398,13028.139014592136,216.64999999999998,0.0,0.0,0.0,504.89599999999996,0.2511466522281483,0.92,nominal,157285.0299235194,nan,pitch_program,6.12,0.0,0.0,-1.8160877354533225,-0.0,0.0,-2.16276100941693,0.0,0.0,0.92,0.0,0.0,0.0,0.0,0.0,0.0,-0.037747300548081515,0.0,0.0,-0.037747300548081515,0.0,0.0,23.23806029077474,-0.024622151250879323,0.6270521888058997,-0.0015351515913460438,-0.0519123087371468,0.0010289466729613477,1.0,37.72213463933037,3.7455582405776395,14513.871921370648,172.51155543776952,0.13664514932576818,8.439271670206146,14503.287357810905,173.0362201309635,3136.6161313498155,-0.5891768986387671
0.28,47.91608299637113,0.0,14502.513633850114,174.32496148596778,0.0,7.965312041430699,174.5068433987662,20.93121656994078,0.0,4.323999450078588,0.0,0.0,-6.189481704612525,0.0,1.7078419677337495,0.0,3189.587416792722,0.5914093026814419,174.50684339876622,2.392307265988598,0.20947855982985944,13027.472533539325,216.64999999999998,0.0,0.0,0.0,509.31200000000007,0.2533432701776657,0.92,nominal,157447.39452389698,nan,pitch_program,6.14,0.0,0.0,0.006585746067173053,-0.0,0.0,-0.4325522018833862,0.0,0.0,0.92,0.0,0.0,0.0,0.0,0.0,0.0,-0.0075494601096163065,0.0,0.0,-0.0075494601096163065,0.0,0.0,23.443974949024728,0.014941780371695183,0.9935622512029151,0.0018069886981275486,-0.10247482079508823,0.0006853156894748018,1.0,37.72213463933037,3.7455582405776395,14513.871921370648,172.51155543776952,0.13664514932576818,8.439271670206146,14510.679220103471,175.1251633882985,3154.1376991654984,-0.5891768986387671
0.32,54.90776628107006,0.0,14502.826690486356,175.26035558264593,0.0,7.689004386417005,175.4289401079817,20.921038906774683,0.0,4.465043747266885,0.0,0.0,-0.7482652408400684,0.0,1.9529800376154764,0.0,3223.225005802636,0.5945343180744247,175.4289401079817,2.412581581528654,0.20946821908403607,13026.829442512255,216.64999999999998,0.0,0.0,0.0,513.728,0.255539888127183,0.92,nominal,157611.80187796292,nan,pitch_program,6.16,0.0,0.0,-0.20436520995098661,-0.0,0.0,-0.2500026083374665,0.0,0.0,0.92,0.0,0.0,0.0,0.0,0.0,0.0,-0.004363368654062618,0.0,0.0,-0.004363368654062618,0.0,0.0,23.569079446983697,0.02280690688180394,1.1273140412745286,0.00011049051943466253,-0.015203180040300059,-0.001143984459951592,1.0,37.72213463933037,3.7455582405776395,14513.871921370648,172.51155543776952,0.13664514932576818,8.439271670206146,14506.24152967302,175.30541979880954,3255.9125698344437,2.266422843678348
0.36,61.93701308798352,0.0,14503.128826940909,176.20342371085496,0.0,7.417729386086833,176.35948864938428,20.910773378890607,0.0,4.364519776282281,0.0,0.0,5.725298190005646,0.0,1.9539321703421177,0.0,3257.3551715421913,0.5976879769984164,176.35948864938428,2.43380388878461,0.20945823953280085,13026.208814178168,216.64999999999998,0.0,0.0,0.0,518.1440000000001,0.2577365060767004,0.92,nominal,157778.4429290562,nan,pitch_program,6.18,0.0,0.0,-1.7831126939621134,-0.0,0.0,-1.476490676837184,0.0,0.0,0.92,0.0,0.0,0.0,0.0,0.0,0.0,-0.025769623685808436,0.0,0.0,-0.025769623685808436,0.0,0.0,23.81869649203196,0.060719028135795744,0.9598639916050958,0.0003033229297850018,0.09989622463778194,-0.001911639270072097,1.0,37.72213463933037,3.7455582405776395,14513.871921370648,172.51155543776952,0.13664514932576818,8.439271670206146,14510.174634579147,176.20551857963142,3230.5711148550163,2.266422843678348
0.4,69.00417024253105,0.0,14503.419975583907,177.15602883017536,0.0,7.138698177392861,177.29980136070608,20.900419986288547,0.0,4.12514703082867,0.0,0.0,6.152723005985507,0.0,1.8175986467989518,0.0,3292.0317311694953,0.6008747270081828,177.29980136070608,2.455936201562063,0.20944862335823206,13025.610784240525,216.64999999999998,0.0,0.0,0.0,522.5600000000001,0.2599331240262177,0.92,nominal,157947.57328483282,nan,pitch_program,6.2,0.0,0.0,-2.797826154222551,-0.0,0.0,-2.5335590587454773,0.0,0.0,0.92,0.0,0.0,0.0,0.0,0.0,0.0,-0.04421894736883701,0.0,0.0,-0.04421894736883701,0.0,0.0,24.06888035555946,0.016651402654868273,0.8823359270866351,-0.0023199452481406833,0.10567097585650162,-0.001039337665243372,1.0,76.52259960331847,-2.0373409372265083,14505.526247385413,177.11528462089896,0.06404433169671236,7.382235736200053,14508.671357608544,177.35053136585535,3222.8944344238053,-0.5653054074224395
0.44,76.10962537817748,0.0,14503.699785675271,178.11820502184122,0.0,6.851383845560243,178.24992684655405,20.889978728968508,0.0,3.9736544849970854,0.0,0.0,1.4307457359242903,0.0,1.7708367357200856,0.0,3327.2625576103715,0.6040947328262993,178.24992684655402,2.4777628040246316,0.20943938209393215,13025.03606997411,216.64999999999998,0.0,0.0,0.0,526.976,0.262129741975735,0.92,nominal,158119.22571359333,nan,pitch_program,6.22,0.0,0.0,-2.3464078086627325,-0.0,0.0,-2.3838380586792813,0.0,0.0,0.92,0.0,0.0,0.0,0.0,0.0,0.0,-0.04160582295830325,0.0,0.0,-0.04160582295830325,0.0,0.0,24.311846269767642,0.02200206280549789,0.8689606173147082,-0.002250179167680216,0.023333863086114928,0.002023840005181767,1.0,76.52259960331847,-2.0373409372265083,14505.526247385413,177.11528462089896,0.06404433169671236,7.382235736200053,14511.270257193717,178.59646047907717,3255.628271090321,-0.5653054074224395
0.48,83.25373606292855,0.0,14503.968109047119,179.08861200919375,0.0,6.565499354769738,179.20891923438694,20.87944960693049,0.0,3.9916806698514935,0.0,0.0,-2.2197675420578338,0.0,1.8921221983661032,0.0,3363.0182030003216,0.6073447888603144,179.20891923438694,2.498732726716364,0.2094305205835273,13024.484972604056,216.64999999999998,0.0,0.0,0.0,531.392,0.26432635992525233,0.92,nominal,158293.25722316542,nan,pitch_program,6.240000000000001,0.0,0.0,-1.289819733820923,-0.0,0.0,-1.5086233987925948,0.0,0.0,0.92,0.0,0.0,0.0,0.0,0.0,0.0,-0.026330445481558225,0.0,0.0,-0.026330445481558225,0.0,0.0,24.53222663795052,-0.04730062957896844,1.087288547282529,-0.002301420930840574,-0.0368010130384568,0.0007020663378311348,1.0,76.52259960331847,-2.0373409372265083,14505.526247385413,177.11528462089896,0.06404433169671236,7.382235736200053,14495.1877742826,179.34457402342298,3411.6198473836644,1.0763344186421047
0.52,90.43680836067139,0.0,14504.225165159574,180.06622750625385,0.0,6.28835421498477,180.17599642312814,20.868832620174487,0.0,4.0592825511056025,0.0,0.0,-1.0551107206125072,0.0,2.0591862589800654,0.0,3399.274509332452,0.6106222445445344,180.17599642312817,2.5193364286164095,0.20942203153151748,13023.957038423187,216.64999999999998,0.0,0.0,0.0,535.808,0.26652297787476964,0.92,nominal,158469.55455944568,nan,pitch_program,6.260000000000001,0.0,0.0,-0.9550751517796521,-0.0,0.0,-1.0657848011822406,0.0,0.0,0.92,0.0,0.0,0.0,0.0,0.0,0.0,-0.01860145389834325,0.0,0.0,-0.01860145389834325,0.0,0.0,24.752151537312773,0.021996186468897443,1.216517768420769,0.00037809750381899486,-0.016093747991832105,-0.00022169660988518525,1.0,76.52259960331847,-2.0373409372265083,14505.526247385413,177.11528462089896,0.06404433169671236,7.382235736200053,14509.123803869283,179.96684881491137,3428.071363867525,1.0763344186421047
0.56,97.65913337567673,0.0,14504.471271249422,181.05136778691013,0.0,6.017319510191312,181.15133428048142,20.858127768700506,0.0,4.028536892106834,0.0,0.0,2.6091816878173,0.0,2.1249878733111487,0.0,3436.043021265793,0.6139276959002615,181.15133428048142,2.540243226397351,0.2094139044167936,13023.45161312368,216.64999999999998,0.0,0.0,0.0,540.224,0.268719595824287,0.92,nominal,158648.1761479975,nan,pitch_program,6.28,0.0,0.0,-1.5999660178856299,-0.0,0.0,-1.4931297745449519,0.0,0.0,0.92,0.0,0.0,0.0,0.0,0.0,0.0,-0.026060030725370026,0.0,0.0,-0.026060030725370026,0.0,0.0,24.865432998401232,0.004207450905930109,1.2167856998352038,-0.00031469547756825803,0.048345874353644167,0.000892220028574155,1.0,76.52259960331847,-2.0373409372265083,14505.526247385413,177.11528462089896,0.06404433169671236,7.382235736200053,14508.521284758406,180.9738196987838,3435.487441625375,-0.437788518787047
0.6,104.9210332947928,0.0,14504.706518998246,182.04510153724505,0.0,5.744706549292056,182.13572040388823,20.847335052508544,0.0,3.8927935942908465,0.0,0.0,4.1398865556904925,0.0,2.0853390357273285,0.0,3473.3589206169345,0.6172638121205462,182.13572040388823,2.561707561232904,0.2094061361698318,13022.968505811836,216.64999999999998,0.0,0.0,0.0,544.64,0.2709162137738043,0.92,nominal,158829.2905080558,nan,pitch_program,6.3,0.0,0.0,-2.3453432723949006,-0.0,0.0,-2.174900572824911,0.0,0.0,0.92,0.0,0.0,0.0,0.0,0.0,0.0,-0.037959175899305406,0.0,0.0,-0.037959175899305406,0.0,0.0,25.064218426017813,0.015193382429938932,1.1145111911066328,0.0013621618888177362,0.07103452527250168,-0.0011836210901482742,1.0,92.61996627798452,5.155787177747237,14506.249892466489,182.00506171540505,-0.16682816531070807,5.796583560398477,14502.187319256245,182.28181934530366,3485.0225710092636,-0.437788518787047
0.64,112.22286362552731,0.0,14504.930767016482,183.04787534942253,0.0,5.467394055886345,183.12950900305518,20.836454471598604,0.0,3.7658639099418467,0.0,0.0,2.203722670996437,0.0,2.055024616770513,0.0,3511.2415951636517,0.6206317936334721,183.1295090030552,2.5833334762080957,0.20939873141937,13022.508004348882,216.64999999999998,0.0,0.0,0.0,549.0559999999999,0.2731128317233216,0.92,nominal,159012.9878402122,nan,pitch_program,6.32,0.0,0.0,-2.3745821203336144,-0.0,0.0,-2.3346458108318737,0.0,0.0,0.92,0.0,0.0,0.0,0.0,0.0,0.0,-0.04074725626690889,0.0,0.0,-0.04074725626690889,0.0,0.0,25.355692420310227,-0.03807894411082652,1.110460508750755,-0.0013423212027907324,0.039389840892342716,-0.0018070010935504117,1.0,92.61996627798452,5.155787177747237,14506.249892466489,182.00506171540505,-0.16682816531070807,5.796583560398477,14505.14787743476,182.63200555128367,3531.847249327952,0.32621251383765515
0.68,119.56497679320617,0.0,14505.143899377634,184.05913261338617,0.0,5.189566354613367,184.13227826033383,20.82548602597068,0.0,3.7297313856689382,0.0,0.0,-0.331102036943667,0.0,2.114698806866013,0.0,3549.680853480004,0.624030210885467,184.1322782603338,2.6045884302915248,0.20939169395460588,13022.070344385043,216.64999999999998,0.0,0.0,0.0,553.4720000000001,0.27530944967283905,0.92,nominal,159199.21736950218,nan,pitch_program,6.34,0.0,0.0,-1.8406222983423677,-0.0,0.0,-1.939427000840269,0.0,0.0,0.92,0.0,0.0,0.0,0.0,0.0,0.0,-0.03384938676674153,0.0,0.0,-0.03384938676674153,0.0,0.0,25.536214451719744,0.00876940303428769,1.1995579869370516,0.0008668310412591855,-0.008586548609112022,-0.0059939284980820694,1.0,92.61996627798452,5.155787177747237,14506.249892466489,182.00506171540505,-0.16682816531070807,5.796583560398477,14506.991660884922,183.8892008637111,3553.6640065688157,0.32621251383765515
0.72,126.94769662645425,0.0,14505.34600851091,185.0781444053876,0.0,4.916608942951414,185.1434378530317,20.814429715624776,0.0,3.746558682428573,0.0,0.0,-0.4279917914934098,0.0,2.2248517012997158,0.0,3588.6595619866584,0.6274570632539473,185.14343785303168,2.6255183315432533,0.20938502068673348,13021.655333827459,216.64999999999998,0.0,0.0,0.0,557.888,0.27750606762235636,0.92,nominal,159387.89772438322,nan,pitch_program,6.36,0.0,0.0,-1.513490883757583,-0.0,0.0,-1.59867810717412,0.0,0.0,0.92,0.0,0.0,0.0,0.0,0.0,0.0,-0.027902196649739176,0.0,0.0,-0.027902196649739176,0.0,0.0,25.75065767059744,-0.05858500298168785,1.32396033119519,0.0023871005950224455,-0.009268087428761462,0.000496546704203046,1.0,92.61996627798452,5.155787177747237,14506.249892466489,182.00506171540505,-0.16682816531070807,5.796583560398477,14506.702169047823,185.17995095326958,3661.858289350974,-0.554306214494567
0.76,134.37133034068128,0.0,14505.537304652471,186.10487712844832,0.0,4.6486307696304925,186.16292611319582,20.803285540560893,0.0,3.7244824213959036,0.0,0.0,1.5670458089206474,0.0,2.2936142213357926,0.0,3628.180677914261,0.6309121417442379,186.1629261131958,2.6465091342718545,0.20937870463965944,13021.262538832858,216.64999999999998,0.0,0.0,0.0,562.3040000000001,0.2797026855718737,0.92,nominal,159579.04493818374,nan,pitch_program,6.38,0.0,0.0,-1.7823252402006786,-0.0,0.0,-1.7455958135953669,0.0,0.0,0.92,0.0,0.0,0.0,0.0,0.0,0.0,-0.03046639435626835,0.0,0.0,-0.03046639435626835,0.0,0.0,25.938663750601265,-0.007927091785758818,1.3616596685922777,0.00011900455133867192,0.027745977497959387,-0.0009546881423072352,1.0,92.61996627798452,5.155787177747237,14506.249892466489,182.00506171540505,-0.16682816531070807,5.796583560398477,14505.61634152208,186.89612637713483,3565.0774184385436,-0.554306214494567
0.8,141.83619792491194,0.0,14505.717903112725,187.1399248929574,0.0,4.381229843312454,187.19120348959154,20.792053500779026,0.0,3.6351220341824306,0.0,0.0,2.8922135514378953,0.0,2.2939858125099546,0.0,3668.2676676427236,0.634397006832008,187.19120348959154,2.6678097958817877,0.20937274197401837,13020.891720631087,216.64999999999998,0.0,0.0,0.0,566.72,0.281899303521391,0.92,nominal,159772.77180650123,nan,pitch_program,6.4,0.0,0.0,-2.266304748042988,-0.0,0.0,-2.162162961153464,0.0,0.0,0.92,0.0,0.0,0.0,0.0,0.0,0.0,-0.037736862636798194,0.0,0.0,-0.037736862636798194,0.0,0.0,26.08425268288489,-0.016831732198995437,1.418696254283094,-0.0026183320441112864,0.05027551260327846,0.0029052011353359964,1.0,142.42148376722736,9.723120768809999,14505.351708750371,187.14686898084912,0.16633520575688648,4.32705955643274,14506.061253061904,187.0365056128662,3661.287029504351,0.49378700910504497
0.84,149.342641526499,0.0,14505.887760423884,188.18368910853115,0.0,4.111504949780676,188.22859856952763,20.78073359627918,0.0,3.5365549132280796,0.0,0.0,2.0394326758414323,0.0,2.284935235454733,0.0,3708.9393373466232,0.6379127721102108,188.22859856952763,2.6892843070008636,0.20936713409471025,13020.542966592882,216.64999999999998,0.0,0.0,0.0,571.136,0.2840959214709083,0.92,nominal,159969.16686548505,nan,pitch_program,6.42,0.0,0.0,-2.392551177727322,-0.0,0.0,-2.3464735344125502,0.0,0.0,0.92,0.0,0.0,0.0,0.0,0.0,0.0,-0.04095368898640747,0.0,0.0,-0.04095368898640747,0.0,0.0,26.372078702208263,0.01665859438064426,1.3405683008588365,-0.0012758376964453857,0.03415626670535294,5.676431526540217e-05,1.0,142.42148376722736,9.723120768809999,14505.351708750371,187.14686898084912,0.16633520575688648,4.32705955643274,14501.258571285893,188.34086699885978,3700.5410570765307,0.49378700910504497
0.88,156.8910063729796,0.0,14506.046812865387,189.23592114201048,0.0,3.841368854983947,189.27490579880168,20.769325827061355,0.0,3.4891694389407193,0.0,0.0,0.37841764157461116,0.0,2.3262612653461323,0.0,3750.1936801570046,0.6414587409490459,189.27490579880165,2.7105997610741865,0.20936188307690434,13020.21640577303,216.64999999999998,0.0,0.0,0.0,575.552,0.28629253942042565,0.92,nominal,160168.21895995896,nan,pitch_program,6.44,0.0,0.0,-2.1127624161083127,-0.0,0.0,-2.1595046397691604,0.0,0.0,0.92,0.0,0.0,0.0,0.0,0.0,0.0,-0.037690466176065925,0.0,0.0,-0.037690466176065925,0.0,0.0,26.48284248780442,-0.01156954357108831,1.5043998081404732,-0.0016625255252265777,0.005265198793057693,-0.0003126796573538549,1.0,142.42148376722736,9.723120768809999,14505.351708750371,187.14686898084912,0.16633520575688648,4.32705955643274,14505.120901967073,189.86752514559535,3811.8961944505336,-1.2179812741608433
0.92,164.48162103771364,0.0,14506.195119676871,190.29612923691474,0.0,3.574521934457109,190.3296981808474,20.757830193125546,0.0,3.4816334686078054,0.0,0.0,0.06458055315717134,0.0,2.405516267281852,0.0,3792.0196702483922,0.6450334662434224,190.3296981808474,2.7316922527752565,0.20935698693806745,13019.91191487778,216.64999999999998,0.0,0.0,0.0,579.968,0.28848915736994296,0.92,nominal,160369.8753751854,nan,pitch_program,6.46,0.0,0.0,-1.8815058530045563,-0.0,0.0,-1.937105610357477,0.0,0.0,0.92,0.0,0.0,0.0,0.0,0.0,0.0,-0.033808870859592347,0.0,0.0,-0.033808870859592347,0.0,0.0,26.70558714883833,-0.042974458104001266,1.536871642531319,0.0021088253693132063,0.0019135766262912707,-1.5700794556830217e-05,1.0,142.42148376722736,9.723120768809999,14505.351708750371,187.14686898084912,0.16633520575688648,4.32705955643274,14506.960054239189,190.14821141887,3791.5611481791166,-1.2179812741608433
0.96,172.11480111550503,0.0,14506.33283457833,191.3642175594472,0.0,3.311628811707255,191.39286989730306,20.746246694471758,0.0,3.4557406309301824,0.0,0.0,1.2676313879923975,0.0,2.4643148619881705,0.0,3834.418768729138,0.64863658937151,191.39286989730306,2.752775674991263,0.20935244057863012,13019.629176764889,216.64999999999998,0.0,0.0,0.0,584.384,0.2906857753194603,0.92,nominal,160574.14421598057,nan,pitch_program,6.48,0.0,0.0,-2.024355670503844,-0.0,0.0,-2.0069056584745706,0.0,0.0,0.92,0.0,0.0,0.0,0.0,0.0,0.0,-0.035027111517286096,0.0,0.0,-0.035027111517286096,0.0,0.0,26.926166841007994,-0.02900782560511061,1.6065380955093609,0.0030467039527811136,0.020970980191491892,0.0033123966911809536,1.0,142.42148376722736,9.723120768809999,14505.351708750371,187.14686898084912,0.16633520575688648,4.32705955643274,14507.040236223504,191.31587869115992,3794.0970300347844,0.40036534739707086
1.0,179.79086850808335,0.0,14506.460064157702,192.44055482534134,0.0,3.0499145601117164,192.46472175520685,20.73457533109999,0.0,3.3859976524050768,0.0,0.0,2.2245048000168515,0.0,2.4780154257488634,0.0,3877.4088010865394,0.6522691297780323,192.46472175520682,2.7740419160543843,0.2093482404571486,13019.367971191954,216.64999999999998,0.0,0.0,0.0,588.8000000000001,0.2928823932689777,0.92,nominal,160781.11114832672,nan,pitch_program,6.5,0.0,0.0,-2.3511663206525926,-0.0,0.0,-2.282314188216988,0.0,0.0,0.92,0.0,0.0,0.0,0.0,0.0,0.0,-0.03983389714936801,0.0,0.0,-0.03983389714936801,0.0,0.0,27.100416510858587,0.07031997534326301,1.5660156742225513,-0.002900562749676329,0.03746635754739626,-0.00038221197817341144,1.0,178.56310125093287,9.801834884938074,14497.933132469687,192.55394356176805,0.1303421671764806,3.063568774774839,14507.32399843638,192.09412076452202,3847.854201440433,0.40036534739707086
1.04,187.51010209636394,0.0,14506.576802468746,193.52108807859952,0.0,2.786912100248591,193.54115430620843,20.722861052321985,0.0,3.3073930477051356,0.0,0.0,1.7168479531797358,0.0,2.482329146082939,0.0,3920.829694008336,0.6559171943007327,193.54115430620843,2.773247548181194,0.20934438674907999,13019.128309070653,216.64999999999998,0.0,0.0,0.0,588.6977777777778,0.29283154563125735,0.92,nominal,160990.0106050199,nan,pitch_program,6.52,0.0,0.0,-2.4643401484392604,-0.0,0.0,-2.427934956394806,0.0,0.0,0.92,0.0,0.0,0.0,0.0,0.0,0.0,-0.04237545901335432,0.0,0.0,-0.04237545901335432,0.0,0.0,27.159392584586943,0.06049545643360433,1.5946858722459307,0.001435557965712818,0.028797739831727853,-0.0011869250389030216,1.0,178.56310125093287,9.801834884938074,14497.933132469687,192.55394356176805,0.1303421671764806,3.063568774774839,14505.041406069799,193.15137543295847,3936.22438355705,0.8815625200690751
1.08,195.27255169849914,0.0,14506.683008023589,194.60130800547316,0.0,2.523544975368898,194.61766969287177,20.71114880744949,0.0,3.26256932424545,0.0,0.0,0.5681416896988767,0.0,2.519612486050048,0.0,3964.501510822577,0.6595655395561539,194.6176696928718,2.772353801376181,0.20934088080483879,13018.910274383266,216.64999999999998,0.0,0.0,0.0,588.5955555555556,0.29278069799353706,0.92,nominal,161199.9815989764,nan,pitch_program,6.54,0.0,0.0,-2.292132870365644,-0.0,0.0,-2.3192932875714765,0.0,0.0,0.92,0.0,0.0,0.0,0.0,0.0,0.0,-0.04047930418752595,0.0,0.0,-0.04047930418752595,0.0,0.0,27.073889856251547,-0.01686589649251677,1.7191861525911123,-0.0007659292006374593,0.010051941680815177,-0.002421210837740199,1.0,178.56310125093287,9.801834884938074,14497.933132469687,192.55394356176805,0.1303421671764806,3.063568774774839,14511.167237766273,194.74086229806562,3975.9152078460984,0.8815625200690751
1.12,203.07819740771666,0.0,14506.778720703633,195.68085481674993,0.0,2.262486457351174,195.6939339549994,20.6994385964825,0.0,3.2454840669662874,0.0,0.0,0.3431555063720579,0.0,2.5830526332705808,0.0,4008.4108065405208,0.6632130337424498,195.6939339549994,2.7712951063177718,0.20933772129046357,13018.713784170732,216.64999999999998,0.0,0.0,0.0,588.4933333333333,0.2927298503558167,0.92,nominal,161410.95943478012,nan,pitch_program,6.5600000000000005,0.0,0.0,-2.142186813560116,-0.0,0.0,-2.1776081083623877,0.0,0.0,0.92,0.0,0.0,0.0,0.0,0.0,0.0,-0.038006431309049134,0.0,0.0,-0.038006431309049134,0.0,0.0,27.085756377630865,-0.07362450898188537,1.7484202714367598,-0.0005770327252889308,0.006174525108079843,0.00022719160872536828,1.0,178.56310125093287,9.801834884938074,14497.933132469687,192.55394356176805,0.1303421671764806,3.063568774774839,14506.332698555401,195.02741006135005,4019.348282709146,-0.5090080340001448
1.16,210.92700958501047,0.0,14506.864049652786,196.7596497956624,0.0,2.004248426000029,196.76985744637014,20.687730419421023,0.0,3.215092279001713,0.0,0.0,1.2114381467229445,0.0,2.6314817445077883,0.0,4052.5538565486727,0.6668593730456949,196.76985744637014,2.7701975327839055,0.20933490458746132,13018.53861339895,216.64999999999998,0.0,0.0,0.0,588.3911111111112,0.29267900271809644,0.92,nominal,161622.9267322599,nan,pitch_program,6.58,0.0,0.0,-2.2562639577809143,-0.0,0.0,-2.2405327878972088,0.0,0.0,0.92,0.0,0.0,0.0,0.0,0.0,0.0,-0.03910467414769405,0.0,0.0,-0.03910467414769405,0.0,0.0,27.070083637131777,-0.009075603813702275,1.7960050319486194,-0.0005930591144393622,0.022176923375149052,-0.0021957315116842694,1.0,178.56310125093287,9.801834884938074,14497.933132469687,192.55394356176805,0.1303421671764806,3.063568774774839,14501.829384742401,196.51847077441312,4017.4636521167868,-0.5090080340001448
1.2,218.8189629741969,0.0,14506.93906913411,197.83795811345934,0.0,1.7467642095972948,197.84566928721694,20.676024276265053,0.0,3.153864761275148,0.0,0.0,1.8608423579363558,0.0,2.6479981549780187,0.0,4096.940079387515,0.6705053339617247,197.84566928721696,2.76919531681616,0.20933242823062204,13018.384608756503,216.64999999999998,0.0,0.0,0.0,588.2888888888889,0.2926281550803761,0.92,nominal,161835.92845017742,nan,pitch_program,6.6,0.0,0.0,-2.497231586911135,-0.0,0.0,-2.44589182710835,0.0,0.0,0.92,0.0,0.0,0.0,0.0,0.0,0.0,-0.0426888655306606,0.0,0.0,-0.0426888655306606,0.0,0.0,27.11798570670407,0.029212491413209238,1.808145350597695,0.001795379611009677,0.03658279625071933,0.0014238785755221728,1.0,214.12576266633494,-2.1519477198296277,14507.690991533298,197.79549827220868,-0.24018992972761957,1.9401565167518393,14509.775080325553,199.20817991032325,4064.175354084319,0.6660156277508382
1.24,226.7540428891226,0.0,14507.003773761011,198.91597961290117,0.0,1.4884785761637376,198.92154864124655,20.664320167014594,0.0,3.0889357034564586,0.0,0.0,1.403787614839022,0.0,2.66020218127029,0.0,4141.577071628976,0.6741515236821017,198.92154864124657,2.7682678161915857,0.20933029238567413,13018.251780550041,216.64999999999998,0.0,0.0,0.0,588.1866666666667,0.2925773074426558,0.92,nominal,162049.9998148693,nan,pitch_program,6.62,0.0,0.0,-2.5707513363026533,-0.0,0.0,-2.5457794344637925,0.0,0.0,0.92,0.0,0.0,0.0,0.0,0.0,0.0,-0.044432233160952385,0.0,0.0,-0.044432233160952385,0.0,0.0,27.135050642468386,0.00985208390453476,1.8160821617552085,-0.0018108774711583008,0.024368611343586054,0.0033332631786198866,1.0,214.12576266633494,-2.1519477198296277,14507.690991533298,197.79549827220868,-0.24018992972761957,1.9401565167518393,14511.918878711353,198.77913653862487,4097.786270703853,0.6660156277508382
1.28,234.73223573466257,0.0,14507.058148245242,199.99356508444595,0.0,1.2304772338733847,199.99735035597246,20.65261809166964,0.0,3.0507186485379263,0.0,0.0,0.5515011023289527,0.0,2.6982059930036106,0.0,4186.459022470952,0.6777974502803823,199.9973503559725,2.767276679555097,0.20932849754684038,13018.140159515278,216.64999999999998,0.0,0.0,0.0,588.0844444444444,0.29252645980493547,0.92,nominal,162265.11186419398,nan,pitch_program,6.64,0.0,0.0,-2.439274294012222,-0.0,0.0,-2.460575322102536,0.0,0.0,0.92,0.0,0.0,0.0,0.0,0.0,0.0,-0.04294514086400926,0.0,0.0,-0.04294514086400926,0.0,0.0,27.143596163689075,0.0333238494475611,1.8724122350729357,0.0029522023511535525,0.008377424629826736,-0.0027116470675172715,1.0,214.12576266633494,-2.1519477198296277,14507.690991533298,197.79549827220868,-0.24018992972761957,1.9401565167518393,14508.591370754293,199.88044740621774,4200.396483870372,-0.33405608382744945
1.32,242.75351828313012,0.0,14507.102246386014,201.07043813528875,0.0,0.9748082840206337,201.07280110225642,20.640918050230198,0.0,3.030619532755996,0.0,0.0,0.5049191171337244,0.0,2.7528464128097103,0.0,4231.574552330272,0.6814421874353295,201.07280110225642,2.7661684983721924,0.20932704192951987,13018.049634667877,216.64999999999998,0.0,0.0,0.0,587.9822222222223,0.2924756121672152,0.92,nominal,162481.20991607517,nan,pitch_program,6.66,0.0,0.0,-2.3513961836202344,-0.0,0.0,-2.3732320113166945,0.0,0.0,0.92,0.0,0.0,0.0,0.0,0.0,0.0,-0.04142071251120365,0.0,0.0,-0.04142071251120365,0.0,0.0,27.035009723015598,-0.014323934060683427,1.9171765938532068,-0.0005745533379243842,0.00842624790076814,0.0017061813416462102,1.0,214.12576266633494,-2.1519477198296277,14507.690991533298,197.79549827220868,-0.24018992972761957,1.9401565167518393,14504.276989177177,201.25867647285742,4187.8469709397705,-0.33405608382744945
1.36,250.8178606408035,0.0,14507.13616902282,202.14657614683233,0.0,0.7215806177368195,202.14786401660288,20.629220042696264,0.0,2.996316035703616,0.0,0.0,1.2407543827406196,0.0,2.791794400142423,0.0,4276.922010882531,0.6850856102153716,202.14786401660288,2.765024308576162,0.20932592219809626,13017.979998565845,216.64999999999998,0.0,0.0,0.0,587.88,0.2924247645294949,0.92,nominal,162698.28637518513,nan,pitch_program,6.68,0.0,0.0,-2.4735304720811473,-0.0,0.0,-2.453470779928257,0.0,0.0,0.92,0.0,0.0,0.0,0.0,0.0,0.0,-0.04282114321122129,0.0,0.0,-0.04282114321122129,0.0,0.0,27.024684963850262,-0.06893770905393802,2.0279227665823925,-0.004196589419009598,0.020817867386362432,0.00035495181335932715,1.0,214.12576266633494,-2.1519477198296277,14507.690991533298,197.79549827220868,-0.24018992972761957,1.9401565167518393,14512.235213910517,202.7785122184895,4254.116101917218,-0.06608113944388402
1.4000000000000001,258.9252377817807,0.0,14507.15997906094,203.2222100188793,0.0,0.46898818414560317,203.22275117435638,20.61752406906784,0.0,2.939273210183026,0.0,0.0,1.624786144349132,0.0,2.8070485095078,0.0,4322.510329692897,0.6887284373506697,203.22275117435638,2.7639438645940957,0.2093251362707913,13017.93112174338,216.64999999999998,0.0,0.0,0.0,587.7777777777778,0.2923739168917746,0.92,nominal,162916.38370609513,nan,pitch_program,6.7,0.0,0.0,-2.661803838731023,-0.0,0.0,-2.6201372269704697,0.0,0.0,0.92,0.0,0.0,0.0,0.0,0.0,0.0,-0.04573002146470867,0.0,0.0,-0.04573002146470867,0.0,0.0,27.04026799861901,0.006642551546182464,2.05260606774333,-0.0009663943354459256,0.030812531989456226,0.0004430920508859234,1.0,260.0973439260362,3.8589778648174446,14509.105316358751,203.2958391702543,0.03253690626430949,0.47955758115693475,14511.375440339316,203.3454219725028,4326.439985841924,-0.06608113944388402
1.44,267.0756327004194,0.0,14507.173678290956,204.2974588088496,0.0,0.21606879142416496,204.2975730680035,20.605830129344923,0.0,2.8852704538278915,0.0,0.0,1.1003884594574653,0.0,2.8246733945720806,0.0,4368.344329501711,0.6923710433038129,204.2975730680035,2.762914988468513,0.20932468408474142,13017.903000291,216.64999999999998,0.0,0.0,0.0,587.6755555555557,0.2923230692540543,0.92,nominal,163135.5239329501,nan,pitch_program,6.720000000000001,0.0,0.0,-2.6873127336426346,-0.0,0.0,-2.673877632308202,0.0,0.0,0.92,0.0,0.0,0.0,0.0,0.0,0.0,-0.04666796847920843,0.0,0.0,-0.04666796847920843,0.0,0.0,27.010118206629645,-0.04753072186992216,2.1560783324411266,-0.0008804290847488439,0.018007615670252785,-0.001454516370070003,1.0,260.0973439260362,3.8589778648174446,14509.105316358751,203.2958391702543,0.03253690626430949,0.47955758115693475,14509.664378571493,204.22760183253274,4364.424070617559,-0.25750679912606317
1.48,275.26902708506276,0.0,14507.17727577797,205.37214661791288,0.0,-0.03589736661461096,205.37214975519547,20.594138223527516,0.0,2.8549110646979354,0.0,0.0,0.46473032714741525,0.0,2.8649258968724824,0.0,4414.416442003622,0.6960128182443964,205.3721497551955,2.7618359483874775,0.20932456533856209,13017.895615465599,216.64999999999998,0.0,0.0,0.0,587.5733333333334,0.292272221616334,0.92,nominal,163355.66997904325,nan,pitch_program,6.74,0.0,0.0,-2.570851017546198,-0.0,0.0,-2.5914563404985986,0.0,0.0,0.92,0.0,0.0,0.0,0.0,0.0,0.0,-0.04522944556338382,0.0,0.0,-0.04522944556338382,0.0,0.0,27.01936126983478,0.0992661653135299,2.129557382007607,0.0019915090477635043,0.009392039417798587,0.00026804725266218077,1.0,260.0973439260362,3.8589778648174446,14509.105316358751,203.2958391702543,0.03253690626430949,0.47955758115693475,14506.54989865059,205.00550420912566,4381.855548312251,-0.25750679912606317
1.52,283.5053937686538,0.0,14507.170843762598,206.44605948813137,0.0,-0.28533102360795487,206.44625666737122,20.582448351615618,0.0,2.833740061874419,0.0,0.0,0.6402416097123802,0.0,2.912929042510828,0.0,4460.716966110461,0.6996530011023465,206.44625666737122,2.7606647971856475,0.2093247776471593,13017.90881893817,216.64999999999998,0.0,0.0,0.0,587.4711111111111,0.29222137397861364,0.92,nominal,163576.77540096952,nan,pitch_program,6.76,0.0,0.0,-2.539620372662704,-0.0,0.0,-2.549987566229883,0.0,0.0,0.92,0.0,0.0,0.0,0.0,0.0,0.0,-0.04450567891562843,0.0,0.0,-0.04450567891562843,0.0,0.0,26.964041188944897,0.009331702167310675,2.1788833569733934,0.00215078521352625,0.012476453839687337,0.0013650501191443132,1.0,260.0973439260362,3.8589778648174446,14509.105316358751,203.2958391702543,0.03253690626430949,0.47955758115693475,14508.655331894002,205.9202671051357,4506.0948301521885,0.49519409560981303
1.56,291.78470196485745,0.0,14507.154479344314,207.5192484447458,0.0,-0.5326689076581032,207.51993208180588,20.570760513609226,0.0,2.795375978035916,0.0,0.0,1.3025741096072958,0.0,2.942444808939978,0.0,4507.247399025336,0.7032917216005794,207.51993208180588,2.759463353958341,0.20932531780646144,13017.942411447484,216.64999999999998,0.0,0.0,0.0,587.3688888888889,0.29217052634089336,0.92,nominal,163798.84758048056,nan,pitch_program,6.78,0.0,0.0,-2.682948715173636,-0.0,0.0,-2.6563564853848853,0.0,0.0,0.92,0.0,0.0,0.0,0.0,0.0,0.0,-0.046362166776670884,0.0,0.0,-0.046362166776670884,0.0,0.0,26.947893706851325,0.030057852415360995,2.2739584919760976,0.0020406099943563478,0.024982870963816954,5.270512958780247e-05,1.0,260.0973439260362,3.8589778648174446,14509.105316358751,203.2958391702543,0.03253690626430949,0.47955758115693475,14501.230524458739,206.98320345234185,4537.236440716016,0.49519409560981303
1.6,300.10692706117953,0.0,14507.128232369587,208.59192734739403,0.0,-0.7795921649585745,208.59338416748545,20.559074709508344,0.0,2.7415334261690507,0.0,0.0,1.4050752369779074,0.0,2.955669866583988,0.0,4554.016723872539,0.7069296852304814,208.59338416748548,2.7583151969725477,0.2093261841736575,13017.99629082712,216.64999999999998,0.0,0.0,0.0,587.2666666666668,0.29211967870317307,0.92,nominal,164021.92903918927,nan,pitch_program,6.8,0.0,0.0,-2.8242877426553177,-0.0,0.0,-2.790701491201231,0.0,0.0,0.92,0.0,0.0,0.0,0.0,0.0,0.0,-0.04870692946177705,0.0,0.0,-0.04870692946177705,0.0,0.0,26.962480923143783,0.010702041299019636,2.2746330602695752,0.0006251763618137376,0.02429558981109293,0.0017833417251022147,1.0,306.41772215265655,11.830632502546393,14512.113992871109,208.80744893853182,-0.04529189010192437,-0.8231797692336391,14511.064323994882,208.2036850014717,4582.088081625138,-0.6741629923975655
1.6400000000000001,308.47205004302106,0.0,14507.092109078974,209.66412421927612,0.0,-1.026387760045541,209.66663648866506,20.547390939312972,0.0,2.6984297464278004,0.0,0.0,0.7832349204928777,0.0,2.978912720078175,0.0,4601.026041316088,0.7105669718520704,209.66663648866506,2.7572067368148807,0.20932737654680625,13018.070444518351,216.64999999999998,0.0,0.0,0.0,587.1644444444444,0.29206883106545267,0.92,nominal,164246.0240597343,nan,pitch_program,6.82,0.0,0.0,-2.7958051087280027,-0.0,0.0,-2.7947843852226484,0.0,0.0,0.92,0.0,0.0,0.0,0.0,0.0,0.0,-0.04877818940546077,0.0,0.0,-0.04877818940546077,0.0,0.0,26.957813719804115,-0.005763316282011772,2.3022261775976727,0.001170130040007388,0.01407464468627358,9.779704529074835e-05,1.0,306.41772215265655,11.830632502546393,14512.113992871109,208.80744893853182,-0.04529189010192437,-0.8231797692336391,14502.902792747593,210.30056746498357,4602.352778280885,-0.6741629923975655
1.68,316.88004764410823,0.0,14507.046144297494,210.7356249015302,0.0,-1.2714859846745503,210.73946065995247,20.53570920302311,0.0,2.67590866548739,0.0,0.0,0.39266761722502425,0.0,3.021601979890697,0.0,4648.265339835973,0.7142028074599098,210.7394606599525,2.756049828589396,0.20932889378194783,13018.164801378309,216.64999999999998,0.0,0.0,0.0,587.0622222222222,0.2920179834277324,0.92,nominal,164471.08421059884,nan,pitch_program,6.84,0.0,0.0,-2.6943069446172467,-0.0,0.0,-2.7144024327383267,0.0,0.0,0.92,0.0,0.0,0.0,0.0,0.0,0.0,-0.047375259675427724,0.0,0.0,-0.047375259675427724,0.0,0.0,26.91599064312548,0.011926752025745897,2.3951740750388697,0.0013622792658459716,0.005463893473861348,-0.003190273392820918,1.0,306.41772215265655,11.830632502546393,14512.113992871109,208.80744893853182,-0.04529189010192437,-0.8231797692336391,14507.539902610908,209.95219093873635,4569.145747828751,-0.08047258739662322
1.72,325.3308885700762,0.0,14506.990429943056,211.80629175890778,0.0,-1.5138785906947614,211.81170188884025,20.524029500638754,0.0,2.6525163509834893,0.0,0.0,0.8162486510519309,0.0,3.062029100635677,0.0,4695.727624384601,0.7178366674572153,211.8117018888403,2.754807528389105,0.20933073285202278,13018.279173154151,216.64999999999998,0.0,0.0,0.0,586.96,0.2919671357900121,0.92,nominal,164697.07622832453,nan,pitch_program,6.86,0.0,0.0,-2.7274178374304126,-0.0,0.0,-2.724814756491995,0.0,0.0,0.92,0.0,0.0,0.0,0.0,0.0,0.0,-0.04755698900771285,0.0,0.0,-0.04755698900771285,0.0,0.0,26.98212248207886,0.08478436740126714,2.5574929857791537,0.0028410326260689092,0.01718650948013476,-0.00046231110741567523,1.0,306.41772215265655,11.830632502546393,14512.113992871109,208.80744893853182,-0.04529189010192437,-0.8231797692336391,14508.059097310985,211.88334171607548,4747.70581390264,-0.08047258739662322
1.76,333.82454162984453,0.0,14506.925055745507,212.8762627952193,0.0,-1.7546554942692663,212.88349414072206,20.512351832159908,0.0,2.609547995263361,0.0,0.0,1.3502791749604672,0.0,3.081803926039242,0.0,4743.418629864216,0.7214690058570127,212.88349414072206,2.753543800114144,0.2093328908035855,13018.413376171084,216.64999999999998,0.0,0.0,0.0,586.8577777777779,0.2919162881522918,0.92,nominal,164924.0276367081,nan,pitch_program,6.88,0.0,0.0,-2.888446735838706,-0.0,0.0,-2.855720339969364,0.0,0.0,0.92,0.0,0.0,0.0,0.0,0.0,0.0,-0.04984172244863722,0.0,0.0,-0.04984172244863722,0.0,0.0,26.816817659854646,-0.019542158141150158,2.559001259328826,0.0015423258569886601,0.022563168373354217,-0.00047321409324569476,1.0,306.41772215265655,11.830632502546393,14512.113992871109,208.80744893853182,-0.04529189010192437,-0.8231797692336391,14511.581887917213,212.97803232520187,4763.78843039011,-0.8611599020699875
1.8,342.36098297712186,0.0,14506.850055584833,213.9457141896341,0.0,-1.9952273327607997,213.9550175906655,20.50067619758657,0.0,2.5606685179079416,0.0,0.0,1.114080053200683,0.0,3.09498532719029,0.0,4791.346322990316,0.7251004332783991,213.9550175906655,2.752341324317742,0.20933536652812637,13018.56734149089,216.64999999999998,0.0,0.0,0.0,586.7555555555556,0.2918654405145715,0.92,nominal,165151.97587371198,nan,pitch_program,6.9,0.0,0.0,-2.9674352185641375,-0.0,0.0,-2.945092242845183,0.0,0.0,0.92,0.0,0.0,0.0,0.0,0.0,0.0,-0.05140155641259285,0.0,0.0,-0.05140155641259285,0.0,0.0,26.876785414335103,-0.012616271786481273,2.554915319457854,-0.0024485258041474366,0.021871765006023277,-0.0024013633030982827,1.0,343.97788336742644,-7.09251412192725,14512.355771579527,213.9103638344684,-0.09380297767371762,-1.8725284797579453,14499.32436447562,214.4141956686572,4791.2510386582435,-0.8611599020699875
1.84,350.94019085412344,0.0,14506.76544497236,215.01455769163584,0.0,-2.235010083448153,215.02617349849044,20.48900259691874,0.0,2.5300363270874184,0.0,0.0,0.4605714412718113,0.0,3.1255868538388123,0.0,4839.5062928032185,0.7287306150877294,215.02617349849044,2.7511727168692617,0.20933815952488719,13018.741037971415,216.64999999999998,0.0,0.0,0.0,586.6533333333333,0.29181459287685113,0.92,nominal,165380.89899563964,nan,pitch_program,6.92,0.0,0.0,-2.8852556755189216,-0.0,0.0,-2.897222988984174,0.0,0.0,0.92,0.0,0.0,0.0,0.0,0.0,0.0,-0.05056608032224524,0.0,0.0,-0.05056608032224524,0.0,0.0,26.850594983402175,-0.03147153031684427,2.6044544244445125,0.0015234255781412709,0.006417199559902616,-0.00275334797758336,1.0,343.97788336742644,-7.09251412192725,14512.355771579527,213.9103638344684,-0.09380297767371762,-1.8725284797579453,14501.771708843202,215.306525399391,4866.024953746654,-0.4377004259237133
1.8800000000000001,359.56213615181673,0.0,14506.671290597602,216.08256179335012,0.0,-2.4722920973698366,216.09670460095336,20.47733103015642,0.0,2.5132427587492208,0.0,0.0,0.4284626597709703,0.0,3.168759433378633,0.0,4887.8868305177575,0.7323586794116003,216.09670460095336,2.7499404272956958,0.20934126760509775,13018.93432949303,216.64999999999998,0.0,0.0,0.0,586.5511111111111,0.2917637452391309,0.92,nominal,165610.74088163482,nan,pitch_program,6.940000000000001,0.0,0.0,-2.822910089066647,-0.0,0.0,-2.8377726690501524,0.0,0.0,0.92,0.0,0.0,0.0,0.0,0.0,0.0,-0.04952847649803255,0.0,0.0,-0.04952847649803255,0.0,0.0,26.83890779580891,-0.05233884781100386,2.638445949435361,0.0012108659900614454,0.007400026563856731,0.003575424518336167,1.0,343.97788336742644,-7.09251412192725,14512.355771579527,213.9103638344684,-0.09380297767371762,-1.8725284797579453,14510.697801103244,215.76067543883244,4903.131686701683,-0.4377004259237133
1.92,368.22678408276585,0.0,14506.5676993492,217.14971022895574,0.0,-2.7069728337121606,217.1665820388623,20.46566149729961,0.0,2.484082274592935,0.0,0.0,1.05772339292763,0.0,3.198290390105432,0.0,4936.486348738751,0.7359845284452824,217.1665820388623,2.7486151509853634,0.20934468725426308,13019.146997489277,216.64999999999998,0.0,0.0,0.0,586.448888888889,0.2917128976014106,0.92,nominal,165841.49430604378,nan,pitch_program,6.960000000000001,0.0,0.0,-2.931313918237562,-0.0,0.0,-2.91260566840008,0.0,0.0,0.92,0.0,0.0,0.0,0.0,0.0,0.0,-0.050834558725831556,0.0,0.0,-0.050834558725831556,0.0,0.0,26.783659895317733,-0.08394908484278574,2.7588182865385007,-0.0017559386763310505,0.01860820195716882,0.004391941373850292,1.0,343.97788336742644,-7.09251412192725,14512.355771579527,213.9103638344684,-0.09380297767371762,-1.8725284797579453,14506.377809299884,217.51750207036497,4951.210436708296,1.689769774273951
1.96,376.9341045609531,0.0,14506.45474253109,218.21621789806616,0.0,-2.940732721961982,218.23603199902234,20.45399399834831,0.0,2.4374332825980596,0.0,0.0,1.2886778352165715,0.0,3.2095178532306075,0.0,4985.314913369718,0.73960892874313,218.23603199902232,2.7472953502313677,0.209348416133776,13019.378896522165,216.64999999999998,0.0,0.0,0.0,586.3466666666667,0.2916620499636903,0.92,nominal,166073.20723218165,nan,pitch_program,6.98,0.0,0.0,-3.0815745811198387,-0.0,0.0,-3.0477807985758867,0.0,0.0,0.92,0.0,0.0,0.0,0.0,0.0,0.0,-0.053193809814211325,0.0,0.0,-0.053193809814211325,0.0,0.0,26.78299729012654,-0.029840373086493243,2.8260502041591526,0.0017700325320908876,0.024086725057020336,-0.001555963866533657,1.0,343.97788336742644,-7.09251412192725,14512.355771579527,213.9103638344684,-0.09380297767371762,-1.8725284797579453,14504.668062558161,218.83504861490619,4855.961710049849,1.689769774273951
2.0,385.6840742980395,0.0,14506.332439043823,219.28215802372117,0.0,-3.1742302847080874,219.30513118812468,20.442328533302515,0.0,2.39846087096891,0.0,0.0,0.6913142776080922,0.0,3.2277909844705968,0.0,5034.375972185841,0.7432321402665859,219.30513118812468,2.746064181258889,0.20935245363620453,13019.629988815497,216.64999999999998,0.0,0.0,0.0,586.2444444444444,0.29161120232596993,0.92,nominal,166305.8952960694,nan,pitch_program,7.0,0.0,0.0,-3.070301735649561,-0.0,0.0,-3.065797548234826,0.0,0.0,0.92,0.0,0.0,0.0,0.0,0.0,0.0,-0.05350826141626738,0.0,0.0,-0.05350826141626738,0.0,0.0,26.802109109566757,0.032726305191884804,2.795069835530587,-0.0024452370221656238,0.01100558293019582,-0.0009991117763046057,1.0,380.0398171641386,4.483429753522697,14516.343183718027,219.3652754203787,0.16248646412335038,-3.3340768089573127,14501.676596683812,219.30658790144017,5041.799691551646,-0.3203294306672646
2.04,394.4766666821041,0.0,14506.200828409426,220.34731161283904,0.0,-3.4058859496803247,220.3736322569191,20.43066510216223,0.0,2.381186960732191,0.0,0.0,0.2247687555363927,0.0,3.2667314691660083,0.0,5083.658075987901,0.7468533247410886,220.37363225691908,2.7448487892082998,0.20935679847465516,13019.900194337362,216.64999999999998,0.0,0.0,0.0,586.1422222222222,0.29156035468824965,0.92,nominal,166539.5032509752,nan,pitch_program,7.02,0.0,0.0,-2.9592705421110117,-0.0,0.0,-2.980575943335775,0.0,0.0,0.92,0.0,0.0,0.0,0.0,0.0,0.0,-0.052020863816945206,0.0,0.0,-0.052020863816945206,0.0,0.0,26.702821734509776,0.015957847330123835,2.8512365152039614,0.0007932146140383378,0.0031534918509388897,-0.0016218361591661093,1.0,380.0398171641386,4.483429753522697,14516.343183718027,219.3652754203787,0.16248646412335038,-3.3340768089573127,14508.4435171284,220.46207904960906,5152.396612300153,-0.3203294306672646
2.08,403.3118460624735,0.0,14506.060014053865,221.41150788592182,0.0,-3.634421882957481,221.44133500035835,20.419003704927455,0.0,2.364009808716368,0.0,0.0,0.6747410185637011,0.0,3.304423146117096,0.0,5133.151688116309,0.7504718036652964,221.44133500035835,2.7435214034111253,0.20936144725376532,13020.189301930146,216.64999999999998,0.0,0.0,0.0,586.0400000000001,0.29150950705052936,0.92,nominal,166773.98586019178,nan,pitch_program,7.04,0.0,0.0,-2.9832258005121006,-0.0,0.0,-2.9826958290768353,0.0,0.0,0.92,0.0,0.0,0.0,0.0,0.0,0.0,-0.0520578628028928,0.0,0.0,-0.0520578628028928,0.0,0.0,26.779889410360198,0.023812274125215267,2.9596256778577694,-0.001069419264955989,0.0072864923809941445,0.0031085733964478332,1.0,380.0398171641386,4.483429753522697,14516.343183718027,219.3652754203787,0.16248646412335038,-3.3340768089573127,14514.499805826372,220.39325261196635,5101.712355441181,-1.5756498176730784
2.12,412.18957653783644,0.0,14505.910100681516,222.4749045983693,0.0,-3.861047734632907,222.5084062808923,20.40734434159819,0.0,2.32513895517304,0.0,0.0,1.2830880633423485,0.0,3.319406303143986,0.0,5182.864190061703,0.7540881425414167,222.5084062808923,2.742102847400665,0.2093663965369967,13020.497097875515,216.64999999999998,0.0,0.0,0.0,585.9377777777778,0.291458659412809,0.92,nominal,167009.3787216797,nan,pitch_program,7.0600000000000005,0.0,0.0,-3.15556700187921,-0.0,0.0,-3.1209927673187354,0.0,0.0,0.92,0.0,0.0,0.0,0.0,0.0,0.0,-0.05447159972064121,0.0,0.0,-0.05447159972064121,0.0,0.0,26.772491327195734,0.010414939262314302,3.0126354662230943,0.0002550594465217397,0.024404906230325693,0.0017931401779258515,1.0,380.0398171641386,4.483429753522697,14516.343183718027,219.3652754203787,0.16248646412335038,-3.3340768089573127,14504.172262419273,222.69414138908382,5154.213589285569,-1.5756498176730784
2.16,421.1098309709181,0.0,14505.75112748134,223.53771390136126,0.0,-4.087463368917445,223.57508110932014,20.39568701217443,0.0,2.280617420524658,0.0,0.0,0.9619286619058326,0.0,3.3281735570103437,0.0,5232.806356077134,0.7577031378286032,223.57508110932014,2.74076384375844,0.20937164505181247,13020.8235030344,216.64999999999998,0.0,0.0,0.0,585.8355555555556,0.29140781177508873,0.92,nominal,167245.7327408344,nan,pitch_program,7.08,0.0,0.0,-3.2308553242524276,-0.0,0.0,-3.208882812865689,0.0,0.0,0.92,0.0,0.0,0.0,0.0,0.0,0.0,-0.05600557039516333,0.0,0.0,-0.05600557039516333,0.0,0.0,26.758680605653595,-0.00801648284685073,3.0342525674978096,-0.0035834799207807794,0.017194850041726592,0.002079124956510307,1.0,380.0398171641386,4.483429753522697,14516.343183718027,219.3652754203787,0.16248646412335038,-3.3340768089573127,14503.930764913977,224.03474102905602,5188.6000101632135,-0.5744405037668238
2.2,430.072584335642,0.0,14505.583114094637,224.59980873732167,0.0,-4.31283547671272,224.64121312593258,20.38403171665618,0.0,2.2585788544813203,0.0,0.0,0.18912867613899237,0.0,3.3586550602613814,0.0,5282.971250852155,0.761316293509096,224.64121312593258,2.739541544139508,0.20937719217222595,13021.168478476688,216.64999999999998,0.0,0.0,0.0,585.7333333333333,0.2913569641373684,0.92,nominal,167483.01396318153,nan,pitch_program,7.1,0.0,0.0,-3.1177515043715767,-0.0,0.0,-3.135977766070399,0.0,0.0,0.92,0.0,0.0,0.0,0.0,0.0,0.0,-0.054733137287264984,0.0,0.0,-0.054733137287264984,0.0,0.0,26.74637348224051,-0.026082602411264647,3.105653104643209,-0.0022168397814749372,0.0031302056898925394,-0.006281919348802019,1.0,421.43876008700846,2.517774747121766,14499.150053267307,224.5335183068888,-0.2634458300127363,-4.322033196655458,14504.340539829973,224.19757614677306,5255.921349379735,-0.5744405037668238
2.24,439.07780193996626,0.0,14505.40614699307,225.66090132386142,0.0,-4.535023411022429,225.7064660651884,20.372378455043442,0.0,2.250009290227832,0.0,0.0,0.29195254091836637,0.0,3.4013063372027696,0.0,5333.342778073478,0.7649264699681649,225.7064660651884,2.7382565009055533,0.2093830350669029,13021.531848121685,216.64999999999998,0.0,0.0,0.0,585.6311111111112,0.2913061164996481,0.92,nominal,167721.1456032276,nan,pitch_program,7.12,0.0,0.0,-3.0534651917348548,-0.0,0.0,-3.0699677066019633,0.0,0.0,0.92,0.0,0.0,0.0,0.0,0.0,0.0,-0.05358104441010352,0.0,0.0,-0.05358104441010352,0.0,0.0,26.66277383354305,0.052659477207098015,3.253066064287565,4.934340559818788e-05,0.006081792859091498,0.0028652011252540744,1.0,421.43876008700846,2.517774747121766,14499.150053267307,224.5335183068888,-0.2634458300127363,-4.322033196655458,14498.908047337245,225.5158832645709,5302.580825510169,0.8689132768116624
2.2800000000000002,448.12544319575693,0.0,14505.220355038848,226.72102799717635,0.0,-4.754278353863502,226.77087048111454,20.36072722733621,0.0,2.221890067781011,0.0,0.0,1.1340876222695346,0.0,3.4231909342797207,0.0,5383.921920828037,0.7685337707543894,226.77087048111454,2.736783068671186,0.2093891695057893,13021.913348902322,216.64999999999998,0.0,0.0,0.0,585.5288888888889,0.29125526886192776,0.92,nominal,167960.13304412292,nan,pitch_program,7.140000000000001,0.0,0.0,-3.2065318079590983,-0.0,0.0,-3.1792189876876713,0.0,0.0,0.92,0.0,0.0,0.0,0.0,0.0,0.0,-0.05548783897707093,0.0,0.0,-0.05548783897707093,0.0,0.0,26.656736232334563,-0.013692171291304367,3.269953416110315,-0.0015678861031532512,0.020723847982385715,-0.0002586214643303276,1.0,421.43876008700846,2.517774747121766,14499.150053267307,224.5335183068888,-0.2634458300127363,-4.322033196655458,14506.63187825597,226.65957015330235,5301.788078328931,0.8689132768116624
2.32,457.2154756726041,0.0,14505.02580773649,227.78049570410317,0.0,-4.972973631175067,227.83477497946473,20.349078033534486,0.0,2.1750818204972697,0.0,0.0,1.2139397976514554,0.0,3.4257821585703616,0.0,5434.724911947614,0.7721393773038767,227.83477497946475,2.735306516400337,0.20939559321951087,13022.312839686194,216.64999999999998,0.0,0.0,0.0,585.4266666666667,0.2912044212242075,0.92,nominal,168200.0536824107,nan,pitch_program,7.16,0.0,0.0,-3.3647387662124215,-0.0,0.0,-3.3276348105074716,0.0,0.0,0.92,0.0,0.0,0.0,0.0,0.0,0.0,-0.05807818374733298,0.0,0.0,-0.05807818374733298,0.0,0.0,26.60359516077514,0.002171340254746656,3.263922385563939,0.0020476897051890414,0.022773222040321752,-0.0012050598279017908,1.0,421.43876008700846,2.517774747121766,14499.150053267307,224.5335183068888,-0.2634458300127363,-4.322033196655458,14510.356931462946,227.57193505268202,5335.151875231519,1.570569425740388
2.36,466.34787472861626,0.0,14504.822514223846,228.83932073934784,0.0,-5.191403706521541,228.89819874540342,20.337430873638272,0.0,2.1460653201568043,0.0,0.0,0.27787666233557856,0.0,3.445643166192874,0.0,5485.7525591865015,0.7757433546357657,228.89819874540342,2.734037276964715,0.20940230593294484,13022.73030336342,216.64999999999998,0.0,0.0,0.0,585.3244444444445,0.29115357358648714,0.92,nominal,168440.91040355837,nan,pitch_program,7.180000000000001,0.0,0.0,-3.285016735751599,-0.0,0.0,-3.2935403507027736,0.0,0.0,0.92,0.0,0.0,0.0,0.0,0.0,0.0,-0.05748312316705213,0.0,0.0,-0.05748312316705213,0.0,0.0,26.61236546869743,-0.03388755566882334,3.31242822553794,-0.0023420983819323828,0.003737006977576519,0.0013317945057803133,1.0,421.43876008700846,2.517774747121766,14499.150053267307,224.5335183068888,-0.2634458300127363,-4.322033196655458,14505.338000839127,229.0983668859021,5380.836241239398,1.570569425740388
2.4,475.52260773657923,0.0,14504.610536159233,229.89714345825743,0.0,-5.406943675734507,229.96071753710277,20.32578574764757,0.0,2.1429913695098852,0.0,0.0,-0.061059441653225625,0.0,3.4902806257800383,0.0,5536.9842896372975,0.7793442649808627,229.96071753710277,2.7328239045942135,0.20940930563782553,13023.165615039947,216.64999999999998,0.0,0.0,0.0,585.2222222222222,0.29110272594876685,0.92,nominal,168682.60471951554,nan,pitch_program,7.2,0.0,0.0,-3.1398428194334578,-0.0,0.0,-3.170582325687321,0.0,0.0,0.92,0.0,0.0,0.0,0.0,0.0,0.0,-0.055337100788782935,0.0,0.0,-0.055337100788782935,0.0,0.0,26.54050202606258,0.003997227318375376,3.420984405459439,0.0009302006121871143,0.002037044195621275,-0.0020057625821458583,1.0,476.319452006831,-1.5819009364450898,14506.90756522215,229.80310354300116,0.08230997344376206,-5.755988171546849,14508.401307943399,229.74280690744916,5536.586162199731,-0.28706158377980906
2.44,484.73963054670674,0.0,14504.390017405482,230.95383670342906,0.0,-5.618579498773107,231.02217019935168,20.31414265556237,0.0,2.1271709647803294,0.0,0.0,0.8822245141173776,0.0,3.5207715689431525,0.0,5588.411805784457,0.782941562178976,231.02217019935168,2.7313526097785816,0.20941658761219425,13023.618481057145,216.64999999999998,0.0,0.0,0.0,585.12,0.29105187831104656,0.92,nominal,168925.09792599856,nan,pitch_program,7.22,0.0,0.0,-3.243641847326542,-0.0,0.0,-3.229029942998698,0.0,0.0,0.92,0.0,0.0,0.0,0.0,0.0,0.0,-0.0563572041508121,0.0,0.0,-0.0563572041508121,0.0,0.0,26.59809336320475,-0.06471263236947088,3.5295460400242376,8.729582183307437e-05,0.017149921678540448,0.0007467571772009413,1.0,476.319452006831,-1.5819009364450898,14506.90756522215,229.80310354300116,0.08230997344376206,-5.755988171546849,14510.055099742633,231.8283316325846,5586.11306191512,-0.28706158377980906
2.48,493.9989044825259,0.0,14504.161063890217,232.00975881121474,0.0,-5.828996506304812,232.08297090460678,20.302501597382683,0.0,2.080644215186541,0.0,0.0,1.4415878377463398,0.0,3.519836501194876,0.0,5640.054660017056,0.7865366498738768,232.08297090460675,2.7297200538966666,0.2094241483873502,13024.088685696495,216.64999999999998,0.0,0.0,0.0,585.0177777777778,0.2910010306733263,0.92,nominal,169168.48378915328,nan,pitch_program,7.239999999999999,0.0,0.0,-3.476938967128493,-0.0,0.0,-3.427357162302534,0.0,0.0,0.92,0.0,0.0,0.0,0.0,0.0,0.0,-0.059818667123988895,0.0,0.0,-0.059818667123988895,0.0,0.0,26.528986008646328,0.02270023908578577,3.513991047981986,-0.00036335400315480165,0.02795315239207992,0.00025339408748623076,1.0,476.319452006831,-1.5819009364450898,14506.90756522215,229.80310354300116,0.08230997344376206,-5.755988171546849,14493.147071259787,231.72525112899214,5645.815180584658,0.8214646174270985
2.52,503.30040427590063,0.0,14503.923682141052,233.0651081178355,0.0,-6.039886301085938,233.143356861199,20.290862573108505,0.0,2.0432001971632454,0.0,0.0,0.45931852789848715,0.0,3.5276890503427314,0.0,5691.9242226651795,0.7901303319722253,233.14335686119904,2.7283530716285576,0.20943198777789768,13024.576217428239,216.64999999999998,0.0,0.0,0.0,584.9155555555557,0.290950183035606,0.92,nominal,169412.81560172274,nan,pitch_program,7.26,0.0,0.0,-3.456513984748286,-0.0,0.0,-3.4506826202591356,0.0,0.0,0.92,0.0,0.0,0.0,0.0,0.0,0.0,-0.0602257731648671,0.0,0.0,-0.0602257731648671,0.0,0.0,26.54478508184788,0.04708119472024556,3.547764039035006,-0.0004471986779416919,0.010222889075245791,-0.001980562908143919,1.0,476.319452006831,-1.5819009364450898,14506.90756522215,229.80310354300116,0.08230997344376206,-5.755988171546849,14504.001477947606,233.7117609216967,5703.72608979136,0.8214646174270985
2.56,512.6441002410621,0.0,14503.677903118021,234.11949127889383,0.0,-6.248468832122291,234.2028598446954,20.279225582739837,0.0,2.043437628486413,0.0,0.0,-0.39839248150034917,0.0,3.5722549061518296,0.0,5743.997453452553,0.7937210216463642,234.20285984469544,2.727234966100098,0.2094401047926087,13025.081014607902,216.64999999999998,0.0,0.0,0.0,584.8133333333333,0.2908993353978856,0.92,nominal,169657.98268832936,nan,pitch_program,7.28,0.0,0.0,-3.2362612146891303,-0.0,0.0,-3.2791454958031316,0.0,0.0,0.92,0.0,0.0,0.0,0.0,0.0,0.0,-0.05723188555370654,0.0,0.0,-0.05723188555370654,0.0,0.0,26.506607769576608,0.03823239989050145,3.7002660505292333,-0.002319469249955207,-0.004669861416958717,0.0012030919657762462,1.0,476.319452006831,-1.5819009364450898,14506.90756522215,229.80310354300116,0.08230997344376206,-5.755988171546849,14510.125117298147,233.79373340306512,5662.429410379009,-0.9170646562870649
