time_s,x_m,y_m,altitude_m,vx_mps,vy_mps,vz_mps,speed_mps,mass_kg,roll_deg,pitch_deg,yaw_deg,p_dps,q_dps,r_dps,alpha_deg,beta_deg,qbar_pa,mach,airspeed_mps,load_factor_g,density_kgpm3,pressure_pa,temperature_k,wind_x_mps,wind_y_mps,wind_z_mps,thrust_n,mass_flow_kgps,propulsion_throttle_actual,propulsion_health,energy_j_per_kg,target_distance_m,guidance_mode,pitch_command_deg,heading_command_deg,roll_command_deg,elevator_command_deg,aileron_command_deg,rudder_command_deg,elevator_deg,aileron_deg,rudder_deg,throttle,elevator_saturated,aileron_saturated,rudder_saturated,elevator_failed,aileron_failed,rudder_failed,elevator_raw_rad,aileron_raw_rad,rudder_raw_rad,elevator_effective_rad,aileron_effective_rad,rudder_effective_rad,imu_ax_mps2,imu_ay_mps2,imu_az_mps2,gyro_p_rps,gyro_q_rps,gyro_r_rps,gps_valid,gps_x_m,gps_y_m,gps_z_m,gps_vx_mps,gps_vy_mps,gps_vz_mps,baro_alt_m,pitot_airspeed_mps,pitot_qbar_pa,mag_heading_deg
0.0,0.0,0.0,20.0,85.0,0.0,8.0,85.37564055396598,17.864690281045608,0.0,6.000000000000002,0.0,0.0,0.0,0.0,0.623294571949261,0.0,4455.946741876431,0.2509445034436674,85.37564055396597,1.7592437138084216,1.2226496753673843,101084.96761777384,288.02,0.0,0.0,0.0,326.8,0.17539118863220368,0.86,nominal,3840.633,nan,pitch_program,13.0,0.0,0.0,-20.05352282957881,-0.0,0.0,-2.6999999999999997,0.0,0.0,0.86,0.0,0.0,0.0,0.0,0.0,0.0,-0.047123889803846894,0.0,0.0,-0.047123889803846894,0.0,0.0,17.25313065295491,0.028900057475823672,0.2881780078979008,-0.0009607038531442018,0.0010598400975785445,0.00177686771124055,1.0,1.3729522447179974,2.033224222445612,21.21338976060701,85.07504370790528,0.21178586808508237,8.067648244690547,20.337879418243304,85.5034643649552,4488.832702836612,0.008722911853485006
0.03,2.5654235033149866,0.0,20.23296434849729,85.51411677716622,0.0,7.765478283243035,85.86598174566188,17.859428545386642,0.0,6.265582975204377,0.0,0.0,-8.852781691043555,0.0,1.0768240543363028,0.0,4507.176894202071,0.2523864261004417,85.8659817456619,1.7875206507466737,1.2226223184064997,101082.17438378547,288.01848573173476,0.0,0.0,0.0,332.605,0.1785066900092231,0.86,nominal,3884.901010401361,nan,pitch_program,12.985,0.0,0.0,-1.430813724064029,-0.0,0.0,-1.9384882344384171,0.0,0.0,0.86,0.0,0.0,0.0,0.0,0.0,0.0,-0.03383300220212211,0.0,0.0,-0.03383300220212211,0.0,0.0,17.5131597774653,-0.013501353472940195,0.6621613137755229,0.0016515932025832297,-0.1561719558418296,-0.0005971317022569077,1.0,1.3729522447179974,2.033224222445612,21.21338976060701,85.07504370790528,0.21178586808508237,8.067648244690547,20.337879418243304,85.92792288964614,4480.573643115151,0.008722911853485006
0.06,5.1464576662556825,0.0,20.45938517358267,86.0344720980232,0.0,7.547360836179334,86.36488316889583,17.854073344686366,0.0,6.641326170815804,0.0,0.0,-12.524818074760239,0.0,1.627896966522951,0.0,4559.605394651095,0.25385349880516916,86.36488316889583,1.8163754548488027,1.2225957302991193,101079.45966629332,288.0170139963717,0.0,0.0,0.0,338.40999999999997,0.18162219138624247,0.86,nominal,3930.0845520010275,nan,pitch_program,12.97,0.0,0.0,-0.2977929020936366,-0.0,0.0,-0.954071035031549,0.0,0.0,0.86,0.0,0.0,0.0,0.0,0.0,0.0,-0.01665168085921069,0.0,0.0,-0.01665168085921069,0.0,0.0,17.773144645780977,0.03691329832805829,1.167882935049496,-0.0008715549980549587,-0.21793074799298257,0.0028903923981231042,1.0,1.3729522447179974,2.033224222445612,21.21338976060701,85.07504370790528,0.21178586808508237,8.067648244690547,19.843164351594325,86.44101366749268,4560.429831856358,0.4184508047856771
0.09,7.7432573102122415,0.0,20.67988734906928,86.5599881318853,0.0,7.350072516220279,86.87148618151886,17.84862467894478,0.0,6.946431717623543,0.0,0.0,-10.170208926358294,0.0,2.0929150223116313,0.0,4613.15645709245,0.25534319940095584,86.87148618151886,1.8463324387399729,1.2225698376311032,101076.81596836887,288.015580732231,0.0,0.0,0.0,344.215,0.18473769276326188,0.86,nominal,3976.1279729646612,nan,pitch_program,12.955,0.0,0.0,-0.710786010214774,-0.0,0.0,-0.808100020141484,0.0,0.0,0.86,0.0,0.0,0.0,0.0,0.0,0.0,-0.014104006036901389,0.0,0.0,-0.014104006036901389,0.0,0.0,18.07360540124096,-0.05332697653482253,1.592655807417178,0.0007297295211179263,-0.17437146654306868,-0.0031095604529126904,1.0,1.3729522447179974,2.033224222445612,21.21338976060701,85.07504370790528,0.21178586808508237,8.067648244690547,19.843164351594325,86.94427020773192,4575.611057171245,0.4184508047856771
0.12,10.355997729665937,0.0,20.89494613945146,87.09134731512316,0.0,7.168626346072718,87.38587975670336,17.84308254816188,0.0,7.124659322622365,0.0,0.0,-5.940924957091236,0.0,2.419160979624857,0.0,4667.853703661652,0.25685579065700326,87.38587975670335,1.8767207825777301,1.222544584561636,101074.23758752501,288.01418285009356,0.0,0.0,0.0,350.02,0.1878531941402813,0.86,nominal,4023.0554139849605,nan,pitch_program,12.94,0.0,0.0,-1.6633839375628232,-0.0,0.0,-1.3212703705942874,0.0,0.0,0.86,0.0,0.0,0.0,0.0,0.0,0.0,-0.023060518275915983,0.0,0.0,-0.023060518275915983,0.0,0.0,18.330706985645097,0.0916102126170618,1.8191658664386086,-0.0025554767902197057,-0.10355116839364004,0.001275594876447042,1.0,1.3729522447179974,2.033224222445612,21.21338976060701,85.07504370790528,0.21178586808508237,8.067648244690547,21.23585316461736,87.56675259598532,4643.351718611568,0.23841113182822804
0.15,12.984891036767472,0.0,21.104846061319307,87.6297769033845,0.0,6.996664062261634,87.90865206643248,17.83744695233767,0.0,7.219446030070144,0.0,0.0,-3.159557635526622,0.0,2.6544372661556124,0.0,4723.774928249746,0.258393002125382,87.90865206643248,1.9074524423247048,1.2225199376521028,101071.72110869666,288.0128185006014,0.0,0.0,0.0,355.825,0.1909686955173007,0.86,nominal,4070.9333926957784,nan,pitch_program,12.925,0.0,0.0,-2.3006675266993484,-0.0,0.0,-1.908908664257324,0.0,0.0,0.86,0.0,0.0,0.0,0.0,0.0,0.0,-0.0333167413111373,0.0,0.0,-0.0333167413111373,0.0,0.0,18.618244640597933,0.03843958483280671,1.9426044182033566,-0.003837263077935708,-0.057364226978800906,0.00130032225321009,1.0,1.3729522447179974,2.033224222445612,21.21338976060701,85.07504370790528,0.21178586808508237,8.067648244690547,21.23585316461736,87.69299130655143,4647.442000010986,0.23841113182822804
0.18,15.630170834749446,0.0,21.30978076646247,88.17599326606577,0.0,6.831156838105474,88.44020857169025,17.831717891472152,0.0,7.289272501014262,0.0,0.0,-2.3275493195502324,0.0,2.8593113485344928,0.0,4780.979952785277,0.2599560260690813,88.44020857169025,1.9386404111830053,1.2224958741359717,101069.26420653076,288.01148642501795,0.0,0.0,0.0,361.63,0.19408419689432013,0.86,nominal,4119.812807655466,nan,pitch_program,12.91,0.0,0.0,-2.4645391103339747,-0.0,0.0,-2.2422869319033145,0.0,0.0,0.86,0.0,0.0,0.0,0.0,0.0,0.0,-0.03913528973615472,0.0,0.0,-0.03913528973615472,0.0,0.0,18.901570275140333,0.02691605527243089,2.137966168534194,0.003834220033855058,-0.04122226303689116,-0.0005186020082284736,1.0,1.3729522447179974,2.033224222445612,21.21338976060701,85.07504370790528,0.21178586808508237,8.067648244690547,21.287773867716396,87.91740039605759,4795.098003244114,-1.3434383836136459
0.21,18.292073457029304,0.0,21.50994514480301,88.73008740932858,0.0,6.672145944684646,88.98059307047949,17.825895365565323,0.0,7.358717081754403,0.0,0.0,-2.314819641383428,0.0,3.058397855591936,0.0,4839.490581235997,0.261544991717172,88.98059307047947,1.970225200070501,1.2224723711033558,101066.86454110114,288.01018535655874,0.0,0.0,0.0,367.435,0.19719969827133954,0.86,nominal,4169.713475141413,nan,pitch_program,12.895,0.0,0.0,-2.4237543332369405,-0.0,0.0,-2.35116737270349,0.0,0.0,0.86,0.0,0.0,0.0,0.0,0.0,0.0,-0.041035611919140555,0.0,0.0,-0.041035611919140555,0.0,0.0,19.144537042059827,0.02324295221973473,2.271623022691937,0.0023582159480847182,-0.03709935099734949,0.0002233226715364777,1.0,18.02992062369683,-1.5443777524350597,21.929441263113915,88.89855748546229,-0.06184742651640984,6.772329675377405,21.287773867716396,89.20445714451157,4839.424807168071,-1.3434383836136459
0.24,20.97083181022165,0.0,21.705557688314205,89.2919451064116,0.0,6.520418117039835,89.52970073281516,17.819979374617184,0.0,7.42195818433453,0.0,0.0,-2.1080369666890757,0.0,3.245428025163473,0.0,4899.312737928763,0.2631595915050377,89.52970073281514,2.002022199853897,1.2224494028750597,101064.51948979772,288.00891387502594,0.0,0.0,0.0,373.24,0.20031519964835895,0.86,nominal,4220.642463957829,nan,pitch_program,12.88,0.0,0.0,-2.434909792214877,-0.0,0.0,-2.4014128244103223,0.0,0.0,0.86,0.0,0.0,0.0,0.0,0.0,0.0,-0.04191256048557658,0.0,0.0,-0.04191256048557658,0.0,0.0,19.476469299541485,0.034180440223901286,2.5070756358402218,0.0021608575747528334,-0.03289563790201483,0.0038482390944184373,1.0,18.02992062369683,-1.5443777524350597,21.929441263113915,88.89855748546229,-0.06184742651640984,6.772329675377405,21.19948799435723,89.4247810943883,4802.154668075738,-1.4110405090643963
0.27,23.66667926259058,0.0,21.896837096226857,89.861581745631,0.0,6.3759802637551495,90.0874963474428,17.813969918627734,0.0,7.467065717934524,0.0,0.0,-1.5035845309935378,0.0,3.40853981727297,0.0,4960.460011731705,0.26479972250845524,90.0874963474428,2.0338689497998588,1.2224269437495807,101062.22642779657,288.0076705588745,0.0,0.0,0.0,379.045,0.20343070102537836,0.86,nominal,4272.613116584972,nan,pitch_program,12.865,0.0,0.0,-2.5556014088025765,-0.0,0.0,-2.493925975045675,0.0,0.0,0.86,0.0,0.0,0.0,0.0,0.0,0.0,-0.04352721956555697,0.0,0.0,-0.04352721956555697,0.0,0.0,19.795419684276013,0.011718864063147013,2.6815792960669205,0.0003959511566825096,-0.02116019557966827,0.0017306568328017643,1.0,18.02992062369683,-1.5443777524350597,21.929441263113915,88.89855748546229,-0.06184742651640984,6.772329675377405,21.19948799435723,90.06424079861931,4926.332435463475,-1.4110405090643963
0.3,26.379854660211194,0.0,22.083978544408417,90.43917992068717,0.0,6.238048272718635,90.65405953943372,17.80786699759697,0.0,7.4910162360740795,0.0,0.0,-0.7983506162769103,0.0,3.5452855764505133,0.0,5022.958907277714,0.2664656192863425,90.65405953943372,2.06572114050802,1.2224049707893085,101059.98301252462,288.0064541394613,0.0,0.0,0.0,384.84999999999997,0.20654620240239774,0.86,nominal,4325.649103682119,nan,pitch_program,12.850000000000001,0.0,0.0,-2.7133129710731234,-0.0,0.0,-2.625558172662144,0.0,0.0,0.86,0.0,0.0,0.0,0.0,0.0,0.0,-0.04582463481560019,0.0,0.0,-0.04582463481560019,0.0,0.0,20.097511526062146,-0.005047044891356876,2.8115711701674813,-0.0014503977637497717,-0.016130508205832082,-0.00255063167631796,1.0,18.02992062369683,-1.5443777524350597,21.929441263113915,88.89855748546229,-0.06184742651640984,6.772329675377405,22.687766072591685,90.41806850161043,5016.5755307495265,-0.7472052524370076
0.32999999999999996,29.110603477257808,0.0,22.267150160092587,91.02496056822045,0.0,6.10572052280569,91.22950876524929,17.801670611524898,0.0,7.498975674352689,0.0,0.0,-0.2653146097136164,0.0,3.6614705480208607,0.0,5086.840770219846,0.2681576304650931,91.22950876524929,2.097617089565287,1.222383464234169,101057.78722588359,288.0052635239594,0.0,0.0,0.0,390.655,0.20966170377941715,0.86,nominal,4379.7777828918215,nan,pitch_program,12.835,0.0,0.0,-2.8369162990735517,-0.0,0.0,-2.752373048508989,0.0,0.0,0.86,0.0,0.0,0.0,0.0,0.0,0.0,-0.04803797193963546,0.0,0.0,-0.04803797193963546,0.0,0.0,20.425584833015435,-0.056179859603752755,2.9840174586777723,0.0007002053466162093,-0.010396240956275775,-0.0013596841789126671,1.0,18.02992062369683,-1.5443777524350597,21.929441263113915,88.89855748546229,-0.06184742651640984,6.772329675377405,22.687766072591685,91.70398630952465,5105.156699087773,-0.7472052524370076
0.36,31.859175885144566,0.0,22.446502913687514,91.61908026289188,0.0,5.978425119830905,91.8139283286128,17.795380760411515,0.0,7.49719041546389,0.0,0.0,0.05950862963138057,0.0,3.763758548883729,0.0,5152.133738882899,0.26987600423962516,91.81392832861283,2.1295882307936593,1.2223624063399419,101055.63725563617,288.004097731061,0.0,0.0,0.0,396.46,0.21277720515643656,0.86,nominal,4435.023715364338,nan,pitch_program,12.82,0.0,0.0,-2.9139155395306675,-0.0,0.0,-2.849298543121996,0.0,0.0,0.86,0.0,0.0,0.0,0.0,0.0,0.0,-0.04972964094975646,0.0,0.0,-0.04972964094975646,0.0,0.0,20.729682297705732,0.004885138728019077,3.096219357478289,-0.0026069078500589988,0.0001827053489679765,0.002441708687260734,1.0,18.02992062369683,-1.5443777524350597,21.929441263113915,88.89855748546229,-0.06184742651640984,6.772329675377405,22.86891396637954,92.36511626941682,5175.888315235733,0.7010666962637986
0.39,34.625824630242356,0.0,22.622179976605818,92.22162483659295,0.0,5.855902097276783,92.40735726593522,17.78899744425682,0.0,7.488751038668612,0.0,0.0,0.28131256035122054,0.0,3.8554532590050887,0.0,5218.861373924635,0.2716208557297041,92.4073572659352,2.1616224580780914,1.2223417802794023,101053.53138320944,288.002955830152,0.0,0.0,0.0,402.265,0.21589270653345596,0.86,nominal,4491.4076397046765,nan,pitch_program,12.805,0.0,0.0,-2.968882322466518,-0.0,0.0,-2.9210488107287094,0.0,0.0,0.86,0.0,0.0,0.0,0.0,0.0,0.0,-0.05098191935868064,0.0,0.0,-0.05098191935868064,0.0,0.0,21.03523619997543,-0.00325402036921925,3.19553253067843,0.00046203665618257706,0.006577209050335032,-0.0007364180090990299,1.0,18.02992062369683,-1.5443777524350597,21.929441263113915,88.89855748546229,-0.06184742651640984,6.772329675377405,22.86891396637954,92.8022266943066,5206.4302744953075,0.7010666962637986
0.42,37.41080423496949,0.0,22.794319476264807,92.83265349090438,0.0,5.737983321966323,93.0098167225669,17.78252066306082,0.0,7.47410123088624,0.0,0.0,0.4883269287394793,0.0,3.9371506387293347,0.0,5287.045612409217,0.2733922474562344,93.00981672256688,2.171629162407762,1.222321569818748,101051.46795065561,288.00183692340426,0.0,0.0,0.0,404.1773684210526,0.21691906078826353,0.86,nominal,4548.948916474655,nan,pitch_program,12.79,0.0,0.0,-3.0236293456454386,-0.0,0.0,-2.982597131678747,0.0,0.0,0.86,0.0,0.0,0.0,0.0,0.0,0.0,-0.052056140208333004,0.0,0.0,-0.052056140208333004,0.0,0.0,21.011455854933686,-0.08446887037083706,3.3652919590021546,-0.0009836911087808373,0.007641935977410354,-0.0005934733523566547,1.0,37.03452310302764,0.0875919072559894,24.266276531012895,93.07171363542716,-0.32046272750767946,5.784949301844677,23.070533107456953,92.49669814072791,5213.592157286076,-0.8353017623592055
0.44999999999999996,40.21417581485176,0.0,22.96302751291649,93.44571932940879,0.0,5.623601221722752,93.61478169440767,17.77601309123717,0.0,7.453270773612287,0.0,0.0,0.6943485834465719,0.0,4.009341162939519,0.0,5355.959693957462,0.2751710001142887,93.61478169440768,2.1706389352353654,1.2223017624854873,101049.4456840804,288.000740321166,0.0,0.0,0.0,404.14342105263154,0.21690084148196515,0.86,nominal,4607.0540496053445,nan,pitch_program,12.775,0.0,0.0,-3.0815928516846087,-0.0,0.0,-3.041994563682264,0.0,0.0,0.86,0.0,0.0,0.0,0.0,0.0,0.0,-0.053092820964023825,0.0,0.0,-0.053092820964023825,0.0,0.0,21.087775741323423,-0.01203208572109114,3.4962018215911437,0.0005432274000647429,0.011762826399132629,0.0011611665794529983,1.0,37.03452310302764,0.0875919072559894,24.266276531012895,93.07171363542716,-0.32046272750767946,5.784949301844677,23.070533107456953,93.80502119435985,5252.483553396996,-0.8353017623592055
0.48,43.03590487478707,0.0,23.12838985756953,94.05763533117718,0.0,5.512078155101376,94.21900959827936,17.76950606599271,0.0,7.4270140074295155,0.0,0.0,0.8752255547427394,0.0,4.073134078516916,0.0,5425.235735045589,0.27694758255053575,94.21900959827934,2.1696817148423193,1.2222823481947895,101047.46355339004,287.9996654659258,0.0,0.0,0.0,404.1094736842105,0.2168826221756668,0.86,nominal,4665.422909237062,nan,pitch_program,12.76,0.0,0.0,-3.136315673249016,-0.0,0.0,-3.098587229422315,0.0,0.0,0.86,0.0,0.0,0.0,0.0,0.0,0.0,-0.05408054931366831,0.0,0.0,-0.05408054931366831,0.0,0.0,20.98617900944298,0.02374995832752327,3.5089126118563496,-0.0011567064984858726,0.014367197411335157,-0.0020784101196156834,1.0,37.03452310302764,0.0875919072559894,24.266276531012895,93.07171363542716,-0.32046272750767946,5.784949301844677,22.715415872060234,94.48204613972327,5436.489355932441,0.35540020453906174
0.51,45.87595880779842,0.0,23.290485541709355,94.66846443371165,0.0,5.403189471327542,94.82253220991302,17.762999587327442,0.0,7.396548273852246,0.0,0.0,1.0155244765026736,0.0,4.129943564146431,0.0,5494.875793253045,0.27872208820197036,94.82253220991302,2.16875937368406,1.2222633176538462,101045.5206093775,287.9986118439789,0.0,0.0,0.0,404.0755263157895,0.21686440286936848,0.86,nominal,4724.0579473876005,nan,pitch_program,12.745,0.0,0.0,-3.1832602833757564,-0.0,0.0,-3.14939106179438,0.0,0.0,0.86,0.0,0.0,0.0,0.0,0.0,0.0,-0.054967243461192125,0.0,0.0,-0.054967243461192125,0.0,0.0,20.915978645942495,0.02406216389503589,3.6131449520532963,0.0023757254139492668,0.01747838623007256,-0.0026005593429490013,1.0,37.03452310302764,0.0875919072559894,24.266276531012895,93.07171363542716,-0.32046272750767946,5.784949301844677,22.715415872060234,94.93175105382767,5537.880885373673,0.35540020453906174
0.54,48.734306485289395,0.0,23.449388559482603,95.27825591636585,0.0,5.296767259108247,95.42537290396966,17.75649365524136,0.0,7.3629241131541,0.0,0.0,1.1208053887716796,0.0,4.180977265144734,0.0,5564.8810430923195,0.280494585802913,95.42537290396965,2.1678714215158985,1.2222446621619587,101043.61596331027,287.99757897436336,0.0,0.0,0.0,404.0415789473684,0.2168461835630701,0.86,nominal,4782.9608432476825,nan,pitch_program,12.73,0.0,0.0,-3.2232302849059438,-0.0,0.0,-3.1936945956613183,0.0,0.0,0.86,0.0,0.0,0.0,0.0,0.0,0.0,-0.05574048599743901,0.0,0.0,-0.05574048599743901,0.0,0.0,20.937626978717752,-0.01339556957794148,3.778814407393443,0.00018655530531627392,0.020859657859619327,-0.00271207731330417,1.0,37.03452310302764,0.0875919072559894,24.266276531012895,93.07171363542716,-0.32046272750767946,5.784949301844677,22.624413471633076,95.14698054375735,5612.888422086303,0.2556655897815447
0.57,51.610917923681285,0.0,23.605169139774496,95.88704794639634,0.0,5.192686009729784,96.02754788012736,17.74998826973447,0.0,7.326792609420203,0.0,0.0,1.204383497709142,0.0,4.227013573643942,0.0,5635.251888253966,0.282265122992272,96.02754788012737,2.167012569724874,1.2222263734611425,101041.74877167604,287.99656640059146,0.0,0.0,0.0,404.0076315789474,0.21682796425677175,0.86,nominal,4842.132607879646,nan,pitch_program,12.715,0.0,0.0,-3.2591913767293015,-0.0,0.0,-3.2329926643021083,0.0,0.0,0.86,0.0,0.0,0.0,0.0,0.0,0.0,-0.05642636668489553,0.0,0.0,-0.05642636668489553,0.0,0.0,20.87432546972531,0.09225955623020707,3.774575782321328,-0.0008099515324712879,0.021826439784117992,-0.0005222653794402865,1.0,37.03452310302764,0.0875919072559894,24.266276531012895,93.07171363542716,-0.32046272750767946,5.784949301844677,22.624413471633076,95.55627816077435,5580.272957505895,0.2556655897815447
0.6,54.505764110070274,0.0,23.75789429653535,96.49487287963306,0.0,5.090838558695212,96.62906979417345,17.743483430806766,0.0,7.288569842436003,0.0,0.0,1.2740922800584835,0.0,4.268581470723505,0.0,5705.988363735538,0.28403373698802603,96.62906979417345,2.1661768300855426,1.2222084436714775,101039.91822958067,287.9955736870725,0.0,0.0,0.0,403.9736842105263,0.21680974495047337,0.86,nominal,4901.573918746739,nan,pitch_program,12.7,0.0,0.0,-3.2928701780873646,-0.0,0.0,-3.268919172573262,0.0,0.0,0.86,0.0,0.0,0.0,0.0,0.0,0.0,-0.057053402542972136,0.0,0.0,-0.057053402542972136,0.0,0.0,20.871304248981858,0.030946376891627377,3.890469938971771,0.0006935492721576183,0.021171668695277975,-0.0005847823368426643,1.0,37.03452310302764,0.0875919072559894,24.266276531012895,93.07171363542716,-0.32046272750767946,5.784949301844677,22.51072926539529,96.95574711084598,5604.785304038094,0.2570633835127074
0.63,57.41881690353241,0.0,23.907628087833444,97.10175978207114,0.0,4.991126376603125,97.22994957975794,17.736979138458253,0.0,7.248642859924866,0.0,0.0,1.3308994708961028,0.0,4.3061727646953525,0.0,5777.090339152874,0.2858004599425328,97.22994957975796,2.165360920864955,1.222190865260653,101038.12356763791,287.99460041742907,0.0,0.0,0.0,403.9397368421053,0.21679152564417503,0.86,nominal,4961.285288628687,nan,pitch_program,12.685,0.0,0.0,-3.32429289863556,-0.0,0.0,-3.3021434082106405,0.0,0.0,0.86,0.0,0.0,0.0,0.0,0.0,0.0,-0.05763327484630283,0.0,0.0,-0.05763327484630283,0.0,0.0,20.880108312569902,0.058753775483783854,3.934249239482233,0.002049856353440179,0.024139064327854794,-0.0007845822320236346,1.0,57.167056828738545,-0.3526344530644842,23.234680761460613,97.09018481808559,-0.16209531678671837,5.104858141715444,22.51072926539529,97.20566446034486,5786.003187451399,0.2570633835127074
0.6599999999999999,60.35004892598339,0.0,24.05443196655658,97.70773408169929,0.0,4.893462624104626,97.83019613510733,17.730475392688927,0.0,7.207418140743376,0.0,0.0,1.3741573653320356,0.0,4.3402890273385095,0.0,5848.557474757651,0.2875653180224187,97.83019613510733,2.164563991066277,1.2221736310027616,101036.36404776119,287.99364619221734,0.0,0.0,0.0,403.9057894736842,0.21677330633787664,0.86,nominal,5021.267033161617,nan,pitch_program,12.67,0.0,0.0,-3.353070762745837,-0.0,0.0,-3.3326998209317584,0.0,0.0,0.86,0.0,0.0,0.0,0.0,0.0,0.0,-0.05816658485588462,0.0,0.0,-0.05816658485588462,0.0,0.0,20.898542335378327,0.02585557626683376,4.039695406267683,-0.003061292497316025,0.02530043404643162,0.00030586745344595286,1.0,57.167056828738545,-0.3526344530644842,23.234680761460613,97.09018481808559,-0.16209531678671837,5.104858141715444,23.62735079216365,97.63257037821012,5852.751400520647,-0.4766782283844004
0.69,63.299433431582585,0.0,24.198365244942266,98.31281685330671,0.0,4.797775946189459,98.42981566406424,17.723972193498792,0.0,7.165265828429139,0.0,0.0,1.4050771405159908,0.0,4.371383915366155,0.0,5920.389134440838,0.28932832947279197,98.42981566406422,2.1637856561456528,1.2221567339237343,101034.63895759205,287.9927106259079,0.0,0.0,0.0,403.8718421052631,0.21675508703157828,0.86,nominal,5081.5192043601455,nan,pitch_program,12.655,0.0,0.0,-3.3792998409173505,-0.0,0.0,-3.3606598329231137,0.0,0.0,0.86,0.0,0.0,0.0,0.0,0.0,0.0,-0.05865457912403087,0.0,0.0,-0.05865457912403087,0.0,0.0,20.793022733019985,0.00487972140286191,4.1147971689756435,-0.0005177637106051215,0.020803696367718536,0.0026527406594898124,1.0,57.167056828738545,-0.3526344530644842,23.234680761460613,97.09018481808559,-0.16209531678671837,5.104858141715444,23.62735079216365,97.44789858691622,5985.762098021175,-0.4766782283844004
0.72,66.26694418560942,0.0,24.339485520143455,98.91702513422791,0.0,4.704009173372997,99.02881178580633,17.717469540887844,0.0,7.1224788461656265,0.0,0.0,1.4262328083978564,0.0,4.39982341510631,0.0,5992.584388907822,0.2910895049408547,99.02881178580633,2.163024980172336,1.2221401672513506,101032.94760539533,287.99179334411906,0.0,0.0,0.0,403.8378947368421,0.21673686772527995,0.86,nominal,5142.041597530442,nan,pitch_program,12.64,0.0,0.0,-3.403459979921419,-0.0,0.0,-3.386339921122097,0.0,0.0,0.86,0.0,0.0,0.0,0.0,0.0,0.0,-0.05910278121530566,0.0,0.0,-0.05910278121530566,0.0,0.0,20.75543618077423,0.008951481918585925,4.195229781053861,0.0005824296559775674,0.026023627363359062,-0.001093394154876657,1.0,57.167056828738545,-0.3526344530644842,23.234680761460613,97.09018481808559,-0.16209531678671837,5.104858141715444,24.81272447266264,98.60408363518593,6000.720432714045,0.127235723989357
0.75,69.25255537161588,0.0,24.477848980060397,99.52037286688233,0.0,4.61211533056474,99.62718616615506,17.710967434856087,0.0,7.079284820660677,0.0,0.0,1.439800918355364,0.0,4.4259004158282735,0.0,6065.142082925093,0.2928488493323647,99.62718616615506,2.16228082258016,1.2221239243793163,101031.28931639118,287.9908939816296,0.0,0.0,0.0,403.80394736842106,0.21671864841898159,0.86,nominal,5202.833809393169,nan,pitch_program,12.625,0.0,0.0,-3.4259680903236984,-0.0,0.0,-3.4101168226430576,0.0,0.0,0.86,0.0,0.0,0.0,0.0,0.0,0.0,-0.059517766432768876,0.0,0.0,-0.059517766432768876,0.0,0.0,20.80378637645887,0.02602423506337946,4.273215756089369,-0.0008235795178817786,0.02359597073976599,-0.0004034652944363299,1.0,57.167056828738545,-0.3526344530644842,23.234680761460613,97.09018481808559,-0.16209531678671837,5.104858141715444,24.81272447266264,99.29940455745056,6044.575580323017,0.127235723989357
0.78,72.25624152052049,0.0,24.61351062481643,100.12287163015338,0.0,4.522054825201101,100.22493902871828,17.704465875403518,0.0,7.035876237135825,0.0,0.0,1.4469528533733365,0.0,4.449866735726986,0.0,6138.060890676463,0.2946063633146522,100.2249390287183,2.1615524412174816,1.222107998841237,101029.66343009728,287.99001218093866,0.0,0.0,0.0,403.77,0.21670042911268322,0.86,nominal,5263.895285624004,nan,pitch_program,12.61,0.0,0.0,-3.447009354854529,-0.0,0.0,-3.4322523419699404,0.0,0.0,0.86,0.0,0.0,0.0,0.0,0.0,0.0,-0.05990410412666182,0.0,0.0,-0.05990410412666182,0.0,0.0,20.704570888834443,-0.03609656050664218,4.39072017103959,-0.0008368321375126802,0.026803313748814114,-0.0002571699733231361,1.0,57.167056828738545,-0.3526344530644842,23.234680761460613,97.09018481808559,-0.16209531678671837,5.104858141715444,25.203256018960406,100.64350191731366,6163.989467140645,-0.866759364622255
0.8099999999999999,75.27797744853133,0.0,24.74652446344952,100.72453093369488,0.0,4.433794621102975,100.82206934275342,17.69796486253014,0.0,6.992424835655374,0.0,0.0,1.448380118764983,0.0,4.471948180880827,0.0,6211.339333548267,0.29636204386933,100.82206934275342,2.160839567843564,1.2220923842875129,101028.06929796912,287.98914759098756,0.0,0.0,0.0,403.73605263157896,0.21668220980638486,0.86,nominal,5325.225337406977,nan,pitch_program,12.595,0.0,0.0,-3.4666605010786427,-0.0,0.0,-3.452897237435162,0.0,0.0,0.86,0.0,0.0,0.0,0.0,0.0,0.0,-0.060264425526259977,0.0,0.0,-0.060264425526259977,0.0,0.0,20.682939620237878,-0.01823252114105605,4.460217809621531,0.0018530725354756466,0.02208061856409489,0.0012977091284021322,1.0,57.167056828738545,-0.3526344530644842,23.234680761460613,97.09018481808559,-0.16209531678671837,5.104858141715444,25.203256018960406,100.45648168548108,6227.210822599424,-0.866759364622255
0.84,78.31773819913364,0.0,24.8769437032756,101.32535835341027,0.0,4.347307994202585,101.41857488765787,17.691464396235947,0.0,6.949079758109532,0.0,0.0,1.4448359871030403,0.0,4.492342997334194,0.0,6284.975783456554,0.2981158844823616,101.41857488765785,2.160142111477363,1.2220770744630873,101026.50628112801,287.9882998659287,0.0,0.0,0.0,403.7021052631579,0.2166639905000865,0.86,nominal,5386.823146089461,nan,pitch_program,12.58,0.0,0.0,-3.485026263861375,-0.0,0.0,-3.4721746532908893,0.0,0.0,0.86,0.0,0.0,0.0,0.0,0.0,0.0,-0.060600879904218585,0.0,0.0,-0.060600879904218585,0.0,0.0,20.67995363077362,-0.006302753860711481,4.570666859982705,0.002281290654362141,0.022631725859863613,0.003374955664863425,1.0,77.93850778198193,-2.1869497608382784,25.564885915576827,101.33087062296528,0.08545119953510677,4.64828797584683,25.323990445880572,101.69515337214831,6321.484833906538,-0.7377587004281078
0.87,81.37549899155216,0.0,25.004820917744503,101.92535974728385,0.0,4.262573815630098,102.0144523837036,17.684964476520946,0.0,6.9059646588493795,0.0,0.0,1.4371700431556986,0.0,4.511219542018043,0.0,6358.96847473384,0.2998678755288036,102.0144523837036,2.15945995071819,1.2220620631877281,101024.9737483472,287.9874686640346,0.0,0.0,0.0,403.66815789473685,0.21664577119378817,0.86,nominal,5448.687774626463,nan,pitch_program,12.565,0.0,0.0,-3.502249654937495,-0.0,0.0,-3.4902196542788526,0.0,0.0,0.86,0.0,0.0,0.0,0.0,0.0,0.0,-0.06091582458498417,0.0,0.0,-0.06091582458498417,0.0,0.0,20.662581144335036,-0.0007385030364001051,4.661537462041854,-0.0009682137258996398,0.02647793348177985,0.0025077622085296746,1.0,77.93850778198193,-2.1869497608382784,25.564885915576827,101.33087062296528,0.08545119953510677,4.64828797584683,25.323990445880572,101.72988010866857,6451.390064755816,-0.7377587004281078
0.8999999999999999,84.45123517774783,0.0,25.130208182664656,102.52453953985564,0.0,4.179575497338462,102.6096976859272,17.678465103385133,0.0,6.863180947303587,0.0,0.0,1.4261237844585883,0.0,4.528720254621552,0.0,6433.315524531006,0.30161800484310913,102.6096976859272,2.1587929541142468,1.2220473443400233,101023.47107441761,287.98665364681267,0.0,0.0,0.0,403.6342105263158,0.2166275518874898,0.86,nominal,5510.818185673214,nan,pitch_program,12.55,0.0,0.0,-3.5184590605484267,-0.0,0.0,-3.5071632980405973,0.0,0.0,0.86,0.0,0.0,0.0,0.0,0.0,0.0,-0.06121154695591161,0.0,0.0,-0.06121154695591161,0.0,0.0,20.63508009139654,0.05325506915598492,4.682838441433427,0.00023265760458655865,0.023953274378179734,-0.000930424381938417,1.0,77.93850778198193,-2.1869497608382784,25.564885915576827,101.33087062296528,0.08545119953510677,4.64828797584683,25.338620290818923,102.58803029778583,6504.008797776081,0.25808088152507996
0.9299999999999999,87.5449222067513,0.0,25.253157186300804,103.1229009667819,0.0,4.098300121204867,103.2043059551692,17.671966276828506,0.0,6.82081354249429,0.0,0.0,1.4122468913265547,0.0,4.544968012050242,0.0,6508.014951204018,0.3033662582221959,103.2043059551692,2.1581410645957253,1.2220329118444377,101021.997638826,287.985854478289,0.0,0.0,0.0,403.6002631578947,0.21660933258119142,0.86,nominal,5573.213257765125,nan,pitch_program,12.535000000000002,0.0,0.0,-3.5337440963119566,-0.0,0.0,-3.5231117770034124,0.0,0.0,0.86,0.0,0.0,0.0,0.0,0.0,0.0,-0.06148990042449779,0.0,0.0,-0.06148990042449779,0.0,0.0,20.637657188541606,-0.02870475847233979,4.7558965054262545,0.0028878174825489947,0.023262030848919875,0.0015653516123926598,1.0,77.93850778198193,-2.1869497608382784,25.564885915576827,101.33087062296528,0.08545119953510677,4.64828797584683,25.338620290818923,103.25155569801996,6610.670608580156,0.25808088152507996
0.96,90.65653559403036,0.0,25.373719323241815,103.72044624263552,0.0,4.0187378980337405,103.79827177301429,17.66546799685107,0.0,6.778934477766318,0.0,0.0,1.3959688864160165,0.0,4.5600701276968305,0.0,6583.064686344261,0.3051126197635732,103.79827177301429,2.157504306515304,1.2220187596602878,101020.5528246289,287.9850708243989,0.0,0.0,0.0,403.56631578947366,0.21659111327489305,0.86,nominal,5635.871796133538,nan,pitch_program,12.520000000000001,0.0,0.0,-3.5481715111953465,-0.0,0.0,-3.5381476175185727,0.0,0.0,0.86,0.0,0.0,0.0,0.0,0.0,0.0,-0.061752325347292095,0.0,0.0,-0.061752325347292095,0.0,0.0,20.59243013829031,-0.05843844577457925,4.7688258344867425,0.003718344101207773,0.02319282076283389,-0.001977240531653428,1.0,77.93850778198193,-2.1869497608382784,25.564885915576827,101.33087062296528,0.08545119953510677,4.64828797584683,25.784334121064035,104.12828788272539,6546.6612589679435,-0.4866162165961793
0.99,93.78605089471506,0.0,25.491945776258824,104.31717668949015,0.0,3.9408817672335923,104.39158922810603,17.658970263452822,0.0,6.737604146999838,0.0,0.0,1.3776777519551202,0.0,4.574119899898969,0.0,6658.46258366846,0.3068570721192991,104.39158922810604,2.1568827337668632,1.222004881772114,101019.13601746947,287.9843023524543,0.0,0.0,0.0,403.53236842105264,0.21657289396859472,0.86,nominal,5698.79254083156,nan,pitch_program,12.505,0.0,0.0,-3.561804150923927,-0.0,0.0,-3.5523415375617855,0.0,0.0,0.86,0.0,0.0,0.0,0.0,0.0,0.0,-0.06200005598581097,0.0,0.0,-0.06200005598581097,0.0,0.0,20.560954959693966,0.05712626071970509,4.952483348405819,0.0014066163208190775,0.027251307389501628,0.0002937417383792678,1.0,77.93850778198193,-2.1869497608382784,25.564885915576827,101.33087062296528,0.08545119953510677,4.64828797584683,25.784334121064035,104.67626230794484,6660.997393495303,-0.4866162165961793
1.02,96.93344368055403,0.0,25.60788758574133,104.91309286129916,0.0,3.8647269827502466,104.9842520017873,17.652473076633765,0.0,6.69687225377729,0.0,0.0,1.3577298312664918,0.0,4.587197859831874,0.0,6734.206428208371,0.3085995967479232,104.9842520017873,2.1562763943714995,1.221991272181527,101017.74660474442,287.98354873069263,0.0,0.0,0.0,403.49842105263156,0.21655467466229633,0.86,nominal,5761.9741749801,nan,pitch_program,12.49,0.0,0.0,-3.574702908243415,-0.0,0.0,-3.565758359970763,0.0,0.0,0.86,0.0,0.0,0.0,0.0,0.0,0.0,-0.06223422371200299,0.0,0.0,-0.06223422371200299,0.0,0.0,20.470569251808403,-0.03616238211647887,5.0369433966359525,-0.0009223885274141025,0.02170713933404488,0.0010463161072134695,1.0,77.93850778198193,-2.1869497608382784,25.564885915576827,101.33087062296528,0.08545119953510677,4.64828797584683,24.609425315518973,105.34420544535156,6662.657494680092,1.070204853182905
1.05,100.09868952046622,0.0,25.721595706748168,105.50819466373972,0.0,3.790270700227926,105.57625345304974,17.645976436393894,0.0,6.656779388302728,0.0,0.0,1.3364289036844135,0.0,4.5993736357281305,0.0,6810.293945793811,0.3103401741643672,105.57625345304976,2.155685331890173,1.2219779249004903,101016.38397491837,287.98280962790614,0.0,0.0,0.0,403.46447368421053,0.216536455355998,0.86,nominal,5825.415333128882,nan,pitch_program,12.475,0.0,0.0,-3.5869206140432373,-0.0,0.0,-3.5784557124142475,0.0,0.0,0.86,0.0,0.0,0.0,0.0,0.0,0.0,-0.062455834318427945,0.0,0.0,-0.062455834318427945,0.0,0.0,20.49226342768917,0.026610259205645623,4.986408526501957,-0.002752818259213264,0.024591226236618316,-0.0015402303584992176,1.0,99.70694961784491,-2.131911385583097,23.994138380100207,105.56590755897336,0.27637042998459993,3.8694108263285827,24.609425315518973,104.72619228503108,6729.630337330248,1.070204853182905
1.08,103.28176396415832,0.0,25.833121055683083,106.1024814564033,0.0,3.7175116311638035,106.16758669167461,17.639480342733215,0.0,6.617358694302232,0.0,0.0,1.3140231851850923,0.0,4.610707860459246,0.0,6886.722811381259,0.3120787841550642,106.1675866916746,2.1551095946556353,1.221964833945836,101015.0475169632,287.982084713138,0.0,0.0,0.0,403.43052631578945,0.21651823604969964,0.86,nominal,5889.1146085678365,nan,pitch_program,12.46,0.0,0.0,-3.5985003585161364,-0.0,0.0,-3.5904825000753813,0.0,0.0,0.86,0.0,0.0,0.0,0.0,0.0,0.0,-0.06266574136155295,0.0,0.0,-0.06266574136155295,0.0,0.0,20.506355595855222,-0.09917714038974289,5.088241763461785,-0.0010974039820034018,0.02353397439257248,-0.0035811732329702607,1.0,99.70694961784491,-2.131911385583097,23.994138380100207,105.56590755897336,0.27637042998459993,3.8694108263285827,25.374491011255625,105.85851075384771,6901.531549300426,1.9184639832876258
1.1099999999999999,106.48264252821426,0.0,25.942514548860903,106.69595213519817,0.0,3.646449772593946,106.75824463703283,17.632984795651723,0.0,6.57863706460412,0.0,0.0,1.2907210390632522,0.0,4.6212535584748045,0.0,6963.490655835858,0.31381540595092444,106.75824463703282,2.154549232041826,1.2219519933347323,101013.73661989515,287.9813736554324,0.0,0.0,0.0,403.3965789473684,0.21650001674340127,0.86,nominal,5953.070559290861,nan,pitch_program,12.445,0.0,0.0,-3.6094787530551127,-0.0,0.0,-3.60188025186322,0.0,0.0,0.86,0.0,0.0,0.0,0.0,0.0,0.0,-0.06286466965757581,0.0,0.0,-0.06286466965757581,0.0,0.0,20.523293563650103,-0.015052813216131231,5.185902153269224,-0.0004032622383987657,0.02256495954900061,0.0006021043628380384,1.0,99.70694961784491,-2.131911385583097,23.994138380100207,105.56590755897336,0.27637042998459993,3.8694108263285827,25.374491011255625,106.58922009713244,6917.607087045716,1.9184639832876258
1.14,109.70130068428061,0.0,26.049827134214752,107.2886052022116,0.0,3.577086178461593,107.34822006798328,17.62648979514942,0.0,6.540635949401646,0.0,0.0,1.2667038865170883,0.0,4.631057116289349,0.0,7040.595071806168,0.31555001837411334,107.34822006798328,2.154004284027067,1.2219393970809433,101012.45067239282,287.9806761236276,0.0,0.0,0.0,403.3626315789474,0.21648179743710294,0.86,nominal,6017.2817131478305,nan,pitch_program,12.43,0.0,0.0,-3.6198887085352593,-0.0,0.0,-3.612685325866444,0.0,0.0,0.86,0.0,0.0,0.0,0.0,0.0,0.0,-0.06305325377485371,0.0,0.0,-0.06305325377485371,0.0,0.0,20.498831749064504,0.04829102244809606,5.228309055078448,-0.003146640907117154,0.01864749389946825,0.0017585695379928813,1.0,99.70694961784491,-2.131911385583097,23.994138380100207,105.56590755897336,0.27637042998459993,3.8694108263285827,25.905042080225684,107.56205189223313,6991.184684265969,1.1402117239304022
1.17,112.93771384912718,0.0,26.155109816756447,107.88043882821908,0.0,3.5094227513898004,107.93750566794237,17.619995341226307,0.0,6.503372081886338,0.0,0.0,1.2421289609609334,0.0,4.640159153770687,0.0,7118.033619183365,0.3172825999706194,107.93750566794237,2.153474775792254,1.2219270391918389,101011.18906249145,287.9799917861911,0.0,0.0,0.0,403.3286842105263,0.21646357813080455,0.86,nominal,6081.7465725930415,nan,pitch_program,12.415,0.0,0.0,-3.629759720368373,-0.0,0.0,-3.622929962567601,0.0,0.0,0.86,0.0,0.0,0.0,0.0,0.0,0.0,-0.06323205641595955,0.0,0.0,-0.06323205641595955,0.0,0.0,20.383880807442925,-0.03964189535714739,5.322440547190817,-0.0011300025270246324,0.021548622888377576,0.0002822649117468918,1.0,99.70694961784491,-2.131911385583097,23.994138380100207,105.56590755897336,0.27637042998459993,3.8694108263285827,25.905042080225684,108.54089088244629,7148.125537175052,1.1402117239304022
1.2,116.19185737636333,0.0,26.258413678490623,108.47145090787191,0.0,3.443462057805891,108.52609406498703,17.613501433882384,0.0,6.466858202110345,0.0,0.0,1.2171293670597378,0.0,4.648595376215319,0.0,7195.803830101106,0.3190131291282061,108.52609406498703,2.1529607179214896,1.2219149136660437,101009.95117734275,287.9793203110898,0.0,0.0,0.0,403.2947368421053,0.21644535882450622,0.86,nominal,6146.463619001377,nan,pitch_program,12.4,0.0,0.0,-3.6391174802941157,-0.0,0.0,-3.63264247320351,0.0,0.0,0.86,0.0,0.0,0.0,0.0,0.0,0.0,-0.06340157170519113,0.0,0.0,-0.06340157170519113,0.0,0.0,20.362266453860382,-0.055960899950529316,5.428826688554591,0.0016624248312311124,0.01853615449175878,-0.0006067379030792716,1.0,99.70694961784491,-2.131911385583097,23.994138380100207,105.56590755897336,0.27637042998459993,3.8694108263285827,26.259736929348875,108.68238035455676,7161.580107338414,-0.9604344709245821
1.23,119.46370654956452,0.0,26.359789893649708,109.06163910670631,0.0,3.3792071719695396,109.11397786604859,17.607008073117647,0.0,6.431103689344994,0.0,0.0,1.1918171308546455,0.0,4.656397315256612,0.0,7273.9032133244955,0.32074158417698,109.1139778660486,2.1524621066345606,1.2219030144916418,101008.7364030313,287.97866136569127,0.0,0.0,0.0,403.26078947368416,0.2164271395182078,0.86,nominal,6211.4313164368305,nan,pitch_program,12.385,0.0,0.0,-3.6479842868068806,-0.0,0.0,-3.6418475613655326,0.0,0.0,0.86,0.0,0.0,0.0,0.0,0.0,0.0,-0.06356223080155478,0.0,0.0,-0.06356223080155478,0.0,0.0,20.419340777374018,-0.011273591706410709,5.48571107222633,-0.0010135060827604324,0.02160626112491485,8.023426774024719e-05,1.0,99.70694961784491,-2.131911385583097,23.994138380100207,105.56590755897336,0.27637042998459993,3.8694108263285827,26.259736929348875,108.87089236090935,7351.360045313482,-0.9604344709245821
1.26,122.75323657659406,0.0,26.45928973999739,109.6510009009848,0.0,3.316661544922795,109.70114968582297,17.600515258932102,0.0,6.396115061006011,0.0,0.0,1.1662876475431347,0.0,4.663592919553337,0.0,7352.329258081367,0.32246794347441515,109.70114968582297,2.151978922025813,1.2218913356448453,101007.5441244383,287.97801461669,0.0,0.0,0.0,403.22684210526313,0.21640892021190947,0.86,nominal,6276.648114924415,nan,pitch_program,12.37,0.0,0.0,-3.656379879420497,-0.0,0.0,-3.650566952198511,0.0,0.0,0.86,0.0,0.0,0.0,0.0,0.0,0.0,-0.06371441288035846,0.0,0.0,-0.06371441288035846,0.0,0.0,20.375885157650323,0.03772893136911934,5.588276236590697,-0.0007028600134654777,0.019270323030794016,0.0012893052544222306,1.0,122.396936337248,-0.2657228950907993,25.9757278723866,109.45546687624727,0.054163803609129965,3.2770973773066427,26.760118168187756,109.3865830979612,7292.460684689587,-0.32116694677717217
1.29,126.06042258495809,0.0,26.55696460673029,110.23953361213434,0.0,3.2558288910965554,110.28760217172642,17.594022991325744,0.0,6.361896382845915,0.0,0.0,1.1406226392398553,0.0,4.670207044422482,0.0,7431.079437487681,0.3241921854787428,110.28760217172642,2.151511126261876,1.2218798710890517,101006.37372514523,287.9773797300562,0.0,0.0,0.0,403.1928947368421,0.21639070090561113,0.86,nominal,6342.112453355089,nan,pitch_program,12.355,0.0,0.0,-3.6643219498696746,-0.0,0.0,-3.658819950801209,0.0,0.0,0.86,0.0,0.0,0.0,0.0,0.0,0.0,-0.06385845487913804,0.0,0.0,-0.06385845487913804,0.0,0.0,20.31319532945591,0.05120046215964809,5.5973688153565195,-0.0010541004642083019,0.021225416317604804,2.1457862370757996e-05,1.0,122.396936337248,-0.2657228950907993,25.9757278723866,109.45546687624727,0.054163803609129965,3.2770973773066427,26.760118168187756,110.27983901478628,7478.128536185036,-0.32116694677717217
1.3199999999999998,129.3852396180608,0.0,26.65286599940755,110.82723443675728,0.0,3.1967130892419275,110.87332802561168,17.587531270298577,0.0,6.32844963384865,0.0,0.0,1.1148916649024136,0.0,4.676261886073197,0.0,7510.151211643615,0.3259142888128081,110.87332802561168,2.1510586630971376,1.2218686147742663,101005.22458737457,287.97675637100383,0.0,0.0,0.0,403.158947368421,0.21637248159931274,0.86,nominal,6407.8227620905345,nan,pitch_program,12.34,0.0,0.0,-3.6718263165044047,-0.0,0.0,-3.6666237702231266,0.0,0.0,0.86,0.0,0.0,0.0,0.0,0.0,0.0,-0.06399465722228158,0.0,0.0,-0.06399465722228158,0.0,0.0,20.270705520455056,0.04180211337904597,5.692459238993779,-0.0030672680677610465,0.019168813643153086,-0.002579488730642012,1.0,122.396936337248,-0.2657228950907993,25.9757278723866,109.45546687624727,0.054163803609129965,3.2770973773066427,25.301760163265158,111.24276569375374,7554.237070135597,-1.0693401778836098
1.3499999999999999,132.72766263223653,0.0,26.747045542325615,111.41410047252401,0.0,3.139318097268942,111.45832002240799,17.581040095850597,0.0,6.29577502830273,0.0,0.0,1.0891535477150607,0.0,4.681777363533642,0.0,7589.542030405594,0.3276342323188761,111.45832002240799,2.15062145804062,1.2218575606368072,101004.09609195942,287.97614420397485,0.0,0.0,0.0,403.125,0.2163542622930144,0.86,nominal,6473.777465276405,nan,pitch_program,12.325,0.0,0.0,-3.678907101831796,-0.0,0.0,-3.6739937691883284,0.0,0.0,0.86,0.0,0.0,0.0,0.0,0.0,0.0,-0.06412328797009292,0.0,0.0,-0.06412328797009292,0.0,0.0,20.29484633605297,-0.08201827101556157,5.7216115747561584,-0.0007033585000160457,0.019289782437183337,0.0010800611209586758,1.0,122.396936337248,-0.2657228950907993,25.9757278723866,109.45546687624727,0.054163803609129965,3.2770973773066427,25.301760163265158,111.15786342498167,7632.770574228064,-1.0693401778836098
1.38,136.0876664944466,0.0,26.839554978722123,112.00012874033568,0.0,3.0836478798836433,112.04257102592246,17.574549467981807,0.0,6.263871286949339,0.0,0.0,1.0634580725905005,0.0,4.686771441107931,0.0,7669.249335851095,0.3293519951050851,112.04257102592246,2.150199418320867,1.2218467025992799,101002.98761834076,287.97554289263826,0.0,0.0,0.0,403.0910526315789,0.21633604298671602,0.86,nominal,6539.974982881524,nan,pitch_program,12.31,0.0,0.0,-3.6855770059462687,-0.0,0.0,-3.6809437112430925,0.0,0.0,0.86,0.0,0.0,0.0,0.0,0.0,0.0,-0.06424458734177138,0.0,0.0,-0.06424458734177138,0.0,0.0,20.21783669576371,-0.003832592291534791,5.840289953300444,-0.00042971624857535953,0.018557868519487156,-0.0010311370713177678,1.0,122.396936337248,-0.2657228950907993,25.9757278723866,109.45546687624727,0.054163803609129965,3.2770973773066427,26.705974576749664,112.17332655914237,7762.590528966459,0.2459290577739047
1.41,139.4652259805474,0.0,26.930446169125897,112.58531620335935,0.0,3.0297063467924863,112.62607400224073,17.568059386692205,0.0,6.2327358635111105,0.0,0.0,1.0378474734807237,0.0,4.69126039914069,0.0,7749.270564481674,0.3310675565848367,112.62607400224073,2.1497924327251092,1.2218360345707633,101001.8985445861,287.97495209990063,0.0,0.0,0.0,403.0571052631579,0.2163178236804177,0.86,nominal,6606.413732503561,nan,pitch_program,12.295,0.0,0.0,-3.691847552260868,-0.0,0.0,-3.6874860158537577,0.0,0.0,0.86,0.0,0.0,0.0,0.0,0.0,0.0,-0.0643587720978959,0.0,0.0,-0.0643587720978959,0.0,0.0,20.222018905363317,0.016073033329646255,5.928559301358855,-0.003398874028113095,0.020264227283817694,-0.0030528385423166755,1.0,122.396936337248,-0.2657228950907993,25.9757278723866,109.45546687624727,0.054163803609129965,3.2770973773066427,26.705974576749664,112.52988750074493,7700.5622727681975,0.2459290577739047
1.44,142.8603157740511,0.0,27.019771088114467,113.16965978345706,0.0,2.9774972996190057,113.20882203111495,17.561569851981794,0.0,6.202365139140967,0.0,0.0,1.0123575027085545,0.0,4.695259066844639,0.0,7829.603149205621,0.33278089651026266,113.20882203111496,2.1494003716804895,1.2218255504471813,101000.8282474273,287.9743714879272,0.0,0.0,0.0,403.02315789473687,0.21629960437411935,0.86,nominal,6673.092130977586,nan,pitch_program,12.28,0.0,0.0,-3.6977292465904905,-0.0,0.0,-3.6936319542957974,0.0,0.0,0.86,0.0,0.0,0.0,0.0,0.0,0.0,-0.06446603895933438,0.0,0.0,-0.06446603895933438,0.0,0.0,20.178676908068823,-0.04077867812729604,5.968822197943852,0.0017159577085803662,0.01743036649089932,0.00045537904669704007,1.0,122.396936337248,-0.2657228950907993,25.9757278723866,109.45546687624727,0.054163803609129965,3.2770973773066427,26.88319038128214,112.95563929962134,7722.864877764958,-0.09307513112647404
1.47,146.27291046531133,0.0,27.107581819709832,113.75315637534084,0.0,2.9270243865122088,113.79080831557522,17.55508086385057,0.0,6.172754590948814,0.0,0.0,0.9870182950398755,0.0,4.698781024089797,0.0,7910.244521122643,0.33449199500046395,113.79080831557522,2.149023087571735,1.2218152441118355,100999.77610231478,287.97380071817184,0.0,0.0,0.0,402.9892105263158,0.21628138506782096,0.86,nominal,6740.008595808249,nan,pitch_program,12.265,0.0,0.0,-3.7032316993401895,-0.0,0.0,-3.6993918013224327,0.0,0.0,0.86,0.0,0.0,0.0,0.0,0.0,0.0,-0.06456656725436037,0.0,0.0,-0.06456656725436037,0.0,0.0,20.18203010570327,0.041913295298593854,6.095937894737753,0.0024093496726363428,0.017000290302841364,-0.0021576051048272362,1.0,144.59293626847673,-1.0604745211816926,25.465347226097457,113.73979434092875,-0.29606147928229587,3.133740586433543,26.88319038128214,113.71929807351829,7988.5964904463,-0.09307513112647404
1.5,149.70298455107292,0.0,27.193930551618806,114.33580285872006,0.0,2.8782910636324655,114.37202618995208,17.548592422298537,0.0,6.143898935946148,0.0,0.0,0.9618551870859168,0.0,4.70183877409844,0.0,7991.192111127766,0.33620083256507477,114.37202618995207,2.1486604150941324,1.2218051094360802,100998.74148348598,287.97323945141443,0.0,0.0,0.0,402.9552631578947,0.2162631657615226,0.86,nominal,6807.1615464415745,nan,pitch_program,12.25,0.0,0.0,-3.7083637502011495,-0.0,0.0,-3.704774970649663,0.0,0.0,0.86,0.0,0.0,0.0,0.0,0.0,0.0,-0.0646605212833129,0.0,0.0,-0.0646605212833129,0.0,0.0,20.145688407759174,-0.04003048723305682,6.138116764195552,-0.00043757817616632517,0.01974901979674891,0.00023292395743881015,1.0,144.59293626847673,-1.0604745211816926,25.465347226097457,113.73979434092875,-0.29606147928229587,3.133740586433543,27.597320777606328,114.50338232683816,8093.610360629362,-1.1648297046606064
1.53,153.15051243433453,0.0,27.278869568495626,114.91759610872073,0.0,2.831300562560701,114.95246912651604,17.54210452732569,0.0,6.11579225297432,0.0,0.0,0.9368894511823034,0.0,4.70444389025926,0.0,8072.443351355011,0.3379073901237552,114.95246912651604,2.1483121715900713,1.2217951402801017,100997.72376404503,287.97268734780477,0.0,0.0,0.0,402.9213157894737,0.21624494645522424,0.86,nominal,6874.549405395199,nan,pitch_program,12.235,0.0,0.0,-3.713133583723183,-0.0,0.0,-3.7097901384937755,0.0,0.0,0.86,0.0,0.0,0.0,0.0,0.0,0.0,-0.06474805247473281,0.0,0.0,-0.06474805247473281,0.0,0.0,20.147280521181138,0.02696289408927692,6.145519921750498,-0.0020801349110850984,0.015781409589733286,0.0026499286436977433,1.0,144.59293626847673,-1.0604745211816926,25.465347226097457,113.73979434092875,-0.29606147928229587,3.133740586433543,27.597320777606328,114.4505547858365,7985.630429040711,-1.1648297046606064
1.56,156.61546842447956,0.0,27.362451244377787,115.49853300483467,0.0,2.7860558627387215,115.53213074092932,17.535617178932036,0.0,6.088428086736206,0.0,0.0,0.9121388919417682,0.0,4.706607141769341,0.0,8153.995676481467,0.3396116490221894,115.5321307409293,2.1479781574352437,1.2217853304938011,100996.72231605246,287.97214406691154,0.0,0.0,0.0,402.8873684210526,0.21622672714892588,0.86,nominal,6942.17059926527,nan,pitch_program,12.220000000000002,0.0,0.0,-3.7175488205169054,-0.0,0.0,-3.7144453477076533,0.0,0.0,0.86,0.0,0.0,0.0,0.0,0.0,0.0,-0.06482930120288416,0.0,0.0,-0.06482930120288416,0.0,0.0,20.054870783440013,0.04276709070467697,6.22286245680886,-0.003782353361803908,0.01554933277057,0.0008061627465584467,1.0,144.59293626847673,-1.0604745211816926,25.465347226097457,113.73979434092875,-0.29606147928229587,3.133740586433543,27.714634036371777,115.79284096595217,8161.713940780548,0.31946024632913333
1.5899999999999999,160.0978267376376,0.0,27.44472803442593,116.07861043860149,0.0,2.7425596682714137,116.11100479666271,17.529130377117568,0.0,6.061799537061549,0.0,0.0,0.887618338465567,0.0,4.708338601687423,0.0,8235.846524907322,0.341313591045037,116.11100479666271,2.147658156489959,1.2217756739177583,100995.73651062361,287.9716092677762,0.0,0.0,0.0,402.8534210526316,0.21620850784262752,0.86,nominal,7010.023559624118,nan,pitch_program,12.205000000000002,0.0,0.0,-3.721616590583671,-0.0,0.0,-3.718748093433264,0.0,0.0,0.86,0.0,0.0,0.0,0.0,0.0,0.0,-0.06490439828267218,0.0,0.0,-0.06490439828267218,0.0,0.0,20.084869204740624,-0.013573519709154559,6.30472795573566,0.0011094856654888096,0.015346891079166836,-0.00036422340291616576,1.0,144.59293626847673,-1.0604745211816926,25.465347226097457,113.73979434092875,-0.29606147928229587,3.133740586433543,27.714634036371777,116.2324296140923,8213.219377356527,0.31946024632913333
1.6199999999999999,163.59756149724328,0.0,27.525752466082515,116.65782532018946,0.0,2.7008143885528964,116.6890852085029,17.52264412188229,0.0,6.035899335193731,0.0,0.0,0.8633400769620841,0.0,4.709647739555334,0.0,8317.99333982436,0.3430131984262082,116.6890852085029,2.1473519365736546,1.2217661643842648,100994.76571803367,287.97108260897045,0.0,0.0,0.0,402.8194736842105,0.21619028853632916,0.86,nominal,7078.106723820134,nan,pitch_program,12.19,0.0,0.0,-3.72534359897155,-0.0,0.0,-3.7227053967562362,0.0,0.0,0.86,0.0,0.0,0.0,0.0,0.0,0.0,-0.06497346625515815,0.0,0.0,-0.06497346625515815,0.0,0.0,20.024649667742786,0.017161403680954337,6.3463973125109305,0.0019298233731941776,0.01612899867790471,-0.0021785602361311363,1.0,144.59293626847673,-1.0604745211816926,25.465347226097457,113.73979434092875,-0.29606147928229587,3.133740586433543,26.966552998871233,116.08978117220536,8471.245955302087,-0.3186581198126061
1.65,167.11464673476405,0.0,27.605577129748802,117.23617458402624,0.0,2.6608221222095096,117.26636604526603,17.5161584132262,0.0,6.0107199087200955,0.0,0.0,0.839314229295771,0.0,4.710543500548018,0.0,8400.433570184936,0.3447104538568014,117.26636604526604,2.1470592499414782,1.2217567957184114,100993.80930782869,287.9705637486566,0.0,0.0,0.0,402.78552631578947,0.21617206923003082,0.86,nominal,7146.418535690611,nan,pitch_program,12.175,0.0,0.0,-3.728736184233516,-0.0,0.0,-3.7263238692426044,0.0,0.0,0.86,0.0,0.0,0.0,0.0,0.0,0.0,-0.0650366205139381,0.0,0.0,-0.0650366205139381,0.0,0.0,19.950177255057767,-0.13494785577932603,6.439727281655412,0.00038169111777012967,0.013883473781787236,0.0003611517000172409,1.0,144.59293626847673,-1.0604745211816926,25.465347226097457,113.73979434092875,-0.29606147928229587,3.133740586433543,26.966552998871233,117.29874848383325,8456.673480719519,-0.3186581198126061
1.68,170.6490563905725,0.0,27.684254669065776,117.81365519361486,0.0,2.622584643899088,117.84284153182318,17.509673251149298,0.0,5.986253436929485,0.0,0.0,0.8155490720797666,0.0,4.711034373237139,0.0,8483.164671582515,0.3464053404910164,117.8428415318232,2.146779833772127,1.221747561739224,100992.8666489413,287.97005234465104,0.0,0.0,0.0,402.75157894736844,0.21615384992373246,0.86,nominal,7214.957446197589,nan,pitch_program,12.16,0.0,0.0,-3.731800367348725,-0.0,0.0,-3.7296097681062763,0.0,0.0,0.86,0.0,0.0,0.0,0.0,0.0,0.0,-0.06509397026799672,0.0,0.0,-0.06509397026799672,0.0,0.0,19.9568178110922,-0.047458077740285924,6.530622010717131,0.0014517713477896557,0.013190961215651907,0.0035181407699233754,1.0,170.2114904871368,0.15250480953036075,28.296804761835517,117.56663657041999,-0.015081245630790784,2.2866023116442005,28.45997496246491,117.71332727796347,8430.123031865633,0.06433431569145973
1.71,174.20076431494195,0.0,27.76183777087332,118.39026414564859,0.0,2.5861033935848146,118.41850605052724,17.503188635651586,0.0,5.962491898105013,0.0,0.0,0.7920513055011845,0.0,4.711128447726763,0.0,8566.184107053265,0.34809784195030413,118.41850605052723,2.1465134106703325,1.2217384562608349,100991.93710981026,287.9695480544893,0.0,0.0,0.0,402.71763157894736,0.2161356306174341,0.86,nominal,7283.721913995113,nan,pitch_program,12.145,0.0,0.0,-3.7345418925671097,-0.0,0.0,-3.7325690427827767,0.0,0.0,0.86,0.0,0.0,0.0,0.0,0.0,0.0,-0.06514561935457254,0.0,0.0,-0.06514561935457254,0.0,0.0,19.957850006102632,0.01061087522753619,6.567447708105305,2.0287879537186186e-05,0.013459748409327987,-0.0013522696356076513,1.0,170.2114904871368,0.15250480953036075,28.296804761835517,117.56663657041999,-0.015081245630790784,2.2866023116442005,28.45997496246491,117.93727917842538,8683.771656449248,0.06433431569145973
1.74,177.76974426914757,0.0,27.83837915491223,118.96599847352049,0.0,2.551379467963606,118.9933541421168,17.49670456673306,0.0,5.9394271098680935,0.0,0.0,0.7688262849464351,0.0,4.710833465487379,0.0,8649.489347806666,0.34978794232597804,118.9933541421168,2.1462596891745744,1.2217294730936912,100991.0200585034,287.96905053549307,0.0,0.0,0.0,402.68368421052634,0.21611741131113574,0.86,nominal,7352.710405935132,nan,pitch_program,12.13,0.0,0.0,-3.736966262817608,-0.0,0.0,-3.7352073748036756,0.0,0.0,0.86,0.0,0.0,0.0,0.0,0.0,0.0,-0.06519166693509802,0.0,0.0,-0.06519166693509802,0.0,0.0,19.974057138179926,-0.025580654882604286,6.69019703164446,-9.375756663055333e-05,0.01639662695692322,-0.0010783625043615812,1.0,170.2114904871368,0.15250480953036075,28.296804761835517,117.56663657041999,-0.015081245630790784,2.2866023116442005,27.839872975979485,119.28526970263407,8570.67136847793,-0.6773835729018817
1.77,181.3559699266569,0.0,27.913931563325175,119.54085525031174,0.0,2.5184136137648445,119.56738050616472,17.490221044393728,0.0,5.917050763530254,0.0,0.0,0.7458782207415773,0.0,4.710156862029149,0.0,8733.07787389222,0.3514756261804829,119.56738050616471,2.146018364263977,1.2217206060457741,100990.11486284221,287.9685594448384,0.0,0.0,0.0,402.64973684210526,0.21609919200483738,0.86,nominal,7421.921397518472,nan,pitch_program,12.115,0.0,0.0,-3.739078770482925,-0.0,0.0,-3.7375302122112255,0.0,0.0,0.86,0.0,0.0,0.0,0.0,0.0,0.0,-0.06523220809584826,0.0,0.0,-0.06523220809584826,0.0,0.0,19.873051624085676,0.022006182020995482,6.763849168958402,-0.0026391781304808183,0.0173742598596277,0.0024472158019708157,1.0,170.2114904871368,0.15250480953036075,28.296804761835517,117.56663657041999,-0.015081245630790784,2.2866023116442005,27.839872975979485,118.6045325503666,8776.14665543782,-0.6773835729018817
1.7999999999999998,184.95941487439688,0.0,27.98854775000523,120.11483159133212,0.0,2.4872062226685596,120.140580001131,17.48373806863358,0.0,5.895354453347494,0.0,0.0,0.7232103480672347,0.0,4.709105803469933,0.0,8816.947174808985,0.3531608785475001,120.14058000113101,2.1457891178653714,1.2217118489238554,100989.22089052976,287.96807443962496,0.0,0.0,0.0,402.6157894736842,0.216080972698539,0.86,nominal,7491.353373296668,nan,pitch_program,12.1,0.0,0.0,-3.740884523554423,-0.0,0.0,-3.7395427990171437,0.0,0.0,0.86,0.0,0.0,0.0,0.0,0.0,0.0,-0.06526733436209373,0.0,0.0,-0.06526733436209373,0.0,0.0,19.941527277495357,-0.06432249982414692,6.767861293442168,-0.0019961819137685613,0.01541129955969977,0.00039649177422146283,1.0,170.2114904871368,0.15250480953036075,28.296804761835517,117.56663657041999,-0.015081245630790784,2.2866023116442005,28.036706281670494,121.15804047870691,8712.232466518348,-0.5381140530049768
1.8299999999999998,188.58005261408516,0.0,28.0622804698341,120.68792465627551,0.0,2.4577573276289035,120.7129476440715,17.477255639452626,0.0,5.874329701440757,0.0,0.0,0.7008250714218686,0.0,4.707687217898537,0.0,8901.094750063176,0.3548436849310381,120.7129476440715,2.145571619360616,1.2217031955347455,100988.33750927815,287.9675951769461,0.0,0.0,0.0,402.58184210526315,0.21606275339224065,0.86,nominal,7561.0048272296735,nan,pitch_program,12.085,0.0,0.0,-3.7423884678344397,-0.0,0.0,-3.741250200307521,0.0,0.0,0.86,0.0,0.0,0.0,0.0,0.0,0.0,-0.06529713413626362,0.0,0.0,-0.06529713413626362,0.0,0.0,19.92257895705203,0.030348053113920952,6.938039521600479,-0.0037056140811229303,0.009364087330886733,0.0025410414344244313,1.0,170.2114904871368,0.15250480953036075,28.296804761835517,117.56663657041999,-0.015081245630790784,2.2866023116442005,28.036706281670494,120.90261593019932,8945.873713410832,-0.5381140530049768
1.8599999999999999,192.2178565636165,0.0,28.135182467846683,121.26013165104406,0.0,2.430066600419433,121.28447861004726,17.470773756850857,0.0,5.8539679790020624,0.0,0.0,0.6787240884330943,0.0,4.705907822269391,0.0,8985.518109679055,0.3565240313036422,121.28447861004726,2.145365526091738,1.2216946396865678,100987.46408693831,287.96712131395896,0.0,0.0,0.0,402.54789473684207,0.2160445340859423,0.86,nominal,7630.874263003815,nan,pitch_program,12.07,0.0,0.0,-3.743595406045454,-0.0,0.0,-3.7426573237502807,0.0,0.0,0.86,0.0,0.0,0.0,0.0,0.0,0.0,-0.06532169307332177,0.0,0.0,-0.06532169307332177,0.0,0.0,19.8280959883017,-0.02113972166294245,6.883036664673573,-0.0006853325104311707,0.012380565630326712,-0.001951194372790492,1.0,170.2114904871368,0.15250480953036075,28.296804761835517,117.56663657041999,-0.015081245630790784,2.2866023116442005,29.476106390630047,121.26900007188641,8992.323529947462,2.1137195649058427
1.89,195.87280005849513,0.0,28.207306468353874,121.83144982928764,0.0,2.4041333502397206,121.8551682312735,17.46429242082828,0.0,5.834260724318723,0.0,0.0,0.6569084959209834,0.0,4.703774145462353,0.0,9070.214774667229,0.358201904103836,121.85516823127348,2.14517048386246,1.2216861751900312,100986.59999162989,287.9666525079557,0.0,0.0,0.0,402.51394736842104,0.21602631477964393,0.86,nominal,7700.960194313865,nan,pitch_program,12.055,0.0,0.0,-3.7445100142726044,-0.0,0.0,-3.743768938063675,0.0,0.0,0.86,0.0,0.0,0.0,0.0,0.0,0.0,-0.06534109440310279,0.0,0.0,-0.06534109440310279,0.0,0.0,19.76682851161028,-0.0695386092280905,7.020545245625377,-0.0014098417221421755,0.007444712918134553,0.0024248951687725856,1.0,197.31048722912675,1.3450536952733552,27.56055580682854,121.989156772919,0.0218819398017442,2.350235057122788,29.476106390630047,122.00409787341847,9184.6843926653,2.1137195649058427
1.92,199.5448563533061,0.0,28.278705164051175,122.40187649369884,0.0,2.379956523243415,122.42501199604284,17.45781163138489,0.0,5.815199358084934,0.0,0.0,0.6353788803198761,0.0,4.701292548064351,0.0,9155.182277454218,0.3598772902328993,122.42501199604284,2.1449861274361623,1.2216777958596967,100985.74459187042,287.9661884164336,0.0,0.0,0.0,402.48,0.2160080954733456,0.86,nominal,7771.261145112659,nan,pitch_program,12.040000000000001,0.0,0.0,-3.745136856002117,-0.0,0.0,-3.7445896888267405,0.0,0.0,0.86,0.0,0.0,0.0,0.0,0.0,0.0,-0.06535541920625654,0.0,0.0,-0.06535541920625654,0.0,0.0,19.832758455536442,0.038426406065854304,7.073522986535647,0.00282847808902311,0.014341022083672366,0.0029642331969974237,1.0,197.31048722912675,1.3450536952733552,27.56055580682854,121.989156772919,0.0218819398017442,2.350235057122788,28.620948366961986,122.13351891907912,9285.980109045244,0.624717289489596
