time_s,x_m,y_m,altitude_m,vx_mps,vy_mps,vz_mps,speed_mps,mass_kg,roll_deg,pitch_deg,yaw_deg,p_dps,q_dps,r_dps,alpha_deg,beta_deg,qbar_pa,mach,airspeed_mps,load_factor_g,density_kgpm3,pressure_pa,temperature_k,wind_x_mps,wind_y_mps,wind_z_mps,thrust_n,mass_flow_kgps,propulsion_throttle_actual,propulsion_health,energy_j_per_kg,target_distance_m,guidance_mode,pitch_command_deg,heading_command_deg,roll_command_deg
0.0,0.0,0.0,20.0,85.0,0.0,8.0,85.37564055396598,17.864690281045608,0.0,6.000000000000002,0.0,0.0,0.0,0.0,0.623294571949261,0.0,4455.946741876431,0.2509445034436674,85.37564055396597,1.7592437138084216,1.2226496753673843,101084.96761777384,288.02,0.0,0.0,0.0,326.8,0.17539118863220368,0.86,nominal,3840.633,nan,pitch_program,13.0,0.0,0.0
0.03,2.5654235033149866,0.0,20.23296434849729,85.51411677716622,0.0,7.765478283243035,85.86598174566188,17.859428545386642,0.0,6.265582975204377,0.0,0.0,-8.852781691043555,0.0,1.0768240543363028,0.0,4507.176894202071,0.2523864261004417,85.8659817456619,1.7875206507466737,1.2226223184064997,101082.17438378547,288.01848573173476,0.0,0.0,0.0,332.605,0.1785066900092231,0.86,nominal,3884.901010401361,nan,pitch_program,12.985,0.0,0.0
0.06,5.1464576662556825,0.0,20.45938517358267,86.0344720980232,0.0,7.547360836179334,86.36488316889583,17.854073344686366,0.0,6.641326170815804,0.0,0.0,-12.524818074760239,0.0,1.627896966522951,0.0,4559.605394651095,0.25385349880516916,86.36488316889583,1.8163754548488027,1.2225957302991193,101079.45966629332,288.0170139963717,0.0,0.0,0.0,338.40999999999997,0.18162219138624247,0.86,nominal,3930.0845520010275,nan,pitch_program,12.97,0.0,0.0
0.09,7.7432573102122415,0.0,20.67988734906928,86.5599881318853,0.0,7.350072516220279,86.87148618151886,17.84862467894478,0.0,6.946431717623543,0.0,0.0,-10.170208926358294,0.0,2.0929150223116313,0.0,4613.15645709245,0.25534319940095584,86.87148618151886,1.8463324387399729,1.2225698376311032,101076.81596836887,288.015580732231,0.0,0.0,0.0,344.215,0.18473769276326188,0.86,nominal,3976.1279729646612,nan,pitch_program,12.955,0.0,0.0
0.12,10.355997729665937,0.0,20.89494613945146,87.09134731512316,0.0,7.168626346072718,87.38587975670336,17.84308254816188,0.0,7.124659322622365,0.0,0.0,-5.940924957091236,0.0,2.419160979624857,0.0,4667.853703661652,0.25685579065700326,87.38587975670335,1.8767207825777301,1.222544584561636,101074.23758752501,288.01418285009356,0.0,0.0,0.0,350.02,0.1878531941402813,0.86,nominal,4023.0554139849605,nan,pitch_program,12.94,0.0,0.0
0.15,12.984891036767472,0.0,21.104846061319307,87.6297769033845,0.0,6.996664062261634,87.90865206643248,17.83744695233767,0.0,7.219446030070144,0.0,0.0,-3.159557635526622,0.0,2.6544372661556124,0.0,4723.774928249746,0.258393002125382,87.90865206643248,1.9074524423247048,1.2225199376521028,101071.72110869666,288.0128185006014,0.0,0.0,0.0,355.825,0.1909686955173007,0.86,nominal,4070.9333926957784,nan,pitch_program,12.925,0.0,0.0
0.18,15.630170834749446,0.0,21.30978076646247,88.17599326606577,0.0,6.831156838105474,88.44020857169025,17.831717891472152,0.0,7.289272501014262,0.0,0.0,-2.3275493195502324,0.0,2.8593113485344928,0.0,4780.979952785277,0.2599560260690813,88.44020857169025,1.9386404111830053,1.2224958741359717,101069.26420653076,288.01148642501795,0.0,0.0,0.0,361.63,0.19408419689432013,0.86,nominal,4119.812807655466,nan,pitch_program,12.91,0.0,0.0
0.21,18.292073457029304,0.0,21.50994514480301,88.73008740932858,0.0,6.672145944684646,88.98059307047949,17.825895365565323,0.0,7.358717081754403,0.0,0.0,-2.314819641383428,0.0,3.058397855591936,0.0,4839.490581235997,0.261544991717172,88.98059307047947,1.970225200070501,1.2224723711033558,101066.86454110114,288.01018535655874,0.0,0.0,0.0,367.435,0.19719969827133954,0.86,nominal,4169.713475141413,nan,pitch_program,12.895,0.0,0.0
0.24,20.97083181022165,0.0,21.705557688314205,89.2919451064116,0.0,6.520418117039835,89.52970073281516,17.819979374617184,0.0,7.42195818433453,0.0,0.0,-2.1080369666890757,0.0,3.245428025163473,0.0,4899.312737928763,0.2631595915050377,89.52970073281514,2.002022199853897,1.2224494028750597,101064.51948979772,288.00891387502594,0.0,0.0,0.0,373.24,0.20031519964835895,0.86,nominal,4220.642463957829,nan,pitch_program,12.88,0.0,0.0
0.27,23.66667926259058,0.0,21.896837096226857,89.861581745631,0.0,6.3759802637551495,90.0874963474428,17.813969918627734,0.0,7.467065717934524,0.0,0.0,-1.5035845309935378,0.0,3.40853981727297,0.0,4960.460011731705,0.26479972250845524,90.0874963474428,2.0338689497998588,1.2224269437495807,101062.22642779657,288.0076705588745,0.0,0.0,0.0,379.045,0.20343070102537836,0.86,nominal,4272.613116584972,nan,pitch_program,12.865,0.0,0.0
0.3,26.379854660211194,0.0,22.083978544408417,90.43917992068717,0.0,6.238048272718635,90.65405953943372,17.80786699759697,0.0,7.4910162360740795,0.0,0.0,-0.7983506162769103,0.0,3.5452855764505133,0.0,5022.958907277714,0.2664656192863425,90.65405953943372,2.06572114050802,1.2224049707893085,101059.98301252462,288.0064541394613,0.0,0.0,0.0,384.84999999999997,0.20654620240239774,0.86,nominal,4325.649103682119,nan,pitch_program,12.850000000000001,0.0,0.0
0.32999999999999996,29.110603477257808,0.0,22.267150160092587,91.02496056822045,0.0,6.10572052280569,91.22950876524929,17.801670611524898,0.0,7.498975674352689,0.0,0.0,-0.2653146097136164,0.0,3.6614705480208607,0.0,5086.840770219846,0.2681576304650931,91.22950876524929,2.097617089565287,1.222383464234169,101057.78722588359,288.0052635239594,0.0,0.0,0.0,390.655,0.20966170377941715,0.86,nominal,4379.7777828918215,nan,pitch_program,12.835,0.0,0.0
0.36,31.859175885144566,0.0,22.446502913687514,91.61908026289188,0.0,5.978425119830905,91.8139283286128,17.795380760411515,0.0,7.49719041546389,0.0,0.0,0.05950862963138057,0.0,3.763758548883729,0.0,5152.133738882899,0.26987600423962516,91.81392832861283,2.1295882307936593,1.2223624063399419,101055.63725563617,288.004097731061,0.0,0.0,0.0,396.46,0.21277720515643656,0.86,nominal,4435.023715364338,nan,pitch_program,12.82,0.0,0.0
0.39,34.625824630242356,0.0,22.622179976605818,92.22162483659295,0.0,5.855902097276783,92.40735726593522,17.78899744425682,0.0,7.488751038668612,0.0,0.0,0.28131256035122054,0.0,3.8554532590050887,0.0,5218.861373924635,0.2716208557297041,92.4073572659352,2.1616224580780914,1.2223417802794023,101053.53138320944,288.002955830152,0.0,0.0,0.0,402.265,0.21589270653345596,0.86,nominal,4491.4076397046765,nan,pitch_program,12.805,0.0,0.0
0.42,37.41080423496949,0.0,22.794319476264807,92.83265349090438,0.0,5.737983321966323,93.0098167225669,17.78252066306082,0.0,7.47410123088624,0.0,0.0,0.4883269287394793,0.0,3.9371506387293347,0.0,5287.045612409217,0.2733922474562344,93.00981672256688,2.171629162407762,1.222321569818748,101051.46795065561,288.00183692340426,0.0,0.0,0.0,404.1773684210526,0.21691906078826353,0.86,nominal,4548.948916474655,nan,pitch_program,12.79,0.0,0.0
0.44999999999999996,40.21417581485176,0.0,22.96302751291649,93.44571932940879,0.0,5.623601221722752,93.61478169440767,17.77601309123717,0.0,7.453270773612287,0.0,0.0,0.6943485834465719,0.0,4.009341162939519,0.0,5355.959693957462,0.2751710001142887,93.61478169440768,2.1706389352353654,1.2223017624854873,101049.4456840804,288.000740321166,0.0,0.0,0.0,404.14342105263154,0.21690084148196515,0.86,nominal,4607.0540496053445,nan,pitch_program,12.775,0.0,0.0
0.48,43.03590487478707,0.0,23.12838985756953,94.05763533117718,0.0,5.512078155101376,94.21900959827936,17.76950606599271,0.0,7.4270140074295155,0.0,0.0,0.8752255547427394,0.0,4.073134078516916,0.0,5425.235735045589,0.27694758255053575,94.21900959827934,2.1696817148423193,1.2222823481947895,101047.46355339004,287.9996654659258,0.0,0.0,0.0,404.1094736842105,0.2168826221756668,0.86,nominal,4665.422909237062,nan,pitch_program,12.76,0.0,0.0
0.51,45.87595880779842,0.0,23.290485541709355,94.66846443371165,0.0,5.403189471327542,94.82253220991302,17.762999587327442,0.0,7.396548273852246,0.0,0.0,1.0155244765026736,0.0,4.129943564146431,0.0,5494.875793253045,0.27872208820197036,94.82253220991302,2.16875937368406,1.2222633176538462,101045.5206093775,287.9986118439789,0.0,0.0,0.0,404.0755263157895,0.21686440286936848,0.86,nominal,4724.0579473876005,nan,pitch_program,12.745,0.0,0.0
0.54,48.734306485289395,0.0,23.449388559482603,95.27825591636585,0.0,5.296767259108247,95.42537290396966,17.75649365524136,0.0,7.3629241131541,0.0,0.0,1.1208053887716796,0.0,4.180977265144734,0.0,5564.8810430923195,0.280494585802913,95.42537290396965,2.1678714215158985,1.2222446621619587,101043.61596331027,287.99757897436336,0.0,0.0,0.0,404.0415789473684,0.2168461835630701,0.86,nominal,4782.9608432476825,nan,pitch_program,12.73,0.0,0.0
0.57,51.610917923681285,0.0,23.605169139774496,95.88704794639634,0.0,5.192686009729784,96.02754788012736,17.74998826973447,0.0,7.326792609420203,0.0,0.0,1.204383497709142,0.0,4.227013573643942,0.0,5635.251888253966,0.282265122992272,96.02754788012737,2.167012569724874,1.2222263734611425,101041.74877167604,287.99656640059146,0.0,0.0,0.0,404.0076315789474,0.21682796425677175,0.86,nominal,4842.132607879646,nan,pitch_program,12.715,0.0,0.0
0.6,54.505764110070274,0.0,23.75789429653535,96.49487287963306,0.0,5.090838558695212,96.62906979417345,17.743483430806766,0.0,7.288569842436003,0.0,0.0,1.2740922800584835,0.0,4.268581470723505,0.0,5705.988363735538,0.28403373698802603,96.62906979417345,2.1661768300855426,1.2222084436714775,101039.91822958067,287.9955736870725,0.0,0.0,0.0,403.9736842105263,0.21680974495047337,0.86,nominal,4901.573918746739,nan,pitch_program,12.7,0.0,0.0
0.63,57.41881690353241,0.0,23.907628087833444,97.10175978207114,0.0,4.991126376603125,97.22994957975794,17.736979138458253,0.0,7.248642859924866,0.0,0.0,1.3308994708961028,0.0,4.3061727646953525,0.0,5777.090339152874,0.2858004599425328,97.22994957975796,2.165360920864955,1.222190865260653,101038.12356763791,287.99460041742907,0.0,0.0,0.0,403.9397368421053,0.21679152564417503,0.86,nominal,4961.285288628687,nan,pitch_program,12.685,0.0,0.0
0.6599999999999999,60.35004892598339,0.0,24.05443196655658,97.70773408169929,0.0,4.893462624104626,97.83019613510733,17.730475392688927,0.0,7.207418140743376,0.0,0.0,1.3741573653320356,0.0,4.3402890273385095,0.0,5848.557474757651,0.2875653180224187,97.83019613510733,2.164563991066277,1.2221736310027616,101036.36404776119,287.99364619221734,0.0,0.0,0.0,403.9057894736842,0.21677330633787664,0.86,nominal,5021.267033161617,nan,pitch_program,12.67,0.0,0.0
0.69,63.299433431582585,0.0,24.198365244942266,98.31281685330671,0.0,4.797775946189459,98.42981566406424,17.723972193498792,0.0,7.165265828429139,0.0,0.0,1.4050771405159908,0.0,4.371383915366155,0.0,5920.389134440838,0.28932832947279197,98.42981566406422,2.1637856561456528,1.2221567339237343,101034.63895759205,287.9927106259079,0.0,0.0,0.0,403.8718421052631,0.21675508703157828,0.86,nominal,5081.5192043601455,nan,pitch_program,12.655,0.0,0.0
0.72,66.26694418560942,0.0,24.339485520143455,98.91702513422791,0.0,4.704009173372997,99.02881178580633,17.717469540887844,0.0,7.1224788461656265,0.0,0.0,1.4262328083978564,0.0,4.39982341510631,0.0,5992.584388907822,0.2910895049408547,99.02881178580633,2.163024980172336,1.2221401672513506,101032.94760539533,287.99179334411906,0.0,0.0,0.0,403.8378947368421,0.21673686772527995,0.86,nominal,5142.041597530442,nan,pitch_program,12.64,0.0,0.0
0.75,69.25255537161588,0.0,24.477848980060397,99.52037286688233,0.0,4.61211533056474,99.62718616615506,17.710967434856087,0.0,7.079284820660677,0.0,0.0,1.439800918355364,0.0,4.4259004158282735,0.0,6065.142082925093,0.2928488493323647,99.62718616615506,2.16228082258016,1.2221239243793163,101031.28931639118,287.9908939816296,0.0,0.0,0.0,403.80394736842106,0.21671864841898159,0.86,nominal,5202.833809393169,nan,pitch_program,12.625,0.0,0.0
0.78,72.25624152052049,0.0,24.61351062481643,100.12287163015338,0.0,4.522054825201101,100.22493902871828,17.704465875403518,0.0,7.035876237135825,0.0,0.0,1.4469528533733365,0.0,4.449866735726986,0.0,6138.060890676463,0.2946063633146522,100.2249390287183,2.1615524412174816,1.222107998841237,101029.66343009728,287.99001218093866,0.0,0.0,0.0,403.77,0.21670042911268322,0.86,nominal,5263.895285624004,nan,pitch_program,12.61,0.0,0.0
0.8099999999999999,75.27797744853133,0.0,24.74652446344952,100.72453093369488,0.0,4.433794621102975,100.82206934275342,17.69796486253014,0.0,6.992424835655374,0.0,0.0,1.448380118764983,0.0,4.471948180880827,0.0,6211.339333548267,0.29636204386933,100.82206934275342,2.160839567843564,1.2220923842875129,101028.06929796912,287.98914759098756,0.0,0.0,0.0,403.73605263157896,0.21668220980638486,0.86,nominal,5325.225337406977,nan,pitch_program,12.595,0.0,0.0
0.84,78.31773819913364,0.0,24.8769437032756,101.32535835341027,0.0,4.347307994202585,101.41857488765787,17.691464396235947,0.0,6.949079758109532,0.0,0.0,1.4448359871030403,0.0,4.492342997334194,0.0,6284.975783456554,0.2981158844823616,101.41857488765785,2.160142111477363,1.2220770744630873,101026.50628112801,287.9882998659287,0.0,0.0,0.0,403.7021052631579,0.2166639905000865,0.86,nominal,5386.823146089461,nan,pitch_program,12.58,0.0,0.0
0.87,81.37549899155216,0.0,25.004820917744503,101.92535974728385,0.0,4.262573815630098,102.0144523837036,17.684964476520946,0.0,6.9059646588493795,0.0,0.0,1.4371700431556986,0.0,4.511219542018043,0.0,6358.96847473384,0.2998678755288036,102.0144523837036,2.15945995071819,1.2220620631877281,101024.9737483472,287.9874686640346,0.0,0.0,0.0,403.66815789473685,0.21664577119378817,0.86,nominal,5448.687774626463,nan,pitch_program,12.565,0.0,0.0
0.8999999999999999,84.45123517774783,0.0,25.130208182664656,102.52453953985564,0.0,4.179575497338462,102.6096976859272,17.678465103385133,0.0,6.863180947303587,0.0,0.0,1.4261237844585883,0.0,4.528720254621552,0.0,6433.315524531006,0.30161800484310913,102.6096976859272,2.1587929541142468,1.2220473443400233,101023.47107441761,287.98665364681267,0.0,0.0,0.0,403.6342105263158,0.2166275518874898,0.86,nominal,5510.818185673214,nan,pitch_program,12.55,0.0,0.0
0.9299999999999999,87.5449222067513,0.0,25.253157186300804,103.1229009667819,0.0,4.098300121204867,103.2043059551692,17.671966276828506,0.0,6.82081354249429,0.0,0.0,1.4122468913265547,0.0,4.544968012050242,0.0,6508.014951204018,0.3033662582221959,103.2043059551692,2.1581410645957253,1.2220329118444377,101021.997638826,287.985854478289,0.0,0.0,0.0,403.6002631578947,0.21660933258119142,0.86,nominal,5573.213257765125,nan,pitch_program,12.535000000000002,0.0,0.0
0.96,90.65653559403036,0.0,25.373719323241815,103.72044624263552,0.0,4.0187378980337405,103.79827177301429,17.66546799685107,0.0,6.778934477766318,0.0,0.0,1.3959688864160165,0.0,4.5600701276968305,0.0,6583.064686344261,0.3051126197635732,103.79827177301429,2.157504306515304,1.2220187596602878,101020.5528246289,287.9850708243989,0.0,0.0,0.0,403.56631578947366,0.21659111327489305,0.86,nominal,5635.871796133538,nan,pitch_program,12.520000000000001,0.0,0.0
0.99,93.78605089471506,0.0,25.491945776258824,104.31717668949015,0.0,3.9408817672335923,104.39158922810603,17.658970263452822,0.0,6.737604146999838,0.0,0.0,1.3776777519551202,0.0,4.574119899898969,0.0,6658.46258366846,0.3068570721192991,104.39158922810604,2.1568827337668632,1.222004881772114,101019.13601746947,287.9843023524543,0.0,0.0,0.0,403.53236842105264,0.21657289396859472,0.86,nominal,5698.79254083156,nan,pitch_program,12.505,0.0,0.0
1.02,96.93344368055403,0.0,25.60788758574133,104.91309286129916,0.0,3.8647269827502466,104.9842520017873,17.652473076633765,0.0,6.69687225377729,0.0,0.0,1.3577298312664918,0.0,4.587197859831874,0.0,6734.206428208371,0.3085995967479232,104.9842520017873,2.1562763943714995,1.221991272181527,101017.74660474442,287.98354873069263,0.0,0.0,0.0,403.49842105263156,0.21655467466229633,0.86,nominal,5761.9741749801,nan,pitch_program,12.49,0.0,0.0
1.05,100.09868952046622,0.0,25.721595706748168,105.50819466373972,0.0,3.790270700227926,105.57625345304974,17.645976436393894,0.0,6.656779388302728,0.0,0.0,1.3364289036844135,0.0,4.5993736357281305,0.0,6810.293945793811,0.3103401741643672,105.57625345304976,2.155685331890173,1.2219779249004903,101016.38397491837,287.98280962790614,0.0,0.0,0.0,403.46447368421053,0.216536455355998,0.86,nominal,5825.415333128882,nan,pitch_program,12.475,0.0,0.0
1.08,103.28176396415832,0.0,25.833121055683083,106.1024814564033,0.0,3.7175116311638035,106.16758669167461,17.639480342733215,0.0,6.617358694302232,0.0,0.0,1.3140231851850923,0.0,4.610707860459246,0.0,6886.722811381259,0.3120787841550642,106.1675866916746,2.1551095946556353,1.221964833945836,101015.0475169632,287.982084713138,0.0,0.0,0.0,403.43052631578945,0.21651823604969964,0.86,nominal,5889.1146085678365,nan,pitch_program,12.46,0.0,0.0
1.1099999999999999,106.48264252821426,0.0,25.942514548860903,106.69595213519817,0.0,3.646449772593946,106.75824463703283,17.632984795651723,0.0,6.57863706460412,0.0,0.0,1.2907210390632522,0.0,4.6212535584748045,0.0,6963.490655835858,0.31381540595092444,106.75824463703282,2.154549232041826,1.2219519933347323,101013.73661989515,287.9813736554324,0.0,0.0,0.0,403.3965789473684,0.21650001674340127,0.86,nominal,5953.070559290861,nan,pitch_program,12.445,0.0,0.0
1.14,109.70130068428061,0.0,26.049827134214752,107.2886052022116,0.0,3.577086178461593,107.34822006798328,17.62648979514942,0.0,6.540635949401646,0.0,0.0,1.2667038865170883,0.0,4.631057116289349,0.0,7040.595071806168,0.31555001837411334,107.34822006798328,2.154004284027067,1.2219393970809433,101012.45067239282,287.9806761236276,0.0,0.0,0.0,403.3626315789474,0.21648179743710294,0.86,nominal,6017.2817131478305,nan,pitch_program,12.43,0.0,0.0
1.17,112.93771384912718,0.0,26.155109816756447,107.88043882821908,0.0,3.5094227513898004,107.93750566794237,17.619995341226307,0.0,6.503372081886338,0.0,0.0,1.2421289609609334,0.0,4.640159153770687,0.0,7118.033619183365,0.3172825999706194,107.93750566794237,2.153474775792254,1.2219270391918389,101011.18906249145,287.9799917861911,0.0,0.0,0.0,403.3286842105263,0.21646357813080455,0.86,nominal,6081.7465725930415,nan,pitch_program,12.415,0.0,0.0
1.2,116.19185737636333,0.0,26.258413678490623,108.47145090787191,0.0,3.443462057805891,108.52609406498703,17.613501433882384,0.0,6.466858202110345,0.0,0.0,1.2171293670597378,0.0,4.648595376215319,0.0,7195.803830101106,0.3190131291282061,108.52609406498703,2.1529607179214896,1.2219149136660437,101009.95117734275,287.9793203110898,0.0,0.0,0.0,403.2947368421053,0.21644535882450622,0.86,nominal,6146.463619001377,nan,pitch_program,12.4,0.0,0.0
1.23,119.46370654956452,0.0,26.359789893649708,109.06163910670631,0.0,3.3792071719695396,109.11397786604859,17.607008073117647,0.0,6.431103689344994,0.0,0.0,1.1918171308546455,0.0,4.656397315256612,0.0,7273.9032133244955,0.32074158417698,109.1139778660486,2.1524621066345606,1.2219030144916418,101008.7364030313,287.97866136569127,0.0,0.0,0.0,403.26078947368416,0.2164271395182078,0.86,nominal,6211.4313164368305,nan,pitch_program,12.385,0.0,0.0
1.26,122.75323657659406,0.0,26.45928973999739,109.6510009009848,0.0,3.316661544922795,109.70114968582297,17.600515258932102,0.0,6.396115061006011,0.0,0.0,1.1662876475431347,0.0,4.663592919553337,0.0,7352.329258081367,0.32246794347441515,109.70114968582297,2.151978922025813,1.2218913356448453,101007.5441244383,287.97801461669,0.0,0.0,0.0,403.22684210526313,0.21640892021190947,0.86,nominal,6276.648114924415,nan,pitch_program,12.37,0.0,0.0
1.29,126.06042258495809,0.0,26.55696460673029,110.23953361213434,0.0,3.2558288910965554,110.28760217172642,17.594022991325744,0.0,6.361896382845915,0.0,0.0,1.1406226392398553,0.0,4.670207044422482,0.0,7431.079437487681,0.3241921854787428,110.28760217172642,2.151511126261876,1.2218798710890517,101006.37372514523,287.9773797300562,0.0,0.0,0.0,403.1928947368421,0.21639070090561113,0.86,nominal,6342.112453355089,nan,pitch_program,12.355,0.0,0.0
1.3199999999999998,129.3852396180608,0.0,26.65286599940755,110.82723443675728,0.0,3.1967130892419275,110.87332802561168,17.587531270298577,0.0,6.32844963384865,0.0,0.0,1.1148916649024136,0.0,4.676261886073197,0.0,7510.151211643615,0.3259142888128081,110.87332802561168,2.1510586630971376,1.2218686147742663,101005.22458737457,287.97675637100383,0.0,0.0,0.0,403.158947368421,0.21637248159931274,0.86,nominal,6407.8227620905345,nan,pitch_program,12.34,0.0,0.0
1.3499999999999999,132.72766263223653,0.0,26.747045542325615,111.41410047252401,0.0,3.139318097268942,111.45832002240799,17.581040095850597,0.0,6.29577502830273,0.0,0.0,1.0891535477150607,0.0,4.681777363533642,0.0,7589.542030405594,0.3276342323188761,111.45832002240799,2.15062145804062,1.2218575606368072,101004.09609195942,287.97614420397485,0.0,0.0,0.0,403.125,0.2163542622930144,0.86,nominal,6473.777465276405,nan,pitch_program,12.325,0.0,0.0
1.38,136.0876664944466,0.0,26.839554978722123,112.00012874033568,0.0,3.0836478798836433,112.04257102592246,17.574549467981807,0.0,6.263871286949339,0.0,0.0,1.0634580725905005,0.0,4.686771441107931,0.0,7669.249335851095,0.3293519951050851,112.04257102592246,2.150199418320867,1.2218467025992799,101002.98761834076,287.97554289263826,0.0,0.0,0.0,403.0910526315789,0.21633604298671602,0.86,nominal,6539.974982881524,nan,pitch_program,12.31,0.0,0.0
1.41,139.4652259805474,0.0,26.930446169125897,112.58531620335935,0.0,3.0297063467924863,112.62607400224073,17.568059386692205,0.0,6.2327358635111105,0.0,0.0,1.0378474734807237,0.0,4.69126039914069,0.0,7749.270564481674,0.3310675565848367,112.62607400224073,2.1497924327251092,1.2218360345707633,101001.8985445861,287.97495209990063,0.0,0.0,0.0,403.0571052631579,0.2163178236804177,0.86,nominal,6606.413732503561,nan,pitch_program,12.295,0.0,0.0
1.44,142.8603157740511,0.0,27.019771088114467,113.16965978345706,0.0,2.9774972996190057,113.20882203111495,17.561569851981794,0.0,6.202365139140967,0.0,0.0,1.0123575027085545,0.0,4.695259066844639,0.0,7829.603149205621,0.33278089651026266,113.20882203111496,2.1494003716804895,1.2218255504471813,101000.8282474273,287.9743714879272,0.0,0.0,0.0,403.02315789473687,0.21629960437411935,0.86,nominal,6673.092130977586,nan,pitch_program,12.28,0.0,0.0
1.47,146.27291046531133,0.0,27.107581819709832,113.75315637534084,0.0,2.9270243865122088,113.79080831557522,17.55508086385057,0.0,6.172754590948814,0.0,0.0,0.9870182950398755,0.0,4.698781024089797,0.0,7910.244521122643,0.33449199500046395,113.79080831557522,2.149023087571735,1.2218152441118355,100999.77610231478,287.97380071817184,0.0,0.0,0.0,402.9892105263158,0.21628138506782096,0.86,nominal,6740.008595808249,nan,pitch_program,12.265,0.0,0.0
1.5,149.70298455107292,0.0,27.193930551618806,114.33580285872006,0.0,2.8782910636324655,114.37202618995208,17.548592422298537,0.0,6.143898935946148,0.0,0.0,0.9618551870859168,0.0,4.70183877409844,0.0,7991.192111127766,0.33620083256507477,114.37202618995207,2.1486604150941324,1.2218051094360802,100998.74148348598,287.97323945141443,0.0,0.0,0.0,402.9552631578947,0.2162631657615226,0.86,nominal,6807.1615464415745,nan,pitch_program,12.25,0.0,0.0
1.53,153.15051243433453,0.0,27.278869568495626,114.91759610872073,0.0,2.831300562560701,114.95246912651604,17.54210452732569,0.0,6.11579225297432,0.0,0.0,0.9368894511823034,0.0,4.70444389025926,0.0,8072.443351355011,0.3379073901237552,114.95246912651604,2.1483121715900713,1.2217951402801017,100997.72376404503,287.97268734780477,0.0,0.0,0.0,402.9213157894737,0.21624494645522424,0.86,nominal,6874.549405395199,nan,pitch_program,12.235,0.0,0.0
1.56,156.61546842447956,0.0,27.362451244377787,115.49853300483467,0.0,2.7860558627387215,115.53213074092932,17.535617178932036,0.0,6.088428086736206,0.0,0.0,0.9121388919417682,0.0,4.706607141769341,0.0,8153.995676481467,0.3396116490221894,115.5321307409293,2.1479781574352437,1.2217853304938011,100996.72231605246,287.97214406691154,0.0,0.0,0.0,402.8873684210526,0.21622672714892588,0.86,nominal,6942.17059926527,nan,pitch_program,12.220000000000002,0.0,0.0
1.5899999999999999,160.0978267376376,0.0,27.44472803442593,116.07861043860149,0.0,2.7425596682714137,116.11100479666271,17.529130377117568,0.0,6.061799537061549,0.0,0.0,0.887618338465567,0.0,4.708338601687423,0.0,8235.846524907322,0.341313591045037,116.11100479666271,2.147658156489959,1.2217756739177583,100995.73651062361,287.9716092677762,0.0,0.0,0.0,402.8534210526316,0.21620850784262752,0.86,nominal,7010.023559624118,nan,pitch_program,12.205000000000002,0.0,0.0
1.6199999999999999,163.59756149724328,0.0,27.525752466082515,116.65782532018946,0.0,2.7008143885528964,116.6890852085029,17.52264412188229,0.0,6.035899335193731,0.0,0.0,0.8633400769620841,0.0,4.709647739555334,0.0,8317.99333982436,0.3430131984262082,116.6890852085029,2.1473519365736546,1.2217661643842648,100994.76571803367,287.97108260897045,0.0,0.0,0.0,402.8194736842105,0.21619028853632916,0.86,nominal,7078.106723820134,nan,pitch_program,12.19,0.0,0.0
1.65,167.11464673476405,0.0,27.605577129748802,117.23617458402624,0.0,2.6608221222095096,117.26636604526603,17.5161584132262,0.0,6.0107199087200955,0.0,0.0,0.839314229295771,0.0,4.710543500548018,0.0,8400.433570184936,0.3447104538568014,117.26636604526604,2.1470592499414782,1.2217567957184114,100993.80930782869,287.9705637486566,0.0,0.0,0.0,402.78552631578947,0.21617206923003082,0.86,nominal,7146.418535690611,nan,pitch_program,12.175,0.0,0.0
1.68,170.6490563905725,0.0,27.684254669065776,117.81365519361486,0.0,2.622584643899088,117.84284153182318,17.509673251149298,0.0,5.986253436929485,0.0,0.0,0.8155490720797666,0.0,4.711034373237139,0.0,8483.164671582515,0.3464053404910164,117.8428415318232,2.146779833772127,1.221747561739224,100992.8666489413,287.97005234465104,0.0,0.0,0.0,402.75157894736844,0.21615384992373246,0.86,nominal,7214.957446197589,nan,pitch_program,12.16,0.0,0.0
1.71,174.20076431494195,0.0,27.76183777087332,118.39026414564859,0.0,2.5861033935848146,118.41850605052724,17.503188635651586,0.0,5.962491898105013,0.0,0.0,0.7920513055011845,0.0,4.711128447726763,0.0,8566.184107053265,0.34809784195030413,118.41850605052723,2.1465134106703325,1.2217384562608349,100991.93710981026,287.9695480544893,0.0,0.0,0.0,402.71763157894736,0.2161356306174341,0.86,nominal,7283.721913995113,nan,pitch_program,12.145,0.0,0.0
1.74,177.76974426914757,0.0,27.83837915491223,118.96599847352049,0.0,2.551379467963606,118.9933541421168,17.49670456673306,0.0,5.9394271098680935,0.0,0.0,0.7688262849464351,0.0,4.710833465487379,0.0,8649.489347806666,0.34978794232597804,118.9933541421168,2.1462596891745744,1.2217294730936912,100991.0200585034,287.96905053549307,0.0,0.0,0.0,402.68368421052634,0.21611741131113574,0.86,nominal,7352.710405935132,nan,pitch_program,12.13,0.0,0.0
1.77,181.3559699266569,0.0,27.913931563325175,119.54085525031174,0.0,2.5184136137648445,119.56738050616472,17.490221044393728,0.0,5.917050763530254,0.0,0.0,0.7458782207415773,0.0,4.710156862029149,0.0,8733.07787389222,0.3514756261804829,119.56738050616471,2.146018364263977,1.2217206060457741,100990.11486284221,287.9685594448384,0.0,0.0,0.0,402.64973684210526,0.21609919200483738,0.86,nominal,7421.921397518472,nan,pitch_program,12.115,0.0,0.0
1.7999999999999998,184.95941487439688,0.0,27.98854775000523,120.11483159133212,0.0,2.4872062226685596,120.140580001131,17.48373806863358,0.0,5.895354453347494,0.0,0.0,0.7232103480672347,0.0,4.709105803469933,0.0,8816.947174808985,0.3531608785475001,120.14058000113101,2.1457891178653714,1.2217118489238554,100989.22089052976,287.96807443962496,0.0,0.0,0.0,402.6157894736842,0.216080972698539,0.86,nominal,7491.353373296668,nan,pitch_program,12.1,0.0,0.0
1.8299999999999998,188.58005261408516,0.0,28.0622804698341,120.68792465627551,0.0,2.4577573276289035,120.7129476440715,17.477255639452626,0.0,5.874329701440757,0.0,0.0,0.7008250714218686,0.0,4.707687217898537,0.0,8901.094750063176,0.3548436849310381,120.7129476440715,2.145571619360616,1.2217031955347455,100988.33750927815,287.9675951769461,0.0,0.0,0.0,402.58184210526315,0.21606275339224065,0.86,nominal,7561.0048272296735,nan,pitch_program,12.085,0.0,0.0
1.8599999999999999,192.2178565636165,0.0,28.135182467846683,121.26013165104406,0.0,2.430066600419433,121.28447861004726,17.470773756850857,0.0,5.8539679790020624,0.0,0.0,0.6787240884330943,0.0,4.705907822269391,0.0,8985.518109679055,0.3565240313036422,121.28447861004726,2.145365526091738,1.2216946396865678,100987.46408693831,287.96712131395896,0.0,0.0,0.0,402.54789473684207,0.2160445340859423,0.86,nominal,7630.874263003815,nan,pitch_program,12.07,0.0,0.0
1.89,195.87280005849513,0.0,28.207306468353874,121.83144982928764,0.0,2.4041333502397206,121.8551682312735,17.46429242082828,0.0,5.834260724318723,0.0,0.0,0.6569084959209834,0.0,4.703774145462353,0.0,9070.214774667229,0.358201904103836,121.85516823127348,2.14517048386246,1.2216861751900312,100986.59999162989,287.9666525079557,0.0,0.0,0.0,402.51394736842104,0.21602631477964393,0.86,nominal,7700.960194313865,nan,pitch_program,12.055,0.0,0.0
1.92,199.5448563533061,0.0,28.278705164051175,122.40187649369884,0.0,2.379956523243415,122.42501199604284,17.45781163138489,0.0,5.815199358084934,0.0,0.0,0.6353788803198761,0.0,4.701292548064351,0.0,9155.182277454218,0.3598772902328993,122.42501199604284,2.1449861274361623,1.2216777958596967,100985.74459187042,287.9661884164336,0.0,0.0,0.0,402.48,0.2160080954733456,0.86,nominal,7771.261145112659,nan,pitch_program,12.040000000000001,0.0,0.0
1.95,203.23399862321904,0.0,28.34943120513719,122.97140899709808,0.0,2.3575347028671443,122.99400554745259,17.45133138852069,0.0,5.79677529639947,0.0,0.0,0.6141353948073351,0.0,4.698469239346679,0.0,9240.418162276817,0.3615501770510665,122.99400554745259,2.1448120810299725,1.2216694955152632,100984.89725670642,287.9657286971666,0.0,0.0,0.0,402.44605263157894,0.2159898761670472,0.86,nominal,7841.775649831257,nan,pitch_program,12.025,0.0,0.0
1.98,206.94019996551918,0.0,28.419537188462865,123.5400447433385,0.0,2.3368661108558713,123.56214468196214,17.444851692235677,0.0,5.778979961786458,0.0,0.0,0.5931778252021289,0.0,4.695310291839432,0.0,9325.91998554401,0.36322055237322676,123.56214468196215,2.1446479588045406,1.2216612679828265,100984.05735584187,287.96527300827495,0.0,0.0,0.0,402.4121052631579,0.21597165686074887,0.86,nominal,7912.502253572312,nan,pitch_program,12.01,0.0,0.0
2.01,210.66343340116086,0.0,28.489075646729685,124.10778118805618,0.0,2.317948608893951,124.12942534780343,17.438372542529855,0.0,5.761804792526315,0.0,0.0,0.5725056462917715,0.0,4.691821653845856,0.0,9411.685316169203,0.3648884044641888,124.12942534780343,2.1444933653490312,1.2216531070961525,100983.22425976802,287.9648210082962,0.0,0.0,0.0,402.37815789473683,0.2159534375544505,0.86,nominal,7983.439512278954,nan,pitch_program,11.995000000000001,0.0,0.0
2.04,214.4036718763395,0.0,28.55809903775257,124.6746158392879,0.0,2.3007797007628596,124.69584364326447,17.43189393940322,0.0,5.745241250546521,0.0,0.0,0.5521180698382779,0.0,4.688009160194479,0.0,9497.71173587505,0.36655372203357284,124.69584364326445,2.144347896161417,1.2216450066979259,100982.39733989091,287.96437235625456,0.0,0.0,0.0,402.3442105263158,0.21593521824815215,0.86,nominal,8054.585992881306,nan,pitch_program,11.98,0.0,0.0
2.07,218.16088826407875,0.0,28.626659733801286,125.24054625797508,0.0,2.2853565349571836,125.26139581486336,17.425415882855777,0.0,5.729280828083968,0.0,0.0,0.5320140855253864,0.0,4.683878541482142,0.0,9583.996839472995,0.3682164942303791,125.26139581486336,2.144211138123929,1.221636960641008,100981.57596865947,287.96392671173027,0.0,0.0,0.0,402.3102631578947,0.2159169989418538,0.86,nominal,8125.940273422416,nan,pitch_program,11.965,0.0,0.0
2.1,221.93505536582987,0.0,28.694810011032267,125.80557005837036,0.0,2.27167590769941,125.82607825542826,17.41893837288752,0.0,5.713915053299456,0.0,0.0,0.512192495886864,0.0,4.679435432024309,0.0,9670.538235119207,0.36987671063727856,125.82607825542826,2.144082669973561,1.2216289627896657,100980.7595196911,287.9634837349283,0.0,0.0,0.0,402.27631578947364,0.2158987796355554,0.86,nominal,8197.500943165267,nan,pitch_program,11.95,0.0,0.0
2.13,225.72614591308067,0.0,28.76260203902132,126.3696849083605,0.0,2.2597342663017628,126.38988750209651,17.412461409498455,0.0,5.699135494998559,0.0,0.0,0.49265194609501173,0.0,4.67468537669775,0.0,9757.333544548754,0.3715343612646657,126.38988750209653,2.1439620627675064,1.2216210070208022,100979.94736789714,287.9630430867463,0.0,0.0,0.0,402.2423684210526,0.21588056032925707,0.86,nominal,8269.266602682275,nan,pitch_program,11.935,0.0,0.0
2.16,229.5341325689722,0.0,28.83008787040622,126.93288852971772,0.0,2.249527712830004,126.95282023424502,17.405984992688577,0.0,5.684933766591453,0.0,0.0,0.47339094932724657,0.0,4.669633836834955,0.0,9844.380403289268,0.3731894365445079,126.95282023424504,2.1438488803435267,1.22161308722517,100979.1388896067,287.9626044288423,0.0,0.0,0.0,402.2084210526316,0.2158623410229587,0.86,nominal,8341.235863928587,nan,pitch_program,11.92,0.0,0.0
2.19,233.3589879299209,0.0,28.89731943064712,127.49517869828964,0.0,2.2410520080299645,127.51487327136196,17.39950912245789,0.0,5.671301529404957,0.0,0.0,0.4544079083601238,0.0,4.664286195306613,0.0,9931.676460855524,0.3748419273240217,127.51487327136196,2.143742679775205,1.221605197308571,100978.33346268894,287.96216742370075,0.0,0.0,0.0,402.1744736842105,0.21584412171666034,0.86,nominal,8413.407350300306,nan,pitch_program,11.905,0.0,0.0
2.2199999999999998,237.200684527245,0.0,28.9643485079116,128.0565532441364,0.0,2.2343025754826313,128.07604357086907,17.39303379880639,0.0,5.658230495442879,0.0,0.0,0.4357011339589305,0.0,4.658647760908229,0.0,10019.21938092601,0.37649182485920357,128.07604357086907,2.143643011822004,1.2215973311930404,100977.53046667414,287.96173173469856,0.0,0.0,0.0,402.1405263157895,0.215825902410362,0.86,nominal,8485.779696678688,nan,pitch_program,11.890000000000002,0.0,0.0
2.25,241.05919482879366,0.0,29.031226743090336,128.61701005162263,0.0,2.2292745059579104,128.63632822590247,17.38655902173408,0.0,5.645712429677004,0.0,0.0,0.4172688605223535,0.0,4.652723772150574,0.0,10107.006841502567,0.378139120808237,128.63632822590247,2.1435494213740274,1.2215894828180185,100976.72928287301,287.9612970261699,0.0,0.0,0.0,402.1065789473684,0.21580768310406362,0.86,nominal,8558.351549461182,nan,pitch_program,11.875,0.0,0.0
2.28,244.93449124057778,0.0,29.098005619948566,129.17654705947038,0.0,2.2259625619409444,129.19572446305926,17.380084791240957,0.0,5.633739151939501,0.0,0.0,0.39910925936919495,0.0,4.64651940053976,0.0,10195.036535054041,0.3797838072247993,129.19572446305924,2.1434614478914726,1.221581646141502,100975.92929449443,287.96086296347033,0.0,0.0,0.0,402.0726315789474,0.21578946379776529,0.86,nominal,8631.121566580234,nan,pitch_program,11.86,0.0,0.0
2.31,248.82654610840115,0.0,29.16473645541781,129.73516226077854,0.0,2.224361182308152,129.75422964011577,17.373611107327026,0.0,5.622302538477053,0.0,0.0,0.38122045001397226,0.0,4.640039753420296,0.0,10283.306168644833,0.3814258765512848,129.75422964011574,2.1433786258386993,1.2215738151411881,100975.12988676198,287.9604292130398,0.0,0.0,0.0,402.03868421052636,0.21577124449146692,0.86,nominal,8704.088417510471,nan,pitch_program,11.845,0.0,0.0
2.34,252.73533171949154,0.0,29.231470390031802,130.29285370301332,0.0,2.224464487133029,130.3118412437233,17.36713796999228,0.0,5.611394523217152,0.0,0.0,0.36360050976160496,0.0,4.633289876442914,0.0,10371.813464048962,0.3830653216119598,130.31184124372334,2.1433004851127286,1.2215659838155912,100974.33044702804,287.9599954424648,0.0,0.0,0.0,402.0047368421053,0.21575302518516856,0.86,nominal,8777.250783265079,nan,pitch_program,11.83,0.0,0.0
2.37,256.66082030413077,0.0,29.298258378509924,130.84961948797365,0.0,2.226266282604048,130.86855688708636,17.36066537923673,0.0,5.601007098791072,0.0,0.0,0.3462474818176728,0.0,4.6262747557115365,0.0,10460.556157850535,0.38470213560606686,130.86855688708636,2.1432265514661406,1.2215581461851488,100973.53036488665,287.95956132053965,0.0,0.0,0.0,401.9707894736842,0.21573480587887017,0.86,nominal,8850.607356381892,nan,pitch_program,11.815,0.0,0.0
2.4,260.6029840372828,0.0,29.3651511804911,131.4054577717346,0.0,2.2297600660392414,131.42437430762692,17.354193335060362,0.0,5.591132317351135,0.0,0.0,0.3291593821459654,0.0,4.618999319655631,0.0,10549.532001531192,0.38633631210088826,131.42437430762692,2.1430535660020844,1.2215502962933105,100972.72903228468,287.9591265173268,0.0,0.0,0.0,401.9368421052631,0.2157165865725718,0.86,nominal,8924.156840899777,nan,pitch_program,11.8,0.0,0.0
2.4299999999999997,264.5617952687425,0.0,29.432197017046867,131.96037438199144,0.0,2.2348612185255865,131.97929766331313,17.347721837463183,0.0,5.584606959443587,0.0,0.0,0.21751193048673864,0.0,4.614346940543339,0.0,10638.73977939222,0.38796786353021195,131.97929766331313,2.1430719746583695,1.221542428481538,100971.92587159424,287.95869071938915,0.0,0.0,0.0,401.9028947368421,0.21569836726627348,0.86,nominal,8997.898760727929,nan,pitch_program,11.785,0.0,0.0
2.46,268.53722454842386,0.0,29.499450617786305,132.51430932271202,0.0,2.2417866913146027,132.5332704751707,17.341250886445195,0.0,5.582219856260133,0.0,0.0,0.07957010612668468,0.0,4.613021395485647,0.0,10728.168464840426,0.38959662411082085,132.5332704751707,2.14336657483678,1.221534536327641,100971.12022723618,287.95825357098437,0.0,0.0,0.0,401.86894736842106,0.21568014795997512,0.86,nominal,9071.824678823292,nan,pitch_program,11.77,0.0,0.0
2.4899999999999998,272.52924008751893,0.0,29.56697562501759,133.0671846365016,0.0,2.250833574376158,133.08621971813741,17.334780482006394,0.0,5.581863177987315,0.0,0.0,0.011889275760619905,0.0,4.6127965587389514,0.0,10817.804180835645,0.39122237946319377,133.08621971813741,2.143675265608779,1.2215266123636646,100970.31133688205,287.95781465843737,0.0,0.0,0.0,401.835,0.21566192865367675,0.86,nominal,9145.923920945252,nan,pitch_program,11.755,0.0,0.0
2.52,276.53780933880586,0.0,29.634836756608202,133.61897504289752,0.0,2.2620377196870254,133.63812070722844,17.328310624146784,0.0,5.5835537275679314,0.0,0.0,-0.05635165269128928,0.0,4.613685224457201,0.0,10907.64074481673,0.3928450573179199,133.63812070722844,2.1440563066733986,1.2215186489955878,100969.4984253393,287.957373561082,0.0,0.0,0.0,401.80105263157895,0.2156437093473784,0.86,nominal,9220.19212495907,nan,pitch_program,11.74,0.0,0.0
2.55,280.5628988528701,0.0,29.703101087204757,134.1696504688082,0.0,2.275477686551859,134.18894479659699,17.32184131286636,0.0,5.587632326938903,0.0,0.0,-0.1359533124231728,0.0,4.616005960606357,0.0,10997.671257781194,0.3944645737771057,134.18894479659699,2.14457548823414,1.2215106383529866,100968.68068920453,287.95692984293316,0.0,0.0,0.0,401.7671052631579,0.21562549004108003,0.86,nominal,9294.624369088915,nan,pitch_program,11.725000000000001,0.0,0.0
2.58,284.60447397355966,0.0,29.771839709953582,134.71917068965314,0.0,2.29128742496078,134.7386542510043,17.31537254816513,0.0,5.593498244095419,0.0,0.0,-0.19553057205460017,0.0,4.619112474393501,0.0,11087.887245375714,0.3960808182460033,134.7386542510043,2.145161828697551,1.221502572094037,100967.85727695852,287.9564830418853,0.0,0.0,0.0,401.73315789473685,0.2156072707347817,0.86,nominal,9369.214486577457,nan,pitch_program,11.71,0.0,0.0
2.61,288.6624992819282,0.0,29.84112558911414,135.2675102789507,0.0,2.309529305351917,135.28722505350723,17.308904330043084,0.0,5.600918178545294,0.0,0.0,-0.24733114867482414,0.0,4.6227570111165885,0.0,11178.282399028836,0.3976937204696559,135.28722505350723,2.1458077244868843,1.221494441657524,100967.02731469189,287.95603268367074,0.0,0.0,0.0,401.6992105263158,0.21558905142848334,0.86,nominal,9443.958105597643,nan,pitch_program,11.695,0.0,0.0
2.6399999999999997,292.73693872224163,0.0,29.9110331556602,135.81464801044677,0.0,2.3302522182020553,135.83463729697957,17.30243665850023,0.0,5.609910040748091,0.0,0.0,-0.2997287407083695,0.0,4.626948922810799,0.0,11268.851028371075,0.39930322228602394,135.83463729697954,2.146533255366604,1.2214862383103018,100966.18991095011,287.9555782844882,0.0,0.0,0.0,401.6652631578947,0.21557083212218495,0.86,nominal,9518.85137809695,nan,pitch_program,11.68,0.0,0.0
2.67,296.8277555484877,0.0,29.98163871113368,136.36056087486836,0.0,2.353518515782652,136.38086966841357,17.295969533536564,0.0,5.620259656300819,0.0,0.0,-0.3449871860289945,0.0,4.631459891852002,0.0,11359.587155908966,0.40090926141385025,136.38086966841357,2.14731879571545,1.2214779530999125,100965.34415189705,287.9551193483776,0.0,0.0,0.0,401.63131578947366,0.21555261281588659,0.86,nominal,9593.890243022945,nan,pitch_program,11.665,0.0,0.0
2.6999999999999997,300.934912469469,0.0,30.053019787716718,136.9052306993767,0.0,2.379369219434554,136.92590547713002,17.289502955152088,0.0,5.631809950466566,0.0,0.0,-0.3850098068287869,0.0,4.636127828763823,0.0,11450.48552147572,0.40251178917059155,136.92590547713002,2.1481550864436065,1.2214695769296864,100964.48910898167,287.95465537137983,0.0,0.0,0.0,401.59736842105264,0.21553439350958825,0.86,nominal,9669.071241867185,nan,pitch_program,11.65,0.0,0.0
2.73,305.0583717429312,0.0,30.125254794914547,137.44864244873887,0.0,2.407833573260918,137.46973111750012,17.2830369233468,0.0,5.644499368102702,0.0,0.0,-0.4229805896001387,0.0,4.640891116387664,0.0,11541.54134006773,0.4041107659519034,137.46973111750015,2.1490447807332558,1.2214611006002114,100963.6238431713,287.95418584383305,0.0,0.0,0.0,401.56342105263155,0.21551617420328986,0.86,nominal,9744.391316693438,nan,pitch_program,11.635,0.0,0.0
2.76,309.19809519767813,0.0,30.198423002848084,137.9907818248989,0.0,2.438940264451256,138.01233386281245,17.2765714381207,0.0,5.658218562548053,0.0,0.0,-0.4573064836966071,0.0,4.645640525677532,0.0,11632.749940368885,0.4057061547464137,138.01233386281245,2.149980220061313,1.2214525148113016,100962.74740515307,287.9537102504815,0.0,0.0,0.0,401.52947368421053,0.21549795489699153,0.86,nominal,9819.847514071085,nan,pitch_program,11.620000000000001,0.0,0.0
2.79,313.35404430133445,0.0,30.27260427548089,138.5316367885436,0.0,2.4727090877601734,138.55370324009985,17.27010649947379,0.0,5.67287187674348,0.0,0.0,-0.4884438091765915,0.0,4.650284150205759,0.0,11724.10700077919,0.40729792517604546,138.55370324009988,2.150955447873204,1.2214438101933085,100961.85883853029,287.95322807220936,0.0,0.0,0.0,401.49552631578945,0.21547973559069317,0.86,nominal,9895.437175490973,nan,pitch_program,11.605,0.0,0.0
2.82,317.52618021753034,0.0,30.347878859140593,139.071197206529,0.0,2.509152788656703,139.09383070493854,17.26364210740607,0.0,5.688396333158306,0.0,0.0,-0.5174818836601062,0.0,4.654765563725507,0.0,11815.608501984329,0.40888605253911037,139.09383070493854,2.151968424666459,1.2214349773319495,100960.95718235716,287.95273878741557,0.0,0.0,0.0,401.4615789473684,0.2154615162843948,0.86,nominal,9971.157896301045,nan,pitch_program,11.59,0.0,0.0
2.85,321.71446383859177,0.0,30.424327283701153,139.60945403538113,0.0,2.5482808186853334,139.63270888723773,17.257178261917538,0.0,5.704722251001239,0.0,0.0,-0.5441972651131489,0.0,4.6590228368734,0.0,11907.250604907531,0.4104705155927643,139.63270888723773,2.1530145173856017,1.2214260067799039,100960.04147232292,287.9522418726559,0.0,0.0,0.0,401.4276315789474,0.21544329697809647,0.86,nominal,10047.007424750747,nan,pitch_program,11.575,0.0,0.0
2.88,325.9188558270884,0.0,30.50203021004088,140.14639961655456,0.0,2.590097544657547,140.17033184941045,17.250714963008196,0.0,5.721787314995689,0.0,0.0,-0.5688354706867502,0.0,4.663003317489583,0.0,11999.029699045559,0.4120512973112327,140.17033184941045,2.1540895931019035,1.2214168890747288,100959.11074258081,287.95173680363473,0.0,0.0,0.0,401.3936842105263,0.21542507767179808,0.86,nominal,10122.98369994622,nan,pitch_program,11.56,0.0,0.0
2.9099999999999997,330.1393166525959,0.0,30.581068298664633,140.68202751691518,0.0,2.634602954125171,140.70669493309822,17.24425221067804,0.0,5.73954134334386,0.0,0.0,-0.5918009496742768,0.0,4.6666680745244005,0.0,12090.942381063378,0.4136283844346155,140.70669493309822,2.155190712094508,1.2214076147542767,100958.16402732232,287.95122305605867,0.0,0.0,0.0,401.3597368421053,0.21540685836549975,0.86,nominal,10199.084832929084,nan,pitch_program,11.545,0.0,0.0
2.94,334.37580661984964,0.0,30.661522115936947,141.21633224179172,0.0,2.6817939090770984,141.2417944887237,17.237790004927078,0.0,5.7579354983891795,0.0,0.0,-0.6131385067767711,0.0,4.669980568993653,0.0,12182.98541250571,0.4152017666734083,141.2417944887237,2.1563143121608714,1.2213981743677136,100957.20036190194,287.95070010624636,0.0,0.0,0.0,401.3257894736842,0.21538863905920136,0.86,nominal,10275.309071055686,nan,pitch_program,11.53,0.0,0.0
2.9699999999999998,338.6282858975361,0.0,30.74347203246719,141.74930925621464,0.0,2.7316638843413705,141.77562788501766,17.2313283457553,0.0,5.776925910135189,0.0,0.0,-0.633013730662036,0.0,4.672910364814093,0.0,12275.155724918719,0.4167714367359992,141.77562788501766,2.1574571141736025,1.2213885584874502,100956.2187840556,287.95016743178894,0.0,0.0,0.0,401.29184210526313,0.215370419752903,0.86,nominal,10351.654801102692,nan,pitch_program,11.515,0.0,0.0
3.0,342.8967145439673,0.0,30.826998134306226,142.28095488104,0.0,2.7842033946346048,142.30819340573203,17.224867233162716,0.0,5.796474065457792,0.0,0.0,-0.6516051837408506,0.0,4.675433325433564,0.0,12367.450405367312,0.4183373900245837,142.30819340573206,2.1586162131376447,1.2213787577195645,100955.21833496488,287.949624512127,0.0,0.0,0.0,401.2578947368421,0.21535220044660466,0.86,nominal,10428.120536455412,nan,pitch_program,11.5,0.0,0.0
3.03,347.1810525292538,0.0,30.91218014844032,142.8112661762168,0.0,2.8394004711365044,142.83949013452036,17.218406667149317,0.0,5.8165437830307285,0.0,0.0,-0.6689905926048838,0.0,4.677528380689281,0.0,12459.866679450934,0.4198996242963512,142.83949013452036,2.159788598159102,1.2213687627125618,100954.19806015134,287.9490708290351,0.0,0.0,0.0,401.223947368421,0.21533398114030627,0.86,nominal,10504.70490239757,nan,pitch_program,11.485,0.0,0.0
3.06,351.4812597565189,0.0,30.99909737049681,143.34024090883736,0.0,2.8972407352163345,143.3695179167501,17.21194664771511,0.0,5.837102143753148,0.0,0.0,-0.6852786980995822,0.0,4.679178415557062,0.0,12552.401907324482,0.4214581395508285,143.36951791675008,2.160971439135625,1.2213585641658642,100953.15701034358,287.94850586709174,0.0,0.0,0.0,401.19,0.21531576183400794,0.86,nominal,10581.406632069047,nan,pitch_program,11.47,0.0,0.0
3.09,355.79729608107436,0.0,31.087828600670473,143.8678774851819,0.0,2.9577076724555047,143.89827728908713,17.20548717486009,0.0,5.858119057291588,0.0,0.0,-0.7005637924698259,0.0,4.680369716050641,0.0,12645.053573882786,0.42301293782251514,143.89827728908713,2.1621620453874937,1.2213481528373389,100952.09424224599,287.94792911409564,0.0,0.0,0.0,401.156052631579,0.21529754252770958,0.86,nominal,10658.224557730273,nan,pitch_program,11.455,0.0,0.0
3.12,360.12912132786624,0.0,31.178452086401954,144.39417489306229,0.0,3.0207828577159686,144.42576941848614,17.19902824858426,0.0,5.879566383052754,0.0,0.0,-0.7149108670533447,0.0,4.68109099180265,0.0,12737.819280310125,0.4245640230011942,144.42576941848614,2.163357754862241,1.221337519550033,100951.0088192265,287.94734006143835,0.0,0.0,0.0,401.1221052631579,0.21527932322141122,0.86,nominal,10735.157603213976,nan,pitch_program,11.44,0.0,0.0
3.15,364.4766953078749,0.0,31.271045468779963,144.91913266695482,0.0,3.0864460792669997,144.95199606194691,17.192569868887617,0.0,5.901418070654493,0.0,0.0,-0.7283895955535378,0.0,4.681333460455,0.0,12830.696739053838,0.4261114007133005,144.95199606194694,2.1645560196201226,1.221326655198475,100949.89981196019,287.9467382044529,0.0,0.0,0.0,401.08815789473687,0.21526110391511288,0.86,nominal,10812.204779217747,nan,pitch_program,11.425,0.0,0.0
3.1799999999999997,368.8399778332173,0.0,31.36568573417507,145.44275084474629,0.0,3.1546755131701736,145.4769595189573,17.186112035770165,0.0,5.923649777985774,0.0,0.0,-0.7410569203403237,0.0,4.681090391073072,0.0,12923.68376732574,0.427655078181809,145.4769595189573,2.165754365590043,1.221315550754358,100948.76629900975,287.94612304272783,0.0,0.0,0.0,401.0542105263158,0.2152428846088145,0.86,nominal,10889.36517744522,nan,pitch_program,11.410000000000002,0.0,0.0
3.21,373.2189287312343,0.0,31.462449169847655,145.965029933901,0.0,3.2254478557528867,146.00066259258824,17.1796547492319,0.0,5.946238587492145,0.0,0.0,-0.7529603266318831,0.0,4.680356763976956,0.0,13016.778281948453,0.42919506411157327,146.00066259258824,2.166950375435193,1.221304197271761,100947.60736735872,287.945494080396,0.0,0.0,0.0,401.0202631578947,0.21522466530251613,0.86,nominal,10966.637965888885,nan,pitch_program,11.395000000000001,0.0,0.0
3.2399999999999998,377.61350785774715,0.0,31.561411322825254,146.48597088376192,0.0,3.2987384325866285,146.52310855631262,17.173198009272824,0.0,5.96916293130405,0.0,0.0,-0.7641448039241431,0.0,4.679129149913091,0.0,13109.978295063063,0.4307313685914999,146.5231085563126,2.1681417071536426,1.2212925858919832,100946.42211290535,287.9448508264016,0.0,0.0,0.0,400.9863157894737,0.21520644599621777,0.86,nominal,11044.022384851469,nan,pitch_program,11.38,0.0,0.0
3.27,382.02367510948363,0.0,31.66264696217928,147.00557505788228,0.0,3.374521311800861,147.04430112106508,17.166741815892937,0.0,5.99240236694607,0.0,0.0,-0.7746478653541123,0.0,4.677405439137904,0.0,13203.281909740206,0.4322640029974456,147.04430112106508,2.169326074207299,1.221280707847982,100945.20964091604,287.9441927947458,0.0,0.0,0.0,400.9523684210526,0.2151882266899194,0.86,nominal,11121.517742922886,nan,pitch_program,11.365,0.0,0.0
3.3,386.44939043583423,0.0,31.766230044026123,147.52384421168614,0.0,3.4527693948947555,147.5642444072688,17.160286169092238,0.0,6.015937455989442,0.0,0.0,-0.7845029791429605,0.0,4.675184683244467,0.0,13296.687316348864,0.43379297990972476,147.5642444072688,2.1705012461871833,1.2212685544684898,100943.96906644583,287.94351950471383,0.0,0.0,0.0,400.9184210526316,0.21517000738362105,0.86,nominal,11199.123413605332,nan,pitch_program,11.35,0.0,0.0
3.33,390.89061385000133,0.0,31.87223367905086,148.04078047223737,0.0,3.5334545008245457,148.0829429189553,17.15383106887073,0.0,6.039749662827453,0.0,0.0,-0.7937402393585937,0.0,4.67246696053115,0.0,13390.192789186522,0.43531831303677954,148.0829429189553,2.171665048771202,1.2212561171818348,100942.6995147287,287.94283048108616,0.0,0.0,0.0,400.8844736842105,0.2151517880773227,0.86,nominal,11276.838832177953,nan,pitch_program,11.335,0.0,0.0
3.36,395.34730543959586,0.0,31.980730102364838,148.55638631981782,0.0,3.6165474437992438,148.60040151970048,17.14737651522841,0.0,6.063821237220862,0.0,0.0,-0.80238582491591,0.0,4.6692532282979915,0.0,13483.79668333068,0.4368400171441977,148.60040151970045,2.1728153571057076,1.2212433875194917,100941.40012154044,287.9421252543346,0.0,0.0,0.0,400.85052631578947,0.21513356877102435,0.86,nominal,11354.663492766458,nan,pitch_program,11.32,0.0,0.0
3.3899999999999997,399.81942537675775,0.0,32.0917906453906,149.07066457206383,0.0,3.7020181008587705,149.1166254110381,17.14092250816528,0.0,6.088135141400803,0.0,0.0,-0.8104634848270079,0.0,4.665545224289005,0.0,13577.497431841228,0.43835810799102165,149.11662541103811,2.1739500968546617,1.221230357119391,100940.07003353683,287.94140336080494,0.0,0.0,0.0,400.81657894736844,0.215115349464726,0.86,nominal,11432.596945720547,nan,pitch_program,11.305,0.0,0.0
3.42,404.306933927838,0.0,32.20548570964883,149.58361836934174,0.0,3.7898354752742818,149.63162011217588,17.134469047681335,0.0,6.112674974446398,0.0,0.0,-0.8179944473576933,0.0,4.6613453675564775,0.0,13671.293543110662,0.4398726022698925,149.63162011217588,2.175067241766184,1.221217017729,100938.70840856852,287.94066434288726,0.0,0.0,0.0,400.78263157894736,0.21509713015842763,0.86,nominal,11510.638795131787,nan,pitch_program,11.29,0.0,0.0
3.4499999999999997,408.8097914626876,0.0,32.32188474226643,150.09525116165364,0.0,3.8799677539196953,150.14539144126715,17.128016133776583,0.0,6.137424909372373,0.0,0.0,-0.8249978436942961,0.0,4.656656674833829,0.0,13765.183598415555,0.441383517551776,150.14539144126718,2.1761648123616464,1.221203361208217,100937.31441597658,287.93990774917523,0.0,0.0,0.0,400.74868421052633,0.21507891085212927,0.86,nominal,11588.788696533418,nan,pitch_program,11.275,0.0,0.0
3.48,413.3279584635907,0.0,32.44105621306246,150.6055666967694,0.0,3.9723823598677215,150.65794549796584,17.12156376645102,0.0,6.162369643148432,0.0,0.0,-0.8314911390023427,0.0,4.651482692087531,0.0,13859.16624962611,0.4428908722344651,150.65794549796584,2.177240875784273,1.221189379532064,100935.887236868,287.9391331346151,0.0,0.0,0.0,400.71473684210525,0.2150606915458309,0.86,nominal,11667.04635474585,nan,pitch_program,11.26,0.0,0.0
3.51,417.8613955338688,0.0,32.56306759310539,151.1145690092716,0.0,4.067046001430992,151.16928864698565,17.115111945704644,0.0,6.187494349590926,0.0,0.0,-0.8374902281699071,0.0,4.6458274306650305,0.0,13953.24021702917,0.444394685494042,151.16928864698565,2.1782935447140415,1.2211750647932158,100934.42606437404,287.9383400606448,0.0,0.0,0.0,400.6807894736842,0.21504247223953252,0.86,nominal,11745.41152182976,nan,pitch_program,11.245000000000001,0.0,0.0
3.54,422.4100634061846,0.0,32.68798533462673,151.62226241052554,0.0,4.163924717378201,151.67942750267176,17.108660671537457,0.0,6.212784642108382,0.0,0.0,-0.8430097642690505,0.0,4.639695315077365,0.0,14047.40428727088,0.44589497723932126,151.67942750267176,2.1793209773645326,1.2211604092043675,100932.93010389231,287.9375280953249,0.0,0.0,0.0,400.64684210526315,0.21502425293323418,0.86,nominal,11823.883995150947,nan,pitch_program,11.23,0.0,0.0
3.57,426.97392295056414,0.0,32.81587485220787,152.12865147931882,0.0,4.262983919371188,152.18836891435848,17.10220994394946,0.0,6.238226540573436,0.0,0.0,-0.8480632961032387,0.0,4.633091136247204,0.0,14141.65731138212,0.4473917680686089,152.18836891435845,2.1803213772461687,1.2211454051004529,100931.39857331346,287.9366968134606,0.0,0.0,0.0,400.61289473684207,0.21500603362693582,0.86,nominal,11902.46361552584,nan,pitch_program,11.215,0.0,0.0
3.5999999999999996,431.55293518215746,0.0,32.9468005051602,152.6337410531106,0.0,4.364188431744369,152.69611995245916,17.095759762940652,0.0,6.26380644317837,0.0,0.0,-0.8526634343272791,0.0,4.626020010998488,0.0,14235.998202880584,0.44888507922862003,152.69611995245916,2.181292993157408,1.2211300449407245,100929.83070323392,287.9358457967164,0.0,0.0,0.0,400.57894736842104,0.21498781432063746,0.86,nominal,11981.150265441827,nan,pitch_program,11.2,0.0,0.0
3.63,436.14706126875086,0.0,33.08082558103075,153.1375362197808,0.0,4.467502529018459,153.2026878951915,17.089310128511034,0.0,6.289511102709599,0.0,0.0,-0.8568219987453558,0.0,4.618487347042932,0.0,14330.42593593502,0.4503749325752673,153.20268789519153,2.182234119378466,1.2211143213106976,100928.22573715467,287.9349746337233,0.0,0.0,0.0,400.545,0.21496959501433913,0.86,nominal,12059.943867339945,nan,pitch_program,11.185,0.0,0.0
3.6599999999999997,440.7562625380443,0.0,33.21801228017558,153.64004230978213,0.0,4.572889971494215,153.7080802158528,17.082861040660603,0.0,6.315327605796504,0.0,0.0,-0.8605501174562443,0.0,4.610498811861078,0.0,14424.939543578877,0.4518613505360726,153.7080802158528,2.183143095832188,1.221098226923966,100926.58293166691,287.9340829201788,0.0,0.0,0.0,400.51105263157893,0.21495137570804074,0.86,nominal,12138.844381948902,nan,pitch_program,11.17,0.0,0.0
3.69,445.38050048470353,0.0,33.358421701348306,154.14126488864028,0.0,4.680314039090845,154.2123045705967,17.076412499389363,0.0,6.341243355483608,0.0,0.0,-0.8638583376314808,0.0,4.602060305741217,0.0,14519.53811596737,0.4533443560740573,154.2123045705967,2.1840183084227593,1.221081754623917,100924.90155662739,287.93317025894123,0.0,0.0,0.0,400.4771052631579,0.2149331564017424,0.86,nominal,12217.851806664768,nan,pitch_program,11.155,0.0,0.0
3.7199999999999998,450.0197367771953,0.0,33.50211382825959,154.6412097497258,0.0,4.78973756370933,154.71536878664605,17.06996450469731,0.0,6.367246056050405,0.0,0.0,-0.8667567004365727,0.0,4.593177937774372,0.0,14614.220798667415,0.4548239726529176,154.71536878664605,2.1848581893552153,1.2210648973852998,100923.18089531886,287.93223626011627,0.0,0.0,0.0,400.4431578947368,0.21491493709544401,0.86,nominal,12296.966173967849,nan,pitch_program,11.14,0.0,0.0
3.75,454.67393326441294,0.0,33.64914751706722,155.1398829072549,0.0,4.901122960254451,155.21728085090365,17.06351705658445,0.0,6.393323700071451,0.0,0.0,-0.8692548157072885,0.0,4.583858004729649,0.0,14708.986790976498,0.45630022420337535,155.21728085090365,2.1856612175259795,1.2210476483157193,100921.42024460295,287.931280541139,0.0,0.0,0.0,400.4092105263158,0.21489671778914568,0.86,nominal,12376.187549872395,nan,pitch_program,11.125,0.0,0.0
3.78,459.34305198209705,0.0,33.79958048476196,155.6372905894704,0.0,5.014432256491352,155.71804889891922,17.057070155050774,0.0,6.41946455722013,0.0,0.0,-0.8713619200710883,0.0,4.5741069722314895,0.0,14803.835344263834,0.45777313509058,155.71804889891922,2.186425918916808,1.2210300006570012,100919.61891505962,287.93030272684905,0.0,0.0,0.0,400.3752631578947,0.21487849848284732,0.86,nominal,12455.516032403988,nan,pitch_program,11.11,0.0,0.0
3.81,464.0270551590561,0.0,33.95346929841763,156.13343923196743,0.0,5.129627121855646,156.21768120418298,17.05062380009629,0.0,6.4456571645952305,0.0,0.0,-0.8730869277084521,0.0,4.563931457959428,0.0,14898.765760330421,0.45924273008247457,156.21768120418298,2.1871508669967814,1.22101194778646,100917.77623111702,287.9293024495603,0.0,0.0,0.0,400.34131578947364,0.21486027917654893,0.86,nominal,12534.9517501012,nan,pitch_program,11.095,0.0,0.0
3.84,468.72590522319007,0.0,34.11086936527745,156.62833547113271,0.0,5.246668895327345,156.71618616771812,17.044177991720993,0.0,6.47189031834062,0.0,0.0,-0.8744384734554219,0.0,4.55333821658692,0.0,14993.777389784469,0.46070903431904486,156.71618616771812,2.1878346831211894,1.2209934832180762,100915.89153117195,287.92827934912566,0.0,0.0,0.0,400.3073684210526,0.2148420598702506,0.86,nominal,12614.494860538442,nan,pitch_program,11.080000000000002,0.0,0.0
3.8699999999999997,473.4395648073202,0.0,34.27183492365131,157.12198613767157,0.0,5.3655186124619325,157.21357230795098,17.037732729924887,0.0,6.49815306633061,0.0,0.0,-0.8754249483271789,0.0,4.542334126185923,0.0,15088.869630429637,0.46217207328238874,157.21357230795098,2.1884760369101017,1.2209746006035729,100913.96416769993,287.9272330729962,0.0,0.0,0.0,400.2734210526316,0.21482384056395223,0.86,nominal,12694.14554886769,nan,pitch_program,11.065000000000001,0.0,0.0
3.9,478.1679967548263,0.0,34.43641903460089,157.6143982502016,0.0,5.486137031652529,157.70984825084076,17.031288014707968,0.0,6.524434701781983,0.0,0.0,-0.8760545304064141,0.0,4.530926175920673,0.0,15184.041925664045,0.4636318727675529,157.70984825084076,2.18907364660731,1.2209552937333974,100911.99350735574,287.9261632762751,0.0,0.0,0.0,400.2394736842105,0.21480562125765387,0.86,nominal,12773.904026377279,nan,pitch_program,11.05,0.0,0.0
3.9299999999999997,482.91116412509314,0.0,34.6046735743916,158.1055790088955,0.0,5.608484659690245,158.20502272025396,17.02484384607024,0.0,6.550724757621003,0.0,0.0,-0.8763352100094449,0.0,4.519121454825052,0.0,15279.293762888768,0.46508845885409283,158.20502272025396,2.1896262794045915,1.220935556537615,100909.97893106489,287.92506962176645,0.0,0.0,0.0,400.2055263157895,0.21478740195135554,0.86,nominal,12853.770529066343,nan,pitch_program,11.035,0.0,0.0
3.96,487.6690301987679,0.0,34.77664922769182,158.59553578915947,0.0,5.732521776674115,158.69910452857195,17.0184002240117,0.0,6.577013001504358,0.0,0.0,-0.8762748114840863,0.0,4.506927141535295,0.0,15374.624671924757,0.4665418578783222,158.69910452857192,2.1901327517321603,1.2209153830867148,100907.91983410608,287.92395178002,0.0,0.0,0.0,400.1715789473684,0.21476918264505715,0.86,nominal,12933.745316234046,nan,pitch_program,11.02,0.0,0.0
