time_s,x_m,y_m,altitude_m,vx_mps,vy_mps,vz_mps,speed_mps,mass_kg,roll_deg,pitch_deg,yaw_deg,p_dps,q_dps,r_dps,alpha_deg,beta_deg,qbar_pa,mach,airspeed_mps,load_factor_g,density_kgpm3,pressure_pa,temperature_k,wind_x_mps,wind_y_mps,wind_z_mps,thrust_n,mass_flow_kgps,propulsion_throttle_actual,propulsion_health,energy_j_per_kg,target_distance_m,guidance_mode,pitch_command_deg,heading_command_deg,roll_command_deg,elevator_command_deg,aileron_command_deg,rudder_command_deg,elevator_deg,aileron_deg,rudder_deg,throttle,elevator_saturated,aileron_saturated,rudder_saturated,elevator_failed,aileron_failed,rudder_failed,elevator_raw_rad,aileron_raw_rad,rudder_raw_rad,elevator_effective_rad,aileron_effective_rad,rudder_effective_rad,sensor_time_s,imu_valid,imu_ax_mps2,imu_ay_mps2,imu_az_mps2,gyro_p_rps,gyro_q_rps,gyro_r_rps,imu_accel_norm_mps2,imu_gyro_norm_rps,gps_valid,gps_latency_s,gps_x_m,gps_y_m,gps_z_m,gps_vx_mps,gps_vy_mps,gps_vz_mps,baro_valid,baro_alt_m,baro_bias_m,pitot_valid,pitot_airspeed_mps,pitot_qbar_pa,pitot_compressibility_factor,mag_valid,mag_heading_deg,mag_x_ut,mag_y_ut,mag_z_ut,radar_valid,radar_agl_m,optical_flow_valid,optical_flow_x_radps,optical_flow_y_radps,optical_flow_quality,horizon_valid,horizon_roll_deg,horizon_pitch_deg
0.0,0.0,0.0,20.0,85.0,0.0,8.0,85.37564055396598,18.0,0.0,6.000000000000002,0.0,0.0,0.0,0.0,0.6169987648720024,0.0,4445.560332884186,0.250651868342899,85.27608105441995,1.74634069828506,1.2226496753673843,101084.96761777384,288.02,0.1,0.0,0.0,326.8,0.17539118863220368,0.86,nominal,3840.633,nan,pitch_program,13.0,0.0,0.0,-20.05352282957881,-0.0,0.0,-2.6999999999999997,0.0,0.0,0.86,0.0,0.0,0.0,0.0,0.0,0.0,-0.047123889803846894,0.0,0.0,-0.047123889803846894,0.0,0.0,0.0,1.0,17.092684802550952,-0.04331266066330364,0.17133629194414204,0.0016677683591043149,0.0011681274632859406,0.0012765720485123657,17.09359838860347,0.00240324973008537,1.0,0.0,-1.885154541229685,1.8645638091475825,21.162662438547994,85.32748210022089,0.18147237523479218,7.846341299741817,1.0,20.771163472887363,0.0,1.0,85.52743876012808,4455.110504654227,1.0,1.0,-0.8198733225718878,19.523475325297145,-0.00615746722134172,-43.81279554351524,1.0,20.39618647858491,1.0,-0.0077448575321814855,4.273240466216326,0.95,1.0,0.17459483210835952,5.697481511065039
0.03,2.565310932297066,0.0,20.232946462003074,85.51036440990221,0.0,7.764882066769182,85.86219083522796,17.994738264341034,0.0,6.265543957279823,0.0,0.0,-8.85148108657323,0.0,1.070913132337987,0.0,4496.330359733195,0.2520825585697221,85.76260106913224,1.7744051693148448,1.2226223205068891,101082.17459824144,288.01848584799694,0.1,0.0,0.0,332.605,0.1785066900092231,0.86,nominal,3884.5753319341547,nan,pitch_program,12.985,0.0,0.0,-1.4311607468836844,-0.0,0.0,-1.9386964481302105,0.0,0.0,0.86,0.0,0.0,0.0,0.0,0.0,0.0,-0.03383663621659164,0.0,0.0,-0.03383663621659164,0.0,0.0,0.03,1.0,17.399563908154988,-0.024205067786461216,0.6245037421297015,0.001972178925766813,-0.15516674912873246,0.0016995476198838452,17.410784445372077,0.1551885884561313,1.0,0.0,-1.885154541229685,1.8645638091475825,21.162662438547994,85.32748210022089,0.18147237523479218,7.846341299741817,1.0,20.771163472887363,0.0,1.0,85.34892133282018,4483.358861672386,1.0,1.0,-0.8198733225718878,19.523475325297145,-0.00615746722134172,-43.81279554351524,1.0,20.39618647858491,1.0,-0.0077448575321814855,4.273240466216326,0.95,1.0,0.17459483210835952,5.697481511065039
0.06,5.1461188055097455,0.0,20.45932703460782,86.02692910708932,0.0,7.5460190868249315,86.35725178382472,17.98938306364076,0.0,6.6415406742106615,0.0,0.0,-12.533268876328767,0.0,1.622756709496247,0.0,4548.288160113672,0.2535382618256239,86.25763473359028,1.8030346834414175,1.2225957371261968,101079.46036335458,288.01701437427505,0.1,0.0,0.0,338.40999999999997,0.18162219138624247,0.86,nominal,3929.4249272913858,nan,pitch_program,12.97,0.0,0.0,-0.29555999723949455,-0.0,0.0,-0.952814577595781,0.0,0.0,0.86,0.0,0.0,0.0,0.0,0.0,0.0,-0.016629751540045375,0.0,0.0,-0.016629751540045375,0.0,0.0,0.06,1.0,17.700137184738395,-0.048625240197861,1.2138343200680939,-0.003446139225741984,-0.22021576643134108,-0.00034689119184351384,17.741775968857183,0.2202430021453693,1.0,0.0,-1.885154541229685,1.8645638091475825,21.162662438547994,85.32748210022089,0.18147237523479218,7.846341299741817,1.0,20.525963396210603,0.0,1.0,85.83866806318858,4515.428198159397,1.0,1.0,0.07665381874344163,19.002108910043237,-0.026858555853548426,-44.03812323241756,1.0,20.4443132768378,1.0,0.00018197912592243334,4.219022449652482,0.9488516824134805,1.0,-0.15907090264631085,6.462553049278621
0.09,7.742577523969535,0.0,20.67976132165739,86.54862394865964,0.0,7.347809568319027,86.85997129206746,17.983934397899173,0.0,6.947358157698034,0.0,0.0,-10.193940317640914,0.0,2.089108086183784,0.0,4601.358577346906,0.2550164757660258,86.7603301519136,1.8327612336310346,1.2225698524298665,101076.81747935117,288.0155815514092,0.1,0.0,0.0,344.215,0.18473769276326188,0.86,nominal,3975.1264877944222,nan,pitch_program,12.955,0.0,0.0,-0.7043337369541851,-0.0,0.0,-0.8037260732108235,0.0,0.0,0.86,0.0,0.0,0.0,0.0,0.0,0.0,-0.014027666261653863,0.0,0.0,-0.014027666261653863,0.0,0.0,0.09,1.0,17.961388064144753,-0.01094183278357201,1.5539371777813669,0.0004011470069548937,-0.1796088276112772,0.0025448602353110453,18.02848583955395,0.17962730357168963,1.0,0.0,-1.885154541229685,1.8645638091475825,21.162662438547994,85.32748210022089,0.18147237523479218,7.846341299741817,1.0,20.525963396210603,0.0,1.0,87.13082775381743,4633.288543943164,1.0,1.0,0.07665381874344163,19.002108910043237,-0.026858555853548426,-44.03812323241756,1.0,20.4443132768378,1.0,0.00018197912592243334,4.219022449652482,0.9488516824134805,1.0,-0.15907090264631085,6.462553049278621
0.12,10.354861108970548,0.0,20.89472141037526,87.07611950003377,0.0,7.165336290595703,87.37043339334816,17.978392267116273,0.0,7.126370522882172,0.0,0.0,-5.967083693493415,0.0,2.41681900086159,0.0,4655.564435476498,0.25651744650944075,87.27077063623011,1.8629231332983838,1.2225446109500209,101074.24028181692,288.01418431083255,0.1,0.0,0.0,350.02,0.1878531941402813,0.86,nominal,4021.7035353898013,nan,pitch_program,12.94,0.0,0.0,-1.6558843093309195,-0.0,0.0,-1.3150210148828811,0.0,0.0,0.86,0.0,0.0,0.0,0.0,0.0,0.0,-0.02295144644262363,0.0,0.0,-0.02295144644262363,0.0,0.0,0.12,1.0,18.21829810282599,-0.01413003862604277,1.7634873583698867,0.0017811967641120853,-0.10346891431881361,-0.0028376729027249836,18.30345522256809,0.10352314369129897,1.0,0.0,-1.885154541229685,1.8645638091475825,21.162662438547994,85.32748210022089,0.18147237523479218,7.846341299741817,1.0,20.83529658613723,0.0,1.0,87.16307702335955,4701.776117674358,1.0,1.0,-1.8951218293581098,18.641446361920053,-0.005790965511073151,-44.16605659411348,1.0,20.159613426498737,1.0,-0.013840283315854317,4.180354276370858,0.9477631964740618,1.0,0.28335723464815654,7.733110422146698
0.15,12.983180007846089,0.0,21.104490458840125,87.61062996251805,0.0,6.9923016154955135,87.88921870349813,17.972756671292064,0.0,7.221545008288599,0.0,0.0,-3.1724835763617816,0.0,2.653185335992579,0.0,4710.9823533451745,0.25804287915480306,87.78953604114116,1.8934272412670847,1.2225199794074058,101071.72537195275,288.01282081201754,0.1,0.0,0.0,355.825,0.1909686955173007,0.86,nominal,4069.2217335138475,nan,pitch_program,12.925,0.0,0.0,-2.296257668645932,-0.0,0.0,-1.9037630071407117,0.0,0.0,0.86,0.0,0.0,0.0,0.0,0.0,0.0,-0.033226932652273736,0.0,0.0,-0.033226932652273736,0.0,0.0,0.15,1.0,18.516821813157364,-0.03605765477427094,1.9058459830597931,-0.00013304420042076212,-0.05550342377606833,-0.0016289172586783655,18.61467805592762,0.05552748079159285,1.0,0.0,-1.885154541229685,1.8645638091475825,21.162662438547994,85.32748210022089,0.18147237523479218,7.846341299741817,1.0,20.83529658613723,0.0,1.0,87.43775343758583,4728.7738097305655,1.0,1.0,-1.8951218293581098,18.641446361920053,-0.005790965511073151,-44.16605659411348,1.0,20.159613426498737,1.0,-0.013840283315854317,4.180354276370858,0.9477631964740618,1.0,0.28335723464815654,7.733110422146698
0.18,15.627766076554385,0.0,21.309260949856018,88.1528689569432,0.0,6.825683033863089,88.416730623897,17.967027610426545,0.0,7.291287142370331,0.0,0.0,-2.324738089761469,0.0,2.8586967833476105,0.0,4767.671604542293,0.2595939587975612,88.31702939086763,1.9243823011699746,1.2224959351725904,101069.27043839869,288.0114898038259,0.1,0.0,0.0,361.63,0.19408419689432013,0.86,nominal,4117.7315910032885,nan,pitch_program,12.91,0.0,0.0,-2.464109562313981,-0.0,0.0,-2.239970940244673,0.0,0.0,0.86,0.0,0.0,0.0,0.0,0.0,0.0,-0.0390948680562627,0.0,0.0,-0.0390948680562627,0.0,0.0,0.18,1.0,18.725875435762575,-0.04780444576139571,2.0644124873912055,0.00013974800767314763,-0.04314311322855691,-0.0008869940367906495,18.83938680049931,0.04315245655787204,1.0,0.0,-1.885154541229685,1.8645638091475825,21.162662438547994,85.32748210022089,0.18147237523479218,7.846341299741817,1.0,20.083368140686378,0.0,1.0,87.9274395628854,4831.822909025133,1.0,1.0,-0.5428950996559269,18.543801165891097,0.02966309435753329,-44.29957382061814,1.0,21.36289477121322,1.0,0.006974051956994979,4.137679149220372,0.94672684762536,1.0,-0.5040599611879599,6.9335451798726115
0.21,18.288854019713614,0.0,21.509225929792198,88.70293143864099,0.0,6.665499331206047,88.9530152785309,17.961205084519715,0.0,7.360453185216346,0.0,0.0,-2.3055350415165363,0.0,3.058259551952201,0.0,4825.653992901376,0.26117082128062113,88.85329673599526,1.955730175605027,1.2224724555519986,101066.87316330899,288.0101900314563,0.1,0.0,0.0,367.435,0.19719969827133954,0.86,nominal,4167.252914035673,nan,pitch_program,12.895,0.0,0.0,-2.425098066706578,-0.0,0.0,-2.351047216121816,0.0,0.0,0.86,0.0,0.0,0.0,0.0,0.0,0.0,-0.0410335147911724,0.0,0.0,-0.0410335147911724,0.0,0.0,0.21,1.0,19.019328591443234,0.06045326675660328,2.2376387275227057,-0.0011844703614280934,-0.038529172192415695,0.0010356537480328346,19.150601602604056,0.0385612844515809,1.0,0.0,18.158013233676446,-0.8507156713177079,22.530451462123022,88.78389253569503,-0.10696639449047544,6.725076832854957,1.0,20.083368140686378,0.0,1.0,88.70643832116538,4822.18354769566,1.0,1.0,-0.5428950996559269,18.543801165891097,0.02966309435753329,-44.29957382061814,1.0,21.36289477121322,1.0,0.006974051956994979,4.137679149220372,0.94672684762536,1.0,-0.5040599611879599,6.9335451798726115
0.24,20.96667519412231,0.0,21.704601676278898,89.26070581362312,0.0,6.51252488289002,89.49796971270597,17.955289093571576,0.0,7.423496158510436,0.0,0.0,-2.1014326551491402,0.0,3.2458855354037843,0.0,4884.935426210259,0.2627731645203938,89.3982351141996,1.9872900654479597,1.2224495151262742,101064.53095059805,288.00892008910415,0.1,0.0,0.0,373.24,0.20031519964835895,0.86,nominal,4217.792723376897,nan,pitch_program,12.88,0.0,0.0,-2.435693483566148,-0.0,0.0,-2.401834976588415,0.0,0.0,0.86,0.0,0.0,0.0,0.0,0.0,0.0,-0.04191992843102876,0.0,0.0,-0.04191992843102876,0.0,0.0,0.24,1.0,19.320461325427612,-0.05931437453800777,2.4517602908023877,0.0004014737785476082,-0.036632947413726406,0.0011573760834501412,19.475494154088267,0.03665342462595068,1.0,0.0,18.158013233676446,-0.8507156713177079,22.530451462123022,88.78389253569503,-0.10696639449047544,6.725076832854957,1.0,22.18845235475031,0.0,1.0,89.35119915519657,4879.543916164063,1.0,1.0,-0.9874075351661772,18.47127558281517,-0.01105574941250553,-44.367028687239376,1.0,21.60091023212176,1.0,0.015553992101837083,4.12454733227962,0.9457384958093028,1.0,-0.5929147826834491,7.380231104193403
0.27,23.6614613687905,0.0,21.895604932712324,89.82620582227308,0.0,6.366775214447579,90.05155789355713,17.949279637582126,0.0,7.4685312948386455,0.0,0.0,-1.5011712882274426,0.0,3.409751041661538,0.0,4945.529165176876,0.2644008829537982,89.95180841924312,2.018901641149729,1.2224270884233954,101062.24119886661,288.0076785679373,0.1,0.0,0.0,379.045,0.20343070102537836,0.86,nominal,4269.364073641718,nan,pitch_program,12.865,0.0,0.0,-2.555376996494593,-0.0,0.0,-2.493960188532122,0.0,0.0,0.86,0.0,0.0,0.0,0.0,0.0,0.0,-0.04352781670354405,0.0,0.0,-0.04352781670354405,0.0,0.0,0.27,1.0,19.532870641218416,-0.02835453910261265,2.607829090082322,0.0019072580176267414,-0.024088372265605812,-0.002090558849283284,19.706207449165344,0.02425402539486024,1.0,0.0,18.158013233676446,-0.8507156713177079,22.530451462123022,88.78389253569503,-0.10696639449047544,6.725076832854957,1.0,22.18845235475031,0.0,1.0,90.02137224052923,4949.986832354819,1.0,1.0,-0.9874075351661772,18.47127558281517,-0.01105574941250553,-44.367028687239376,1.0,21.60091023212176,1.0,0.015553992101837083,4.12454733227962,0.9457384958093028,1.0,-0.5929147826834491,7.380231104193403
0.3,26.373449685144433,0.0,22.08242939288824,90.39961054513104,0.0,6.2274820058639015,90.61385721204415,17.943176716551363,0.0,7.4924126598823575,0.0,0.0,-0.7960455129817783,0.0,3.5472752726709675,0.0,5007.461198884665,0.26605420418396325,90.51409391214,2.050519656566668,1.222405152679602,101060.00158328623,288.0064642089462,0.1,0.0,0.0,384.84999999999997,0.20654620240239774,0.86,nominal,4321.99021562813,nan,pitch_program,12.850000000000001,0.0,0.0,-2.7130994118449183,-0.0,0.0,-2.6254437225197997,0.0,0.0,0.86,0.0,0.0,0.0,0.0,0.0,0.0,-0.0458226372837869,0.0,0.0,-0.0458226372837869,0.0,0.0,0.3,1.0,19.91506472837825,-0.023144794989114953,2.7400654661713597,-0.0006483740193760299,-0.016150728583730012,0.0011196854561373627,20.1026937890407,0.016202472594483874,1.0,0.0,18.158013233676446,-0.8507156713177079,22.530451462123022,88.78389253569503,-0.10696639449047544,6.725076832854957,1.0,22.088791711842646,0.0,1.0,90.29031125735716,5021.575860342234,1.0,1.0,-0.032100222264470346,18.311082626102312,-0.006038005167106243,-44.362934028296515,1.0,21.919418773399823,1.0,0.0042634016461290366,4.089360898750797,0.9447939265177794,1.0,0.49262759900427344,8.086788412183022
0.32999999999999996,29.102883846666973,0.0,22.26524195767806,90.98113871741798,0.0,6.093752159660644,91.18498460657557,17.93698033047929,0.0,7.500196865353105,0.0,0.0,-0.25947351609067565,0.0,3.6641485578675264,0.0,5070.7624188802565,0.2677334719939494,91.08520840376849,2.0821807391066587,1.222383688278636,101057.81010043687,288.0052759272751,0.1,0.0,0.0,390.655,0.20966170377941715,0.86,nominal,4375.698143894975,nan,pitch_program,12.835,0.0,0.0,-2.837684135103495,-0.0,0.0,-2.752787970070017,0.0,0.0,0.86,0.0,0.0,0.0,0.0,0.0,0.0,-0.048045213687012915,0.0,0.0,-0.048045213687012915,0.0,0.0,0.32999999999999996,1.0,20.15700013697873,-0.05396740755448139,2.910201112495088,-0.0008335127957680589,-0.004035783664397059,0.0009767482210283772,20.366070743233863,0.004235130512015579,1.0,0.0,18.158013233676446,-0.8507156713177079,22.530451462123022,88.78389253569503,-0.10696639449047544,6.725076832854957,1.0,22.088791711842646,0.0,1.0,90.77948196649757,5060.902202582593,1.0,1.0,-0.032100222264470346,18.311082626102312,-0.006038005167106243,-44.362934028296515,1.0,21.919418773399823,1.0,0.0042634016461290366,4.089360898750797,0.9447939265177794,1.0,0.49262759900427344,8.086788412183022
0.36,31.85001224737325,0.0,22.44419235864711,91.57094669020924,0.0,5.9650133656350395,91.76502417693436,17.930690479365907,0.0,7.498125873428192,0.0,0.0,0.06903306417130145,0.0,3.767030233976354,0.0,5135.460656078048,0.26943893370067246,91.66523590137815,2.113916012976214,1.2223626776215712,101055.6649529102,288.00411274966876,0.1,0.0,0.0,396.46,0.21277720515643656,0.86,nominal,4430.5121700906,nan,pitch_program,12.82,0.0,0.0,-2.9157636600210615,-0.0,0.0,-2.850573384040644,0.0,0.0,0.86,0.0,0.0,0.0,0.0,0.0,0.0,-0.049751891121226015,0.0,0.0,-0.049751891121226015,0.0,0.0,0.36,1.0,20.548952731489454,0.04056869726443273,2.977980909028134,-0.0017116473741721086,0.0006923513978104351,0.0002472742290717788,20.76365754087467,0.0018628558011621243,1.0,0.0,18.158013233676446,-0.8507156713177079,22.530451462123022,88.78389253569503,-0.10696639449047544,6.725076832854957,1.0,23.00722363382876,0.0,1.0,91.28036504580135,5113.026238256392,1.0,1.0,0.24703569469091746,18.42172987599065,0.05777323077028381,-44.38775494437314,1.0,22.242254786806505,1.0,0.008474791280591054,4.084202903793499,0.9438895191033823,1.0,-0.12522865530984933,7.28418948547348
0.39,34.61508586883304,0.0,22.61942245069881,92.1691207153263,0.0,5.841003068389929,92.35401523637904,17.924307163211214,0.0,7.489350633633643,0.0,0.0,0.2925079937233699,0.0,3.859285379285983,0.0,5201.5792234579485,0.27117070504514074,92.25421565510308,2.1457142309822217,1.2223421040355833,101053.56443789203,288.0029737540704,0.1,0.0,0.0,402.265,0.21589270653345596,0.86,nominal,4486.4528243168115,nan,pitch_program,12.805,0.0,0.0,-2.971335916172945,-0.0,0.0,-2.9230309033200244,0.0,0.0,0.86,0.0,0.0,0.0,0.0,0.0,0.0,-0.051016513400478476,0.0,0.0,-0.051016513400478476,0.0,0.0,0.39,1.0,20.820224194862327,-0.03998306635079582,3.1159323802573335,-0.004200210305302578,0.005216694904253347,0.0021403138457621635,21.052134541852556,0.007031117670128557,1.0,0.0,18.158013233676446,-0.8507156713177079,22.530451462123022,88.78389253569503,-0.10696639449047544,6.725076832854957,1.0,23.00722363382876,0.0,1.0,91.43133749348625,5168.715229954856,1.0,1.0,0.24703569469091746,18.42172987599065,0.05777323077028381,-44.38775494437314,1.0,22.242254786806505,1.0,0.008474791280591054,4.084202903793499,0.9438895191033823,1.0,-0.12522865530984933,7.28418948547348
0.42,37.39835746446762,0.0,22.79106905856487,92.77571985448601,0.0,5.721553595535272,92.9519788388857,17.91783038201521,0.0,7.474361024016831,0.0,0.0,0.4996536567435857,0.0,3.941555158577476,0.0,5269.139769372553,0.272928848118811,92.85216866661628,2.1556507536490983,1.2223219514396515,101051.50691302805,288.0018580511193,0.1,0.0,0.0,404.1773684210526,0.21691906078826353,0.86,nominal,4543.539222415502,nan,pitch_program,12.79,0.0,0.0,-3.0263058961293012,-0.0,0.0,-2.9849958990055905,0.0,0.0,0.86,0.0,0.0,0.0,0.0,0.0,0.0,-0.05209800659617568,0.0,0.0,-0.05209800659617568,0.0,0.0,0.42,1.0,20.86467148612863,-0.028261817516269515,3.2532329459487728,-4.435109278206495e-05,0.009921552475509146,0.001005012113417697,21.116790465291,0.00997242296996216,1.0,0.0,38.98539685891587,0.8561697855581142,23.119619000829072,92.79598712585309,-0.01429878191719496,5.70991649133336,1.0,23.190008454600367,0.0,1.0,93.04186998681955,5271.233453524726,1.0,1.0,1.0151129233973093,18.37766367006589,0.018258774712861983,-44.301989716486574,1.0,22.725040340810274,1.0,0.016688064665782515,4.059202319315206,0.9430223273535878,1.0,0.4032278623625569,7.103444025721946
0.44999999999999996,40.19988783377506,0.0,22.959237268708055,93.3843456435813,0.0,5.605607004772912,93.55243899103765,17.911322810191564,0.0,7.453188236884333,0.0,0.0,0.7057595791145491,0.0,4.0143275666717235,0.0,5337.422143108835,0.2746943274345775,93.4526188613412,2.1546733288168487,1.222302207480146,101049.49111655423,288.00076495775335,0.1,0.0,0.0,404.14342105263154,0.21690084148196515,0.86,nominal,4601.182624747085,nan,pitch_program,12.775,0.0,0.0,-3.084482223278946,-0.0,0.0,-3.0446876935696037,0.0,0.0,0.86,0.0,0.0,0.0,0.0,0.0,0.0,-0.05313982494774177,0.0,0.0,-0.05313982494774177,0.0,0.0,0.44999999999999996,1.0,20.894873062455524,0.03480239865722864,3.366117750343068,0.003273383298076893,0.014375413123617653,0.0006495057299919682,21.16430202516153,0.014757689466312124,1.0,0.0,38.98539685891587,0.8561697855581142,23.119619000829072,92.79598712585309,-0.01429878191719496,5.70991649133336,1.0,23.190008454600367,0.0,1.0,93.03310456938786,5374.007322472274,1.0,1.0,1.0151129233973093,18.37766367006589,0.018258774712861983,-44.301989716486574,1.0,22.725040340810274,1.0,0.016688064665782515,4.059202319315206,0.9430223273535878,1.0,0.4032278623625569,7.103444025721946
0.48,43.01964288089484,0.0,23.1240120305035,93.99183490399291,0.0,5.492492059848236,94.15217733885369,17.904815784947104,0.0,7.426566524741478,0.0,0.0,0.887390420726556,0.0,4.07868879925384,0.0,5406.061841163708,0.27645768286573774,94.0523478211265,2.153728831712198,1.2222828621685402,101047.5160282041,287.9996939218017,0.1,0.0,0.0,404.1094736842105,0.2168826221756668,0.86,nominal,4659.085341402415,nan,pitch_program,12.76,0.0,0.0,-3.139598150583696,-0.0,0.0,-3.101633967778059,0.0,0.0,0.86,0.0,0.0,0.0,0.0,0.0,0.0,-0.054133724929422845,0.0,0.0,-0.054133724929422845,0.0,0.0,0.48,1.0,20.84959271639529,0.012525986310875077,3.4452465674328043,-0.0009259558692904829,0.015725133155316835,0.002863435715449263,21.13233061567758,0.01601051126981361,1.0,0.0,38.98539685891587,0.8561697855581142,23.119619000829072,92.79598712585309,-0.01429878191719496,5.70991649133336,1.0,24.519603284115185,0.0,1.0,93.90442552196764,5349.063185242152,1.0,1.0,-0.341560527222041,18.39064385162914,-0.01746976429002118,-44.30601828388971,1.0,23.276253708063958,1.0,0.007915542794734144,4.076453688004008,0.9421899699237413,1.0,0.636746191090788,7.775806642439461
0.51,45.857590386242805,0.0,23.28547159909114,94.59825017826552,0.0,5.3819856195878915,94.75122535354973,17.898309306281835,0.0,7.3957027539957005,0.0,0.0,1.0287923830696473,0.0,4.136041373554642,0.0,5475.060922310826,0.2782190068211526,94.65138697326897,2.15281892755551,1.2222639063030134,101045.58070805525,287.99864443460586,0.1,0.0,0.0,404.0755263157895,0.21686440286936848,0.86,nominal,4717.249823056809,nan,pitch_program,12.745,0.0,0.0,-3.1870419289066074,-0.0,0.0,-3.152878744455188,0.0,0.0,0.86,0.0,0.0,0.0,0.0,0.0,0.0,-0.055028115006887944,0.0,0.0,-0.055028115006887944,0.0,0.0,0.51,1.0,20.79750992257607,0.06853486531179354,3.6062667421127776,0.0007061520466158617,0.01889925096372319,-0.0019268357040249766,21.107967117244666,0.019010340174048363,1.0,0.0,38.98539685891587,0.8561697855581142,23.119619000829072,92.79598712585309,-0.01429878191719496,5.70991649133336,1.0,24.519603284115185,0.0,1.0,93.66099509127417,5470.630921404189,1.0,1.0,-0.341560527222041,18.39064385162914,-0.01746976429002118,-44.30601828388971,1.0,23.276253708063958,1.0,0.007915542794734144,4.076453688004008,0.9421899699237413,1.0,0.636746191090788,7.775806642439461
0.54,48.71369960499601,0.0,23.443689204190285,95.20364062510681,0.0,5.273920169971526,95.34960630350669,17.891803374195753,0.0,7.361653684738467,0.0,0.0,1.1349690086428248,0.0,4.187598642720468,0.0,5544.4205861329065,0.27997836760902967,95.24975954882355,2.1519432333924207,1.2222453312724597,101043.6842765174,287.99761602017276,0.1,0.0,0.0,404.0415789473684,0.2168461835630701,0.86,nominal,4775.677765851134,nan,pitch_program,12.73,0.0,0.0,-3.227474569742046,-0.0,0.0,-3.1976362396273026,0.0,0.0,0.86,0.0,0.0,0.0,0.0,0.0,0.0,-0.05580928066258681,0.0,0.0,-0.05580928066258681,0.0,0.0,0.54,1.0,20.810566772012592,-0.011959623866143985,3.678240943667289,0.00258475109658373,0.02134170999215602,-0.000786372376342729,21.133132490112963,0.021512040933738895,1.0,0.0,38.98539685891587,0.8561697855581142,23.119619000829072,92.79598712585309,-0.01429878191719496,5.70991649133336,1.0,23.620785211336695,0.0,1.0,94.90411436060414,5528.24502052757,1.0,1.0,0.6010780516446778,18.454066190746822,-0.00910350250981173,-44.24141514715296,1.0,23.637559756148082,1.0,-0.0028495226081697673,4.045132157377557,0.9413907769895243,1.0,0.0064165621930257054,7.2414942249016185
0.57,51.58794093410837,0.0,23.598734324912606,95.8080443037452,0.0,5.168170690743959,95.94733629234878,17.885297988688862,0.0,7.325081421004675,0.0,0.0,1.2190754991842736,0.0,4.234149441690315,0.0,5614.141263778021,0.2817358124871059,95.84748161916578,2.1510966659610373,1.2222271289067679,101041.82589904494,287.99660822688804,0.1,0.0,0.0,404.0076315789474,0.21682796425677175,0.86,nominal,4834.370198765939,nan,pitch_program,12.715,0.0,0.0,-3.263815609218235,-0.0,0.0,-3.2373438613818624,0.0,0.0,0.86,0.0,0.0,0.0,0.0,0.0,0.0,-0.0565023094003404,0.0,0.0,-0.0565023094003404,0.0,0.0,0.57,1.0,20.78668214845597,0.012149172236429435,3.725910923744391,0.0034063518963941427,0.023965623776483706,-0.0048126073959461535,21.117971364574817,0.024680266331333314,1.0,0.0,38.98539685891587,0.8561697855581142,23.119619000829072,92.79598712585309,-0.01429878191719496,5.70991649133336,1.0,23.620785211336695,0.0,1.0,96.23470972270887,5645.270102547696,1.0,1.0,0.6010780516446778,18.454066190746822,-0.00910350250981173,-44.24141514715296,1.0,23.637559756148082,1.0,-0.0028495226081697673,4.045132157377557,0.9413907769895243,1.0,0.0064165621930257054,7.2414942249016185
0.6,54.48028573524176,0.0,23.750673254494057,96.41149337111301,0.0,5.0646309860483685,96.54442780954791,17.878793149761158,0.0,7.286407126986545,0.0,0.0,1.2891431828838265,0.0,4.276226983856279,0.0,5684.2230098091995,0.2834913780950758,96.44456564472041,2.150273314710549,1.2222092914104838,101040.00477936279,287.99562062384575,0.1,0.0,0.0,403.9736842105263,0.21680974495047337,0.86,nominal,4893.327810407689,nan,pitch_program,12.7,0.0,0.0,-3.2978382886283804,-0.0,0.0,-3.273640517729773,0.0,0.0,0.86,0.0,0.0,0.0,0.0,0.0,0.0,-0.05713580556107634,0.0,0.0,-0.05713580556107634,0.0,0.0,0.6,1.0,20.779284500605975,0.03723658218695693,3.8645115269823855,-0.00218884881802764,0.027039333313925593,0.0005021721522843135,21.135621596308834,0.027132430449192665,1.0,0.0,38.98539685891587,0.8561697855581142,23.119619000829072,92.79598712585309,-0.01429878191719496,5.70991649133336,1.0,23.95326830843895,0.0,1.0,96.49830551528322,5711.829207470296,1.0,1.0,-2.0884129315731466,18.54420426823672,-0.05198653732366435,-44.31775583701549,1.0,23.328355961765503,1.0,0.0059601927122216744,4.048864039228061,0.9406233168637649,1.0,-0.031199227627410092,7.231518287821654
0.63,57.39070623546538,0.0,23.89956936237924,97.01401667412071,0.0,4.963203596172697,97.14089160175355,17.872288857412645,0.0,7.246016923837116,0.0,0.0,1.3463401607355243,0.0,4.31432126695932,0.0,5754.665710727817,0.28524509595314557,97.04102234544321,2.1494698433847645,1.2221918113319974,101038.2201563193,287.9946527991445,0.1,0.0,0.0,403.9397368421053,0.21679152564417503,0.86,nominal,4952.551122479393,nan,pitch_program,12.685,0.0,0.0,-3.329619434998501,-0.0,0.0,-3.30722786809101,0.0,0.0,0.86,0.0,0.0,0.0,0.0,0.0,0.0,-0.057722015411900834,0.0,0.0,-0.057722015411900834,0.0,0.0,0.63,1.0,20.749433473258126,0.0482501784753116,3.957679698507784,0.000997562163779802,0.02151309699083717,0.0018119332194381364,21.123554296965942,0.021612301460036037,1.0,0.0,57.7128066088826,-1.4405247638228156,24.369866166253214,97.22489978947891,0.11105817103984193,4.929559760508672,1.0,23.95326830843895,0.0,1.0,97.25894557566006,5755.025657055578,1.0,1.0,-2.0884129315731466,18.54420426823672,-0.05198653732366435,-44.31775583701549,1.0,23.328355961765503,1.0,0.0059601927122216744,4.048864039228061,0.9406233168637649,1.0,-0.031199227627410092,7.231518287821654
0.6599999999999999,60.3191754201184,0.0,24.045483436220184,97.61563948843394,0.0,4.863802461364865,97.73673642555845,17.86578511164332,0.0,7.204315822040934,0.0,0.0,1.3900367879007858,0.0,4.348931706329857,0.0,5825.4690489277245,0.2869969917358774,97.63686045352645,2.1486853402077957,1.2221746815233598,101036.4712997827,287.99370435766457,0.1,0.0,0.0,403.9057894736842,0.21677330633787664,0.86,nominal,5012.040463699351,nan,pitch_program,12.67,0.0,0.0,-3.358775617900788,-0.0,0.0,-3.3381565179768766,0.0,0.0,0.86,0.0,0.0,0.0,0.0,0.0,0.0,-0.05826182218560578,0.0,0.0,-0.05826182218560578,0.0,0.0,0.6599999999999999,1.0,20.649629234508595,0.01932912714719676,3.971830740496994,0.0011141667637941386,0.020605270818846666,0.002382543117453245,21.02814781593912,0.02077245928632624,1.0,0.0,57.7128066088826,-1.4405247638228156,24.369866166253214,97.22489978947891,0.11105817103984193,4.929559760508672,1.0,23.986480793356716,0.0,1.0,98.29939947960365,5682.196609884511,1.0,1.0,-1.670335623109286,18.655917741876628,0.0066186895430424015,-44.238065787747914,1.0,24.086154579886536,1.0,0.005384943889153253,4.042955595189771,0.9398862914094496,1.0,-0.05654672738215016,7.658270449910163
0.69,63.26566690441349,0.0,24.188474137618705,98.21638280983638,0.0,4.766356713283981,98.33196839566769,17.859281912453184,0.0,7.161675023427396,0.0,0.0,1.4213600193882385,0.0,4.38051251446019,0.0,5896.632416948187,0.2887470833572923,98.23208606155437,2.147919426119557,1.2221578950867453,101034.75750517425,287.99277491810545,0.1,0.0,0.0,403.8718421052631,0.21675508703157828,0.86,nominal,5071.795904184974,nan,pitch_program,12.655,0.0,0.0,-3.3853812669217107,-0.0,0.0,-3.366491367343777,0.0,0.0,0.86,0.0,0.0,0.0,0.0,0.0,0.0,-0.05875635860011482,0.0,0.0,-0.05875635860011482,0.0,0.0,0.69,1.0,20.68530741629272,0.03405703130360546,4.136062017606935,-0.00024342411824013636,0.025513926538160963,0.002091143341679508,21.0947887356429,0.02560063638215788,1.0,0.0,57.7128066088826,-1.4405247638228156,24.369866166253214,97.22489978947891,0.11105817103984193,4.929559760508672,1.0,23.986480793356716,0.0,1.0,97.47907343471095,5905.613226662565,1.0,1.0,-1.670335623109286,18.655917741876628,0.0066186895430424015,-44.238065787747914,1.0,24.086154579886536,1.0,0.005384943889153253,4.042955595189771,0.9398862914094496,1.0,-0.05654672738215016,7.658270449910163
0.72,66.2301548131831,0.0,24.328598425205133,98.81626362565356,0.0,4.670809586214245,98.92659106188455,17.852779259842237,0.0,7.118389941837853,0.0,0.0,1.4428361216073826,0.0,4.409431722408187,0.0,5968.1549169112695,0.2904953811974723,98.82670269922096,2.1471712068969486,1.2221414453247648,101033.07808839454,287.9918641102361,0.1,0.0,0.0,403.8378947368421,0.21673686772527995,0.86,nominal,5131.817259309206,nan,pitch_program,12.64,0.0,0.0,-3.4099029034468686,-0.0,0.0,-3.392538289005632,0.0,0.0,0.86,0.0,0.0,0.0,0.0,0.0,0.0,-0.05921096314312322,0.0,0.0,-0.05921096314312322,0.0,0.0,0.72,1.0,20.62343474616183,-0.007930072127170567,4.220076992449332,0.0025088031883426986,0.025305218021958776,-0.0021429161886015883,21.050776076844276,0.025519409130465315,1.0,0.0,57.7128066088826,-1.4405247638228156,24.369866166253214,97.22489978947891,0.11105817103984193,4.929559760508672,1.0,23.585407810748197,0.0,1.0,98.7067074942813,5950.696401220422,1.0,1.0,0.2874945668536168,18.61757718128722,-0.004236792949381907,-44.19967969703629,1.0,24.906286799284814,1.0,0.005990995406906327,4.059721281660511,0.9391785039369872,1.0,-0.44453082773386493,6.770511814339074
0.75,69.21261368801986,0.0,24.465911861615176,99.41529582789195,0.0,4.577114547001482,99.52060601766672,17.84627715381048,0.0,7.074690040720895,0.0,0.0,1.4566634411796997,0.0,4.435983597667983,0.0,6040.035424949029,0.29224188989106153,99.42071194151683,2.146439565165585,1.2221253257043967,101031.43238214038,287.99097157289947,0.1,0.0,0.0,403.80394736842106,0.21671864841898159,0.86,nominal,5192.10414561953,nan,pitch_program,12.625,0.0,0.0,-3.432761863442717,-0.0,0.0,-3.4166724336678826,0.0,0.0,0.86,0.0,0.0,0.0,0.0,0.0,0.0,-0.05963218342963211,0.0,0.0,-0.05963218342963211,0.0,0.0,0.75,1.0,20.575641199170693,0.011625204899593356,4.213832159148241,0.0011903280909354376,0.029166647182111195,0.0013521571613500842,21.002702858629203,0.02922222643466468,1.0,0.0,57.7128066088826,-1.4405247638228156,24.369866166253214,97.22489978947891,0.11105817103984193,4.929559760508672,1.0,23.585407810748197,0.0,1.0,99.8413223892328,6023.55284760994,1.0,1.0,0.2874945668536168,18.61757718128722,-0.004236792949381907,-44.19967969703629,1.0,24.906286799284814,1.0,0.005990995406906327,4.059721281660511,0.9391785039369872,1.0,-0.44453082773386493,6.770511814339074
0.78,72.21301841649162,0.0,24.600468835078974,100.01349094905878,0.0,4.4852324487933295,100.11401341439255,17.83977559435791,0.0,7.03076849677056,0.0,0.0,1.4640515367055895,0.0,4.460420201098224,0.0,6112.272646824881,0.29398660983866504,100.01411392272274,2.145723752437699,1.2221095298309552,101029.81973324648,287.99009695257195,0.1,0.0,0.0,403.77,0.21670042911268322,0.86,nominal,5252.656028670112,nan,pitch_program,12.61,0.0,0.0,-3.4541524905686534,-0.0,0.0,-3.439160467808345,0.0,0.0,0.86,0.0,0.0,0.0,0.0,0.0,0.0,-0.060024673667684075,0.0,0.0,-0.060024673667684075,0.0,0.0,0.78,1.0,20.581075204057438,-0.06683260163433906,4.31992601135728,0.0007836953734760417,0.024815663464197012,-0.0002538655740981199,21.029666756639543,0.02482933304252054,1.0,0.0,57.7128066088826,-1.4405247638228156,24.369866166253214,97.22489978947891,0.11105817103984193,4.929559760508672,1.0,23.549545917933912,0.0,1.0,100.05520796567852,6199.425232755929,1.0,1.0,0.02320020698432135,18.758217994930117,0.020512500027092834,-44.22401804382297,1.0,24.407770687396944,1.0,0.02958593775135763,4.059778854018572,0.9384988279123025,1.0,-0.3641198977541506,6.510870408659442
0.8099999999999999,75.23134417060773,0.0,24.732322754184693,100.61085847053693,0.0,4.395130636857342,100.7068121603174,17.83327458148453,0.0,6.986797403099241,0.0,0.0,1.4657031943145788,0.0,4.482967291542307,0.0,6184.865137060604,0.2957295377917189,100.60690753521524,2.1450234890381585,1.2220940514252074,101028.23950034853,287.9892399020978,0.1,0.0,0.0,403.73605263157896,0.21668220980638486,0.86,nominal,5313.472240684052,nan,pitch_program,12.595,0.0,0.0,-3.474154138924014,-0.0,0.0,-3.4601566704777467,0.0,0.0,0.86,0.0,0.0,0.0,0.0,0.0,0.0,-0.06039112653468115,0.0,0.0,-0.06039112653468115,0.0,0.0,0.8099999999999999,1.0,20.61760669793877,-0.01909293271997271,4.470630575852999,0.001127163187817565,0.025029848847661396,0.0027680952868012225,21.096744019794173,0.025207661170873405,1.0,0.0,57.7128066088826,-1.4405247638228156,24.369866166253214,97.22489978947891,0.11105817103984193,4.929559760508672,1.0,23.549545917933912,0.0,1.0,99.78727907395118,6136.267468847316,1.0,1.0,0.02320020698432135,18.758217994930117,0.020512500027092834,-44.22401804382297,1.0,24.407770687396944,1.0,0.02958593775135763,4.059778854018572,0.9384988279123025,1.0,-0.3641198977541506,6.510870408659442
0.84,78.26756634941157,0.0,24.861526235099063,101.20740596012779,0.0,4.306782697145627,101.2989999870608,17.82677411519034,0.0,6.942926554175201,0.0,0.0,1.4623617022477795,0.0,4.50382341797319,0.0,6257.811302560068,0.2974706670481056,101.19909049584645,2.1443386853578983,1.222078884301373,101026.69105163682,287.98840007947183,0.1,0.0,0.0,403.7021052631579,0.2166639905000865,0.86,nominal,5374.551985442706,nan,pitch_program,12.58,0.0,0.0,-3.4928686854951523,-0.0,0.0,-3.47978387948819,0.0,0.0,0.86,0.0,0.0,0.0,0.0,0.0,0.0,-0.06073368595489049,0.0,0.0,-0.06073368595489049,0.0,0.0,0.84,1.0,20.506329065050142,0.05166430092585032,4.452437033348909,0.0012661216670166629,0.02931964787359108,-5.870225580505489e-05,20.98419396736618,0.029347031561333413,1.0,0.0,77.86158947365509,0.11040984545368764,24.966427411642673,101.21638130698646,0.017043018975863612,4.254563988142662,1.0,26.007841652600305,0.0,1.0,100.95771893601636,6276.015791311323,1.0,1.0,-0.2524767918030103,18.706343936415603,0.042477749502781575,-44.15407616973251,1.0,24.689890309321868,1.0,-0.015716378217716927,4.0651784072563135,0.9378461844122523,1.0,0.559642409700591,7.382179636812274
0.87,81.32166052780646,0.0,24.988131268396437,101.8031392798299,0.0,4.220167776579147,101.89057357425624,17.82027419547534,0.0,6.899280466158074,0.0,0.0,1.4548696709247682,0.0,4.523157477599718,0.0,6331.109413773308,0.2992099878186704,101.79065947047873,2.1436692297514472,1.2220640223475325,101025.17376285524,287.9875771467554,0.1,0.0,0.0,403.66815789473685,0.21664577119378817,0.86,nominal,5435.894349148682,nan,pitch_program,12.565,0.0,0.0,-3.510436918947424,-0.0,0.0,-3.4981757031637306,0.0,0.0,0.86,0.0,0.0,0.0,0.0,0.0,0.0,-0.06105468383347491,0.0,0.0,-0.06105468383347491,0.0,0.0,0.87,1.0,20.47079536936631,-0.0032009294677551336,4.562803559045264,-0.0007627910474587565,0.024996789551695264,0.001423801640237294,20.97314114811739,0.025048923114269147,1.0,0.0,77.86158947365509,0.11040984545368764,24.966427411642673,101.21638130698646,0.017043018975863612,4.254563988142662,1.0,26.007841652600305,0.0,1.0,101.55192221775714,6269.918961406268,1.0,1.0,-0.2524767918030103,18.706343936415603,0.042477749502781575,-44.15407616973251,1.0,24.689890309321868,1.0,-0.015716378217716927,4.0651784072563135,0.9378461844122523,1.0,0.559642409700591,7.382179636812274
0.8999999999999999,84.39360241372394,0.0,25.1121893550368,102.39806286391602,0.0,4.1352695546788585,102.48152873846269,17.813774822339525,0.0,6.8559612789052835,0.0,0.0,1.4439729772112382,0.0,4.541112332227624,0.0,6404.757624464359,0.3009474877825462,102.38161026277898,2.1430149976286077,1.2220494595096418,101023.68701566894,287.9867707691922,0.1,0.0,0.0,403.6342105263158,0.2166275518874898,0.86,nominal,5497.498318024748,nan,pitch_program,12.55,0.0,0.0,-3.526987914005403,-0.0,0.0,-3.515463029668734,0.0,0.0,0.86,0.0,0.0,0.0,0.0,0.0,0.0,-0.06135640459985451,0.0,0.0,-0.06135640459985451,0.0,0.0,0.8999999999999999,1.0,20.502461388676313,-0.010573689704318741,4.58904116260783,0.00044742135249231185,0.02515310256315114,0.00382627890876341,21.009767575801167,0.025446397872915416,1.0,0.0,77.86158947365509,0.11040984545368764,24.966427411642673,101.21638130698646,0.017043018975863612,4.254563988142662,1.0,25.09827719613663,0.0,1.0,101.85095059104913,6538.613433747783,1.0,1.0,-2.017714388591032,18.93611251002108,-0.03530780576572019,-44.07797326723544,1.0,25.252452865810096,1.0,0.0004759712891396072,4.067189904989189,0.937219526612408,1.0,0.18807463782397235,6.636711649534319
0.9299999999999999,87.48336781261614,0.0,25.23375161616157,102.99217996307304,0.0,4.052075370825571,103.07186060393437,17.8072759957829,0.0,6.813054417458031,0.0,0.0,1.4302287817478392,0.0,4.557811070829522,0.0,6478.753990037083,0.30268315258914247,102.9719379848911,2.1423759334154613,1.222035189778634,101022.2301963472,287.9859806144949,0.1,0.0,0.0,403.6002631578947,0.21660933258119142,0.86,nominal,5559.362794465069,nan,pitch_program,12.535000000000002,0.0,0.0,-3.542612875386119,-0.0,0.0,-3.531752937099165,0.0,0.0,0.86,0.0,0.0,0.0,0.0,0.0,0.0,-0.061640717119360616,0.0,0.0,-0.061640717119360616,0.0,0.0,0.9299999999999999,1.0,20.44555991497053,-0.03394187802056017,4.649167603521905,-0.0007921764512016805,0.026105115562415484,-0.001474918900734763,20.967518491547132,0.02615874591452446,1.0,0.0,77.86158947365509,0.11040984545368764,24.966427411642673,101.21638130698646,0.017043018975863612,4.254563988142662,1.0,25.09827719613663,0.0,1.0,102.85798589103219,6441.137704635225,1.0,1.0,-2.017714388591032,18.93611251002108,-0.03530780576572019,-44.07797326723544,1.0,25.252452865810096,1.0,0.0004759712891396072,4.067189904989189,0.937219526612408,1.0,0.18807463782397235,6.636711649534319
0.96,90.59093259702776,0.0,25.352868886392105,103.58549281372063,0.0,3.970575674351222,103.66156371889785,17.800777715805463,0.0,6.770632331236435,0.0,0.0,1.4140696053192243,0.0,4.573361148025988,0.0,6553.096479719971,0.3044169661999826,103.56163717363864,2.1417520625307818,1.222021207179453,101020.8026946434,287.98520635223844,0.1,0.0,0.0,403.56631578947366,0.21659111327489305,0.86,nominal,5621.486607988297,nan,pitch_program,12.520000000000001,0.0,0.0,-3.5573790707241253,-0.0,0.0,-3.547128617274141,0.0,0.0,0.86,0.0,0.0,0.0,0.0,0.0,0.0,-0.06190907336314757,0.0,0.0,-0.06190907336314757,0.0,0.0,0.96,1.0,20.41897485436773,0.0403044881716855,4.793388840460516,0.005810731508932576,0.024280582442297215,-0.0017345670483146591,20.974096765556315,0.025026386220371344,1.0,0.0,77.86158947365509,0.11040984545368764,24.966427411642673,101.21638130698646,0.017043018975863612,4.254563988142662,1.0,25.07044297184343,0.0,1.0,103.06274684236907,6567.467622616583,1.0,1.0,0.32106353464181236,18.971035224490926,0.01749869089294133,-44.125517917786404,1.0,25.502016765330325,1.0,0.008488511521670595,4.064196532691447,0.9366178277840197,1.0,-0.2852912671137542,6.553322792840239
0.99,93.71627268001266,0.0,25.46959179515678,104.1780027661636,0.0,3.890763625489194,104.25063214166244,17.794279982407215,0.0,6.7287558462443275,0.0,0.0,1.3958828952091253,0.0,4.587856037366502,0.0,6627.782985426165,0.30614891114187925,104.15070187657396,2.1411434428645553,1.222007505761495,101019.40390281858,287.9844476533315,0.1,0.0,0.0,403.53236842105264,0.21657289396859472,0.86,nominal,5683.868523346085,nan,pitch_program,12.505,0.0,0.0,-3.571348971899627,-0.0,0.0,-3.5616608300494326,0.0,0.0,0.86,0.0,0.0,0.0,0.0,0.0,0.0,-0.06216270832367679,0.0,0.0,-0.06216270832367679,0.0,0.0,0.99,1.0,20.492627044710236,0.02423630645272609,4.8580996435862565,-0.0014060586879246736,0.02468867930062795,0.003593470265315887,21.06061449101504,0.024988415619859795,1.0,0.0,77.86158947365509,0.11040984545368764,24.966427411642673,101.21638130698646,0.017043018975863612,4.254563988142662,1.0,25.07044297184343,0.0,1.0,103.46358650287428,6584.09865797424,1.0,1.0,0.32106353464181236,18.971035224490926,0.01749869089294133,-44.125517917786404,1.0,25.502016765330325,1.0,0.008488511521670595,4.064196532691447,0.9366178277840197,1.0,-0.2852912671137542,6.553322792840239
1.02,96.85936399222219,0.0,25.583970835843033,104.76971040698403,0.0,3.8126346895417913,104.83905952477443,17.787782795588157,0.0,6.6874750971950006,0.0,0.0,1.3760250278352513,0.0,4.60137645728435,0.0,6702.811330745926,0.3078789687543465,104.73912573607726,2.140550128181535,1.2219940795904776,101018.03321481138,287.983704189567,0.1,0.0,0.0,403.49842105263156,0.21655467466229633,0.86,nominal,5746.507248616918,nan,pitch_program,12.49,0.0,0.0,-3.584583240119069,-0.0,0.0,-3.575414276091214,0.0,0.0,0.86,0.0,0.0,0.0,0.0,0.0,0.0,-0.06240275124060126,0.0,0.0,-0.06240275124060126,0.0,0.0,1.02,1.0,20.375969320351945,-0.003617189695431459,4.947624917225934,-0.0012687287302588265,0.024931956541298945,0.0009741654625859581,20.96805024673348,0.02498321692490178,1.0,0.0,77.86158947365509,0.11040984545368764,24.966427411642673,101.21638130698646,0.017043018975863612,4.254563988142662,1.0,25.41338142079009,0.0,1.0,104.91077694171756,6823.607494010644,1.0,1.0,0.20716255069020592,18.981450278150653,-0.02774534788802444,-44.06799389651413,1.0,25.642861171624972,1.0,0.004000979885722656,4.1120110165877595,0.9360400729103924,1.0,-0.2350183702845472,6.3422659219845565
1.05,100.02018246254421,0.0,25.696056422726773,105.36061567740111,0.0,3.736186229458054,105.42683919885967,17.781286155348287,0.0,6.646831053446264,0.0,0.0,1.3548015151035955,0.0,4.613992181193086,0.0,6778.17928027269,0.3096071194360791,105.32690207314907,2.139972167394362,1.2219809227417515,101016.6900255545,287.98297563325224,0.1,0.0,0.0,403.46447368421053,0.216536455355998,0.86,nominal,5809.40144344904,nan,pitch_program,12.475,0.0,0.0,-3.597134928481364,-0.0,0.0,-3.588446667525304,0.0,0.0,0.86,0.0,0.0,0.0,0.0,0.0,0.0,-0.06263020938053483,0.0,0.0,-0.06263020938053483,0.0,0.0,1.05,1.0,20.40895429421151,0.023065120251563386,4.9883978967036695,-0.0009619480502852831,0.02516650283589841,-0.000216186253064102,21.009761087618877,0.025185808415390285,1.0,0.0,100.9473503229966,-0.5143213134600304,25.15787341990963,105.47139763104354,-0.10413279965858194,3.7227836230377847,1.0,25.41338142079009,0.0,1.0,104.96905022001252,6680.610751392365,1.0,1.0,0.20716255069020592,18.981450278150653,-0.02774534788802444,-44.06799389651413,1.0,25.642861171624972,1.0,0.004000979885722656,4.1120110165877595,0.9360400729103924,1.0,-0.2350183702845472,6.3422659219845565
1.08,103.19870400179558,0.0,25.80589893754286,105.95071797504531,0.0,3.66141716053621,106.01396424552313,17.774790061687607,0.0,6.606857181225021,0.0,0.0,1.3324624614229477,0.0,4.625763939974083,0.0,6853.884547883529,0.3113333428592586,105.91402396026717,2.1394096136435397,1.2219680292948194,101015.37373041501,287.98226165690596,0.1,0.0,0.0,403.43052631578945,0.21651823604969964,0.86,nominal,5872.549726341384,nan,pitch_program,12.46,0.0,0.0,-3.6090474198873967,-0.0,0.0,-3.6008071189425594,0.0,0.0,0.86,0.0,0.0,0.0,0.0,0.0,0.0,-0.06284593995479874,0.0,0.0,-0.06284593995479874,0.0,0.0,1.08,1.0,20.321294039568585,-0.022853924830118926,5.130191274785728,6.010971362783861e-05,0.023405722534243195,0.0015833385952579505,20.958873449218913,0.02345929286306144,1.0,0.0,100.9473503229966,-0.5143213134600304,25.15787341990963,105.47139763104354,-0.10413279965858194,3.7227836230377847,1.0,26.223712855841075,0.0,1.0,105.73013827839722,6845.46423874033,1.0,1.0,0.7264451323418568,19.07287542512292,-0.02658840919779483,-43.997158490105065,1.0,25.750540517973636,1.0,-0.0045325187658295995,4.104913467332576,0.9354852526561428,1.0,-0.808246265656688,6.678913953652309
1.1099999999999999,106.3949044888813,0.0,25.913548767940636,106.54001623619085,0.0,3.5883276799258623,106.60042755611411,17.768294514606115,0.0,6.5675806665038055,0.0,0.0,1.3092172086423712,0.0,4.636744836148004,0.0,6929.924803501567,0.3130576181423091,106.50048428011534,2.138862521609701,1.2219553933288105,101014.08372473206,287.9815619330084,0.1,0.0,0.0,403.3965789473684,0.21650001674340127,0.86,nominal,5935.950680598291,nan,pitch_program,12.445,0.0,0.0,-3.6203574072311366,-0.0,0.0,-3.612537291915706,0.0,0.0,0.86,0.0,0.0,0.0,0.0,0.0,0.0,-0.0630506700950086,0.0,0.0,-0.0630506700950086,0.0,0.0,1.1099999999999999,1.0,20.35614846867842,-0.051319635676952136,5.178758269819865,-0.0009535318708432641,0.023524290155000394,0.002824344071052272,21.004641187154625,0.023712409615158272,1.0,0.0,100.9473503229966,-0.5143213134600304,25.15787341990963,105.47139763104354,-0.10413279965858194,3.7227836230377847,1.0,26.223712855841075,0.0,1.0,107.02037398565956,6972.346077769792,1.0,1.0,0.7264451323418568,19.07287542512292,-0.02658840919779483,-43.997158490105065,1.0,25.750540517973636,1.0,-0.0045325187658295995,4.104913467332576,0.9354852526561428,1.0,-0.808246265656688,6.678913953652309
1.14,109.60875975903477,0.0,26.019056339128387,107.1285090051157,0.0,3.5169190395916976,107.18622188131364,17.761799514103814,0.0,6.529023238508618,0.0,0.0,1.2852476483434794,0.0,4.6469813285644195,0.0,7006.297678916511,0.31477992399566995,107.08627577513927,2.1383309374983903,1.221943008918761,101012.81940343669,287.9808761337956,0.1,0.0,0.0,403.3626315789474,0.21648179743710294,0.86,nominal,5999.602859443213,nan,pitch_program,12.43,0.0,0.0,-3.6310977635819306,-0.0,0.0,-3.623673574915441,0.0,0.0,0.86,0.0,0.0,0.0,0.0,0.0,0.0,-0.06324503489978785,0.0,0.0,-0.06324503489978785,0.0,0.0,1.14,1.0,20.30524745089327,0.00532466447862414,5.198723058036072,0.00121304139877298,0.019034168098055304,0.0019481353936812015,20.960196178190113,0.01917201752899983,1.0,0.0,100.9473503229966,-0.5143213134600304,25.15787341990963,105.47139763104354,-0.10413279965858194,3.7227836230377847,1.0,26.738057226178928,0.0,1.0,106.86257402796107,6944.156877777225,1.0,1.0,-0.7598756353801139,19.145702319733175,0.06539829339394247,-44.065226891095485,1.0,26.073440226187998,1.0,0.0038094536017736326,4.114178945472816,0.934952359152179,1.0,-0.20272584193111715,6.823821313350375
1.17,112.84024559391388,0.0,26.122472139337994,107.71619449597011,0.0,3.447193340320258,107.77133987577221,17.7553050601807,0.0,6.491201890923054,0.0,0.0,1.2607116319641756,0.0,4.656514097910198,0.0,7083.000773172437,0.3165002388530121,107.67139109215604,2.137814893238294,1.2219308701326157,101011.58016074557,287.9802039310943,0.1,0.0,0.0,403.3286842105263,0.21646357813080455,0.86,nominal,6063.504790714844,nan,pitch_program,12.415,0.0,0.0,-3.641297993681553,-0.0,0.0,-3.6342482261751083,0.0,0.0,0.86,0.0,0.0,0.0,0.0,0.0,0.0,-0.06342959738151921,0.0,0.0,-0.06342959738151921,0.0,0.0,1.17,1.0,20.215700195559464,-0.02730403298349267,5.225566430793969,-0.0008634720567739232,0.024234263387576865,-0.001090500165282645,20.880177787308252,0.02427414872949738,1.0,0.0,100.9473503229966,-0.5143213134600304,25.15787341990963,105.47139763104354,-0.10413279965858194,3.7227836230377847,1.0,26.738057226178928,0.0,1.0,107.738919730503,7003.312853693316,1.0,1.0,-0.7598756353801139,19.145702319733175,0.06539829339394247,-44.065226891095485,1.0,26.073440226187998,1.0,0.0038094536017736326,4.114178945472816,0.934952359152179,1.0,-0.20272584193111715,6.823821313350375
1.2,116.08933771333938,0.0,26.22384673978292,108.3030706475166,0.0,3.3791533481642824,108.35577413793592,17.748811152836776,0.0,6.454129600590443,0.0,0.0,1.2357430541991998,0.0,4.6653788927977615,0.0,7160.031657515446,0.3182185409883037,108.25582282215531,2.1373144063372544,1.2219189710288694,101010.36538991988,287.9795449961914,0.1,0.0,0.0,403.2947368421053,0.21644535882450622,0.86,nominal,6127.654981146384,nan,pitch_program,12.4,0.0,0.0,-3.65098385473291,-0.0,0.0,-3.6442896033097893,0.0,0.0,0.86,0.0,0.0,0.0,0.0,0.0,0.0,-0.06360485247395387,0.0,0.0,-0.06360485247395387,0.0,0.0,1.2,1.0,20.18875037803644,0.05991784686592215,5.422404621223266,-0.00012476373930662816,0.021115125351736392,-0.0010175630330780644,20.90434653011911,0.021139998087428336,1.0,0.0,100.9473503229966,-0.5143213134600304,25.15787341990963,105.47139763104354,-0.10413279965858194,3.7227836230377847,1.0,26.911799634477127,0.0,1.0,107.65732177478729,7188.353449883531,1.0,1.0,2.06342647402825,19.1838041395995,0.08539920361413032,-43.99967384618342,1.0,26.46872745279064,1.0,-5.519108586433316e-05,4.1199266853992444,0.9344403831505427,1.0,-0.11770425331794655,6.05565516970023
1.23,119.35601176843582,0.0,26.323230809952676,108.88913516988154,0.0,3.3128023389918875,108.9395172441202,17.74231779207204,0.0,6.41781596344132,0.0,0.0,1.2104546121567041,0.0,4.673607273847638,0.0,7237.387879751116,0.31993480861596046,108.8395635343508,2.136829480199684,1.2219073056547725,101009.17448308191,287.9788989997353,0.1,0.0,0.0,403.26078947368416,0.2164271395182078,0.86,nominal,6192.051920113404,nan,pitch_program,12.385,0.0,0.0,-3.660177692096188,-0.0,0.0,-3.6538224565816284,0.0,0.0,0.86,0.0,0.0,0.0,0.0,0.0,0.0,-0.06377123215065697,0.0,0.0,-0.06377123215065697,0.0,0.0,1.23,1.0,20.23698805081427,-0.0034837575534648673,5.420004118805516,0.0002589862009826061,0.02196957634732275,0.0025757760128478453,20.950230121725035,0.02212157274701564,1.0,0.0,100.9473503229966,-0.5143213134600304,25.15787341990963,105.47139763104354,-0.10413279965858194,3.7227836230377847,1.0,26.911799634477127,0.0,1.0,109.17530720964221,7279.702123995907,1.0,1.0,2.06342647402825,19.1838041395995,0.08539920361413032,-43.99967384618342,1.0,26.46872745279064,1.0,-5.519108586433316e-05,4.1199266853992444,0.9344403831505427,1.0,-0.11770425331794655,6.05565516970023
1.26,122.64024333596058,0.0,26.42067512899198,109.4743855841587,0.0,3.248143967976795,109.52256177731489,17.735824977886494,0.0,6.382267699375072,0.0,0.0,1.1849421735524814,0.0,4.68122720992586,0.0,7315.066968046661,0.3216490199755052,109.42260580496577,2.1363601025401717,1.221895868044981,101008.00683107685,287.9782656116615,0.1,0.0,0.0,403.22684210526313,0.21640892021190947,0.86,nominal,6256.694082886608,nan,pitch_program,12.37,0.0,0.0,-3.668899250329465,-0.0,0.0,-3.66286853283033,0.0,0.0,0.86,0.0,0.0,0.0,0.0,0.0,0.0,-0.06392911596558327,0.0,0.0,-0.06392911596558327,0.0,0.0,1.26,1.0,20.227279526683617,0.00794684442405135,5.4840734822647486,-0.0014282419835606125,0.021282235563110197,-0.00016546531227039135,20.957527577503267,0.021330747865390992,1.0,0.0,120.33114158557544,-0.9886792019865726,28.337162227148873,109.52003582753765,-0.10364898284714909,3.212357576609582,1.0,25.69484462280109,0.0,1.0,110.0220741004842,7425.303606174224,1.0,1.0,0.9629097954391108,19.284103122984313,0.023134658006696746,-43.920924422628936,1.0,26.79441423764006,1.0,0.0006925181714708218,4.1315748856390275,0.9339483121775201,1.0,-0.16193324251844712,6.252650015189892
1.29,125.94200791365787,0.0,26.516230593700786,110.05881925657638,0.0,3.185182156960132,110.10490035200417,17.729332710280136,0.0,6.347489064585264,0.0,0.0,1.1592878619219604,0.0,4.688263569393323,0.0,7393.0664343233375,0.3233611534045065,110.00494224203497,2.135906243561314,1.2218846522206115,101006.8618233762,287.9776445011409,0.1,0.0,0.0,403.1928947368421,0.21639070090561113,0.86,nominal,6321.579933514098,nan,pitch_program,12.355,0.0,0.0,-3.6771662150692834,-0.0,0.0,-3.6714471421737023,0.0,0.0,0.86,0.0,0.0,0.0,0.0,0.0,0.0,-0.06407884094386747,0.0,0.0,-0.06407884094386747,0.0,0.0,1.29,1.0,20.216455705039127,-0.049476832008403165,5.567261217172187,-0.003389608958674506,0.01908747933391801,-0.0003681181865630906,20.96907071596031,0.019389606164508653,1.0,0.0,120.33114158557544,-0.9886792019865726,28.337162227148873,109.52003582753765,-0.10364898284714909,3.212357576609582,1.0,25.69484462280109,0.0,1.0,109.9207263288937,7322.5673389370195,1.0,1.0,0.9629097954391108,19.284103122984313,0.023134658006696746,-43.920924422628936,1.0,26.79441423764006,1.0,0.0006925181714708218,4.1315748856390275,0.9339483121775201,1.0,-0.16193324251844712,6.252650015189892
1.3199999999999998,129.26128091650583,0.0,26.609948223581746,110.64243342826519,0.0,3.123920996031939,110.68652563576808,17.72284098925297,0.0,6.3134822162411925,0.0,0.0,1.1335616447465766,0.0,4.694738553674573,0.0,7471.383777322328,0.3250711874020534,110.58656550699045,2.1354678553541455,1.2218736521886417,101005.73884801619,287.9770353365467,0.1,0.0,0.0,403.158947368421,0.21637248159931274,0.86,nominal,6386.70792740556,nan,pitch_program,12.34,0.0,0.0,-3.6849944070978333,-0.0,0.0,-3.679575501128181,0.0,0.0,0.86,0.0,0.0,0.0,0.0,0.0,0.0,-0.06422070757040708,0.0,0.0,-0.06422070757040708,0.0,0.0,1.3199999999999998,1.0,20.09689295460593,0.03567348886726788,5.636255048903754,-0.0005986024000608491,0.021991920340548414,0.00022732488971947352,20.872320187343586,0.022001240003778687,1.0,0.0,120.33114158557544,-0.9886792019865726,28.337162227148873,109.52003582753765,-0.10364898284714909,3.212357576609582,1.0,26.45665708565846,0.0,1.0,111.11509347256884,7360.76052085914,1.0,1.0,1.6927284296326035,19.252025646139757,-0.030682723420617862,-43.88650063017163,1.0,26.60709508054654,1.0,0.013162503591316774,4.138291223970827,0.9334751294410456,1.0,-0.7218941598180079,6.431475239787936
1.3499999999999999,132.5980376737349,0.0,26.70187916334462,111.22522524096921,0.0,3.0643646587625297,111.26743036785835,17.71634981480499,0.0,6.280247535350031,0.0,0.0,1.107822727433868,0.0,4.700672079661287,0.0,7550.016485353485,0.32677910068333044,111.16746833322243,2.135044872023804,1.2218628619416039,101004.63729156638,287.97643778543824,0.1,0.0,0.0,403.125,0.2163542622930144,0.86,nominal,6452.076513630317,nan,pitch_program,12.325,0.0,0.0,-3.6923979511015537,-0.0,0.0,-3.687268971112205,0.0,0.0,0.86,0.0,0.0,0.0,0.0,0.0,0.0,-0.06435498395253166,0.0,0.0,-0.06435498395253166,0.0,0.0,1.3499999999999999,1.0,20.13987855119308,-0.08324399002846977,5.722777574874072,-0.002692286164653651,0.0209790816727802,0.00011597472438910492,20.937330794305286,0.02115144729710628,1.0,0.0,120.33114158557544,-0.9886792019865726,28.337162227148873,109.52003582753765,-0.10364898284714909,3.212357576609582,1.0,26.45665708565846,0.0,1.0,110.40037627347456,7531.738900753442,1.0,1.0,1.6927284296326035,19.252025646139757,-0.030682723420617862,-43.88650063017163,1.0,26.60709508054654,1.0,0.013162503591316774,4.138291223970827,0.9334751294410456,1.0,-0.7218941598180079,6.431475239787936
1.38,135.9522534265068,0.0,26.792074683247957,111.80719175906265,0.0,3.0065173301112047,111.84760737496384,17.7098591869362,0.0,6.247783899781253,0.0,0.0,1.0821212145755674,0.0,4.706082103797308,0.0,7628.962038741055,0.3284848722259285,111.7476435418316,2.1346372096761073,1.221852275457544,101003.55653912514,287.9758515145589,0.1,0.0,0.0,403.0910526315789,0.21633604298671602,0.86,nominal,6517.6841369445065,nan,pitch_program,12.31,0.0,0.0,-3.699389538993616,-0.0,0.0,-3.6945413118410517,0.0,0.0,0.86,0.0,0.0,0.0,0.0,0.0,0.0,-0.06448191024257692,0.0,0.0,-0.06448191024257692,0.0,0.0,1.38,1.0,20.06870008250669,0.016192227366680224,5.774254946467155,0.000628780306154169,0.019023443994437752,0.0021791237596503594,20.88288786007892,0.01915816709507436,1.0,0.0,120.33114158557544,-0.9886792019865726,28.337162227148873,109.52003582753765,-0.10364898284714909,3.212357576609582,1.0,26.634060443187824,0.0,1.0,111.70632289726635,7740.5801200394335,1.0,1.0,0.008506569961628012,19.314692997973076,-0.03420361459673876,-43.93043773087774,1.0,26.970071396846947,1.0,-0.0009266132384222408,4.168130871017634,0.9330198132918801,1.0,-0.06537621353699231,6.826651467185501
1.41,139.3239033261602,0.0,26.880586177594928,112.38832998844742,0.0,2.9503831448990816,112.4270495845811,17.703369105646598,0.0,6.216088912218828,0.0,0.0,1.0564996123558303,0.0,4.710984894021222,0.0,7708.217912008731,0.3301884813091108,112.32708405498722,2.1342447662541453,1.2218418867001857,101002.49597433627,287.9752761898456,0.1,0.0,0.0,403.0571052631579,0.2163178236804177,0.86,nominal,6583.529239585439,nan,pitch_program,12.295,0.0,0.0,-3.7059806786281335,-0.0,0.0,-3.701404931913301,0.0,0.0,0.86,0.0,0.0,0.0,0.0,0.0,0.0,-0.06460170301144363,0.0,0.0,-0.06460170301144363,0.0,0.0,1.41,1.0,20.134701029871632,-0.07625831548021851,5.780678878838599,-0.003819351200820914,0.015016018415579778,-0.0006470055900708794,20.94822782941899,0.015507639049379055,1.0,0.0,120.33114158557544,-0.9886792019865726,28.337162227148873,109.52003582753765,-0.10364898284714909,3.212357576609582,1.0,26.634060443187824,0.0,1.0,112.33777742778291,7637.880805912894,1.0,1.0,0.008506569961628012,19.314692997973076,-0.03420361459673876,-43.93043773087774,1.0,26.970071396846947,1.0,-0.0009266132384222408,4.168130871017634,0.9330198132918801,1.0,-0.06537621353699231,6.826651467185501
1.44,142.71296243294591,0.0,26.96746516164382,112.96863689285657,0.0,2.8959661349630297,113.00575003638056,17.696879570936186,0.0,6.18515909526617,0.0,0.0,1.0309939234590586,0.0,4.715395263023014,0.0,7787.781575845871,0.3318899075471852,112.90578290728229,2.1338674215811935,1.2218316896192896,101001.4549794253,287.9747114764493,0.1,0.0,0.0,403.02315789473687,0.21629960437411935,0.86,nominal,6649.610262869897,nan,pitch_program,12.28,0.0,0.0,-3.7121818589164675,-0.0,0.0,-3.707871088115201,0.0,0.0,0.86,0.0,0.0,0.0,0.0,0.0,0.0,-0.06471455872711504,0.0,0.0,-0.06471455872711504,0.0,0.0,1.44,1.0,20.14066799952269,0.027761547359216102,5.863932335121313,-0.00031388330610222076,0.017505292028610914,0.001718790116999069,20.97696309291196,0.017592271348609086,1.0,0.0,120.33114158557544,-0.9886792019865726,28.337162227148873,109.52003582753765,-0.10364898284714909,3.212357576609582,1.0,27.281256354430756,0.0,1.0,113.2672472260336,7672.607562901513,1.0,1.0,1.430724974756069,19.377361247409578,0.04184226310548753,-43.891141358056075,1.0,26.775850727932074,1.0,0.00636477619432341,4.187945744583703,0.9325813370958904,1.0,-0.3017590074810985,5.802247453929851
1.47,146.11940571518306,0.0,27.05276326716145,113.54810940790495,0.0,2.843270183920995,113.58370189181335,17.690390582804962,0.0,6.154990060552928,0.0,0.0,1.005634513676052,0.0,4.719326770429329,0.0,7867.650498878392,0.33358913091769926,113.48373325532935,2.133505037646007,1.2218216781511675,101000.43293525193,287.97415703876345,0.1,0.0,0.0,402.9892105263158,0.21628138506782096,0.86,nominal,6715.925648618071,nan,pitch_program,12.265,0.0,0.0,-3.7180026723244524,-0.0,0.0,-3.713950038640752,0.0,0.0,0.86,0.0,0.0,0.0,0.0,0.0,0.0,-0.06482065642885175,0.0,0.0,-0.06482065642885175,0.0,0.0,1.47,1.0,20.00235229450685,-0.014612581059159788,5.990068376290178,0.0003055854345507461,0.01782533163825314,-0.0003411062948706504,20.88001987531909,0.017831213754983657,1.0,0.0,145.77383457702203,-1.2389951447554337,26.845123148806817,113.82289287569645,-0.12167131273932834,3.206083252347167,1.0,27.281256354430756,0.0,1.0,113.28380987700007,7923.1157565237945,1.0,1.0,1.430724974756069,19.377361247409578,0.04184226310548753,-43.891141358056075,1.0,26.775850727932074,1.0,0.00636477619432341,4.187945744583703,0.9325813370958904,1.0,-0.3017590074810985,5.802247453929851
