time_s,sensor_time_s,imu_valid,imu_ax_mps2,imu_ay_mps2,imu_az_mps2,gyro_p_rps,gyro_q_rps,gyro_r_rps,imu_accel_norm_mps2,imu_gyro_norm_rps,gps_valid,gps_latency_s,gps_x_m,gps_y_m,gps_z_m,gps_vx_mps,gps_vy_mps,gps_vz_mps,baro_valid,baro_alt_m,baro_bias_m,pitot_valid,pitot_airspeed_mps,pitot_qbar_pa,pitot_compressibility_factor,mag_valid,mag_heading_deg,mag_x_ut,mag_y_ut,mag_z_ut,radar_valid,radar_agl_m,optical_flow_valid,optical_flow_x_radps,optical_flow_y_radps,optical_flow_quality,horizon_valid,horizon_roll_deg,horizon_pitch_deg
0.0,0.0,1.0,17.092684802550952,-0.04331266066330364,0.17133629194414204,0.0016677683591043149,0.0011681274632859406,0.0012765720485123657,17.09359838860347,0.00240324973008537,1.0,0.0,-1.885154541229685,1.8645638091475825,21.162662438547994,85.32748210022089,0.18147237523479218,7.846341299741817,1.0,20.771163472887363,0.0,1.0,85.52743876012808,4455.110504654227,1.0,1.0,-0.8198733225718878,19.523475325297145,-0.00615746722134172,-43.81279554351524,1.0,20.39618647858491,1.0,-0.0077448575321814855,4.273240466216326,0.95,1.0,0.17459483210835952,5.697481511065039
0.03,0.03,1.0,17.399563908154988,-0.024205067786461216,0.6245037421297015,0.001972178925766813,-0.15516674912873246,0.0016995476198838452,17.410784445372077,0.1551885884561313,1.0,0.0,-1.885154541229685,1.8645638091475825,21.162662438547994,85.32748210022089,0.18147237523479218,7.846341299741817,1.0,20.771163472887363,0.0,1.0,85.34892133282018,4483.358861672386,1.0,1.0,-0.8198733225718878,19.523475325297145,-0.00615746722134172,-43.81279554351524,1.0,20.39618647858491,1.0,-0.0077448575321814855,4.273240466216326,0.95,1.0,0.17459483210835952,5.697481511065039
0.06,0.06,1.0,17.700137184738395,-0.048625240197861,1.2138343200680939,-0.003446139225741984,-0.22021576643134108,-0.00034689119184351384,17.741775968857183,0.2202430021453693,1.0,0.0,-1.885154541229685,1.8645638091475825,21.162662438547994,85.32748210022089,0.18147237523479218,7.846341299741817,1.0,20.525963396210603,0.0,1.0,85.83866806318858,4515.428198159397,1.0,1.0,0.07665381874344163,19.002108910043237,-0.026858555853548426,-44.03812323241756,1.0,20.4443132768378,1.0,0.00018197912592243334,4.219022449652482,0.9488516824134805,1.0,-0.15907090264631085,6.462553049278621
0.09,0.09,1.0,17.961388064144753,-0.01094183278357201,1.5539371777813669,0.0004011470069548937,-0.1796088276112772,0.0025448602353110453,18.02848583955395,0.17962730357168963,1.0,0.0,-1.885154541229685,1.8645638091475825,21.162662438547994,85.32748210022089,0.18147237523479218,7.846341299741817,1.0,20.525963396210603,0.0,1.0,87.13082775381743,4633.288543943164,1.0,1.0,0.07665381874344163,19.002108910043237,-0.026858555853548426,-44.03812323241756,1.0,20.4443132768378,1.0,0.00018197912592243334,4.219022449652482,0.9488516824134805,1.0,-0.15907090264631085,6.462553049278621
0.12,0.12,1.0,18.21829810282599,-0.01413003862604277,1.7634873583698867,0.0017811967641120853,-0.10346891431881361,-0.0028376729027249836,18.30345522256809,0.10352314369129897,1.0,0.0,-1.885154541229685,1.8645638091475825,21.162662438547994,85.32748210022089,0.18147237523479218,7.846341299741817,1.0,20.83529658613723,0.0,1.0,87.16307702335955,4701.776117674358,1.0,1.0,-1.8951218293581098,18.641446361920053,-0.005790965511073151,-44.16605659411348,1.0,20.159613426498737,1.0,-0.013840283315854317,4.180354276370858,0.9477631964740618,1.0,0.28335723464815654,7.733110422146698
0.15,0.15,1.0,18.516821813157364,-0.03605765477427094,1.9058459830597931,-0.00013304420042076212,-0.05550342377606833,-0.0016289172586783655,18.61467805592762,0.05552748079159285,1.0,0.0,-1.885154541229685,1.8645638091475825,21.162662438547994,85.32748210022089,0.18147237523479218,7.846341299741817,1.0,20.83529658613723,0.0,1.0,87.43775343758583,4728.7738097305655,1.0,1.0,-1.8951218293581098,18.641446361920053,-0.005790965511073151,-44.16605659411348,1.0,20.159613426498737,1.0,-0.013840283315854317,4.180354276370858,0.9477631964740618,1.0,0.28335723464815654,7.733110422146698
0.18,0.18,1.0,18.725875435762575,-0.04780444576139571,2.0644124873912055,0.00013974800767314763,-0.04314311322855691,-0.0008869940367906495,18.83938680049931,0.04315245655787204,1.0,0.0,-1.885154541229685,1.8645638091475825,21.162662438547994,85.32748210022089,0.18147237523479218,7.846341299741817,1.0,20.083368140686378,0.0,1.0,87.9274395628854,4831.822909025133,1.0,1.0,-0.5428950996559269,18.543801165891097,0.02966309435753329,-44.29957382061814,1.0,21.36289477121322,1.0,0.006974051956994979,4.137679149220372,0.94672684762536,1.0,-0.5040599611879599,6.9335451798726115
0.21,0.21,1.0,19.019328591443234,0.06045326675660328,2.2376387275227057,-0.0011844703614280934,-0.038529172192415695,0.0010356537480328346,19.150601602604056,0.0385612844515809,1.0,0.0,18.158013233676446,-0.8507156713177079,22.530451462123022,88.78389253569503,-0.10696639449047544,6.725076832854957,1.0,20.083368140686378,0.0,1.0,88.70643832116538,4822.18354769566,1.0,1.0,-0.5428950996559269,18.543801165891097,0.02966309435753329,-44.29957382061814,1.0,21.36289477121322,1.0,0.006974051956994979,4.137679149220372,0.94672684762536,1.0,-0.5040599611879599,6.9335451798726115
0.24,0.24,1.0,19.320461325427612,-0.05931437453800777,2.4517602908023877,0.0004014737785476082,-0.036632947413726406,0.0011573760834501412,19.475494154088267,0.03665342462595068,1.0,0.0,18.158013233676446,-0.8507156713177079,22.530451462123022,88.78389253569503,-0.10696639449047544,6.725076832854957,1.0,22.18845235475031,0.0,1.0,89.35119915519657,4879.543916164063,1.0,1.0,-0.9874075351661772,18.47127558281517,-0.01105574941250553,-44.367028687239376,1.0,21.60091023212176,1.0,0.015553992101837083,4.12454733227962,0.9457384958093028,1.0,-0.5929147826834491,7.380231104193403
0.27,0.27,1.0,19.532870641218416,-0.02835453910261265,2.607829090082322,0.0019072580176267414,-0.024088372265605812,-0.002090558849283284,19.706207449165344,0.02425402539486024,1.0,0.0,18.158013233676446,-0.8507156713177079,22.530451462123022,88.78389253569503,-0.10696639449047544,6.725076832854957,1.0,22.18845235475031,0.0,1.0,90.02137224052923,4949.986832354819,1.0,1.0,-0.9874075351661772,18.47127558281517,-0.01105574941250553,-44.367028687239376,1.0,21.60091023212176,1.0,0.015553992101837083,4.12454733227962,0.9457384958093028,1.0,-0.5929147826834491,7.380231104193403
0.3,0.3,1.0,19.91506472837825,-0.023144794989114953,2.7400654661713597,-0.0006483740193760299,-0.016150728583730012,0.0011196854561373627,20.1026937890407,0.016202472594483874,1.0,0.0,18.158013233676446,-0.8507156713177079,22.530451462123022,88.78389253569503,-0.10696639449047544,6.725076832854957,1.0,22.088791711842646,0.0,1.0,90.29031125735716,5021.575860342234,1.0,1.0,-0.032100222264470346,18.311082626102312,-0.006038005167106243,-44.362934028296515,1.0,21.919418773399823,1.0,0.0042634016461290366,4.089360898750797,0.9447939265177794,1.0,0.49262759900427344,8.086788412183022
0.32999999999999996,0.32999999999999996,1.0,20.15700013697873,-0.05396740755448139,2.910201112495088,-0.0008335127957680589,-0.004035783664397059,0.0009767482210283772,20.366070743233863,0.004235130512015579,1.0,0.0,18.158013233676446,-0.8507156713177079,22.530451462123022,88.78389253569503,-0.10696639449047544,6.725076832854957,1.0,22.088791711842646,0.0,1.0,90.77948196649757,5060.902202582593,1.0,1.0,-0.032100222264470346,18.311082626102312,-0.006038005167106243,-44.362934028296515,1.0,21.919418773399823,1.0,0.0042634016461290366,4.089360898750797,0.9447939265177794,1.0,0.49262759900427344,8.086788412183022
0.36,0.36,1.0,20.548952731489454,0.04056869726443273,2.977980909028134,-0.0017116473741721086,0.0006923513978104351,0.0002472742290717788,20.76365754087467,0.0018628558011621243,1.0,0.0,18.158013233676446,-0.8507156713177079,22.530451462123022,88.78389253569503,-0.10696639449047544,6.725076832854957,1.0,23.00722363382876,0.0,1.0,91.28036504580135,5113.026238256392,1.0,1.0,0.24703569469091746,18.42172987599065,0.05777323077028381,-44.38775494437314,1.0,22.242254786806505,1.0,0.008474791280591054,4.084202903793499,0.9438895191033823,1.0,-0.12522865530984933,7.28418948547348
0.39,0.39,1.0,20.820224194862327,-0.03998306635079582,3.1159323802573335,-0.004200210305302578,0.005216694904253347,0.0021403138457621635,21.052134541852556,0.007031117670128557,1.0,0.0,18.158013233676446,-0.8507156713177079,22.530451462123022,88.78389253569503,-0.10696639449047544,6.725076832854957,1.0,23.00722363382876,0.0,1.0,91.43133749348625,5168.715229954856,1.0,1.0,0.24703569469091746,18.42172987599065,0.05777323077028381,-44.38775494437314,1.0,22.242254786806505,1.0,0.008474791280591054,4.084202903793499,0.9438895191033823,1.0,-0.12522865530984933,7.28418948547348
0.42,0.42,1.0,20.86467148612863,-0.028261817516269515,3.2532329459487728,-4.435109278206495e-05,0.009921552475509146,0.001005012113417697,21.116790465291,0.00997242296996216,1.0,0.0,38.98539685891587,0.8561697855581142,23.119619000829072,92.79598712585309,-0.01429878191719496,5.70991649133336,1.0,23.190008454600367,0.0,1.0,93.04186998681955,5271.233453524726,1.0,1.0,1.0151129233973093,18.37766367006589,0.018258774712861983,-44.301989716486574,1.0,22.725040340810274,1.0,0.016688064665782515,4.059202319315206,0.9430223273535878,1.0,0.4032278623625569,7.103444025721946
0.44999999999999996,0.44999999999999996,1.0,20.894873062455524,0.03480239865722864,3.366117750343068,0.003273383298076893,0.014375413123617653,0.0006495057299919682,21.16430202516153,0.014757689466312124,1.0,0.0,38.98539685891587,0.8561697855581142,23.119619000829072,92.79598712585309,-0.01429878191719496,5.70991649133336,1.0,23.190008454600367,0.0,1.0,93.03310456938786,5374.007322472274,1.0,1.0,1.0151129233973093,18.37766367006589,0.018258774712861983,-44.301989716486574,1.0,22.725040340810274,1.0,0.016688064665782515,4.059202319315206,0.9430223273535878,1.0,0.4032278623625569,7.103444025721946
0.48,0.48,1.0,20.84959271639529,0.012525986310875077,3.4452465674328043,-0.0009259558692904829,0.015725133155316835,0.002863435715449263,21.13233061567758,0.01601051126981361,1.0,0.0,38.98539685891587,0.8561697855581142,23.119619000829072,92.79598712585309,-0.01429878191719496,5.70991649133336,1.0,24.519603284115185,0.0,1.0,93.90442552196764,5349.063185242152,1.0,1.0,-0.341560527222041,18.39064385162914,-0.01746976429002118,-44.30601828388971,1.0,23.276253708063958,1.0,0.007915542794734144,4.076453688004008,0.9421899699237413,1.0,0.636746191090788,7.775806642439461
0.51,0.51,1.0,20.79750992257607,0.06853486531179354,3.6062667421127776,0.0007061520466158617,0.01889925096372319,-0.0019268357040249766,21.107967117244666,0.019010340174048363,1.0,0.0,38.98539685891587,0.8561697855581142,23.119619000829072,92.79598712585309,-0.01429878191719496,5.70991649133336,1.0,24.519603284115185,0.0,1.0,93.66099509127417,5470.630921404189,1.0,1.0,-0.341560527222041,18.39064385162914,-0.01746976429002118,-44.30601828388971,1.0,23.276253708063958,1.0,0.007915542794734144,4.076453688004008,0.9421899699237413,1.0,0.636746191090788,7.775806642439461
0.54,0.54,1.0,20.810566772012592,-0.011959623866143985,3.678240943667289,0.00258475109658373,0.02134170999215602,-0.000786372376342729,21.133132490112963,0.021512040933738895,1.0,0.0,38.98539685891587,0.8561697855581142,23.119619000829072,92.79598712585309,-0.01429878191719496,5.70991649133336,1.0,23.620785211336695,0.0,1.0,94.90411436060414,5528.24502052757,1.0,1.0,0.6010780516446778,18.454066190746822,-0.00910350250981173,-44.24141514715296,1.0,23.637559756148082,1.0,-0.0028495226081697673,4.045132157377557,0.9413907769895243,1.0,0.0064165621930257054,7.2414942249016185
0.57,0.57,1.0,20.78668214845597,0.012149172236429435,3.725910923744391,0.0034063518963941427,0.023965623776483706,-0.0048126073959461535,21.117971364574817,0.024680266331333314,1.0,0.0,38.98539685891587,0.8561697855581142,23.119619000829072,92.79598712585309,-0.01429878191719496,5.70991649133336,1.0,23.620785211336695,0.0,1.0,96.23470972270887,5645.270102547696,1.0,1.0,0.6010780516446778,18.454066190746822,-0.00910350250981173,-44.24141514715296,1.0,23.637559756148082,1.0,-0.0028495226081697673,4.045132157377557,0.9413907769895243,1.0,0.0064165621930257054,7.2414942249016185
0.6,0.6,1.0,20.779284500605975,0.03723658218695693,3.8645115269823855,-0.00218884881802764,0.027039333313925593,0.0005021721522843135,21.135621596308834,0.027132430449192665,1.0,0.0,38.98539685891587,0.8561697855581142,23.119619000829072,92.79598712585309,-0.01429878191719496,5.70991649133336,1.0,23.95326830843895,0.0,1.0,96.49830551528322,5711.829207470296,1.0,1.0,-2.0884129315731466,18.54420426823672,-0.05198653732366435,-44.31775583701549,1.0,23.328355961765503,1.0,0.0059601927122216744,4.048864039228061,0.9406233168637649,1.0,-0.031199227627410092,7.231518287821654
0.63,0.63,1.0,20.749433473258126,0.0482501784753116,3.957679698507784,0.000997562163779802,0.02151309699083717,0.0018119332194381364,21.123554296965942,0.021612301460036037,1.0,0.0,57.7128066088826,-1.4405247638228156,24.369866166253214,97.22489978947891,0.11105817103984193,4.929559760508672,1.0,23.95326830843895,0.0,1.0,97.25894557566006,5755.025657055578,1.0,1.0,-2.0884129315731466,18.54420426823672,-0.05198653732366435,-44.31775583701549,1.0,23.328355961765503,1.0,0.0059601927122216744,4.048864039228061,0.9406233168637649,1.0,-0.031199227627410092,7.231518287821654
0.6599999999999999,0.6599999999999999,1.0,20.649629234508595,0.01932912714719676,3.971830740496994,0.0011141667637941386,0.020605270818846666,0.002382543117453245,21.02814781593912,0.02077245928632624,1.0,0.0,57.7128066088826,-1.4405247638228156,24.369866166253214,97.22489978947891,0.11105817103984193,4.929559760508672,1.0,23.986480793356716,0.0,1.0,98.29939947960365,5682.196609884511,1.0,1.0,-1.670335623109286,18.655917741876628,0.0066186895430424015,-44.238065787747914,1.0,24.086154579886536,1.0,0.005384943889153253,4.042955595189771,0.9398862914094496,1.0,-0.05654672738215016,7.658270449910163
0.69,0.69,1.0,20.68530741629272,0.03405703130360546,4.136062017606935,-0.00024342411824013636,0.025513926538160963,0.002091143341679508,21.0947887356429,0.02560063638215788,1.0,0.0,57.7128066088826,-1.4405247638228156,24.369866166253214,97.22489978947891,0.11105817103984193,4.929559760508672,1.0,23.986480793356716,0.0,1.0,97.47907343471095,5905.613226662565,1.0,1.0,-1.670335623109286,18.655917741876628,0.0066186895430424015,-44.238065787747914,1.0,24.086154579886536,1.0,0.005384943889153253,4.042955595189771,0.9398862914094496,1.0,-0.05654672738215016,7.658270449910163
0.72,0.72,1.0,20.62343474616183,-0.007930072127170567,4.220076992449332,0.0025088031883426986,0.025305218021958776,-0.0021429161886015883,21.050776076844276,0.025519409130465315,1.0,0.0,57.7128066088826,-1.4405247638228156,24.369866166253214,97.22489978947891,0.11105817103984193,4.929559760508672,1.0,23.585407810748197,0.0,1.0,98.7067074942813,5950.696401220422,1.0,1.0,0.2874945668536168,18.61757718128722,-0.004236792949381907,-44.19967969703629,1.0,24.906286799284814,1.0,0.005990995406906327,4.059721281660511,0.9391785039369872,1.0,-0.44453082773386493,6.770511814339074
0.75,0.75,1.0,20.575641199170693,0.011625204899593356,4.213832159148241,0.0011903280909354376,0.029166647182111195,0.0013521571613500842,21.002702858629203,0.02922222643466468,1.0,0.0,57.7128066088826,-1.4405247638228156,24.369866166253214,97.22489978947891,0.11105817103984193,4.929559760508672,1.0,23.585407810748197,0.0,1.0,99.8413223892328,6023.55284760994,1.0,1.0,0.2874945668536168,18.61757718128722,-0.004236792949381907,-44.19967969703629,1.0,24.906286799284814,1.0,0.005990995406906327,4.059721281660511,0.9391785039369872,1.0,-0.44453082773386493,6.770511814339074
0.78,0.78,1.0,20.581075204057438,-0.06683260163433906,4.31992601135728,0.0007836953734760417,0.024815663464197012,-0.0002538655740981199,21.029666756639543,0.02482933304252054,1.0,0.0,57.7128066088826,-1.4405247638228156,24.369866166253214,97.22489978947891,0.11105817103984193,4.929559760508672,1.0,23.549545917933912,0.0,1.0,100.05520796567852,6199.425232755929,1.0,1.0,0.02320020698432135,18.758217994930117,0.020512500027092834,-44.22401804382297,1.0,24.407770687396944,1.0,0.02958593775135763,4.059778854018572,0.9384988279123025,1.0,-0.3641198977541506,6.510870408659442
0.8099999999999999,0.8099999999999999,1.0,20.61760669793877,-0.01909293271997271,4.470630575852999,0.001127163187817565,0.025029848847661396,0.0027680952868012225,21.096744019794173,0.025207661170873405,1.0,0.0,57.7128066088826,-1.4405247638228156,24.369866166253214,97.22489978947891,0.11105817103984193,4.929559760508672,1.0,23.549545917933912,0.0,1.0,99.78727907395118,6136.267468847316,1.0,1.0,0.02320020698432135,18.758217994930117,0.020512500027092834,-44.22401804382297,1.0,24.407770687396944,1.0,0.02958593775135763,4.059778854018572,0.9384988279123025,1.0,-0.3641198977541506,6.510870408659442
0.84,0.84,1.0,20.506329065050142,0.05166430092585032,4.452437033348909,0.0012661216670166629,0.02931964787359108,-5.870225580505489e-05,20.98419396736618,0.029347031561333413,1.0,0.0,77.86158947365509,0.11040984545368764,24.966427411642673,101.21638130698646,0.017043018975863612,4.254563988142662,1.0,26.007841652600305,0.0,1.0,100.95771893601636,6276.015791311323,1.0,1.0,-0.2524767918030103,18.706343936415603,0.042477749502781575,-44.15407616973251,1.0,24.689890309321868,1.0,-0.015716378217716927,4.0651784072563135,0.9378461844122523,1.0,0.559642409700591,7.382179636812274
0.87,0.87,1.0,20.47079536936631,-0.0032009294677551336,4.562803559045264,-0.0007627910474587565,0.024996789551695264,0.001423801640237294,20.97314114811739,0.025048923114269147,1.0,0.0,77.86158947365509,0.11040984545368764,24.966427411642673,101.21638130698646,0.017043018975863612,4.254563988142662,1.0,26.007841652600305,0.0,1.0,101.55192221775714,6269.918961406268,1.0,1.0,-0.2524767918030103,18.706343936415603,0.042477749502781575,-44.15407616973251,1.0,24.689890309321868,1.0,-0.015716378217716927,4.0651784072563135,0.9378461844122523,1.0,0.559642409700591,7.382179636812274
0.8999999999999999,0.8999999999999999,1.0,20.502461388676313,-0.010573689704318741,4.58904116260783,0.00044742135249231185,0.02515310256315114,0.00382627890876341,21.009767575801167,0.025446397872915416,1.0,0.0,77.86158947365509,0.11040984545368764,24.966427411642673,101.21638130698646,0.017043018975863612,4.254563988142662,1.0,25.09827719613663,0.0,1.0,101.85095059104913,6538.613433747783,1.0,1.0,-2.017714388591032,18.93611251002108,-0.03530780576572019,-44.07797326723544,1.0,25.252452865810096,1.0,0.0004759712891396072,4.067189904989189,0.937219526612408,1.0,0.18807463782397235,6.636711649534319
0.9299999999999999,0.9299999999999999,1.0,20.44555991497053,-0.03394187802056017,4.649167603521905,-0.0007921764512016805,0.026105115562415484,-0.001474918900734763,20.967518491547132,0.02615874591452446,1.0,0.0,77.86158947365509,0.11040984545368764,24.966427411642673,101.21638130698646,0.017043018975863612,4.254563988142662,1.0,25.09827719613663,0.0,1.0,102.85798589103219,6441.137704635225,1.0,1.0,-2.017714388591032,18.93611251002108,-0.03530780576572019,-44.07797326723544,1.0,25.252452865810096,1.0,0.0004759712891396072,4.067189904989189,0.937219526612408,1.0,0.18807463782397235,6.636711649534319
0.96,0.96,1.0,20.41897485436773,0.0403044881716855,4.793388840460516,0.005810731508932576,0.024280582442297215,-0.0017345670483146591,20.974096765556315,0.025026386220371344,1.0,0.0,77.86158947365509,0.11040984545368764,24.966427411642673,101.21638130698646,0.017043018975863612,4.254563988142662,1.0,25.07044297184343,0.0,1.0,103.06274684236907,6567.467622616583,1.0,1.0,0.32106353464181236,18.971035224490926,0.01749869089294133,-44.125517917786404,1.0,25.502016765330325,1.0,0.008488511521670595,4.064196532691447,0.9366178277840197,1.0,-0.2852912671137542,6.553322792840239
0.99,0.99,1.0,20.492627044710236,0.02423630645272609,4.8580996435862565,-0.0014060586879246736,0.02468867930062795,0.003593470265315887,21.06061449101504,0.024988415619859795,1.0,0.0,77.86158947365509,0.11040984545368764,24.966427411642673,101.21638130698646,0.017043018975863612,4.254563988142662,1.0,25.07044297184343,0.0,1.0,103.46358650287428,6584.09865797424,1.0,1.0,0.32106353464181236,18.971035224490926,0.01749869089294133,-44.125517917786404,1.0,25.502016765330325,1.0,0.008488511521670595,4.064196532691447,0.9366178277840197,1.0,-0.2852912671137542,6.553322792840239
1.02,1.02,1.0,20.375969320351945,-0.003617189695431459,4.947624917225934,-0.0012687287302588265,0.024931956541298945,0.0009741654625859581,20.96805024673348,0.02498321692490178,1.0,0.0,77.86158947365509,0.11040984545368764,24.966427411642673,101.21638130698646,0.017043018975863612,4.254563988142662,1.0,25.41338142079009,0.0,1.0,104.91077694171756,6823.607494010644,1.0,1.0,0.20716255069020592,18.981450278150653,-0.02774534788802444,-44.06799389651413,1.0,25.642861171624972,1.0,0.004000979885722656,4.1120110165877595,0.9360400729103924,1.0,-0.2350183702845472,6.3422659219845565
1.05,1.05,1.0,20.40895429421151,0.023065120251563386,4.9883978967036695,-0.0009619480502852831,0.02516650283589841,-0.000216186253064102,21.009761087618877,0.025185808415390285,1.0,0.0,100.9473503229966,-0.5143213134600304,25.15787341990963,105.47139763104354,-0.10413279965858194,3.7227836230377847,1.0,25.41338142079009,0.0,1.0,104.96905022001252,6680.610751392365,1.0,1.0,0.20716255069020592,18.981450278150653,-0.02774534788802444,-44.06799389651413,1.0,25.642861171624972,1.0,0.004000979885722656,4.1120110165877595,0.9360400729103924,1.0,-0.2350183702845472,6.3422659219845565
1.08,1.08,1.0,20.321294039568585,-0.022853924830118926,5.130191274785728,6.010971362783861e-05,0.023405722534243195,0.0015833385952579505,20.958873449218913,0.02345929286306144,1.0,0.0,100.9473503229966,-0.5143213134600304,25.15787341990963,105.47139763104354,-0.10413279965858194,3.7227836230377847,1.0,26.223712855841075,0.0,1.0,105.73013827839722,6845.46423874033,1.0,1.0,0.7264451323418568,19.07287542512292,-0.02658840919779483,-43.997158490105065,1.0,25.750540517973636,1.0,-0.0045325187658295995,4.104913467332576,0.9354852526561428,1.0,-0.808246265656688,6.678913953652309
1.1099999999999999,1.1099999999999999,1.0,20.35614846867842,-0.051319635676952136,5.178758269819865,-0.0009535318708432641,0.023524290155000394,0.002824344071052272,21.004641187154625,0.023712409615158272,1.0,0.0,100.9473503229966,-0.5143213134600304,25.15787341990963,105.47139763104354,-0.10413279965858194,3.7227836230377847,1.0,26.223712855841075,0.0,1.0,107.02037398565956,6972.346077769792,1.0,1.0,0.7264451323418568,19.07287542512292,-0.02658840919779483,-43.997158490105065,1.0,25.750540517973636,1.0,-0.0045325187658295995,4.104913467332576,0.9354852526561428,1.0,-0.808246265656688,6.678913953652309
1.14,1.14,1.0,20.30524745089327,0.00532466447862414,5.198723058036072,0.00121304139877298,0.019034168098055304,0.0019481353936812015,20.960196178190113,0.01917201752899983,1.0,0.0,100.9473503229966,-0.5143213134600304,25.15787341990963,105.47139763104354,-0.10413279965858194,3.7227836230377847,1.0,26.738057226178928,0.0,1.0,106.86257402796107,6944.156877777225,1.0,1.0,-0.7598756353801139,19.145702319733175,0.06539829339394247,-44.065226891095485,1.0,26.073440226187998,1.0,0.0038094536017736326,4.114178945472816,0.934952359152179,1.0,-0.20272584193111715,6.823821313350375
1.17,1.17,1.0,20.215700195559464,-0.02730403298349267,5.225566430793969,-0.0008634720567739232,0.024234263387576865,-0.001090500165282645,20.880177787308252,0.02427414872949738,1.0,0.0,100.9473503229966,-0.5143213134600304,25.15787341990963,105.47139763104354,-0.10413279965858194,3.7227836230377847,1.0,26.738057226178928,0.0,1.0,107.738919730503,7003.312853693316,1.0,1.0,-0.7598756353801139,19.145702319733175,0.06539829339394247,-44.065226891095485,1.0,26.073440226187998,1.0,0.0038094536017736326,4.114178945472816,0.934952359152179,1.0,-0.20272584193111715,6.823821313350375
1.2,1.2,1.0,20.18875037803644,0.05991784686592215,5.422404621223266,-0.00012476373930662816,0.021115125351736392,-0.0010175630330780644,20.90434653011911,0.021139998087428336,1.0,0.0,100.9473503229966,-0.5143213134600304,25.15787341990963,105.47139763104354,-0.10413279965858194,3.7227836230377847,1.0,26.911799634477127,0.0,1.0,107.65732177478729,7188.353449883531,1.0,1.0,2.06342647402825,19.1838041395995,0.08539920361413032,-43.99967384618342,1.0,26.46872745279064,1.0,-5.519108586433316e-05,4.1199266853992444,0.9344403831505427,1.0,-0.11770425331794655,6.05565516970023
1.23,1.23,1.0,20.23698805081427,-0.0034837575534648673,5.420004118805516,0.0002589862009826061,0.02196957634732275,0.0025757760128478453,20.950230121725035,0.02212157274701564,1.0,0.0,100.9473503229966,-0.5143213134600304,25.15787341990963,105.47139763104354,-0.10413279965858194,3.7227836230377847,1.0,26.911799634477127,0.0,1.0,109.17530720964221,7279.702123995907,1.0,1.0,2.06342647402825,19.1838041395995,0.08539920361413032,-43.99967384618342,1.0,26.46872745279064,1.0,-5.519108586433316e-05,4.1199266853992444,0.9344403831505427,1.0,-0.11770425331794655,6.05565516970023
1.26,1.26,1.0,20.227279526683617,0.00794684442405135,5.4840734822647486,-0.0014282419835606125,0.021282235563110197,-0.00016546531227039135,20.957527577503267,0.021330747865390992,1.0,0.0,120.33114158557544,-0.9886792019865726,28.337162227148873,109.52003582753765,-0.10364898284714909,3.212357576609582,1.0,25.69484462280109,0.0,1.0,110.0220741004842,7425.303606174224,1.0,1.0,0.9629097954391108,19.284103122984313,0.023134658006696746,-43.920924422628936,1.0,26.79441423764006,1.0,0.0006925181714708218,4.1315748856390275,0.9339483121775201,1.0,-0.16193324251844712,6.252650015189892
1.29,1.29,1.0,20.216455705039127,-0.049476832008403165,5.567261217172187,-0.003389608958674506,0.01908747933391801,-0.0003681181865630906,20.96907071596031,0.019389606164508653,1.0,0.0,120.33114158557544,-0.9886792019865726,28.337162227148873,109.52003582753765,-0.10364898284714909,3.212357576609582,1.0,25.69484462280109,0.0,1.0,109.9207263288937,7322.5673389370195,1.0,1.0,0.9629097954391108,19.284103122984313,0.023134658006696746,-43.920924422628936,1.0,26.79441423764006,1.0,0.0006925181714708218,4.1315748856390275,0.9339483121775201,1.0,-0.16193324251844712,6.252650015189892
1.3199999999999998,1.3199999999999998,1.0,20.09689295460593,0.03567348886726788,5.636255048903754,-0.0005986024000608491,0.021991920340548414,0.00022732488971947352,20.872320187343586,0.022001240003778687,1.0,0.0,120.33114158557544,-0.9886792019865726,28.337162227148873,109.52003582753765,-0.10364898284714909,3.212357576609582,1.0,26.45665708565846,0.0,1.0,111.11509347256884,7360.76052085914,1.0,1.0,1.6927284296326035,19.252025646139757,-0.030682723420617862,-43.88650063017163,1.0,26.60709508054654,1.0,0.013162503591316774,4.138291223970827,0.9334751294410456,1.0,-0.7218941598180079,6.431475239787936
1.3499999999999999,1.3499999999999999,1.0,20.13987855119308,-0.08324399002846977,5.722777574874072,-0.002692286164653651,0.0209790816727802,0.00011597472438910492,20.937330794305286,0.02115144729710628,1.0,0.0,120.33114158557544,-0.9886792019865726,28.337162227148873,109.52003582753765,-0.10364898284714909,3.212357576609582,1.0,26.45665708565846,0.0,1.0,110.40037627347456,7531.738900753442,1.0,1.0,1.6927284296326035,19.252025646139757,-0.030682723420617862,-43.88650063017163,1.0,26.60709508054654,1.0,0.013162503591316774,4.138291223970827,0.9334751294410456,1.0,-0.7218941598180079,6.431475239787936
1.38,1.38,1.0,20.06870008250669,0.016192227366680224,5.774254946467155,0.000628780306154169,0.019023443994437752,0.0021791237596503594,20.88288786007892,0.01915816709507436,1.0,0.0,120.33114158557544,-0.9886792019865726,28.337162227148873,109.52003582753765,-0.10364898284714909,3.212357576609582,1.0,26.634060443187824,0.0,1.0,111.70632289726635,7740.5801200394335,1.0,1.0,0.008506569961628012,19.314692997973076,-0.03420361459673876,-43.93043773087774,1.0,26.970071396846947,1.0,-0.0009266132384222408,4.168130871017634,0.9330198132918801,1.0,-0.06537621353699231,6.826651467185501
1.41,1.41,1.0,20.134701029871632,-0.07625831548021851,5.780678878838599,-0.003819351200820914,0.015016018415579778,-0.0006470055900708794,20.94822782941899,0.015507639049379055,1.0,0.0,120.33114158557544,-0.9886792019865726,28.337162227148873,109.52003582753765,-0.10364898284714909,3.212357576609582,1.0,26.634060443187824,0.0,1.0,112.33777742778291,7637.880805912894,1.0,1.0,0.008506569961628012,19.314692997973076,-0.03420361459673876,-43.93043773087774,1.0,26.970071396846947,1.0,-0.0009266132384222408,4.168130871017634,0.9330198132918801,1.0,-0.06537621353699231,6.826651467185501
1.44,1.44,1.0,20.14066799952269,0.027761547359216102,5.863932335121313,-0.00031388330610222076,0.017505292028610914,0.001718790116999069,20.97696309291196,0.017592271348609086,1.0,0.0,120.33114158557544,-0.9886792019865726,28.337162227148873,109.52003582753765,-0.10364898284714909,3.212357576609582,1.0,27.281256354430756,0.0,1.0,113.2672472260336,7672.607562901513,1.0,1.0,1.430724974756069,19.377361247409578,0.04184226310548753,-43.891141358056075,1.0,26.775850727932074,1.0,0.00636477619432341,4.187945744583703,0.9325813370958904,1.0,-0.3017590074810985,5.802247453929851
1.47,1.47,1.0,20.00235229450685,-0.014612581059159788,5.990068376290178,0.0003055854345507461,0.01782533163825314,-0.0003411062948706504,20.88001987531909,0.017831213754983657,1.0,0.0,145.77383457702203,-1.2389951447554337,26.845123148806817,113.82289287569645,-0.12167131273932834,3.206083252347167,1.0,27.281256354430756,0.0,1.0,113.28380987700007,7923.1157565237945,1.0,1.0,1.430724974756069,19.377361247409578,0.04184226310548753,-43.891141358056075,1.0,26.775850727932074,1.0,0.00636477619432341,4.187945744583703,0.9325813370958904,1.0,-0.3017590074810985,5.802247453929851
1.5,1.5,1.0,20.034988377582216,-0.05849183849588691,6.01370066087231,0.0005658666969142462,0.01769393514003081,0.001447673505714987,20.918144664945817,0.017762074891111198,1.0,0.0,145.77383457702203,-1.2389951447554337,26.845123148806817,113.82289287569645,-0.12167131273932834,3.206083252347167,1.0,27.038547612161864,0.0,1.0,114.30805038447475,8042.429015117796,1.0,1.0,-1.2019821554122339,19.469208618932242,0.031243065780116114,-43.83992293689629,1.0,27.129120862138542,1.0,0.0008202138454862203,4.187938161657156,0.9321586694079401,1.0,0.3489614714784054,6.205378805937914
1.53,1.53,1.0,20.00102260642731,-0.004045045969823648,6.155163124966006,0.003779395934551159,0.014474143838226197,0.000847128737547872,20.92670434540887,0.014983400834848632,1.0,0.0,145.77383457702203,-1.2389951447554337,26.845123148806817,113.82289287569645,-0.12167131273932834,3.206083252347167,1.0,27.038547612161864,0.0,1.0,114.74733634737275,7935.057008033339,1.0,1.0,-1.2019821554122339,19.469208618932242,0.031243065780116114,-43.83992293689629,1.0,27.129120862138542,1.0,0.0008202138454862203,4.187938161657156,0.9321586694079401,1.0,0.3489614714784054,6.205378805937914
1.56,1.56,1.0,19.996514908386846,0.06228828308165944,6.154511374138169,0.0019368357837205887,0.017180309968690965,-0.0016953108876864049,20.922296684779678,0.01737205982258036,1.0,0.0,145.77383457702203,-1.2389951447554337,26.845123148806817,113.82289287569645,-0.12167131273932834,3.206083252347167,1.0,27.26833310951578,0.0,1.0,115.0520016887233,8016.76492397243,1.0,1.0,0.7895691799827573,19.439106196426955,-0.08293977770278484,-43.84000798218845,1.0,27.390343187470187,1.0,0.002017349946885081,4.20660757883811,0.9317507743661038,1.0,-0.12955041479895812,5.206355381981859
1.5899999999999999,1.5899999999999999,1.0,19.901458836374992,-0.027721553808669343,6.25496574975671,0.0007793280462142175,0.012986387671840856,0.0014853473402726709,20.86129020053897,0.013094268734381898,1.0,0.0,145.77383457702203,-1.2389951447554337,26.845123148806817,113.82289287569645,-0.12167131273932834,3.206083252347167,1.0,27.26833310951578,0.0,1.0,115.73119505650591,8149.894523340244,1.0,1.0,0.7895691799827573,19.439106196426955,-0.08293977770278484,-43.84000798218845,1.0,27.390343187470187,1.0,0.002017349946885081,4.20660757883811,0.9317507743661038,1.0,-0.12955041479895812,5.206355381981859
1.6199999999999999,1.6199999999999999,1.0,19.97198963513318,-0.04133767912465263,6.337037497466246,-0.00022357653111030915,0.012912266245493322,-0.0008930185862735824,20.95328430184337,0.012945041068115606,1.0,0.0,145.77383457702203,-1.2389951447554337,26.845123148806817,113.82289287569645,-0.12167131273932834,3.206083252347167,1.0,27.981616928248133,0.0,1.0,116.79349381353919,8323.894054595854,1.0,1.0,0.2672245144087914,19.493302701021783,0.0836155907880831,-43.910508604509154,1.0,27.26786195240542,1.0,0.0016252355438096673,4.22252452747229,0.9313566122450729,1.0,0.2590999534225386,5.477346376553368
1.65,1.65,1.0,19.829269961753393,-0.03149770820662431,6.347576055836659,-0.00031166391982524196,0.018515268853529894,-0.0008708280710869574,20.82048657227656,0.018538356363140936,1.0,0.0,145.77383457702203,-1.2389951447554337,26.845123148806817,113.82289287569645,-0.12167131273932834,3.206083252347167,1.0,27.981616928248133,0.0,1.0,117.34620423328433,8264.022549622356,1.0,1.0,0.2672245144087914,19.493302701021783,0.0836155907880831,-43.910508604509154,1.0,27.26786195240542,1.0,0.0016252355438096673,4.22252452747229,0.9313566122450729,1.0,0.2590999534225386,5.477346376553368
1.68,1.68,1.0,19.93028430411442,0.0016834332470432795,6.551390149980141,0.0007375120723331163,0.014029153650707612,0.002200374561925831,20.979441083452006,0.014219800435476234,1.0,0.0,169.36572947703212,0.10467949366459839,25.790826081785234,117.4048921314802,-0.11996303888903753,2.525477958043245,1.0,28.205861679924396,0.0,1.0,117.94678343883588,8417.80258780357,1.0,1.0,0.21119975031304736,19.537192076673055,-0.05832704608835584,-43.82223261532593,1.0,27.788404433334197,1.0,-0.00543425822334291,4.235115947937206,0.9309751401228993,1.0,0.10699802367398142,5.772332035749013
1.71,1.71,1.0,19.73590500826075,-0.022542819924003258,6.534281926451448,0.0007828565490089715,0.011564904994868376,0.0008870477358788632,20.789499632462825,0.011625263248734866,1.0,0.0,169.36572947703212,0.10467949366459839,25.790826081785234,117.4048921314802,-0.11996303888903753,2.525477958043245,1.0,28.205861679924396,0.0,1.0,118.08484598699033,8637.482962463439,1.0,1.0,0.21119975031304736,19.537192076673055,-0.05832704608835584,-43.82223261532593,1.0,27.788404433334197,1.0,-0.00543425822334291,4.235115947937206,0.9309751401228993,1.0,0.10699802367398142,5.772332035749013
1.74,1.74,1.0,19.76516836632723,0.06386807782458512,6.543564508003405,0.0012293759769343958,0.016283545296521394,-0.0013421034472542188,20.820283287002354,0.016384945968164165,1.0,0.0,169.36572947703212,0.10467949366459839,25.790826081785234,117.4048921314802,-0.11996303888903753,2.525477958043245,1.0,27.727549001651823,0.0,1.0,118.62003633153748,8506.102684288235,1.0,1.0,0.35735351418991396,19.547872264306125,0.013098680850136067,-43.797192849382206,1.0,28.08824962345283,1.0,0.0041346211143124464,4.2682500194209085,0.9306053126266542,1.0,-0.07440528772314185,5.895463577372869
1.77,1.77,1.0,19.774195793129,0.008778923153284957,6.734062121405833,-0.002399117131381455,0.011265420169211207,-0.002344988067335383,20.889386994104093,0.011754336375776558,1.0,0.0,169.36572947703212,0.10467949366459839,25.790826081785234,117.4048921314802,-0.11996303888903753,2.525477958043245,1.0,27.727549001651823,0.0,1.0,119.505182344192,8750.491649863417,1.0,1.0,0.35735351418991396,19.547872264306125,0.013098680850136067,-43.797192849382206,1.0,28.08824962345283,1.0,0.0041346211143124464,4.2682500194209085,0.9306053126266542,1.0,-0.07440528772314185,5.895463577372869
1.7999999999999998,1.7999999999999998,1.0,19.770919509481423,-0.021217514946967615,6.764412214929249,-0.0006837096447960569,0.01012867396616976,0.001158210139002124,20.896099661104646,0.01021758023787626,1.0,0.0,169.36572947703212,0.10467949366459839,25.790826081785234,117.4048921314802,-0.11996303888903753,2.525477958043245,1.0,28.23253555232026,0.0,1.0,119.62089992085046,8581.21254062158,1.0,1.0,-2.254423487237513,19.565412636120282,0.015143301359906294,-43.77925844349656,1.0,27.917752260511687,1.0,-0.02474790865352522,4.28569725103351,0.9302460827311239,1.0,-0.23641239826435617,5.7748804427479525
1.8299999999999998,1.8299999999999998,1.0,19.718603747138292,0.033205225890756,6.847421455379401,7.149624547488423e-05,0.01429116750094302,0.0006277958355700721,20.87370635300001,0.0143051287258901,1.0,0.0,169.36572947703212,0.10467949366459839,25.790826081785234,117.4048921314802,-0.11996303888903753,2.525477958043245,1.0,28.23253555232026,0.0,1.0,119.98221814718917,8903.21431478739,1.0,1.0,-2.254423487237513,19.565412636120282,0.015143301359906294,-43.77925844349656,1.0,27.917752260511687,1.0,-0.02474790865352522,4.28569725103351,0.9302460827311239,1.0,-0.23641239826435617,5.7748804427479525
1.8599999999999999,1.8599999999999999,1.0,19.725051110694004,-0.014808011295835657,6.876381127657512,-0.0020288310169881587,0.009280733969295614,0.0005026141464205757,20.889290988673924,0.009513190804588794,1.0,0.0,169.36572947703212,0.10467949366459839,25.790826081785234,117.4048921314802,-0.11996303888903753,2.525477958043245,1.0,28.305812315422692,0.0,1.0,120.78878399830384,8953.229098747335,1.0,1.0,-0.38454546694159275,19.63897276436241,0.019967761008969995,-43.77258825808158,1.0,27.92482857288084,1.0,0.003225422314104629,4.299484522814748,0.9298964025910759,1.0,0.06865813693711625,6.248472025574803
1.89,1.89,1.0,19.672548320906653,-0.007213876384782036,6.974707146875551,-0.001675229689958972,0.011875867174552702,4.729491857227685e-05,20.872368079906423,0.011993533777459467,1.0,0.0,195.8940403458876,0.5803632647016573,28.405355561174108,121.73338844464134,-0.020949794872449978,2.069848677151816,1.0,28.305812315422692,0.0,1.0,121.61935126451938,8929.489696878813,1.0,1.0,-0.38454546694159275,19.63897276436241,0.019967761008969995,-43.77258825808158,1.0,27.92482857288084,1.0,0.003225422314104629,4.299484522814748,0.9298964025910759,1.0,0.06865813693711625,6.248472025574803
1.92,1.92,1.0,19.706406468990284,0.0009528939202755693,7.017111282705492,-2.475920507279969e-05,0.007424742874122004,0.0008898182702178508,20.918468098379996,0.007477913901555353,1.0,0.0,195.8940403458876,0.5803632647016573,28.405355561174108,121.73338844464134,-0.020949794872449978,2.069848677151816,1.0,27.310338734505752,0.0,1.0,122.1920059693316,9084.99410572219,1.0,1.0,0.027167083226558676,19.650342872124135,0.06485926045376163,-43.86136118818422,1.0,27.952894368050163,1.0,-0.01561150849108961,4.3337265708613115,0.9295552243924368,1.0,0.04638167746826721,6.582955312680825
1.95,1.95,1.0,19.67024291942256,-0.029418256994016394,7.100456381761141,0.0002499554068132249,0.01328862144466219,0.0006055810501484147,20.912575230521718,0.013304761028039166,1.0,0.0,195.8940403458876,0.5803632647016573,28.405355561174108,121.73338844464134,-0.020949794872449978,2.069848677151816,1.0,27.310338734505752,0.0,1.0,122.35160762252308,9253.86185488678,1.0,1.0,0.027167083226558676,19.650342872124135,0.06485926045376163,-43.86136118818422,1.0,27.952894368050163,1.0,-0.01561150849108961,4.3337265708613115,0.9295552243924368,1.0,0.04638167746826721,6.582955312680825
1.98,1.98,1.0,19.652583895881484,0.02372509537056146,7.144347051854496,-0.0022144301550635105,0.014312936038571717,0.00044669641978878404,20.91091369266663,0.014490113065375017,1.0,0.0,195.8940403458876,0.5803632647016573,28.405355561174108,121.73338844464134,-0.020949794872449978,2.069848677151816,1.0,29.047445707823446,0.0,1.0,123.31936144987965,9353.783389326987,1.0,1.0,0.22990760679561076,19.662324292617466,-0.030262560087283178,-43.749430742989794,1.0,28.233841128190868,1.0,-0.0008272722942451474,4.350624063094513,0.9292215012113232,1.0,0.5447030672880988,5.0718032234090975
2.01,2.01,1.0,19.568759800589145,0.008599499041272819,7.259755706026798,0.0002276717814214487,0.011092467697168588,0.00047190024471040166,20.872002467317937,0.011104835158332696,1.0,0.0,195.8940403458876,0.5803632647016573,28.405355561174108,121.73338844464134,-0.020949794872449978,2.069848677151816,1.0,29.047445707823446,0.0,1.0,123.9203038396764,9377.705022562634,1.0,1.0,0.22990760679561076,19.662324292617466,-0.030262560087283178,-43.749430742989794,1.0,28.233841128190868,1.0,-0.0008272722942451474,4.350624063094513,0.9292215012113232,1.0,0.5447030672880988,5.0718032234090975
2.04,2.04,1.0,19.53794767418692,0.00901287799253271,7.294087860592863,0.0012959509496534008,0.007886495866811127,-0.0010481736513931015,20.855100054166222,0.0080607055475691,1.0,0.0,195.8940403458876,0.5803632647016573,28.405355561174108,121.73338844464134,-0.020949794872449978,2.069848677151816,1.0,27.36322256487898,0.0,1.0,124.24244685360839,9532.928640841363,1.0,1.0,0.5174757826812354,19.72665223816369,0.022011415832582027,-43.739507786466824,1.0,28.217862246454207,1.0,-0.00815869616760906,4.364298180477474,0.9288941878725826,1.0,0.21326898200569677,5.8699449050051715
2.07,2.07,1.0,19.475699375129096,0.022062440982930705,7.3588731351629,-5.2136427482700744e-05,0.007720514486671171,-0.0012669380291954451,20.81961495131762,0.007823950032802594,1.0,0.0,195.8940403458876,0.5803632647016573,28.405355561174108,121.73338844464134,-0.020949794872449978,2.069848677151816,1.0,27.36322256487898,0.0,1.0,125.3594959571586,9609.392497676536,1.0,1.0,0.5174757826812354,19.72665223816369,0.022011415832582027,-43.739507786466824,1.0,28.217862246454207,1.0,-0.00815869616760906,4.364298180477474,0.9288941878725826,1.0,0.21326898200569677,5.8699449050051715
2.1,2.1,1.0,19.511196033634267,0.004081106689045281,7.407172577782109,-0.002733906544495553,0.008277825513502916,0.002438693497912051,20.869906394504614,0.009052285137068647,1.0,0.0,220.692053178617,-0.9126351324079304,27.776047979079113,125.41389934274902,-0.16126875235301044,2.045395091438206,1.0,28.960578930617903,0.0,1.0,125.72546922818138,9767.782108936335,1.0,1.0,-0.132208708406364,19.679826107662027,-0.021724524062429765,-43.78400260043279,1.0,28.398224483551196,1.0,0.009225769955652965,4.3711053746897255,0.9285722418015301,1.0,0.002188521992375938,6.280956498037016
2.13,2.13,1.0,19.448980632420255,-0.03772153904689924,7.500536517020877,-0.003215320442064753,0.00730572060875733,0.0021725951250623253,20.845198933997487,0.008272364156383933,1.0,0.0,220.692053178617,-0.9126351324079304,27.776047979079113,125.41389934274902,-0.16126875235301044,2.045395091438206,1.0,28.960578930617903,0.0,1.0,125.51476923019455,9728.471921946417,1.0,1.0,-0.132208708406364,19.679826107662027,-0.021724524062429765,-43.78400260043279,1.0,28.398224483551196,1.0,0.009225769955652965,4.3711053746897255,0.9285722418015301,1.0,0.002188521992375938,6.280956498037016
2.16,2.16,1.0,19.424738381411846,0.0008643724797329816,7.518245820408782,-0.002053445989291011,0.010416319267505764,0.00012167427065311867,20.82893377370835,0.010617492742718788,1.0,0.0,220.692053178617,-0.9126351324079304,27.776047979079113,125.41389934274902,-0.16126875235301044,2.045395091438206,1.0,28.987653980984533,0.0,1.0,126.06099756602961,9749.345874439668,1.0,1.0,-1.1808146066566236,19.785764145357618,0.017835522692160915,-43.712289665692616,1.0,28.54092717959488,1.0,0.005341512196297713,4.394340825885455,0.928254623864105,1.0,0.4447806537253375,5.595368357864018
2.19,2.19,1.0,19.39767674906208,-0.0680490998716121,7.629887366657332,0.002127563673337678,0.009610951518096336,-0.0016183734827011527,20.844415922951022,0.009975773102713125,1.0,0.0,220.692053178617,-0.9126351324079304,27.776047979079113,125.41389934274902,-0.16126875235301044,2.045395091438206,1.0,28.987653980984533,0.0,1.0,126.46277521455704,9617.813069523123,1.0,1.0,-1.1808146066566236,19.785764145357618,0.017835522692160915,-43.712289665692616,1.0,28.54092717959488,1.0,0.005341512196297713,4.394340825885455,0.928254623864105,1.0,0.4447806537253375,5.595368357864018
2.2199999999999998,2.2199999999999998,1.0,19.363506384611984,-0.03674808958546651,7.663316207697194,0.0005881574895730492,0.00727082892494898,-0.0001691356679671133,20.824820412866753,0.007296539547113707,1.0,0.0,220.692053178617,-0.9126351324079304,27.776047979079113,125.41389934274902,-0.16126875235301044,2.045395091438206,1.0,28.87440723416138,0.0,1.0,127.7463811108158,10016.470831035795,1.0,1.0,1.1001754087521782,19.768387926546417,-0.012095677645621642,-43.72718754814524,1.0,29.015995970884152,1.0,0.006808794125097082,4.411962325794402,0.9279402991918263,1.0,0.5526411510499093,5.798400821116287
2.25,2.25,1.0,19.341554369732467,-0.04122723800333921,7.7705639453384325,0.0015116432580279864,0.006278977169074746,0.001822756685767126,20.84416199205581,0.006710667743586486,1.0,0.0,220.692053178617,-0.9126351324079304,27.776047979079113,125.41389934274902,-0.16126875235301044,2.045395091438206,1.0,28.87440723416138,0.0,1.0,128.67461103922608,10153.183167998754,1.0,1.0,1.1001754087521782,19.768387926546417,-0.012095677645621642,-43.72718754814524,1.0,29.015995970884152,1.0,0.006808794125097082,4.411962325794402,0.9279402991918263,1.0,0.5526411510499093,5.798400821116287
2.28,2.28,1.0,19.419544524418693,0.01221413090344737,7.8281291322223385,0.0010587851842506692,0.007740898145171166,0.002181179473663335,20.937967055844315,0.008111724481060324,1.0,0.0,220.692053178617,-0.9126351324079304,27.776047979079113,125.41389934274902,-0.16126875235301044,2.045395091438206,1.0,29.57943143484851,0.0,1.0,129.45493767369294,10129.712214362988,1.0,1.0,0.7489650167228306,19.801641809692494,-0.014113850951209258,-43.654539181913314,1.0,28.51282999185527,1.0,-0.0046198615492057185,4.432876299756407,0.9276282379888036,1.0,-0.5889626797749533,5.68388272157247
2.31,2.31,1.0,19.414967324283474,0.0027120919167082113,7.881342199289576,4.77148430652025e-05,0.006386506925893257,-0.0006233268279356578,20.953675534873117,0.006417030758470432,1.0,0.0,248.81995807806314,0.39841727765723006,29.38493812171721,129.3335493433878,0.275570978637166,1.939179033372297,1.0,29.57943143484851,0.0,1.0,129.7120181177907,10206.837138937644,1.0,1.0,0.7489650167228306,19.801641809692494,-0.014113850951209258,-43.654539181913314,1.0,28.51282999185527,1.0,-0.0046198615492057185,4.432876299756407,0.9276282379888036,1.0,-0.5889626797749533,5.68388272157247
2.34,2.34,1.0,19.311913568884087,0.008517984442994285,7.855882579234815,0.00017656879866341583,0.008461314562103563,-0.0003304306777197846,20.848620322381848,0.008469604777810214,1.0,0.0,248.81995807806314,0.39841727765723006,29.38493812171721,129.3335493433878,0.275570978637166,1.939179033372297,1.0,29.15136359703905,0.0,1.0,129.8610300000534,10126.025470280669,1.0,1.0,0.8814232332534068,19.820464294448215,-0.05036015320854237,-43.66356718575993,1.0,29.224716390896816,1.0,0.001965513710947383,4.4510543140517935,0.9273174163187218,1.0,0.3201883821516754,5.3216339875615315
2.37,2.37,1.0,19.22956583420509,0.04330105164029876,7.99828406693311,0.0016188102975515004,0.007814636564206194,-0.0032302341210303106,20.826680608499686,0.008609500791959754,1.0,0.0,248.81995807806314,0.39841727765723006,29.38493812171721,129.3335493433878,0.275570978637166,1.939179033372297,1.0,29.15136359703905,0.0,1.0,130.70962315834856,10371.897995592974,1.0,1.0,0.8814232332534068,19.820464294448215,-0.05036015320854237,-43.66356718575993,1.0,29.224716390896816,1.0,0.001965513710947383,4.4510543140517935,0.9273174163187218,1.0,0.3201883821516754,5.3216339875615315
2.4,2.4,1.0,19.25569192011536,-0.026595376024048878,8.126652277328136,-0.00102717545926293,0.0032206509829416446,0.003772060297661713,20.90035540063911,0.005065187170009689,1.0,0.0,248.81995807806314,0.39841727765723006,29.38493812171721,129.3335493433878,0.275570978637166,1.939179033372297,1.0,30.423498211839274,0.0,1.0,130.4265553701594,10528.276630358992,1.0,1.0,-1.2292660481253275,19.890903029833098,-0.013679138290930001,-43.74847870093136,1.0,29.01805929004188,1.0,0.0047068960552744945,4.470023354225093,0.9270068168702281,1.0,0.5933274989912868,5.944134464327083
2.4299999999999997,2.4299999999999997,1.0,19.226286164307854,0.037674202403097524,8.080871508439065,0.001272348202470435,0.008992308703210746,-0.002397425815906407,20.855502471848634,0.00939298335487421,1.0,0.0,248.81995807806314,0.39841727765723006,29.38493812171721,129.3335493433878,0.275570978637166,1.939179033372297,1.0,30.423498211839274,0.0,1.0,131.85971976462181,10602.670555201297,1.0,1.0,-1.2292660481253275,19.890903029833098,-0.013679138290930001,-43.74847870093136,1.0,29.01805929004188,1.0,0.0047068960552744945,4.470023354225093,0.9270068168702281,1.0,0.5933274989912868,5.944134464327083
2.46,2.46,1.0,19.145963100519797,0.01725438232334368,8.223644190993967,-0.0001487685996427187,0.0031320386019633864,-0.0036123455428427372,20.83738286206413,0.0047833919159237,1.0,0.0,248.81995807806314,0.39841727765723006,29.38493812171721,129.3335493433878,0.275570978637166,1.939179033372297,1.0,28.77106518842526,0.0,1.0,132.02266151484125,10632.955447388274,1.0,1.0,2.090500705405645,19.906242401919755,-0.04437813586878794,-43.60107500104055,1.0,29.064822575433197,1.0,-0.007722047058818455,4.493795082961576,0.9266954379142455,1.0,0.8662572561451346,5.474508021769656
2.4899999999999998,2.4899999999999998,1.0,19.225801248758223,0.024032802005368833,8.292932916682494,-0.0019050035423399088,-0.0016377361163002744,-0.0011308485599816366,20.938117097602674,0.0027550020959292297,1.0,0.0,248.81995807806314,0.39841727765723006,29.38493812171721,129.3335493433878,0.275570978637166,1.939179033372297,1.0,28.77106518842526,0.0,1.0,132.55000963291894,10672.141323302585,1.0,1.0,2.090500705405645,19.906242401919755,-0.04437813586878794,-43.60107500104055,1.0,29.064822575433197,1.0,-0.007722047058818455,4.493795082961576,0.9266954379142455,1.0,0.8662572561451346,5.474508021769656
2.52,2.52,1.0,19.170010073048047,0.011535326374274377,8.371743182512647,0.002291227630734123,0.0003239712523710078,0.0007244888954484719,20.918305456667976,0.0024247815546622935,1.0,0.0,273.9204445633666,0.20176025599158562,29.481993555666065,133.34757345436233,-0.0696421494113209,2.1595668032658937,1.0,29.700838403269465,0.0,1.0,133.05840510474843,10737.771745146469,1.0,1.0,-0.6098023610345005,19.89062863142858,0.036790822791022346,-43.61697974461242,1.0,29.579521927999433,1.0,0.012029913998308855,4.5027566907224745,0.9263822069821579,1.0,0.22765828148255066,5.402839105019178
2.55,2.55,1.0,19.076228703299297,-0.009835198927267665,8.534044351248225,0.0001440186347443477,-0.0015687446501739856,-0.0006658152489848269,20.898146120189455,0.001710266379948999,1.0,0.0,273.9204445633666,0.20176025599158562,29.481993555666065,133.34757345436233,-0.0696421494113209,2.1595668032658937,1.0,29.700838403269465,0.0,1.0,133.46779561229152,11121.510334859351,1.0,1.0,-0.6098023610345005,19.89062863142858,0.036790822791022346,-43.61697974461242,1.0,29.579521927999433,1.0,0.012029913998308855,4.5027566907224745,0.9263822069821579,1.0,0.22765828148255066,5.402839105019178
2.58,2.58,1.0,19.073000677814143,0.05370447164653571,8.499014093916724,-0.0036574406157678244,0.0011888712855233018,-0.0012609970144927824,20.880983683599982,0.004047270717652781,1.0,0.0,273.9204445633666,0.20176025599158562,29.481993555666065,133.34757345436233,-0.0696421494113209,2.1595668032658937,1.0,29.413112558307645,0.0,1.0,134.88543409458848,10839.75400236415,1.0,1.0,-0.4421226376729621,19.898154406529677,0.028040520701193124,-43.668481853847844,1.0,29.81485426087682,1.0,-0.00389804089071116,4.531718905464858,0.9260658490133484,1.0,-0.29934993309376307,6.160973487695388
2.61,2.61,1.0,19.041509316304598,0.0664022513206286,8.574936846326084,-0.00024114491760876216,-0.0031070850139926997,0.002171356915759841,20.883319377445147,0.0037982784272726296,1.0,0.0,273.9204445633666,0.20176025599158562,29.481993555666065,133.34757345436233,-0.0696421494113209,2.1595668032658937,1.0,29.413112558307645,0.0,1.0,135.66607483454132,11161.049336510581,1.0,1.0,-0.4421226376729621,19.898154406529677,0.028040520701193124,-43.668481853847844,1.0,29.81485426087682,1.0,-0.00389804089071116,4.531718905464858,0.9260658490133484,1.0,-0.29934993309376307,6.160973487695388
2.6399999999999997,2.6399999999999997,1.0,18.990319341773176,0.0904396940321086,8.703881012807107,0.0015596281021600699,-0.0062631684006953185,0.0004070795264131864,20.890140083922013,0.006467258458832503,1.0,0.0,273.9204445633666,0.20176025599158562,29.481993555666065,133.34757345436233,-0.0696421494113209,2.1595668032658937,1.0,29.343190511328807,0.0,1.0,135.13998335180025,11052.317933400853,1.0,1.0,-0.5640543747808037,19.97303624988542,-0.021717159203047003,-43.66678269205604,1.0,29.840645622920388,1.0,0.008479129042409857,4.537279184865003,0.9257449791417289,1.0,0.5719898668425217,6.326185815920655
2.67,2.67,1.0,19.058176249016707,-0.04863038105835259,8.79151665729145,0.001541810122804799,-0.005697532431109242,-0.0015914128913733369,20.988263672538025,0.006113235579392813,1.0,0.0,273.9204445633666,0.20176025599158562,29.481993555666065,133.34757345436233,-0.0696421494113209,2.1595668032658937,1.0,29.343190511328807,0.0,1.0,136.07254701020935,11541.866619874369,1.0,1.0,-0.5640543747808037,19.97303624988542,-0.021717159203047003,-43.66678269205604,1.0,29.840645622920388,1.0,0.008479129042409857,4.537279184865003,0.9257449791417289,1.0,0.5719898668425217,6.326185815920655
2.6999999999999997,2.6999999999999997,1.0,18.86763825801189,-0.04796357526115563,8.791349630923222,0.0006356576811287177,-0.005662658989082352,-0.0021755139739447864,20.815328541074717,0.006099395754092542,1.0,0.0,273.9204445633666,0.20176025599158562,29.481993555666065,133.34757345436233,-0.0696421494113209,2.1595668032658937,1.0,30.299614864570714,0.0,1.0,135.75556086241934,11358.292592125785,1.0,1.0,1.356642701192511,19.780722734090475,0.027156923288884763,-43.66046998622953,1.0,29.88421992141424,1.0,-0.014418349992410054,4.566380976665996,0.9254181261331794,1.0,-0.4059408602265983,5.3982384223702615
2.73,2.73,1.0,18.846615057561632,-0.007278845032513286,8.962590289915962,-0.0012000749088391701,-0.007859314078366986,-0.0009280501254632214,20.869187258117883,0.00800439095775657,1.0,0.0,302.7437409823166,0.9234410924736416,32.37338639703262,137.1611247321973,0.011270291125223627,2.2835345680556487,1.0,30.299614864570714,0.0,1.0,137.20518196267076,11427.138444930275,1.0,1.0,1.356642701192511,19.780722734090475,0.027156923288884763,-43.66046998622953,1.0,29.88421992141424,1.0,-0.014418349992410054,4.566380976665996,0.9254181261331794,1.0,-0.4059408602265983,5.3982384223702615
2.76,2.76,1.0,18.85985598320953,0.030824936769150945,8.98613752519479,0.000304903391135432,-0.0075622277928802,-0.0037273558382535585,20.891284917540258,0.008436435077347452,1.0,0.0,302.7437409823166,0.9234410924736416,32.37338639703262,137.1611247321973,0.011270291125223627,2.2835345680556487,1.0,29.83619016845968,0.0,1.0,137.7150870284741,11592.126240643109,1.0,1.0,-1.4421442425219928,19.76691663621326,0.026670993516435048,-43.7554888373166,1.0,29.454898484921785,1.0,0.020682851812615907,4.581416328654631,0.9250837590047267,1.0,0.1256258689012356,5.552116465085104
2.79,2.79,1.0,18.906094570842566,0.0404730276103574,9.021447817056371,0.003993726602763566,-0.010989458351222853,-0.001959319294788977,20.94823550334199,0.011855672867020897,1.0,0.0,302.7437409823166,0.9234410924736416,32.37338639703262,137.1611247321973,0.011270291125223627,2.2835345680556487,1.0,29.83619016845968,0.0,1.0,137.97798307970697,11556.093951518293,1.0,1.0,-1.4421442425219928,19.76691663621326,0.026670993516435048,-43.7554888373166,1.0,29.454898484921785,1.0,0.020682851812615907,4.581416328654631,0.9250837590047267,1.0,0.1256258689012356,5.552116465085104
2.82,2.82,1.0,18.847796691854818,0.02293663732086746,9.183726488177886,-0.002564169592683705,-0.009739392593206067,0.0019164528533044678,20.966182257065427,0.010252001039971648,1.0,0.0,302.7437409823166,0.9234410924736416,32.37338639703262,137.1611247321973,0.011270291125223627,2.2835345680556487,1.0,30.44472115664457,0.0,1.0,138.50908607227203,11828.799952001298,1.0,1.0,-1.8266271924628283,19.77674631182389,0.0030350272323798264,-43.709649176350744,1.0,30.134374093471564,1.0,0.003368237854427196,4.5946321631308855,0.9247403091821429,1.0,-0.35809540184838956,5.580838874925677
2.85,2.85,1.0,18.87610211026409,0.05353413402624443,9.272690769591371,-0.00028237044305409227,-0.012154433112279452,0.002668347357816831,21.03076058750818,0.01244709022100964,1.0,0.0,302.7437409823166,0.9234410924736416,32.37338639703262,137.1611247321973,0.011270291125223627,2.2835345680556487,1.0,30.44472115664457,0.0,1.0,139.66831943838574,12096.451050971631,1.0,1.0,-1.8266271924628283,19.77674631182389,0.0030350272323798264,-43.709649176350744,1.0,30.134374093471564,1.0,0.003368237854427196,4.5946321631308855,0.9247403091821429,1.0,-0.35809540184838956,5.580838874925677
2.88,2.88,1.0,18.76818930160248,-0.03615650005563831,9.347810946749963,0.0006034458294573401,-0.01026869075163414,0.001600319573296504,20.96730327079428,0.01041014790281396,1.0,0.0,302.7437409823166,0.9234410924736416,32.37338639703262,137.1611247321973,0.011270291125223627,2.2835345680556487,1.0,29.881862315843133,0.0,1.0,139.50750371885246,11860.063471391437,1.0,1.0,0.29787603331982676,19.79463011416603,0.0458927442708022,-43.743810019933385,1.0,30.344018243614503,1.0,0.018989474823699035,4.616317632217618,0.9243861856743618,1.0,-0.6145416429887318,5.743625167354871
2.9099999999999997,2.9099999999999997,1.0,18.736866301381987,-0.024628922534964213,9.465808609804501,0.002396700685191622,-0.01140416979640703,-0.00020077747661171683,20.99219612182437,0.011655023574184435,1.0,0.0,302.7437409823166,0.9234410924736416,32.37338639703262,137.1611247321973,0.011270291125223627,2.2835345680556487,1.0,29.881862315843133,0.0,1.0,140.5165702528668,11828.251003886167,1.0,1.0,0.29787603331982676,19.79463011416603,0.0458927442708022,-43.743810019933385,1.0,30.344018243614503,1.0,0.018989474823699035,4.616317632217618,0.9243861856743618,1.0,-0.6145416429887318,5.743625167354871
2.94,2.94,1.0,18.7405519422162,0.012246636495848735,9.587504015983285,0.004059827262651679,-0.010801176920772787,-9.796278652709261e-05,21.050621613992885,0.011539376802234541,1.0,0.0,335.2035495712742,-2.2542872146042616,30.47486159227272,141.25523992435632,0.025456919087767427,2.7739046352758647,1.0,31.962084020138136,0.0,1.0,141.1244726328046,12396.798342274702,1.0,1.0,0.20243712099329267,19.686485246686047,-0.013421981974192084,-43.67852701745413,1.0,30.58254636315048,1.0,-0.01461027070043123,4.620770077521922,0.9240197877951604,1.0,-0.6431591562241735,5.78806335647183
2.9699999999999998,2.9699999999999998,1.0,18.6935841423631,0.03704693588504008,9.590688019918494,0.0027584679670912783,-0.00901733981363142,-0.001437560076455922,21.010301217699755,0.009538770456059364,1.0,0.0,335.2035495712742,-2.2542872146042616,30.47486159227272,141.25523992435632,0.025456919087767427,2.7739046352758647,1.0,31.962084020138136,0.0,1.0,141.13998915124782,12131.589328215128,1.0,1.0,0.20243712099329267,19.686485246686047,-0.013421981974192084,-43.67852701745413,1.0,30.58254636315048,1.0,-0.01461027070043123,4.620770077521922,0.9240197877951604,1.0,-0.6431591562241735,5.78806335647183
3.0,3.0,1.0,18.641566553709435,0.0596521370930404,9.675748424546454,-0.0014416629791642013,-0.014103210960280887,-0.0010842513525904714,21.003134754815797,0.014218106503021907,1.0,0.0,335.2035495712742,-2.2542872146042616,30.47486159227272,141.25523992435632,0.025456919087767427,2.7739046352758647,1.0,31.269664043082557,0.0,1.0,141.66529057721633,12491.478560030651,1.0,1.0,-0.3837121961309631,19.740318776260953,-0.03950730821613547,-43.72321054317076,1.0,30.504901432359613,1.0,-0.014780175839994046,4.631000723150374,0.9236395151244753,1.0,0.30255840620065566,5.4880113828483905
