time_s,x_m,y_m,altitude_m,vx_mps,vy_mps,vz_mps,speed_mps,mass_kg,roll_deg,pitch_deg,yaw_deg,p_dps,q_dps,r_dps,alpha_deg,beta_deg,qbar_pa,mach,airspeed_mps,load_factor_g,density_kgpm3,pressure_pa,temperature_k,wind_x_mps,wind_y_mps,wind_z_mps,thrust_n,mass_flow_kgps,propulsion_throttle_actual,propulsion_health,energy_j_per_kg,target_distance_m,guidance_mode,pitch_command_deg,heading_command_deg,roll_command_deg
0.0,0.0,0.0,20.0,85.0,0.0,8.0,85.37564055396598,18.0,0.0,6.000000000000002,0.0,0.0,0.0,0.0,0.6169987648720024,0.0,4445.560332884186,0.250651868342899,85.27608105441995,1.74634069828506,1.2226496753673843,101084.96761777384,288.02,0.1,0.0,0.0,326.8,0.17539118863220368,0.86,nominal,3840.633,nan,pitch_program,13.0,0.0,0.0
0.03,2.565310932297066,0.0,20.232946462003074,85.51036440990221,0.0,7.764882066769182,85.86219083522796,17.994738264341034,0.0,6.265543957279823,0.0,0.0,-8.85148108657323,0.0,1.070913132337987,0.0,4496.330359733195,0.2520825585697221,85.76260106913224,1.7744051693148448,1.2226223205068891,101082.17459824144,288.01848584799694,0.1,0.0,0.0,332.605,0.1785066900092231,0.86,nominal,3884.5753319341547,nan,pitch_program,12.985,0.0,0.0
0.06,5.1461188055097455,0.0,20.45932703460782,86.02692910708932,0.0,7.5460190868249315,86.35725178382472,17.98938306364076,0.0,6.6415406742106615,0.0,0.0,-12.533268876328767,0.0,1.622756709496247,0.0,4548.288160113672,0.2535382618256239,86.25763473359028,1.8030346834414175,1.2225957371261968,101079.46036335458,288.01701437427505,0.1,0.0,0.0,338.40999999999997,0.18162219138624247,0.86,nominal,3929.4249272913858,nan,pitch_program,12.97,0.0,0.0
0.09,7.742577523969535,0.0,20.67976132165739,86.54862394865964,0.0,7.347809568319027,86.85997129206746,17.983934397899173,0.0,6.947358157698034,0.0,0.0,-10.193940317640914,0.0,2.089108086183784,0.0,4601.358577346906,0.2550164757660258,86.7603301519136,1.8327612336310346,1.2225698524298665,101076.81747935117,288.0155815514092,0.1,0.0,0.0,344.215,0.18473769276326188,0.86,nominal,3975.1264877944222,nan,pitch_program,12.955,0.0,0.0
0.12,10.354861108970548,0.0,20.89472141037526,87.07611950003377,0.0,7.165336290595703,87.37043339334816,17.978392267116273,0.0,7.126370522882172,0.0,0.0,-5.967083693493415,0.0,2.41681900086159,0.0,4655.564435476498,0.25651744650944075,87.27077063623011,1.8629231332983838,1.2225446109500209,101074.24028181692,288.01418431083255,0.1,0.0,0.0,350.02,0.1878531941402813,0.86,nominal,4021.7035353898013,nan,pitch_program,12.94,0.0,0.0
0.15,12.983180007846089,0.0,21.104490458840125,87.61062996251805,0.0,6.9923016154955135,87.88921870349813,17.972756671292064,0.0,7.221545008288599,0.0,0.0,-3.1724835763617816,0.0,2.653185335992579,0.0,4710.9823533451745,0.25804287915480306,87.78953604114116,1.8934272412670847,1.2225199794074058,101071.72537195275,288.01282081201754,0.1,0.0,0.0,355.825,0.1909686955173007,0.86,nominal,4069.2217335138475,nan,pitch_program,12.925,0.0,0.0
0.18,15.627766076554385,0.0,21.309260949856018,88.1528689569432,0.0,6.825683033863089,88.416730623897,17.967027610426545,0.0,7.291287142370331,0.0,0.0,-2.324738089761469,0.0,2.8586967833476105,0.0,4767.671604542293,0.2595939587975612,88.31702939086763,1.9243823011699746,1.2224959351725904,101069.27043839869,288.0114898038259,0.1,0.0,0.0,361.63,0.19408419689432013,0.86,nominal,4117.7315910032885,nan,pitch_program,12.91,0.0,0.0
0.21,18.288854019713614,0.0,21.509225929792198,88.70293143864099,0.0,6.665499331206047,88.9530152785309,17.961205084519715,0.0,7.360453185216346,0.0,0.0,-2.3055350415165363,0.0,3.058259551952201,0.0,4825.653992901376,0.26117082128062113,88.85329673599526,1.955730175605027,1.2224724555519986,101066.87316330899,288.0101900314563,0.1,0.0,0.0,367.435,0.19719969827133954,0.86,nominal,4167.252914035673,nan,pitch_program,12.895,0.0,0.0
0.24,20.96667519412231,0.0,21.704601676278898,89.26070581362312,0.0,6.51252488289002,89.49796971270597,17.955289093571576,0.0,7.423496158510436,0.0,0.0,-2.1014326551491402,0.0,3.2458855354037843,0.0,4884.935426210259,0.2627731645203938,89.3982351141996,1.9872900654479597,1.2224495151262742,101064.53095059805,288.00892008910415,0.1,0.0,0.0,373.24,0.20031519964835895,0.86,nominal,4217.792723376897,nan,pitch_program,12.88,0.0,0.0
0.27,23.6614613687905,0.0,21.895604932712324,89.82620582227308,0.0,6.366775214447579,90.05155789355713,17.949279637582126,0.0,7.4685312948386455,0.0,0.0,-1.5011712882274426,0.0,3.409751041661538,0.0,4945.529165176876,0.2644008829537982,89.95180841924312,2.018901641149729,1.2224270884233954,101062.24119886661,288.0076785679373,0.1,0.0,0.0,379.045,0.20343070102537836,0.86,nominal,4269.364073641718,nan,pitch_program,12.865,0.0,0.0
0.3,26.373449685144433,0.0,22.08242939288824,90.39961054513104,0.0,6.2274820058639015,90.61385721204415,17.943176716551363,0.0,7.4924126598823575,0.0,0.0,-0.7960455129817783,0.0,3.5472752726709675,0.0,5007.461198884665,0.26605420418396325,90.51409391214,2.050519656566668,1.222405152679602,101060.00158328623,288.0064642089462,0.1,0.0,0.0,384.84999999999997,0.20654620240239774,0.86,nominal,4321.99021562813,nan,pitch_program,12.850000000000001,0.0,0.0
0.32999999999999996,29.102883846666973,0.0,22.26524195767806,90.98113871741798,0.0,6.093752159660644,91.18498460657557,17.93698033047929,0.0,7.500196865353105,0.0,0.0,-0.25947351609067565,0.0,3.6641485578675264,0.0,5070.7624188802565,0.2677334719939494,91.08520840376849,2.0821807391066587,1.222383688278636,101057.81010043687,288.0052759272751,0.1,0.0,0.0,390.655,0.20966170377941715,0.86,nominal,4375.698143894975,nan,pitch_program,12.835,0.0,0.0
0.36,31.85001224737325,0.0,22.44419235864711,91.57094669020924,0.0,5.9650133656350395,91.76502417693436,17.930690479365907,0.0,7.498125873428192,0.0,0.0,0.06903306417130145,0.0,3.767030233976354,0.0,5135.460656078048,0.26943893370067246,91.66523590137815,2.113916012976214,1.2223626776215712,101055.6649529102,288.00411274966876,0.1,0.0,0.0,396.46,0.21277720515643656,0.86,nominal,4430.5121700906,nan,pitch_program,12.82,0.0,0.0
0.39,34.61508586883304,0.0,22.61942245069881,92.1691207153263,0.0,5.841003068389929,92.35401523637904,17.924307163211214,0.0,7.489350633633643,0.0,0.0,0.2925079937233699,0.0,3.859285379285983,0.0,5201.5792234579485,0.27117070504514074,92.25421565510308,2.1457142309822217,1.2223421040355833,101053.56443789203,288.0029737540704,0.1,0.0,0.0,402.265,0.21589270653345596,0.86,nominal,4486.4528243168115,nan,pitch_program,12.805,0.0,0.0
0.42,37.39835746446762,0.0,22.79106905856487,92.77571985448601,0.0,5.721553595535272,92.9519788388857,17.91783038201521,0.0,7.474361024016831,0.0,0.0,0.4996536567435857,0.0,3.941555158577476,0.0,5269.139769372553,0.272928848118811,92.85216866661628,2.1556507536490983,1.2223219514396515,101051.50691302805,288.0018580511193,0.1,0.0,0.0,404.1773684210526,0.21691906078826353,0.86,nominal,4543.539222415502,nan,pitch_program,12.79,0.0,0.0
0.44999999999999996,40.19988783377506,0.0,22.959237268708055,93.3843456435813,0.0,5.605607004772912,93.55243899103765,17.911322810191564,0.0,7.453188236884333,0.0,0.0,0.7057595791145491,0.0,4.0143275666717235,0.0,5337.422143108835,0.2746943274345775,93.4526188613412,2.1546733288168487,1.222302207480146,101049.49111655423,288.00076495775335,0.1,0.0,0.0,404.14342105263154,0.21690084148196515,0.86,nominal,4601.182624747085,nan,pitch_program,12.775,0.0,0.0
0.48,43.01964288089484,0.0,23.1240120305035,93.99183490399291,0.0,5.492492059848236,94.15217733885369,17.904815784947104,0.0,7.426566524741478,0.0,0.0,0.887390420726556,0.0,4.07868879925384,0.0,5406.061841163708,0.27645768286573774,94.0523478211265,2.153728831712198,1.2222828621685402,101047.5160282041,287.9996939218017,0.1,0.0,0.0,404.1094736842105,0.2168826221756668,0.86,nominal,4659.085341402415,nan,pitch_program,12.76,0.0,0.0
0.51,45.857590386242805,0.0,23.28547159909114,94.59825017826552,0.0,5.3819856195878915,94.75122535354973,17.898309306281835,0.0,7.3957027539957005,0.0,0.0,1.0287923830696473,0.0,4.136041373554642,0.0,5475.060922310826,0.2782190068211526,94.65138697326897,2.15281892755551,1.2222639063030134,101045.58070805525,287.99864443460586,0.1,0.0,0.0,404.0755263157895,0.21686440286936848,0.86,nominal,4717.249823056809,nan,pitch_program,12.745,0.0,0.0
0.54,48.71369960499601,0.0,23.443689204190285,95.20364062510681,0.0,5.273920169971526,95.34960630350669,17.891803374195753,0.0,7.361653684738467,0.0,0.0,1.1349690086428248,0.0,4.187598642720468,0.0,5544.4205861329065,0.27997836760902967,95.24975954882355,2.1519432333924207,1.2222453312724597,101043.6842765174,287.99761602017276,0.1,0.0,0.0,404.0415789473684,0.2168461835630701,0.86,nominal,4775.677765851134,nan,pitch_program,12.73,0.0,0.0
0.57,51.58794093410837,0.0,23.598734324912606,95.8080443037452,0.0,5.168170690743959,95.94733629234878,17.885297988688862,0.0,7.325081421004675,0.0,0.0,1.2190754991842736,0.0,4.234149441690315,0.0,5614.141263778021,0.2817358124871059,95.84748161916578,2.1510966659610373,1.2222271289067679,101041.82589904494,287.99660822688804,0.1,0.0,0.0,404.0076315789474,0.21682796425677175,0.86,nominal,4834.370198765939,nan,pitch_program,12.715,0.0,0.0
0.6,54.48028573524176,0.0,23.750673254494057,96.41149337111301,0.0,5.0646309860483685,96.54442780954791,17.878793149761158,0.0,7.286407126986545,0.0,0.0,1.2891431828838265,0.0,4.276226983856279,0.0,5684.2230098091995,0.2834913780950758,96.44456564472041,2.150273314710549,1.2222092914104838,101040.00477936279,287.99562062384575,0.1,0.0,0.0,403.9736842105263,0.21680974495047337,0.86,nominal,4893.327810407689,nan,pitch_program,12.7,0.0,0.0
0.63,57.39070623546538,0.0,23.89956936237924,97.01401667412071,0.0,4.963203596172697,97.14089160175355,17.872288857412645,0.0,7.246016923837116,0.0,0.0,1.3463401607355243,0.0,4.31432126695932,0.0,5754.665710727817,0.28524509595314557,97.04102234544321,2.1494698433847645,1.2221918113319974,101038.2201563193,287.9946527991445,0.1,0.0,0.0,403.9397368421053,0.21679152564417503,0.86,nominal,4952.551122479393,nan,pitch_program,12.685,0.0,0.0
0.6599999999999999,60.3191754201184,0.0,24.045483436220184,97.61563948843394,0.0,4.863802461364865,97.73673642555845,17.86578511164332,0.0,7.204315822040934,0.0,0.0,1.3900367879007858,0.0,4.348931706329857,0.0,5825.4690489277245,0.2869969917358774,97.63686045352645,2.1486853402077957,1.2221746815233598,101036.4712997827,287.99370435766457,0.1,0.0,0.0,403.9057894736842,0.21677330633787664,0.86,nominal,5012.040463699351,nan,pitch_program,12.67,0.0,0.0
0.69,63.26566690441349,0.0,24.188474137618705,98.21638280983638,0.0,4.766356713283981,98.33196839566769,17.859281912453184,0.0,7.161675023427396,0.0,0.0,1.4213600193882385,0.0,4.38051251446019,0.0,5896.632416948187,0.2887470833572923,98.23208606155437,2.147919426119557,1.2221578950867453,101034.75750517425,287.99277491810545,0.1,0.0,0.0,403.8718421052631,0.21675508703157828,0.86,nominal,5071.795904184974,nan,pitch_program,12.655,0.0,0.0
0.72,66.2301548131831,0.0,24.328598425205133,98.81626362565356,0.0,4.670809586214245,98.92659106188455,17.852779259842237,0.0,7.118389941837853,0.0,0.0,1.4428361216073826,0.0,4.409431722408187,0.0,5968.1549169112695,0.2904953811974723,98.82670269922096,2.1471712068969486,1.2221414453247648,101033.07808839454,287.9918641102361,0.1,0.0,0.0,403.8378947368421,0.21673686772527995,0.86,nominal,5131.817259309206,nan,pitch_program,12.64,0.0,0.0
0.75,69.21261368801986,0.0,24.465911861615176,99.41529582789195,0.0,4.577114547001482,99.52060601766672,17.84627715381048,0.0,7.074690040720895,0.0,0.0,1.4566634411796997,0.0,4.435983597667983,0.0,6040.035424949029,0.29224188989106153,99.42071194151683,2.146439565165585,1.2221253257043967,101031.43238214038,287.99097157289947,0.1,0.0,0.0,403.80394736842106,0.21671864841898159,0.86,nominal,5192.10414561953,nan,pitch_program,12.625,0.0,0.0
0.78,72.21301841649162,0.0,24.600468835078974,100.01349094905878,0.0,4.4852324487933295,100.11401341439255,17.83977559435791,0.0,7.03076849677056,0.0,0.0,1.4640515367055895,0.0,4.460420201098224,0.0,6112.272646824881,0.29398660983866504,100.01411392272274,2.145723752437699,1.2221095298309552,101029.81973324648,287.99009695257195,0.1,0.0,0.0,403.77,0.21670042911268322,0.86,nominal,5252.656028670112,nan,pitch_program,12.61,0.0,0.0
0.8099999999999999,75.23134417060773,0.0,24.732322754184693,100.61085847053693,0.0,4.395130636857342,100.7068121603174,17.83327458148453,0.0,6.986797403099241,0.0,0.0,1.4657031943145788,0.0,4.482967291542307,0.0,6184.865137060604,0.2957295377917189,100.60690753521524,2.1450234890381585,1.2220940514252074,101028.23950034853,287.9892399020978,0.1,0.0,0.0,403.73605263157896,0.21668220980638486,0.86,nominal,5313.472240684052,nan,pitch_program,12.595,0.0,0.0
0.84,78.26756634941157,0.0,24.861526235099063,101.20740596012779,0.0,4.306782697145627,101.2989999870608,17.82677411519034,0.0,6.942926554175201,0.0,0.0,1.4623617022477795,0.0,4.50382341797319,0.0,6257.811302560068,0.2974706670481056,101.19909049584645,2.1443386853578983,1.222078884301373,101026.69105163682,287.98840007947183,0.1,0.0,0.0,403.7021052631579,0.2166639905000865,0.86,nominal,5374.551985442706,nan,pitch_program,12.58,0.0,0.0
0.87,81.32166052780646,0.0,24.988131268396437,101.8031392798299,0.0,4.220167776579147,101.89057357425624,17.82027419547534,0.0,6.899280466158074,0.0,0.0,1.4548696709247682,0.0,4.523157477599718,0.0,6331.109413773308,0.2992099878186704,101.79065947047873,2.1436692297514472,1.2220640223475325,101025.17376285524,287.9875771467554,0.1,0.0,0.0,403.66815789473685,0.21664577119378817,0.86,nominal,5435.894349148682,nan,pitch_program,12.565,0.0,0.0
0.8999999999999999,84.39360241372394,0.0,25.1121893550368,102.39806286391602,0.0,4.1352695546788585,102.48152873846269,17.813774822339525,0.0,6.8559612789052835,0.0,0.0,1.4439729772112382,0.0,4.541112332227624,0.0,6404.757624464359,0.3009474877825462,102.38161026277898,2.1430149976286077,1.2220494595096418,101023.68701566894,287.9867707691922,0.1,0.0,0.0,403.6342105263158,0.2166275518874898,0.86,nominal,5497.498318024748,nan,pitch_program,12.55,0.0,0.0
0.9299999999999999,87.48336781261614,0.0,25.23375161616157,102.99217996307304,0.0,4.052075370825571,103.07186060393437,17.8072759957829,0.0,6.813054417458031,0.0,0.0,1.4302287817478392,0.0,4.557811070829522,0.0,6478.753990037083,0.30268315258914247,102.9719379848911,2.1423759334154613,1.222035189778634,101022.2301963472,287.9859806144949,0.1,0.0,0.0,403.6002631578947,0.21660933258119142,0.86,nominal,5559.362794465069,nan,pitch_program,12.535000000000002,0.0,0.0
0.96,90.59093259702776,0.0,25.352868886392105,103.58549281372063,0.0,3.970575674351222,103.66156371889785,17.800777715805463,0.0,6.770632331236435,0.0,0.0,1.4140696053192243,0.0,4.573361148025988,0.0,6553.096479719971,0.3044169661999826,103.56163717363864,2.1417520625307818,1.222021207179453,101020.8026946434,287.98520635223844,0.1,0.0,0.0,403.56631578947366,0.21659111327489305,0.86,nominal,5621.486607988297,nan,pitch_program,12.520000000000001,0.0,0.0
0.99,93.71627268001266,0.0,25.46959179515678,104.1780027661636,0.0,3.890763625489194,104.25063214166244,17.794279982407215,0.0,6.7287558462443275,0.0,0.0,1.3958828952091253,0.0,4.587856037366502,0.0,6627.782985426165,0.30614891114187925,104.15070187657396,2.1411434428645553,1.222007505761495,101019.40390281858,287.9844476533315,0.1,0.0,0.0,403.53236842105264,0.21657289396859472,0.86,nominal,5683.868523346085,nan,pitch_program,12.505,0.0,0.0
1.02,96.85936399222219,0.0,25.583970835843033,104.76971040698403,0.0,3.8126346895417913,104.83905952477443,17.787782795588157,0.0,6.6874750971950006,0.0,0.0,1.3760250278352513,0.0,4.60137645728435,0.0,6702.811330745926,0.3078789687543465,104.73912573607726,2.140550128181535,1.2219940795904776,101018.03321481138,287.983704189567,0.1,0.0,0.0,403.49842105263156,0.21655467466229633,0.86,nominal,5746.507248616918,nan,pitch_program,12.49,0.0,0.0
1.05,100.02018246254421,0.0,25.696056422726773,105.36061567740111,0.0,3.736186229458054,105.42683919885967,17.781286155348287,0.0,6.646831053446264,0.0,0.0,1.3548015151035955,0.0,4.613992181193086,0.0,6778.17928027269,0.3096071194360791,105.32690207314907,2.139972167394362,1.2219809227417515,101016.6900255545,287.98297563325224,0.1,0.0,0.0,403.46447368421053,0.216536455355998,0.86,nominal,5809.40144344904,nan,pitch_program,12.475,0.0,0.0
1.08,103.19870400179558,0.0,25.80589893754286,105.95071797504531,0.0,3.66141716053621,106.01396424552313,17.774790061687607,0.0,6.606857181225021,0.0,0.0,1.3324624614229477,0.0,4.625763939974083,0.0,6853.884547883529,0.3113333428592586,105.91402396026717,2.1394096136435397,1.2219680292948194,101015.37373041501,287.98226165690596,0.1,0.0,0.0,403.43052631578945,0.21651823604969964,0.86,nominal,5872.549726341384,nan,pitch_program,12.46,0.0,0.0
1.1099999999999999,106.3949044888813,0.0,25.913548767940636,106.54001623619085,0.0,3.5883276799258623,106.60042755611411,17.768294514606115,0.0,6.5675806665038055,0.0,0.0,1.3092172086423712,0.0,4.636744836148004,0.0,6929.924803501567,0.3130576181423091,106.50048428011534,2.138862521609701,1.2219553933288105,101014.08372473206,287.9815619330084,0.1,0.0,0.0,403.3965789473684,0.21650001674340127,0.86,nominal,5935.950680598291,nan,pitch_program,12.445,0.0,0.0
1.14,109.60875975903477,0.0,26.019056339128387,107.1285090051157,0.0,3.5169190395916976,107.18622188131364,17.761799514103814,0.0,6.529023238508618,0.0,0.0,1.2852476483434794,0.0,4.6469813285644195,0.0,7006.297678916511,0.31477992399566995,107.08627577513927,2.1383309374983903,1.221943008918761,101012.81940343669,287.9808761337956,0.1,0.0,0.0,403.3626315789474,0.21648179743710294,0.86,nominal,5999.602859443213,nan,pitch_program,12.43,0.0,0.0
1.17,112.84024559391388,0.0,26.122472139337994,107.71619449597011,0.0,3.447193340320258,107.77133987577221,17.7553050601807,0.0,6.491201890923054,0.0,0.0,1.2607116319641756,0.0,4.656514097910198,0.0,7083.000773172437,0.3165002388530121,107.67139109215604,2.137814893238294,1.2219308701326157,101011.58016074557,287.9802039310943,0.1,0.0,0.0,403.3286842105263,0.21646357813080455,0.86,nominal,6063.504790714844,nan,pitch_program,12.415,0.0,0.0
1.2,116.08933771333938,0.0,26.22384673978292,108.3030706475166,0.0,3.3791533481642824,108.35577413793592,17.748811152836776,0.0,6.454129600590443,0.0,0.0,1.2357430541991998,0.0,4.6653788927977615,0.0,7160.031657515446,0.3182185409883037,108.25582282215531,2.1373144063372544,1.2219189710288694,101010.36538991988,287.9795449961914,0.1,0.0,0.0,403.2947368421053,0.21644535882450622,0.86,nominal,6127.654981146384,nan,pitch_program,12.4,0.0,0.0
1.23,119.35601176843582,0.0,26.323230809952676,108.88913516988154,0.0,3.3128023389918875,108.9395172441202,17.74231779207204,0.0,6.41781596344132,0.0,0.0,1.2104546121567041,0.0,4.673607273847638,0.0,7237.387879751116,0.31993480861596046,108.8395635343508,2.136829480199684,1.2219073056547725,101009.17448308191,287.9788989997353,0.1,0.0,0.0,403.26078947368416,0.2164271395182078,0.86,nominal,6192.051920113404,nan,pitch_program,12.385,0.0,0.0
1.26,122.64024333596058,0.0,26.42067512899198,109.4743855841587,0.0,3.248143967976795,109.52256177731489,17.735824977886494,0.0,6.382267699375072,0.0,0.0,1.1849421735524814,0.0,4.68122720992586,0.0,7315.066968046661,0.3216490199755052,109.42260580496577,2.1363601025401717,1.221895868044981,101008.00683107685,287.9782656116615,0.1,0.0,0.0,403.22684210526313,0.21640892021190947,0.86,nominal,6256.694082886608,nan,pitch_program,12.37,0.0,0.0
1.29,125.94200791365787,0.0,26.516230593700786,110.05881925657638,0.0,3.185182156960132,110.10490035200417,17.729332710280136,0.0,6.347489064585264,0.0,0.0,1.1592878619219604,0.0,4.688263569393323,0.0,7393.0664343233375,0.3233611534045065,110.00494224203497,2.135906243561314,1.2218846522206115,101006.8618233762,287.9776445011409,0.1,0.0,0.0,403.1928947368421,0.21639070090561113,0.86,nominal,6321.579933514098,nan,pitch_program,12.355,0.0,0.0
1.3199999999999998,129.26128091650583,0.0,26.609948223581746,110.64243342826519,0.0,3.123920996031939,110.68652563576808,17.72284098925297,0.0,6.3134822162411925,0.0,0.0,1.1335616447465766,0.0,4.694738553674573,0.0,7471.383777322328,0.3250711874020534,110.58656550699045,2.1354678553541455,1.2218736521886417,101005.73884801619,287.9770353365467,0.1,0.0,0.0,403.158947368421,0.21637248159931274,0.86,nominal,6386.70792740556,nan,pitch_program,12.34,0.0,0.0
1.3499999999999999,132.5980376737349,0.0,26.70187916334462,111.22522524096921,0.0,3.0643646587625297,111.26743036785835,17.71634981480499,0.0,6.280247535350031,0.0,0.0,1.107822727433868,0.0,4.700672079661287,0.0,7550.016485353485,0.32677910068333044,111.16746833322243,2.135044872023804,1.2218628619416039,101004.63729156638,287.97643778543824,0.1,0.0,0.0,403.125,0.2163542622930144,0.86,nominal,6452.076513630317,nan,pitch_program,12.325,0.0,0.0
1.38,135.9522534265068,0.0,26.792074683247957,111.80719175906265,0.0,3.0065173301112047,111.84760737496384,17.7098591869362,0.0,6.247783899781253,0.0,0.0,1.0821212145755674,0.0,4.706082103797308,0.0,7628.962038741055,0.3284848722259285,111.7476435418316,2.1346372096761073,1.221852275457544,101003.55653912514,287.9758515145589,0.1,0.0,0.0,403.0910526315789,0.21633604298671602,0.86,nominal,6517.6841369445065,nan,pitch_program,12.31,0.0,0.0
1.41,139.3239033261602,0.0,26.880586177594928,112.38832998844742,0.0,2.9503831448990816,112.4270495845811,17.703369105646598,0.0,6.216088912218828,0.0,0.0,1.0564996123558303,0.0,4.710984894021222,0.0,7708.217912008731,0.3301884813091108,112.32708405498722,2.1342447662541453,1.2218418867001857,101002.49597433627,287.9752761898456,0.1,0.0,0.0,403.0571052631579,0.2163178236804177,0.86,nominal,6583.529239585439,nan,pitch_program,12.295,0.0,0.0
1.44,142.71296243294591,0.0,26.96746516164382,112.96863689285657,0.0,2.8959661349630297,113.00575003638056,17.696879570936186,0.0,6.18515909526617,0.0,0.0,1.0309939234590586,0.0,4.715395263023014,0.0,7787.781575845871,0.3318899075471852,112.90578290728229,2.1338674215811935,1.2218316896192896,101001.4549794253,287.9747114764493,0.1,0.0,0.0,403.02315789473687,0.21629960437411935,0.86,nominal,6649.610262869897,nan,pitch_program,12.28,0.0,0.0
1.47,146.11940571518306,0.0,27.05276326716145,113.54810940790495,0.0,2.843270183920995,113.58370189181335,17.690390582804962,0.0,6.154990060552928,0.0,0.0,1.005634513676052,0.0,4.719326770429329,0.0,7867.650498878392,0.33358913091769926,113.48373325532935,2.133505037646007,1.2218216781511675,101000.43293525193,287.97415703876345,0.1,0.0,0.0,402.9892105263158,0.21628138506782096,0.86,nominal,6715.925648618071,nan,pitch_program,12.265,0.0,0.0
1.5,149.5432080487776,0.0,27.13653223682395,114.12674445315079,0.0,2.7922989887500482,114.1608984421433,17.68390214125293,0.0,6.125576653462895,0.0,0.0,0.9804469245332871,0.0,4.7227918961316595,0.0,7947.822149261189,0.33528613178500527,114.06092838578304,2.1331574589420703,1.2218118462193284,100999.42922137566,287.97361254046064,0.1,0.0,0.0,402.9552631578947,0.2162631657615226,0.86,nominal,6782.473840418929,nan,pitch_program,12.25,0.0,0.0
1.53,152.9843442170508,0.0,27.218823917641682,114.70453894243974,0.0,2.74305602725774,114.73733311510404,17.677414246280083,0.0,6.096913075784407,0.0,0.0,0.9554526092100374,0.0,4.725802187688345,0.0,8028.293996111997,0.33698089091977945,114.63736172198774,2.132824512790491,1.221802187735249,100998.44321613433,287.9730776445353,0.1,0.0,0.0,402.9213157894737,0.21624494645522424,0.86,nominal,6849.253284755116,nan,pitch_program,12.235,0.0,0.0
1.56,156.4427889108344,0.0,27.299690253558484,115.28148979278728,0.0,2.6955445305601202,115.31299948037407,17.670926897886428,0.0,6.068992990252641,0.0,0.0,0.9306695361418588,0.0,4.728368386356013,0.0,8109.063510806814,0.33867338951506465,115.21302682944405,2.1325060097038646,1.2217926965992356,100997.47429673183,287.97255201335184,0.1,0.0,0.0,402.8873684210526,0.21622672714892588,0.86,nominal,6916.262432005435,nan,pitch_program,12.220000000000002,0.0,0.0
1.5899999999999999,159.91851672879451,0.0,27.37918327735514,115.85759393200402,0.0,2.649767459888495,115.88789125402455,17.66444009607196,0.0,6.041809610233774,0.0,0.0,0.9061126842921499,0.0,4.730500535457852,0.0,8190.1281681527025,0.3403636091992901,115.7879174202482,2.1322017438148104,1.221783366701365,100996.52183933399,287.9720353086972,0.1,0.0,0.0,402.8534210526316,0.21620850784262752,0.86,nominal,6983.499737339184,nan,pitch_program,12.205000000000002,0.0,0.0
1.6199999999999999,163.41150217795138,0.0,27.45735510197083,116.43284830522879,0.0,2.6057274871896823,116.46200230206381,17.657953840836683,0.0,6.015355776432481,0.0,0.0,0.8817944757076135,0.0,4.732208073337703,0.0,8271.485447450494,0.34205153204663497,116.36202735662897,2.1319114933323857,1.2217741919224994,100995.585219172,287.97152719183714,0.1,0.0,0.0,402.8194736842105,0.21619028853632916,0.86,nominal,7050.9636615137,nan,pitch_program,12.19,0.0,0.0
1.65,166.92171967436693,0.0,27.5342579113415,117.00724988051856,0.0,2.563426979022337,117.03532664319305,17.651468132180593,0.0,5.98962402220854,0.0,0.0,0.857725155214635,0.0,4.733499912819052,0.0,8353.132833459033,0.34373714058506993,116.93535065369578,2.13163502100176,1.221765166135356,100994.66381065144,287.97102732357627,0.1,0.0,0.0,402.78552631578947,0.21617206923003082,0.86,nominal,7118.652671585703,nan,pitch_program,12.175,0.0,0.0
1.68,170.4491435439758,0.0,27.60994395084029,117.58079565362915,0.0,2.5228679832930236,117.60785845087743,17.64498297010369,0.0,5.964606629249505,0.0,0.0,0.8339131118833609,0.0,4.734384509215095,0.0,8435.06781727195,0.3454204178023851,117.50788148150276,2.13137207457356,1.2217562832056215,100993.75698746584,287.9705353643195,0.1,0.0,0.0,402.75157894736844,0.21615384992373246,0.86,nominal,7186.565241546319,nan,pitch_program,12.16,0.0,0.0
1.71,173.9937480235388,0.0,27.684465517393797,118.15348265210031,0.0,2.484052218450191,118.17959205482204,17.63849835460598,0.0,5.940295675131033,0.0,0.0,0.8103651494402939,0.0,4.734869918671969,0.0,8517.287897116457,0.34710134715046614,118.07961416651793,2.1311223872878555,1.2217475369931097,100992.86412271472,287.97005097413694,0.1,0.0,0.0,402.71763157894736,0.2161356306174341,0.86,nominal,7254.699852888228,nan,pitch_program,12.145,0.0,0.0
1.74,177.55550726170102,0.0,27.757874949338326,118.72530793874023,0.0,2.4469810648176713,118.75052194192777,17.632014285687454,0.0,5.916683073906092,0.0,0.0,0.7870867186380363,0.0,4.734963848195749,0.0,8599.79057908191,0.3487799125480411,118.65054319257254,2.130885678364797,1.221738921352941,100991.9845890238,287.96957381282925,0.1,0.0,0.0,402.68368421052634,0.21611741131113574,0.86,nominal,7323.054995112063,nan,pitch_program,12.13,0.0,0.0
1.77,181.13439532013882,0.0,27.83022461607193,119.29626861459296,0.0,2.4116555577868164,119.32064275679427,17.62553076334812,0.0,5.893760610675818,0.0,0.0,0.76408211786723,0.0,4.734673698498632,0.0,8682.573377785482,0.35045609838209285,119.22066320135785,2.1306616534950926,1.2217304301367624,100991.11775866948,287.9691035399955,0.1,0.0,0.0,402.64973684210526,0.21609919200483738,0.86,nominal,7391.629166178462,nan,pitch_program,12.115,0.0,0.0
1.7999999999999998,184.73038617478267,0.0,27.90156690755048,119.86636182146141,0.0,2.3780763826184086,119.88994930182875,17.619047787587974,0.0,5.871519971031507,0.0,0.0,0.7413546641191935,0.0,4.734006600713717,0.0,8765.633816981006,0.3521298895081129,119.78996899252783,2.130450005330663,1.2217220571939638,100990.26300370267,287.9686398151009,0.1,0.0,0.0,402.6157894736842,0.216080972698539,0.86,nominal,7460.420872911464,nan,pitch_program,12.1,0.0,0.0
1.8299999999999998,188.34345371710413,0.0,27.971954223669716,120.4355847440485,0.0,2.3462438706411426,120.45843653701225,17.612565358407018,0.0,5.849952766137718,0.0,0.0,0.7189068382815273,0.0,4.732969447884597,0.0,8848.969430116824,0.35380127124934563,120.35845552345958,2.130250413975896,1.2217137963729257,100989.41969607623,287.96818229754615,0.1,0.0,0.0,402.58184210526315,0.21606275339224065,0.86,nominal,7529.428631358254,nan,pitch_program,12.085,0.0,0.0
1.8599999999999999,191.97357175545721,0.0,28.041438963569647,121.00393461176981,0.0,2.3161579966643373,121.02609957936748,17.60608347580525,0.0,5.8290505540834845,0.0,0.0,0.6967404095350568,0.0,4.7315689219730235,0.0,8932.577760847365,0.35547022939515577,120.92611790871575,2.1300625474773924,1.221705641522269,100988.5872077723,287.96773064673675,0.1,0.0,0.0,402.54789473684207,0.2160445340859423,0.86,nominal,7598.650967109577,nan,pitch_program,12.07,0.0,0.0
1.89,195.62071401646574,0.0,28.11007351489302,121.57140870028397,0.0,2.287818377445852,121.59293370216733,17.59960213978267,0.0,5.808804858034349,0.0,0.0,0.6748565419930621,0.0,4.729811517017809,0.0,9016.456363502723,0.3571367501986304,121.49295141924739,2.129886062310559,1.221697586492115,100987.76491093075,287.9672845221532,0.1,0.0,0.0,402.51394736842104,0.21602631477964393,0.86,nominal,7668.086415584656,nan,pitch_program,12.055,0.0,0.0
1.92,199.28485414644916,0.0,28.17791024302531,122.13800433278074,0.0,2.2612242710763253,122.15893433391793,17.59312135033928,0.0,5.789207181655275,0.0,0.0,0.6532558856713495,0.0,4.727703559002086,0.0,9100.60280351996,0.3588008203735194,122.05895148137196,2.12972060386298,1.2216896251353346,100986.95217797678,287.9668435834203,0.1,0.0,0.0,402.48,0.2160080954733456,0.86,nominal,7737.733522284,nan,pitch_program,12.040000000000001,0.0,0.0
1.95,202.965965712881,0.0,28.245001480340107,122.70371888106112,0.0,2.2363745771599,122.72409705714621,17.58664110747508,0.0,5.77024902220614,0.0,0.0,0.6319386540700722,0.0,4.7252512229052455,0.0,9185.014657839727,0.36046242709059856,122.62411367555582,2.1295658069143926,1.2216817513088176,100986.14838175006,287.9664074903778,0.1,0.0,0.0,402.44605263157894,0.2159898761670472,0.86,nominal,7807.5908430130985,nan,pitch_program,12.025,0.0,0.0
1.98,206.66402220587418,0.0,28.311399515470743,123.268549766439,0.0,2.2132678376878134,123.28841760701769,17.58016141119007,0.0,5.75192188164805,0.0,0.0,0.6109046904784347,0.0,4.722460547342042,0.0,9269.689515270768,0.3621215579735336,123.18843373502685,2.1294212961127177,1.2216739588747207,100985.35289563234,287.9659759031494,0.1,0.0,0.0,402.4121052631579,0.21597165686074887,0.86,nominal,7877.6569440795865,nan,pitch_program,12.01,0.0,0.0
2.01,210.37899703968887,0.0,28.377156582626185,123.8324944604898,0.0,2.191902238514714,123.8518918698073,17.573682261484247,0.0,5.73421727605043,0.0,0.0,0.5901535246165115,0.0,4.719337447134171,0.0,9354.624976825244,0.36377820109431125,123.7519075442409,2.129286686445861,1.221666241701722,100984.56509367524,287.9655484822129,0.1,0.0,0.0,402.37815789473683,0.2159534375544505,0.86,nominal,7947.930402466232,nan,pitch_program,11.995000000000001,0.0,0.0
2.04,214.1108635542589,0.0,28.442324850966965,124.39555048566795,0.0,2.1722756113593817,124.41451588124302,17.567203658357613,0.0,5.717126743547852,0.0,0.0,0.569684420976584,0.0,4.715887724111193,0.0,9439.818656026917,0.3654323449682955,124.3145311372204,2.129161583709138,1.2216585936662632,100983.7843507269,287.96512488846867,0.1,0.0,0.0,402.3442105263158,0.21593521824815215,0.86,nominal,8018.409805981772,nan,pitch_program,11.98,0.0,0.0
2.07,217.85959501673327,0.0,28.50695641405482,124.95771541581198,0.0,2.154385436261819,124.97628582473969,17.56072560181017,0.0,5.7006418510608805,0.0,0.0,0.5494964200229984,0.0,4.712117076396276,0.0,9525.268179194398,0.36708397854896085,124.87630069578402,2.129045584968346,1.2216510086537837,100983.01004255813,287.9647047833086,0.1,0.0,0.0,402.3102631578947,0.2159169989418538,0.86,nominal,8089.093753391406,nan,pitch_program,11.965,0.0,0.0
2.1,221.62516462302986,0.0,28.571103279387952,125.51898687655327,0.0,2.138228844437763,125.5371980295384,17.554248091841913,0.0,5.684754199961702,0.0,0.0,0.5295883733659551,0.0,4.708031106393097,0.0,9610.971185701206,0.3687330912223469,125.43721254768151,2.1289382790182607,1.2216434805599492,100982.24154598737,287.96428782868395,0.1,0.0,0.0,402.27631578947364,0.2158987796355554,0.86,nominal,8159.98085452858,nan,pitch_program,11.95,0.0,0.0
2.13,225.40754549939913,0.0,28.63481735803233,126.07936254564248,0.0,2.1238026214792063,126.09724896876442,17.547771128452847,0.0,5.669455430840271,0.0,0.0,0.509958973744234,0.0,4.703635327660393,0.0,9696.925328214176,0.370379672801273,125.99726316464748,2.1288392468365496,1.2216360032918623,100981.47823900456,287.9638736871728,0.1,0.0,0.0,402.2423684210526,0.21588056032925707,0.86,nominal,8231.069730389427,nan,pitch_program,11.935,0.0,0.0
2.16,229.2067107039953,0.0,28.698150454358014,126.63884015320528,0.0,2.1111032108562284,126.65643525741582,17.54129471164297,0.0,5.654737227503947,0.0,0.0,0.49060678057531126,0.0,4.698935170833699,0.0,9783.128272911765,0.3720237135193489,126.55644916038585,2.1287480620329986,1.2216285707692656,100980.71950089363,287.96346202204666,0.1,0.0,0.0,402.2084210526316,0.2158623410229587,0.86,nominal,8302.359013211213,nan,pitch_program,11.92,0.0,0.0
2.19,233.02263322845343,0.0,28.76115425588845,127.19741748193762,0.0,2.1001267176811904,127.21475365029265,17.53481884141228,0.0,5.640591320324486,0.0,0.0,0.4715302417105898,0.0,4.693935988731103,0.0,9869.577699683463,0.37366520402481,127.11476728849509,2.128664291294062,1.2216211769257341,100979.96471235428,287.9630524973367,0.1,0.0,0.0,402.1744736842105,0.21584412171666034,0.86,nominal,8373.847346535833,nan,pitch_program,11.905,0.0,0.0
2.2199999999999998,236.8552859994709,0.0,28.823880323269492,127.75509236724928,0.0,2.090868912701373,127.77220103987602,17.52834351776078,0.0,5.627009489029233,0.0,0.0,0.45272771196172534,0.0,4.68864306075977,0.0,9956.271302311445,0.37530413537420537,127.67221444034348,2.1285874948226247,1.2216138157098466,100979.21325562139,287.96264477789873,0.1,0.0,0.0,402.1405263157895,0.215825902410362,0.86,nominal,8445.533385259438,nan,pitch_program,11.890000000000002,0.0,0.0
2.25,240.7046418803918,0.0,28.886380080364205,128.3118626973629,0.0,2.0833252364904196,128.32877445416483,17.521868740688472,0.0,5.6139835650194865,0.0,0.0,0.4341974688617212,0.0,4.68306159672342,0.0,10043.206788635449,0.37694049902595966,128.22878764290192,2.128517226772912,1.2216064810863463,100978.46451458368,287.9622385294776,0.1,0.0,0.0,402.1065789473684,0.21580768310406362,0.86,nominal,8517.415795669058,nan,pitch_program,11.875,0.0,0.0
2.28,244.57067367279305,0.0,28.948704804478584,128.86772641337495,0.0,2.0774908038126862,128.88447105447725,17.51539451019535,0.0,5.601505433287008,0.0,0.0,0.41593772605987395,0.0,4.677196740116685,0.0,10130.381880701998,0.3785742868338332,128.78448405654197,2.128453035680492,1.2215991670372923,100977.71787490089,287.9618334187709,0.1,0.0,0.0,402.0726315789474,0.21578946379776529,0.86,nominal,8589.493255467032,nan,pitch_program,11.86,0.0,0.0
2.31,248.45335411807156,0.0,29.01090561672272,129.42268150928405,0.0,2.073360408137859,129.43928813322333,17.508920826281418,0.0,5.589567033989247,0.0,0.0,0.39794664469849345,0.0,4.671053570979878,0.0,10217.794314898469,0.38020549104029466,129.33930097280466,2.1283944648872932,1.22159186756318,100976.97272411836,287.9614291134913,0.1,0.0,0.0,402.03868421052636,0.21577124449146692,0.86,nominal,8661.764453784037,nan,pitch_program,11.845,0.0,0.0
2.34,252.35265589903128,0.0,29.073033472511298,129.9767260319908,0.0,2.07092852628599,129.99322311165372,17.502447688946674,0.0,5.578160363734677,0.0,0.0,0.38022234307481867,0.0,4.664637108376855,0.0,10305.441842073096,0.3818341042698251,129.8932358121461,2.1283410529615128,1.2215845766840607,100976.22845178118,287.96102528242864,0.1,0.0,0.0,402.0047368421053,0.21575302518516856,0.86,nominal,8734.228091181294,nan,pitch_program,11.83,0.0,0.0
2.37,256.26855164146946,0.0,29.135139152206865,130.5298580812736,0.0,2.0701893231855144,130.54627353758994,17.49597509819112,0.0,5.567277476622497,0.0,0.0,0.3627629048299468,0.0,4.65795231255005,0.0,10393.322227641405,0.38346011952216635,130.44628612166392,2.1282923341123072,1.221577288440643,100975.4844495466,287.96062159551064,0.1,0.0,0.0,401.9707894736842,0.21573480587887017,0.86,nominal,8806.882879642617,nan,pitch_program,11.815,0.0,0.0
2.4,260.20101391576173,0.0,29.197273251908733,131.082075809743,0.0,2.0711366567289256,131.09843708314017,17.489503054014754,0.0,5.5569104850747495,0.0,0.0,0.3455663858677591,0.0,4.651004086799243,0.0,10481.433251679662,0.38508353016552715,130.99844957281024,2.1282478385992514,1.2215699968953604,100974.74011129305,287.96021772386257,0.1,0.0,0.0,401.9368421052631,0.2157165865725718,0.86,nominal,8879.72754255686,nan,pitch_program,11.8,0.0,0.0
2.4299999999999997,264.15001523844506,0.0,29.259486174390112,131.63337742277793,0.0,2.073764082712651,131.64971154240425,17.483031556417576,0.0,5.547051560492022,0.0,0.0,0.3286308202350606,0.0,4.643797279122749,0.0,10569.772709006187,0.3867043299297583,131.54972395909348,2.1280614142228087,1.2215626961334465,100973.99483322985,287.95981333986646,0.1,0.0,0.0,401.9028947368421,0.21569836726627348,0.86,nominal,8952.760814691208,nan,pitch_program,11.785,0.0,0.0
2.46,268.11552839291664,0.0,29.321824834301808,132.18377181572018,0.0,2.0779553303899068,132.20010374347473,17.476560605399587,0.0,5.54172488043971,0.0,0.0,0.17755600187160728,0.0,4.640416203243388,0.0,10658.339850884175,0.3883225390858222,132.1001161067708,2.128225270178333,1.2215553806495751,100973.24805336616,287.95940813857703,0.1,0.0,0.0,401.86894736842106,0.21568014795997512,0.86,nominal,9025.982588404044,nan,pitch_program,11.77,0.0,0.0
2.4899999999999998,272.0975234815787,0.0,29.384347176733353,132.7331696220698,0.0,2.0840780810514823,132.74952994029422,17.470090200960787,0.0,5.5398792060778135,0.0,0.0,0.0615224787352151,0.0,4.639659052954737,0.0,10747.119261324528,0.38993791172117526,132.64954227378496,2.128568488364199,1.2215480436440997,100972.49907758766,287.9590017433512,0.1,0.0,0.0,401.835,0.21566192865367675,0.86,nominal,9099.380857925247,nan,pitch_program,11.755,0.0,0.0
2.52,276.0959688147845,0.0,29.44711720713685,133.28151110685965,0.0,2.092334346783167,133.29793346465158,17.463620343101177,0.0,5.5397096201031175,0.0,0.0,0.00565286582322269,0.0,4.6396442512933405,0.0,10836.099700242085,0.3915502815460835,133.19794579393977,2.1288959328303307,1.22154067760632,100971.74713919846,287.9585937381536,0.1,0.0,0.0,401.80105263157895,0.2156437093473784,0.86,nominal,9172.94710493271,nan,pitch_program,11.74,0.0,0.0
2.55,280.1108321786906,0.0,29.510199029328234,133.82877879687032,0.0,2.102727406379555,133.84529687967068,17.457151031820754,0.0,5.541866410013938,0.0,0.0,-0.07189299703583911,0.0,4.641032053176275,0.0,10925.276186372677,0.39315959759361385,133.74530923007288,2.129344759845753,1.221533275014136,100970.99147034322,287.95818370630934,0.1,0.0,0.0,401.7671052631579,0.21562549004108003,0.86,nominal,9246.677941714555,nan,pitch_program,11.725000000000001,0.0,0.0
2.58,284.14208022576054,0.0,29.573660394660628,134.37493490233214,0.0,2.1153788444130974,134.391584400443,17.45068226711952,0.0,5.54630303726847,0.0,0.0,-0.14788757522497115,0.0,4.643735076067561,0.0,11014.640680184517,0.3947657549856959,134.29159679846288,2.129917350039909,1.2215258279175523,100970.23125949099,287.9577712074347,0.1,0.0,0.0,401.73315789473685,0.2156072707347817,0.86,nominal,9320.567515539995,nan,pitch_program,11.71,0.0,0.0
2.61,288.18967849570254,0.0,29.637572616929234,134.9199423313999,0.0,2.130407408953495,134.9367610195102,17.444214048997477,0.0,5.552358711599719,0.0,0.0,-0.20185581122951302,0.0,4.647053510583273,0.0,11104.185172865835,0.3963686511502606,134.8367734928796,2.1305397658398744,1.221518327948684,100969.46565245684,287.95735577798996,0.1,0.0,0.0,401.6992105263158,0.21558905142848334,0.86,nominal,9394.61003872201,nan,pitch_program,11.695,0.0,0.0
2.6399999999999997,292.2535918881068,0.0,29.702008343308435,135.46377974680877,0.0,2.1478575459734235,135.48080644626276,17.437746377454623,0.0,5.559998734993341,0.0,0.0,-0.2546674468314486,0.0,4.650945764915884,0.0,11193.903996629095,0.3979682267856393,135.3808190231554,2.1312327949341126,1.221510766583339,100968.69377910484,287.95693694576846,0.1,0.0,0.0,401.6652631578947,0.21557083212218495,0.86,nominal,9468.801657784763,nan,pitch_program,11.68,0.0,0.0
2.67,296.33378463162126,0.0,29.767041936603388,136.00642478381485,0.0,2.1677864431650913,136.02369970170145,17.431279252490956,0.0,5.56917818852556,0.0,0.0,-0.30598178506175694,0.0,4.655354707198966,0.0,11283.791315853176,0.3995644205799736,135.9237124109767,2.132003702871889,1.2215031350961703,100967.91474877037,287.9565142274121,0.1,0.0,0.0,401.63131578947366,0.21555261281588659,0.86,nominal,9543.13840207692,nan,pitch_program,11.665,0.0,0.0
2.6999999999999997,300.43022028914254,0.0,29.83274954672822,136.54785525070966,0.0,2.190253670827744,136.56542016451797,17.42481267410648,0.0,5.5796458864530205,0.0,0.0,-0.3489232652192261,0.0,4.660016079786246,0.0,11373.841299286847,0.4011571722863931,136.46543303584681,2.132827937786434,1.221495424552296,100967.12764940466,287.95608712794626,0.1,0.0,0.0,401.59736842105264,0.21553439350958825,0.86,nominal,9617.616325698087,nan,pitch_program,11.65,0.0,0.0
2.73,304.5428619294824,0.0,29.899208345560854,137.08805467799618,0.0,2.215293294421106,137.10595267812982,17.41834664230119,0.0,5.591298864287529,0.0,0.0,-0.38843259582257234,0.0,4.66482470023048,0.0,11464.048976897862,0.4027464377314896,137.00596574179528,2.133704515209869,1.2214876258970941,100966.33155674163,287.95565514575384,0.1,0.0,0.0,401.56342105263155,0.21551617420328986,0.86,nominal,9692.232201410783,nan,pitch_program,11.635,0.0,0.0
2.76,308.6716721767982,0.0,29.966496398109328,137.6270082438596,0.0,2.2429350849491105,137.6452838129614,17.411881157075094,0.0,5.60406866114736,0.0,0.0,-0.42565989708963703,0.0,4.6697116678043225,0.0,11554.409630305476,0.4043321778280707,137.54529709990786,2.1346337508996998,1.2214797299713303,100965.52553584223,287.95521777341224,0.1,0.0,0.0,401.52947368421053,0.21549795489699153,0.86,nominal,9766.983019877864,nan,pitch_program,11.620000000000001,0.0,0.0
2.79,312.81661324096217,0.0,30.03469259207091,138.16470213879956,0.0,2.2732064653860573,138.18340126345666,17.405416218428183,0.0,5.617835168228687,0.0,0.0,-0.4588835715852336,0.0,4.6745573646423555,0.0,11644.918697002406,0.4059143568024089,138.08341480536217,2.135606084645394,1.2214717275194296,100964.70864193923,287.9547744981515,0.1,0.0,0.0,401.49552631578945,0.21547973559069317,0.86,nominal,9841.86591047677,nan,pitch_program,11.605,0.0,0.0
2.82,316.9776469938893,0.0,30.103876327142817,138.70112509757257,0.0,2.3061245023968393,138.72029524749806,17.398951826360463,0.0,5.632517945757748,0.0,0.0,-0.48942592031377957,0.0,4.679286074116303,0.0,11735.572011473201,0.40749294630635735,138.62030907674932,2.136617859045732,1.2214636092259432,100963.8799241598,287.95432480387353,0.1,0.0,0.0,401.4615789473684,0.2154615162843948,0.86,nominal,9916.87833556009,nan,pitch_program,11.59,0.0,0.0
2.85,321.15473501387146,0.0,30.17412736630501,139.23626733273744,0.0,2.3417013054064526,139.25595752339385,17.39248798087193,0.0,5.648054559599944,0.0,0.0,-0.5178871312465498,0.0,4.683842005987916,0.0,11826.365646683647,0.4090679225271812,139.15597167312197,2.137666601503565,1.2214553657330058,100963.03842730803,287.953868172119,0.1,0.0,0.0,401.4276315789474,0.21544329697809647,0.86,nominal,9992.017959015411,nan,pitch_program,11.575,0.0,0.0
2.88,325.34783861864776,0.0,30.245525730255274,139.77012015920965,0.0,2.3799454650087446,139.79038103437705,17.38602468196259,0.0,5.664373658018995,0.0,0.0,-0.5439699509791196,0.0,4.688161744212104,0.0,11917.29585869036,0.41063926514207866,139.6903955385068,2.138747165238098,1.221446987652735,100962.18319313067,287.9534040827533,0.1,0.0,0.0,401.3936842105263,0.21542507767179808,0.86,nominal,10067.282599770768,nan,pitch_program,11.56,0.0,0.0
2.9099999999999997,329.5569189084674,0.0,30.31815153542328,140.3026763273228,0.0,2.4208601722669005,140.32356020491775,17.379561929632434,0.0,5.681417959032235,0.0,0.0,-0.5681433712977169,0.0,4.6921979809072925,0.0,12008.359141532257,0.4122069581884017,140.22357509818994,2.1398560911834195,1.22143846558624,100961.3132622581,287.9529320150197,0.1,0.0,0.0,401.3597368421053,0.21540685836549975,0.86,nominal,10142.670275046446,nan,pitch_program,11.545,0.0,0.0
2.94,333.781936798614,0.0,30.392084881935872,140.833929671553,0.0,2.464444883753071,140.85549061118274,17.37309972388147,0.0,5.699138343002975,0.0,0.0,-0.5906794703996793,0.0,4.695912891132974,0.0,12099.552175607954,0.41377098909443677,140.75550592919157,2.140990357200279,1.2214297901367865,100960.42767554814,287.95245144826737,0.1,0.0,0.0,401.3257894736842,0.21538863905920136,0.86,nominal,10218.179156865932,nan,pitch_program,11.53,0.0,0.0
2.9699999999999998,338.0228530469679,0.0,30.467405760343663,141.36387494512843,0.0,2.510695946926403,141.38616882014952,17.366638064709694,0.0,5.717486516257696,0.0,0.0,-0.6116057803841288,0.0,4.699270517979175,0.0,12190.87180382667,0.4153313482060048,141.28618459938252,2.1421463233789475,1.2214209519207413,100959.5254752038,287.95196186255777,0.1,0.0,0.0,401.29184210526313,0.215370419752903,0.86,nominal,10293.807551519585,nan,pitch_program,11.515,0.0,0.0
3.0,342.2796282824411,0.0,30.544193950209895,141.8925078491065,0.0,2.5596063288743696,141.9155924071332,17.360176952117108,0.0,5.736420705383606,0.0,0.0,-0.6311396432740465,0.0,4.702242558381397,0.0,12282.315038026532,0.41688802883745013,141.81560868500247,2.1433209379777822,1.2214119415794835,100958.60570598935,287.95146273932363,0.1,0.0,0.0,401.2578947368421,0.21535220044660466,0.86,nominal,10369.553903735605,nan,pitch_program,11.5,0.0,0.0
3.03,346.5522230289148,0.0,30.62252893844752,142.4198248824573,0.0,2.6111662745875113,142.44375981019087,17.35371638610371,0.0,5.7559032698532615,0.0,0.0,-0.6494188219125193,0.0,4.704805690070112,0.0,12373.879037061355,0.41844102684322027,142.34377662506662,2.1445112974884446,1.221402749788999,100957.66741620986,287.95095356190006,0.1,0.0,0.0,401.223947368421,0.21533398114030627,0.86,nominal,10445.416777845901,nan,pitch_program,11.485,0.0,0.0
3.06,350.8405977267963,0.0,30.70248984634273,142.94582326271754,0.0,2.6653635965069795,142.97067024868304,17.3472563666695,0.0,5.775898856460707,0.0,0.0,-0.6665195603463224,0.0,4.706939595173145,0.0,12465.561095491881,0.4199903403780659,142.87068763992536,2.145714423688083,1.2213933672684485,100956.70965858648,287.95043381599874,0.1,0.0,0.0,401.19,0.21531576183400794,0.86,nominal,10521.394847730468,nan,pitch_program,11.47,0.0,0.0
3.09,355.1447127535839,0.0,30.784155359260737,143.4705008929204,0.0,2.722183763933549,143.49632368430244,17.34079689381448,0.0,5.796375637206571,0.0,0.0,-0.6825593654605591,0.0,4.7086281505849845,0.0,12557.358639382142,0.4215359697820753,143.39634169228836,2.146927584124106,1.2213837847884308,100955.73149109974,287.9499029901648,0.1,0.0,0.0,401.156052631579,0.21529754252770958,0.86,nominal,10597.486892608942,nan,pitch_program,11.455,0.0,0.0
3.12,359.46452844214593,0.0,30.86760366585092,143.99385628540062,0.0,2.7816102196727255,144.02072074307503,17.33433796753865,0.0,5.817304206308323,0.0,0.0,-0.6976189778149261,0.0,4.709858187860786,0.0,12649.26921506061,0.4230779173510282,143.92073940922384,2.1481481178796815,1.2213739931781167,100954.73197771852,287.94936057617196,0.1,0.0,0.0,401.1221052631579,0.21527932322141122,0.86,nominal,10673.691787167116,nan,pitch_program,11.44,0.0,0.0
3.15,363.8000050976355,0.0,30.95291240226344,144.51588851631942,0.0,2.8436245470841,144.54386266537242,17.32787958784201,0.0,5.83865711955131,0.0,0.0,-0.7117637830042691,0.0,4.710618958090893,0.0,12741.290482504637,0.4246161871891054,144.44388203216772,2.149373414116281,1.221363983331814,100953.71018907029,287.9488060693853,0.1,0.0,0.0,401.08815789473687,0.21526110391511288,0.86,nominal,10750.00849552268,nan,pitch_program,11.425,0.0,0.0
3.1799999999999997,368.15110301331976,0.0,31.04015860040707,145.03659718947532,0.0,2.9082066047876984,145.06575126458432,17.321421754724557,0.0,5.860409005167934,0.0,0.0,-0.7250628625960146,0.0,4.7109021828530375,0.0,12833.420210049835,0.42615078508706766,144.96577137559183,2.150600982696651,1.221353746215044,100952.66520306174,287.9482389690973,0.1,0.0,0.0,401.0542105263158,0.2152428846088145,0.86,nominal,10826.436066317807,nan,pitch_program,11.410000000000002,0.0,0.0
3.21,372.5177824851202,0.0,31.129418641440687,145.55598239334878,0.0,2.9753347011204574,145.58638887985563,17.314964468186293,0.0,5.882536060578376,0.0,0.0,-0.7375685228482692,0.0,4.710701476683267,0.0,12925.656267869997,0.4276817183830106,145.48640977973815,2.151828389088953,1.2213432728700115,100951.59610543743,287.9476587788306,0.1,0.0,0.0,401.0202631578947,0.21522466530251613,0.86,nominal,10902.97362685836,nan,pitch_program,11.395000000000001,0.0,0.0
3.2399999999999998,376.9000038252583,0.0,31.220768212708233,146.0740446712699,0.0,3.0449857089182655,146.10577834087078,17.308507728227216,0.0,5.905015900104352,0.0,0.0,-0.74932799381164,0.0,4.710012145680189,0.0,13017.99662341063,0.4292089958585432,146.0058000753991,2.1530532643853673,1.2213325544206646,100950.50199029676,287.9470650066174,0.1,0.0,0.0,400.9863157894737,0.21520644599621777,0.86,nominal,10979.620378888989,nan,pitch_program,11.38,0.0,0.0
3.27,381.2977273750642,0.0,31.314282268027792,146.5907849935308,0.0,3.1171351773186027,146.6239229346059,17.30205153484733,0.0,5.927827436651934,0.0,0.0,-0.7603845616302789,0.0,4.708831022350873,0.0,13110.439337027508,0.4307326276407644,146.52394555066604,2.154273311519323,1.2213215820773677,100949.38196057115,287.9464571652578,0.1,0.0,0.0,400.9523684210526,0.2151882266899194,0.86,nominal,11056.375594570382,nan,pitch_program,11.365,0.0,0.0
3.3,385.7109135169982,0.0,31.410034991208022,147.10620473113164,0.0,3.1917574393409804,147.14082637374716,17.29559588804663,0.0,5.95095065691919,0.0,0.0,-0.7707740193701563,0.0,4.707156196667264,0.0,13202.982557785674,0.4322526251091491,147.04084991934377,2.1554862850911958,1.221310347141194,100948.23512846255,287.94583477255713,0.1,0.0,0.0,400.9184210526316,0.21517000738362105,0.86,nominal,11133.238612621133,nan,pitch_program,11.35,0.0,0.0
3.33,390.13952268604316,0.0,31.50809976212353,147.62030563483367,0.0,3.2688256971835483,147.65649277007861,17.289140787825122,0.0,5.9743665309929295,0.0,0.0,-0.780529146655075,0.0,4.704986891162933,0.0,13295.624520023383,0.43376900081705294,147.55651729433475,2.156689997653967,1.2212988410079124,100947.060615851,287.9451973515462,0.1,0.0,0.0,400.8844736842105,0.2151517880773227,0.86,nominal,11210.208835112368,nan,pitch_program,11.335,0.0,0.0
3.36,394.5835153805044,0.0,31.608549125278564,148.1330898153749,0.0,3.3483121051678815,148.1709266091143,17.2826862341828,0.0,5.998056895071411,0.0,0.0,-0.7896788138664359,0.0,4.702323310818512,0.0,13388.363540030117,0.4352817684168841,148.07095216226733,2.1578823149056694,1.221287055171692,100945.85755467272,287.94454443068565,0.1,0.0,0.0,400.85052631578947,0.21513356877102435,0.86,nominal,11287.285724381183,nan,pitch_program,11.32,0.0,0.0
3.3899999999999997,399.0428521722869,0.0,31.71145476057855,148.64455972608422,0.0,3.430187843332926,148.68413272707338,17.27623222711967,0.0,6.022004345920347,0.0,0.0,-0.7982483732518417,0.0,4.699166509003203,0.0,13481.198013044697,0.43679094259217116,148.58415936046734,2.159061151285534,1.221274981228541,100944.6250872719,287.9438755440562,0.1,0.0,0.0,400.81657894736844,0.215115349464726,0.86,nominal,11364.468800228811,nan,pitch_program,11.305,0.0,0.0
3.42,403.51749371671696,0.0,31.816887456057962,149.15471814766758,0.0,3.5144231826470604,149.19611628999223,17.269778766635728,0.0,6.0461921717146865,0.0,0.0,-0.8062608717853652,0.0,4.695518293639764,0.0,13574.126410547096,0.43829653899592047,149.09614405606655,2.1602244710313676,1.2212626108795173,100943.36236672837,287.9431902315356,0.1,0.0,0.0,400.78263157894736,0.21509713015842763,0.86,nominal,11441.757637379393,nan,pitch_program,11.29,0.0,0.0
3.4499999999999997,408.00740076194154,0.0,31.924917082446548,149.6635681741529,0.0,3.6009875462861425,149.70688277406563,17.263325852730976,0.0,6.0706042753221885,0.0,0.0,-0.8137367992269933,0.0,4.691381127839123,0.0,13667.147277688395,0.43979857419259477,149.60691172634037,2.161370284921914,1.2212499359337223,100942.06855716395,287.9424880389641,0.1,0.0,0.0,400.74868421052633,0.21507891085212927,0.86,nominal,11519.151863070489,nan,pitch_program,11.275,0.0,0.0
3.48,412.5125341579543,0.0,32.03561256938238,150.17111320042557,0.0,3.689849564527816,150.21643794759572,17.25687348540541,0.0,6.095225117131849,0.0,0.0,-0.820694739617415,0.0,4.686758052992324,0.0,13760.259230934415,0.4412970656048237,150.11646814065335,2.1624966498394524,1.2212369483111043,100940.74283402869,287.941768518299,0.1,0.0,0.0,400.71473684210525,0.2150606915458309,0.86,nominal,11596.651154835472,nan,pitch_program,11.26,0.0,0.0
3.51,417.03285486527875,0.0,32.149041883152,150.67735691081475,0.0,3.7809771256541733,150.7247878540679,17.250421664659036,0.0,6.12003966518347,0.0,0.0,-0.8271516146499095,0.0,4.681652621087703,0.0,13853.460955842389,0.44279203146343465,150.62481934353187,2.1636016681405623,1.2212236400450842,100939.38438436929,287.9410312277595,0.1,0.0,0.0,400.6807894736842,0.21504247223953252,0.86,nominal,11674.255238410298,nan,pitch_program,11.245000000000001,0.0,0.0
3.54,421.56832396333715,0.0,32.26527200584616,151.1823032686136,0.0,3.8743374231384875,151.23193879624563,17.24397039049185,0.0,6.145033350224181,0.0,0.0,-0.8331228479015849,0.0,4.676068833723684,0.0,13946.751204956101,0.44428349076048423,151.13197163875572,2.164683486731165,1.2212100032850075,100937.99240707987,287.940275731962,0.1,0.0,0.0,400.64684210526315,0.21502425293323418,0.86,nominal,11751.963885751824,nan,pitch_program,11.23,0.0,0.0
3.57,426.11890265853106,0.0,32.38436891582397,151.68595650646412,0.0,3.969896999260336,151.73789732122185,17.237519662903853,0.0,6.1701920301157,0.0,0.0,-0.8386226765251859,0.0,4.6700110921403075,0.0,14040.12879581319,0.4457714632051079,151.63793157440645,2.1657402971118382,1.2211960302984488,100936.56611313738,287.93950160204713,0.1,0.0,0.0,400.61289473684207,0.21500603362693582,0.86,nominal,11829.776913161197,nan,pitch_program,11.215,0.0,0.0
3.5999999999999996,430.6845522920522,0.0,32.50639756940702,152.1883211173713,0.0,4.067621786101746,152.2426702062168,17.231069481895045,0.0,6.1955019574810475,0.0,0.0,-0.8436642592306446,0.0,4.6634841517548065,0.0,14133.592609030264,0.44725596918156907,152.1427059286623,2.1667703350297085,1.2211817134733762,100935.1047258229,287.9387084157988,0.1,0.0,0.0,400.57894736842104,0.21498781432063746,0.86,nominal,11907.69417948347,nan,pitch_program,11.2,0.0,0.0
3.63,435.2652343474416,0.0,32.6314218837248,152.68940184631282,0.0,4.167477143925918,152.7462644450919,17.224619847465426,0.0,6.220949752960675,0.0,0.0,-0.8482598632654328,0.0,4.656493083537546,0.0,14227.141586463662,0.4487370297094189,152.6463016963093,2.167771880561702,1.2211670453201648,100933.60748092769,287.93789575775577,0.1,0.0,0.0,400.545,0.21496959501433913,0.86,nominal,11985.715584381001,nan,pitch_program,11.185,0.0,0.0
3.6599999999999997,439.86091045791096,0.0,32.759504720648366,153.18920368231173,0.0,4.269427897452196,153.2486872354616,17.218170759614996,0.0,6.246522382144031,0.0,0.0,-0.8524209869292657,0.0,4.649043240069473,0.0,14320.77472942775,0.45021466640541885,153.14872607585045,2.16874325823699,1.2211520184734992,100932.07362694755,287.93706321931575,0.1,0.0,0.0,400.51105263157893,0.21495137570804074,0.86,nominal,12063.84106666491,nan,pitch_program,11.17,0.0,0.0
3.69,444.47154241343793,0.0,32.890707871756014,153.68773185089964,0.0,4.373438370254959,153.74994596633994,17.211722218343755,0.0,6.272207135662747,0.0,0.0,-0.8561584649614822,0.0,4.6411402256557475,0.0,14414.49109696168,0.4516889014470393,153.64998645714965,2.169682837214638,1.221136625694151,100930.50242526452,287.93621039883357,0.1,0.0,0.0,400.4771052631579,0.2149331564017424,0.86,nominal,12142.070602676782,nan,pitch_program,11.155,0.0,0.0
3.7199999999999998,449.09709216764514,0.0,33.025092044280996,154.18499180690745,0.0,4.479472417499288,154.25004820626557,17.205274223651703,0.0,6.297991612380165,0.0,0.0,-0.859482571752623,0.0,4.632789870327511,0.0,14508.289804136652,0.45315975753737175,154.15009040955465,2.170589031601598,1.2211208598706262,100928.8931503157,287.93533690171216,0.1,0.0,0.0,400.4431578947368,0.21491493709544401,0.86,nominal,12220.404204713674,nan,pitch_program,11.14,0.0,0.0
3.75,453.73752184447056,0.0,33.16271684799882,154.68098922751426,0.0,4.587493457260946,154.74900169184548,17.19882677553884,0.0,6.323863704737534,0.0,0.0,-0.8624030932326266,0.0,4.62399820667933,0.0,14602.170020395244,0.4546272578712737,154.64904567043826,2.1714603007533784,1.221104714020727,100927.24508975256,287.934442340488,0.1,0.0,0.0,400.4092105263158,0.21489671778914568,0.86,nominal,12298.841919488827,nan,pitch_program,11.125,0.0,0.0
3.78,458.392793744636,0.0,33.30364078301558,155.17573000551425,0.0,4.697464500558699,155.24681431668176,17.192379874005166,0.0,6.349811586303949,0.0,0.0,-0.8649294003300735,0.0,4.6147714495241345,0.0,14696.13096791781,0.4560914261026468,155.14686013412313,2.1722951496559855,1.2210881812929864,100925.55754458804,287.93352633491037,0.1,0.0,0.0,400.3752631578947,0.21487849848284732,0.86,nominal,12377.38382662389,nan,pitch_program,11.11,0.0,0.0
3.81,463.06287035191855,0.0,33.44792122842383,155.66922024275257,0.0,4.80934818027489,155.74349412063967,17.185933519050682,0.0,6.37582370095028,0.0,0.0,-0.8670705031038611,0.0,4.605115977704795,0.0,14790.171920010305,0.4575522863127213,155.64354184114796,2.1730921292964487,1.2210712549680127,100923.82982933393,287.93258851201523,0.1,0.0,0.0,400.34131578947364,0.21486027917654893,0.86,nominal,12456.030037167584,nan,pitch_program,11.095,0.0,0.0
3.84,467.7477143392295,0.0,33.59561443179588,156.16146624369915,0.0,4.923106779068376,156.23904927942982,17.179487710675385,0.0,6.401888753533662,0.0,0.0,-0.868835101096752,0.0,4.595038317896574,0.0,14884.292199509988,0.4590098629792695,156.1390989678478,2.173849837054331,1.221053928459728,100922.06127212757,287.9316285061933,0.1,0.0,0.0,400.3073684210526,0.2148420598702506,0.86,nominal,12534.780692137621,nan,pitch_program,11.080000000000002,0.0,0.0
3.8699999999999997,472.4472885745034,0.0,33.746775499487676,156.65247450912864,0.0,5.0387022563932895,156.73348809447768,17.17304244887928,0.0,6.4279957017943525,0.0,0.0,-0.8702316237461105,0.0,4.58454513004794,0.0,14978.491177205746,0.460464180946667,156.63353981622186,2.1745669170809467,1.2210361953165199,100920.25121484984,287.9306459592533,0.1,0.0,0.0,400.2734210526316,0.21482384056395223,0.86,nominal,12613.63596108294,nan,pitch_program,11.065000000000001,0.0,0.0
3.9,477.1615561263999,0.0,33.90145838772888,157.1422517298829,0.0,5.156096274706789,157.22681898306004,17.16659773366236,0.0,6.454133749299049,0.0,0.0,-0.8712682652667948,0.0,4.573643194252265,0.0,15072.768270270433,0.4619152653967448,157.1268728040686,2.175242060665415,1.221018049222292,100918.39901323247,287.9296405204797,0.1,0.0,0.0,400.2394736842105,0.21480562125765387,0.86,nominal,12692.596040663986,nan,pitch_program,11.05,0.0,0.0
3.9299999999999997,481.8904802698207,0.0,34.05971589447709,157.6308047806956,0.0,5.275250224940267,157.719050468691,17.160153565024633,0.0,6.480292339264133,0.0,0.0,-0.8719530139820456,0.0,4.562339398846573,0.0,15167.12294070355,0.46336314182037824,157.61910645537031,2.175874006578202,1.220999483997431,100916.5040369572,287.9286118466859,0.1,0.0,0.0,400.2055263157895,0.21478740195135554,0.86,nominal,12771.661153249323,nan,pitch_program,11.035,0.0,0.0
3.96,486.6340244912426,0.0,34.22159965201596,158.11814071406238,0.0,5.396125251295756,158.21019117174373,17.153709942966092,0.0,6.506461149112604,0.0,0.0,-0.872293676779347,0.0,4.550640729559612,0.0,15261.554693782706,0.46480783598977365,158.11024939091362,2.176461541383528,1.220980493599678,100914.56566974487,287.92755960226185,0.1,0.0,0.0,400.1715789473684,0.21476918264505715,0.86,nominal,12850.831545527293,nan,pitch_program,11.02,0.0,0.0
