time_s,x_m,y_m,altitude_m,vx_mps,vy_mps,vz_mps,speed_mps,mass_kg,roll_deg,pitch_deg,yaw_deg,p_dps,q_dps,r_dps,alpha_deg,beta_deg,qbar_pa,mach,airspeed_mps,load_factor_g,density_kgpm3,pressure_pa,temperature_k,wind_x_mps,wind_y_mps,wind_z_mps,thrust_n,mass_flow_kgps,propulsion_throttle_actual,propulsion_health,energy_j_per_kg,target_distance_m,guidance_mode,pitch_command_deg,heading_command_deg,roll_command_deg,elevator_command_deg,aileron_command_deg,rudder_command_deg,elevator_deg,aileron_deg,rudder_deg,throttle,elevator_saturated,aileron_saturated,rudder_saturated,elevator_failed,aileron_failed,rudder_failed,elevator_raw_rad,aileron_raw_rad,rudder_raw_rad,elevator_effective_rad,aileron_effective_rad,rudder_effective_rad,imu_ax_mps2,imu_ay_mps2,imu_az_mps2,gyro_p_rps,gyro_q_rps,gyro_r_rps,gps_valid,gps_x_m,gps_y_m,gps_z_m,gps_vx_mps,gps_vy_mps,gps_vz_mps,baro_alt_m,pitot_airspeed_mps,pitot_qbar_pa,mag_heading_deg
0.0,0.0,0.0,120.0,86.0,0.0,16.0,87.47571091451616,18.0,0.0,10.0,0.0,0.0,0.0,0.0,-0.5391837286282299,0.0,4633.093410827757,0.2574078588887444,87.47571091451614,1.7887233382662049,1.2109496630495968,99891.70180372041,287.37,0.0,0.0,0.0,334.4,0.17947005348411538,0.88,nominal,5002.798,nan,pitch_program,14.999999999999998,0.0,0.0,-20.05352282957881,-0.0,0.0,-2.6999999999999997,0.0,0.0,0.88,0.0,0.0,0.0,0.0,0.0,0.0,-0.047123889803846894,0.0,0.0,-0.047123889803846894,0.0,0.0,17.56339402572519,0.04248571114457688,-0.7813308927096466,-0.00027568490497605015,0.0007811719919156668,0.000485939220168199,1.0,-1.1162081080547748,-0.4584631380317187,119.8408002840318,86.00638427343237,0.12549532301118693,16.279364599631737,120.4318804253634,87.99906270437734,4695.892219494843,-0.0842050595302957
0.03,2.5956430605347935,0.0,120.47330314433844,86.52143535115978,0.0,15.776771477948124,87.94808294381589,17.994615898395477,0.0,10.379294008134904,0.0,0.0,-12.64317977685787,0.0,0.04521865340142464,0.0,4683.052886220638,0.2587992560201085,87.94808294381589,1.8242603807479665,1.2108944909902168,99886.08128676451,287.3669235295618,0.0,0.0,0.0,340.34,0.1826580083815306,0.88,nominal,5048.872165026586,nan,pitch_program,14.977500000000001,0.0,0.0,0.76902912208448,-0.0,0.0,-0.6185825267493118,0.0,0.0,0.88,0.0,0.0,0.0,0.0,0.0,0.0,-0.010796301787081387,0.0,0.0,-0.010796301787081387,0.0,0.0,17.912360138452424,0.0019232785105255802,-0.045710205245659566,-0.0003006696581589329,-0.22311851703557128,-0.0005806818712850017,1.0,-1.1162081080547748,-0.4584631380317187,119.8408002840318,86.00638427343237,0.12549532301118693,16.279364599631737,120.4318804253634,87.58767463363866,4703.669027798601,-0.0842050595302957
0.06,5.207128993487495,0.0,120.94065156236364,87.04953109842339,0.0,15.578280600839731,88.43248097239996,17.98913615814403,0.0,10.796225657982468,0.0,0.0,-13.897782988219307,0.0,0.6500459454750832,0.0,4734.568319018214,0.26022603886584994,88.43248097239994,1.8510738370435031,1.2108400149490426,99880.5317339787,287.3638857648446,0.0,0.0,0.0,346.28000000000003,0.1858459632789458,0.88,nominal,5096.174486110993,nan,pitch_program,14.955000000000002,0.0,0.0,1.3262625956661882,-0.0,0.0,0.5483245466999881,0.0,0.0,0.88,0.0,0.0,0.0,0.0,0.0,0.0,0.0095700687094202,0.0,0.0,0.0095700687094202,0.0,0.0,18.130011513814804,-0.014630319729742006,0.4803577214712539,0.0012516950984654933,-0.24019699999492716,-0.0010046332504057198,1.0,-1.1162081080547748,-0.4584631380317187,119.8408002840318,86.00638427343237,0.12549532301118693,16.279364599631737,120.74335633396379,88.57589800866762,4701.231186457868,1.060577033780266
0.09,7.834554764130386,0.0,121.40275722275676,87.58085902142972,0.0,15.40352201310395,88.92511094926857,17.983560779245664,0.0,11.040779494174446,0.0,0.0,-8.15180691562328,0.0,1.0657458398376978,0.0,4787.2519080698885,0.26167704517477347,88.92511094926859,1.8802989770930982,1.2107861518686318,99875.04468206823,287.36088207805204,0.0,0.0,0.0,352.22,0.18903391817636103,0.88,nominal,5144.39202778841,nan,pitch_program,14.9325,0.0,0.0,0.036995931167045706,-0.0,0.0,0.21932981867999526,0.0,0.0,0.88,0.0,0.0,0.0,0.0,0.0,0.0,0.0038280274837680806,0.0,0.0,0.0038280274837680806,0.0,0.0,18.38576490895983,-0.006343735965257049,0.878578321273519,-0.0022543300413998806,-0.14288490757992647,-1.609210652151071e-05,1.0,-1.1162081080547748,-0.4584631380317187,119.8408002840318,86.00638427343237,0.12549532301118693,16.279364599631737,120.74335633396379,88.07730500110682,4705.464932112768,1.060577033780266
0.12,10.47809308198667,0.0,121.86001166974489,88.11794392854276,0.0,15.241814899604547,89.42642206656606,17.977889761700375,0.0,11.128847223268112,0.0,0.0,-2.9355915477554313,0.0,1.315460575441586,0.0,4841.166759045408,0.26315359806378946,89.42642206656606,1.9107366881341084,1.210732856050431,99869.61547382081,287.3579099241466,0.0,0.0,0.0,358.16,0.19222187307377622,0.88,nominal,5193.58096525491,nan,pitch_program,14.910000000000002,0.0,0.0,-1.2074057246923406,-0.0,0.0,-0.6367115073434062,0.0,0.0,0.88,0.0,0.0,0.0,0.0,0.0,0.0,-0.011112712188478492,0.0,0.0,-0.011112712188478492,0.0,0.0,18.693897793828256,0.044788394899070084,1.0467402386054425,0.00027528253552988065,-0.052536486143801846,-0.0024346490126345914,1.0,-1.1162081080547748,-0.4584631380317187,119.8408002840318,86.00638427343237,0.12549532301118693,16.279364599631737,121.21429012067594,89.26393789327,4818.298642802172,0.8975121063479822
0.15,13.137975432193894,0.0,122.31259638157877,88.66274500690751,0.0,15.086157061129454,89.9370584744296,17.97212310550816,0.0,11.159951844964713,0.0,0.0,-1.0368207486840568,0.0,1.5034338154168645,0.0,4896.398643836677,0.26465759376856984,89.9370584744296,1.9417917762256833,1.2106801062859285,99864.24194698218,287.3549681235197,0.0,0.0,0.0,364.1,0.19540982797119144,0.88,nominal,5243.814066821894,nan,pitch_program,14.8875,0.0,0.0,-1.65431622707778,-0.0,0.0,-1.2472743391840304,0.0,0.0,0.88,0.0,0.0,0.0,0.0,0.0,0.0,-0.021769043894397856,0.0,0.0,-0.021769043894397856,0.0,0.0,19.002181362884926,0.021430475931926055,1.2257007840804144,-0.0037109480646664414,-0.018003754825441386,0.0008288514001296105,1.0,-1.1162081080547748,-0.4584631380317187,119.8408002840318,86.00638427343237,0.12549532301118693,16.279364599631737,121.21429012067594,90.87154319150753,4889.900289116442,0.8975121063479822
0.18,15.814446489320655,0.0,122.76066051041627,89.21570190422536,0.0,14.93547096125018,90.45722612980097,17.966260810669024,0.0,11.200127865167739,0.0,0.0,-1.3392007283064995,0.0,1.6964528946737614,0.0,4952.987242386862,0.26618963899331505,90.45722612980097,1.9731480981501623,1.2106278851375025,99858.92232353262,287.3520557066823,0.0,0.0,0.0,370.04,0.19859778286860666,0.88,nominal,5295.125710943447,nan,pitch_program,14.865,0.0,0.0,-1.5458215914912843,-0.0,0.0,-1.4264026905683829,0.0,0.0,0.88,0.0,0.0,0.0,0.0,0.0,0.0,-0.024895423409724147,0.0,0.0,-0.024895423409724147,0.0,0.0,19.34274414953687,0.007637135095207556,1.246258720811105,0.0011757095770177771,-0.019843839951264163,0.0018080672402177045,1.0,-1.1162081080547748,-0.4584631380317187,119.8408002840318,86.00638427343237,0.12549532301118693,16.279364599631737,123.03957375353215,91.11025377267826,5013.17537108732,-0.38064726983906355
0.21,18.507738701264934,0.0,123.20440788888716,89.77640706480926,0.0,14.791579282362939,90.98677971624649,17.960302877182965,0.0,11.252603892227146,0.0,0.0,-1.7492010242544977,0.0,1.8965943837359636,0.0,5010.934354095332,0.26774930691997456,90.98677971624649,2.0047079123980684,1.2105761687977599,99853.65417668018,287.3491713487222,0.0,0.0,0.0,375.98,0.20178573776602185,0.88,nominal,5347.519548189936,nan,pitch_program,14.8425,0.0,0.0,-1.4034888968660433,-0.0,0.0,-1.412654414346979,0.0,0.0,0.88,0.0,0.0,0.0,0.0,0.0,0.0,-0.024655470723187006,0.0,0.0,-0.024655470723187006,0.0,0.0,19.61461689272588,0.0013492301031115539,1.4012402796555552,3.226094024568284e-05,-0.03390537060393678,0.001062644083160155,1.0,19.418477713539886,-0.9111179911707836,121.99392621224482,89.85365751086795,-0.03613738819271852,14.86249379570675,123.03957375353215,91.54845077477663,4997.925948880154,-0.38064726983906355
0.24,21.218075953498833,0.0,123.64407591997708,90.34457507446328,0.0,14.655601036330541,91.52556411801801,17.954249305049984,0.0,11.293667724356805,0.0,0.0,-1.3687944629129078,0.0,2.079471538929067,0.0,5070.240625466777,0.2693361419934717,91.52556411801801,2.036433530227123,1.2105249295506602,99848.43468159264,287.3463135065201,0.0,0.0,0.0,381.92,0.20497369266343707,0.88,nominal,5400.9986206813555,nan,pitch_program,14.82,0.0,0.0,-1.4651105746535655,-0.0,0.0,-1.444128110530931,0.0,0.0,0.88,0.0,0.0,0.0,0.0,0.0,0.0,-0.02520479034936934,0.0,0.0,-0.02520479034936934,0.0,0.0,19.902100260419527,-0.029399168694247104,1.615118125317905,0.001208858159578876,-0.023153434784573136,-0.0025706129727260407,1.0,19.418477713539886,-0.9111179911707836,121.99392621224482,89.85365751086795,-0.03613738819271852,14.86249379570675,123.84648928753087,91.65482920080993,5136.197089471716,-0.2492597359982977
0.27,23.94568679711534,0.0,124.07988528894647,90.92036145388352,0.0,14.526978965646148,92.07358603189708,17.94810009427008,0.0,11.309316600353265,0.0,0.0,-0.5216292031246766,0.0,2.2315003743018287,0.0,5130.924651658292,0.2709501647826939,92.07358603189707,2.068286970635963,1.2104741416323965,99843.26121242577,287.34348074562183,0.0,0.0,0.0,387.86,0.20816164756085226,0.88,nominal,5455.580629455423,nan,pitch_program,14.7975,0.0,0.0,-1.6576314152452503,-0.0,0.0,-1.5722300933595226,0.0,0.0,0.88,0.0,0.0,0.0,0.0,0.0,0.0,-0.027440591728061504,0.0,0.0,-0.027440591728061504,0.0,0.0,20.17348540959769,0.005900479432854425,1.8280135095313192,-0.00310797860344494,-0.009374294146045695,0.0005630132050104556,1.0,19.418477713539886,-0.9111179911707836,121.99392621224482,89.85365751086795,-0.03613738819271852,14.86249379570675,123.84648928753087,91.97363750548541,5190.272139149308,-0.2492597359982977
0.3,26.690810831279016,0.0,124.51201888402018,91.50413447212262,0.0,14.404453169123618,92.63096078846303,17.941855244843257,0.0,11.303144693532728,0.0,0.0,0.20573022755022985,0.0,2.3571368173593497,0.0,5193.017549322748,0.27259171543367755,92.63096078846301,2.1002639921934962,1.210423783687404,99838.13159248664,287.34067187725384,0.0,0.0,0.0,393.8,0.21134960245826748,0.88,nominal,5511.2932382858635,nan,pitch_program,14.775,0.0,0.0,-1.8324106530571218,-0.0,0.0,-1.728338429178082,0.0,0.0,0.88,0.0,0.0,0.0,0.0,0.0,0.0,-0.030165196177904363,0.0,0.0,-0.030165196177904363,0.0,0.0,20.469867337770925,-0.017877109280465837,1.9517851458654065,-0.0024423580098662996,0.0029288441492061417,0.0015362482317314754,1.0,19.418477713539886,-0.9111179911707836,121.99392621224482,89.85365751086795,-0.03613738819271852,14.86249379570675,124.8987760908523,92.00231922265479,5196.572855620153,0.26849469687579763
0.32999999999999996,29.453696251338098,0.0,124.94063247615715,92.09618066863608,0.0,14.287119737899058,93.1977911978343,17.93551475676951,0.0,11.28517174161371,0.0,0.0,0.5990984022131957,0.0,2.4670198631090723,0.0,5256.549656179807,0.2742610971766035,93.1977911978343,2.1323670456362214,1.2103738375231112,99833.04396736633,287.33788588890496,0.0,0.0,0.0,399.74,0.21453755735568267,0.88,nominal,5568.163195549868,nan,pitch_program,14.752499999999998,0.0,0.0,-1.930297945573922,-0.0,0.0,-1.8495141390155858,0.0,0.0,0.88,0.0,0.0,0.0,0.0,0.0,0.0,-0.03228011128801009,0.0,0.0,-0.03228011128801009,0.0,0.0,20.793277392074003,0.043772337241226665,2.0508675278560102,0.0016712107247137944,0.009847575308446047,0.0007578284782962891,1.0,19.418477713539886,-0.9111179911707836,121.99392621224482,89.85365751086795,-0.03613738819271852,14.86249379570675,124.8987760908523,93.87282401958326,5235.2795854697215,0.26849469687579763
0.36,32.23459497940353,0.0,125.36587223284245,92.69662426884776,0.0,14.17465855617683,93.77411740999823,17.92907863004884,0.0,11.261399452191267,0.0,0.0,0.7924096587822502,0.0,2.567389730042605,0.0,5321.544801664451,0.2759584288264073,93.77411740999823,2.1645750981188354,1.2103242860686017,99827.99659699081,287.3351218304865,0.0,0.0,0.0,405.68,0.21772551225309789,0.88,nominal,5626.21177894427,nan,pitch_program,14.73,0.0,0.0,-1.9814194005078833,-0.0,0.0,-1.9286572959109645,0.0,0.0,0.88,0.0,0.0,0.0,0.0,0.0,0.0,-0.0336614199562569,0.0,0.0,-0.0336614199562569,0.0,0.0,21.128167445463323,-0.017870559935901517,2.1471067285505345,-0.00023559909210704648,0.013931015747416706,0.0019512914701141793,1.0,19.418477713539886,-0.9111179911707836,121.99392621224482,89.85365751086795,-0.03613738819271852,14.86249379570675,125.05437488485103,93.39523862357117,5325.781012324614,1.955180083760854
0.39,35.03376036621323,0.0,125.78788200982602,93.3055128936565,0.0,14.06699256611911,94.35994391797585,17.922546864681244,0.0,11.232379778340444,0.0,0.0,0.9673224823730409,0.0,2.658880158007294,0.0,5388.023178116803,0.27768372426599724,94.35994391797585,2.196852939745463,1.210275112524761,99822.987769048,287.33237876693613,0.0,0.0,0.0,411.62,0.2209134671505131,0.88,nominal,5685.457241213435,nan,pitch_program,14.707500000000001,0.0,0.0,-2.030883693567013,-0.0,0.0,-1.9899931345045936,0.0,0.0,0.88,0.0,0.0,0.0,0.0,0.0,0.0,-0.034731932289187535,0.0,0.0,-0.034731932289187535,0.0,0.0,21.40502129600619,-0.010451902643674698,2.1880775729319715,-0.0019208757258799695,0.014338207852451192,-0.0002558941290876868,1.0,19.418477713539886,-0.9111179911707836,121.99392621224482,89.85365751086795,-0.03613738819271852,14.86249379570675,125.05437488485103,94.64130734830945,5398.482079529345,1.955180083760854
0.42,37.85144759640783,0.0,126.20680111444452,93.92290767315333,0.0,13.963970153949742,94.95527920152773,17.91591946066673,0.0,11.197011146648745,0.0,0.0,1.1789544271608623,0.0,2.740517123552211,0.0,5456.0057745482445,0.2794370091014768,94.95527920152774,2.206634736947143,1.210226300624806,99818.0158255224,287.3296557927561,0.0,0.0,0.0,413.57684210526315,0.22196369010892084,0.88,nominal,5745.91845026901,nan,pitch_program,14.684999999999999,0.0,0.0,-2.0930909026338687,-0.0,0.0,-2.0518517953821584,0.0,0.0,0.88,0.0,0.0,0.0,0.0,0.0,0.0,-0.03581156959237565,0.0,0.0,-0.03581156959237565,0.0,0.0,21.475535671229604,0.08133435374029273,2.3154052579839823,-0.001263353532856869,0.02059762116298069,0.0013680549367068868,1.0,39.93022727794441,2.0332605374227546,125.64503918199138,94.03473850143888,0.004343727693866133,13.900476715977739,126.31201718597644,95.71357696066111,5377.074258734395,0.07592515977070044
0.44999999999999996,40.68771831304741,0.0,126.62272192518344,94.5423572213195,0.0,13.864027024630936,95.55348530693834,17.90926054996346,0.0,11.15544699418048,0.0,0.0,1.3854718097009369,0.0,2.812851929781603,0.0,5524.745354663619,0.2811987493958799,95.55348530693834,2.205192811613148,1.210177839572045,99813.07966564086,287.3269523074863,0.0,0.0,0.0,413.5421052631579,0.22194504709782484,0.88,nominal,5806.978993119241,nan,pitch_program,14.662500000000001,0.0,0.0,-2.1575003996240363,-0.0,0.0,-2.115240957927285,0.0,0.0,0.88,0.0,0.0,0.0,0.0,0.0,0.0,-0.036917919188869976,0.0,0.0,-0.036917919188869976,0.0,0.0,21.50475861323315,0.011153564881100109,2.3662828074609172,-6.552820908447302e-05,0.028514885386468,0.0013091087997822483,1.0,39.93022727794441,2.0332605374227546,125.64503918199138,94.03473850143888,0.004343727693866133,13.900476715977739,126.31201718597644,95.86993179118558,5547.125216416129,0.07592515977070044
0.48,43.54253867644139,0.0,127.03570937906615,95.16067877979924,0.0,13.76624846275712,96.15125783145271,17.902602198550525,0.0,11.109105457111744,0.0,0.0,1.5447179865010865,0.0,2.877618888582986,0.0,5593.863594506152,0.2829592209185798,96.15125783145271,2.2038003571066773,1.2101297217685434,99808.17851449428,287.32426788903604,0.0,0.0,0.0,413.5073684210526,0.2219264040867288,0.88,nominal,5868.3269306674665,nan,pitch_program,14.640000000000002,0.0,0.0,-2.212781735445697,-0.0,0.0,-2.173765424438332,0.0,0.0,0.88,0.0,0.0,0.0,0.0,0.0,0.0,-0.0379393638224609,0.0,0.0,-0.0379393638224609,0.0,0.0,21.53703454605473,0.04026043443317581,2.461454071515955,-0.0036989356236755196,0.02764303492634728,-0.0004142404463322879,1.0,39.93022727794441,2.0332605374227546,125.64503918199138,94.03473850143888,0.004343727693866133,13.900476715977739,126.88455899725989,95.89078026528827,5588.65174420828,2.0483201597596667
0.51,46.41587685857657,0.0,127.4458227102221,95.77793940450607,0.0,13.67044437186524,96.7486161446121,17.895944406427923,0.0,11.059426017751901,0.0,0.0,1.6559814157433494,0.0,2.936428207468246,0.0,5663.361801762409,0.28471848066932676,96.7486161446121,2.2024540825852577,1.2100819402819363,99803.31166500182,287.32160215238355,0.0,0.0,0.0,413.47263157894736,0.22190776107563284,0.88,nominal,5929.963940229949,nan,pitch_program,14.6175,0.0,0.0,-2.257952918302512,-0.0,0.0,-2.22427792075684,0.0,0.0,0.88,0.0,0.0,0.0,0.0,0.0,0.0,-0.03882097319662038,0.0,0.0,-0.03882097319662038,0.0,0.0,21.426113940466294,-0.0024606601985837522,2.6239118342352046,0.0024180415490877055,0.03380267174791516,0.0006573266387081563,1.0,39.93022727794441,2.0332605374227546,125.64503918199138,94.03473850143888,0.004343727693866133,13.900476715977739,126.88455899725989,96.55194365365574,5661.013163983511,2.0483201597596667
0.54,49.30770242320924,0.0,127.85311746210101,96.39418548775575,0.0,13.576491729297057,97.3455706415219,17.889287173595655,0.0,11.007201556946667,0.0,0.0,1.7408154806988092,0.0,2.9901983053933323,0.0,5733.240284531315,0.2864765592312187,97.34557064152192,2.2011464740950966,1.210034488610882,99798.47845401734,287.3189547364963,0.0,0.0,0.0,413.4378947368421,0.22188911806453684,0.88,nominal,5991.890836121479,nan,pitch_program,14.595000000000002,0.0,0.0,-2.297959807464047,-0.0,0.0,-2.268487052781164,0.0,0.0,0.88,0.0,0.0,0.0,0.0,0.0,0.0,-0.0395925681098937,0.0,0.0,-0.0395925681098937,0.0,0.0,21.401631597588185,-0.03592982937276085,2.7005221128163175,-0.0018609884651638426,0.030444118772833505,-0.00016816018594909574,1.0,39.93022727794441,2.0332605374227546,125.64503918199138,94.03473850143888,0.004343727693866133,13.900476715977739,128.7005535180479,97.37223017530533,5697.211705353917,-0.03940062170181914
0.57,52.21798606852202,0.0,128.25764617885056,97.00945484375924,0.0,13.484290558318106,97.94212791717622,17.88263050005372,0.0,10.952778925993918,0.0,0.0,1.8140878348174792,0.0,3.039384312632964,0.0,5803.498931956671,0.28823347599945487,97.94212791717624,2.199869257212739,1.2099873606044416,99793.67825411556,287.31632529983744,0.0,0.0,0.0,413.40315789473686,0.22187047505344087,0.88,nominal,6054.10805637208,nan,pitch_program,14.5725,0.0,0.0,-2.33632639800472,-0.0,0.0,-2.3091906599152976,0.0,0.0,0.88,0.0,0.0,0.0,0.0,0.0,0.0,-0.040302980071822585,0.0,0.0,-0.040302980071822585,0.0,0.0,21.44770680253365,0.025682673826777053,2.786647092598273,0.0014755079504572973,0.0328537135953892,-9.587819676281701e-05,1.0,39.93022727794441,2.0332605374227546,125.64503918199138,94.03473850143888,0.004343727693866133,13.900476715977739,128.7005535180479,97.73222893102495,5840.0893256975605,-0.03940062170181914
0.6,55.14669957021118,0.0,128.65945843668317,97.62378338963859,0.0,13.39374192775327,98.53829411012924,17.875974385802117,0.0,10.896473805445337,0.0,0.0,1.8768375026607536,0.0,3.084406686166859,0.0,5874.137599268103,0.28998924902099155,98.53829411012924,2.198617032483255,1.2099405504583578,99788.91047321104,287.3137135201615,0.0,0.0,0.0,413.3684210526316,0.22185183204234488,0.88,nominal,6116.615981145264,nan,pitch_program,14.55,0.0,0.0,-2.373136794527166,-0.0,0.0,-2.3475583406824185,0.0,0.0,0.88,0.0,0.0,0.0,0.0,0.0,0.0,-0.04097262242756295,0.0,0.0,-0.04097262242756295,0.0,0.0,21.393623815953745,0.06940949843675169,2.8749755477678502,-0.0009155566990363014,0.032768101737315,-0.00013359360338632037,1.0,39.93022727794441,2.0332605374227546,125.64503918199138,94.03473850143888,0.004343727693866133,13.900476715977739,127.6181878051972,98.09999563872692,5834.50089481699,1.2672604250374986
0.63,58.09381569360897,0.0,129.05860104141098,98.23720411325952,0.0,13.304753490927586,99.13407455282247,17.869318830840847,0.0,10.83870790941066,0.0,0.0,1.9255300309273788,0.0,3.12578527967643,0.0,5945.15606413981,0.29174389396579564,99.13407455282248,2.1973872988440504,1.209894052691982,99784.17455220608,287.3111190932308,0.0,0.0,0.0,413.3336842105263,0.22183318903124885,0.88,nominal,6179.414898625035,nan,pitch_program,14.5275,0.0,0.0,-2.4072721006117375,-0.0,0.0,-2.3833865966400096,0.0,0.0,0.88,0.0,0.0,0.0,0.0,0.0,0.0,-0.04159794345927019,0.0,0.0,-0.04159794345927019,0.0,0.0,21.33825511032465,0.018593151633405244,2.826098093176268,0.0008068273880602428,0.03298471692820146,0.003332734455904359,1.0,56.347559815793936,-2.369897657162302,130.74614568053903,98.28723789079541,0.08516999583013322,13.288359421291798,127.6181878051972,99.53433964376316,5972.311939353099,1.2672604250374986
0.6599999999999999,61.05930802421359,0.0,129.45511853627355,98.8497443534876,0.0,13.217249828752154,99.72947233283399,17.862663835169908,0.0,10.779905676983304,0.0,0.0,1.960074586286931,0.0,3.1640301498863246,0.0,6016.553849959818,0.2934974198940396,99.72947233283399,2.1961783817003067,1.2098478620890598,99779.46995895778,287.3085417295142,0.0,0.0,0.0,413.298947368421,0.22181454602015285,0.88,nominal,6242.504864086497,nan,pitch_program,14.505,0.0,0.0,-2.438472543970609,-0.0,0.0,-2.416438165038369,0.0,0.0,0.88,0.0,0.0,0.0,0.0,0.0,0.0,-0.04217480215076967,0.0,0.0,-0.04217480215076967,0.0,0.0,21.384626753350833,0.0033644878524813036,2.9726481148572597,0.00032252780410555506,0.03609300778800927,0.00037665454911906747,1.0,56.347559815793936,-2.369897657162302,130.74614568053903,98.28723789079541,0.08516999583013322,13.288359421291798,128.219411486969,99.69894237270742,5930.656235639826,0.5507818050822298
0.69,64.0431507921357,0.0,129.84905372986495,99.46142559740396,0.0,13.131173119713123,100.32448798457833,17.856009398789304,0.0,10.720392736609929,0.0,0.0,1.9837648574680382,0.0,3.1995400171844826,0.0,6088.330180105513,0.29524982835017155,100.32448798457834,2.194988172517678,1.2098019736361803,99774.79618200766,287.3059811507559,0.0,0.0,0.0,413.26421052631576,0.22179590300905686,0.88,nominal,6305.88566744388,nan,pitch_program,14.4825,0.0,0.0,-2.4673796211544916,-0.0,0.0,-2.4470030387080426,0.0,0.0,0.88,0.0,0.0,0.0,0.0,0.0,0.0,-0.042708259831761596,0.0,0.0,-0.042708259831761596,0.0,0.0,21.213584031219295,0.023457372034649173,3.0445011646202307,0.0020455331838079003,0.03511312553907626,0.0006062067442532608,1.0,56.347559815793936,-2.369897657162302,130.74614568053903,98.28723789079541,0.08516999583013322,13.288359421291798,128.219411486969,100.1138393267558,6051.4235137610995,0.5507818050822298
0.72,67.0453187478621,0.0,130.24044804346926,100.07226519087968,0.0,13.04647712014375,100.91912021852045,17.84935552169903,0.0,10.660401061686457,0.0,0.0,1.9997226801434498,0.0,3.2326113237012706,0.0,6160.4840576674915,0.2970011155097836,100.91912021852045,2.1938144214037965,1.2097563824822875,99770.15272645661,287.30343708771744,0.0,0.0,0.0,413.2294736842105,0.22177725999796086,0.88,nominal,6369.556902645579,nan,pitch_program,14.46,0.0,0.0,-2.4946441730588185,-0.0,0.0,-2.4755877193185083,0.0,0.0,0.88,0.0,0.0,0.0,0.0,0.0,0.0,-0.0432071566240452,0.0,0.0,-0.0432071566240452,0.0,0.0,21.28714597393291,-0.006136731654990329,3.073339981155529,-0.0033954315414652797,0.0346487770468282,0.0029788081082109626,1.0,56.347559815793936,-2.369897657162302,130.74614568053903,98.28723789079541,0.08516999583013322,13.288359421291798,129.70280203963023,101.39325460209959,6170.5512421083195,0.6479411954251736
0.75,70.06578708072033,0.0,130.62934171884945,100.68227776194107,0.0,12.963122512673324,101.51336661056627,17.842702203899094,0.0,10.600122762097671,0.0,0.0,2.0092768382851114,0.0,3.2634949975691154,0.0,6233.014343497117,0.2987512742089128,101.51336661056627,2.192655429019017,1.2097110839144374,99765.53911149484,287.3009092788275,0.0,0.0,0.0,413.19473684210527,0.2217586169868649,0.88,nominal,6433.51803427277,nan,pitch_program,14.437499999999998,0.0,0.0,-2.5204909860490154,-0.0,0.0,-2.5025296793568126,0.0,0.0,0.88,0.0,0.0,0.0,0.0,0.0,0.0,-0.04367738253365435,0.0,0.0,-0.04367738253365435,0.0,0.0,21.248059648528553,0.04153765838138582,3.160656158412222,-0.0006266566078326716,0.03330945557859682,0.00018766537222647512,1.0,56.347559815793936,-2.369897657162302,130.74614568053903,98.28723789079541,0.08516999583013322,13.288359421291798,129.70280203963023,101.99442925633149,6223.782032211838,0.6479411954251736
0.78,73.10453134824702,0.0,131.0157740022713,101.29147558422306,0.0,12.881076114062198,102.10722377915052,17.836049445389488,0.0,10.539737856675504,0.0,0.0,2.012830367049342,0.0,3.292424865911519,0.0,6305.9197739491765,0.30050029446563914,102.10722377915053,2.1915101616374546,1.2096660733363405,99760.95486821543,287.29839746898523,0.0,0.0,0.0,413.16,0.2217399739757689,0.88,nominal,6497.768414062135,nan,pitch_program,14.415000000000001,0.0,0.0,-2.544920072316135,-0.0,0.0,-2.527963915132406,0.0,0.0,0.88,0.0,0.0,0.0,0.0,0.0,0.0,-0.04412129369066699,0.0,0.0,-0.04412129369066699,0.0,0.0,21.130417355521683,0.04152875595400945,3.2960612561919738,-0.004255932432164579,0.033176201085377596,0.0027239735537832963,1.0,56.347559815793936,-2.369897657162302,130.74614568053903,98.28723789079541,0.08516999583013322,13.288359421291798,129.89063488936876,102.85358638594526,6416.612971575536,0.6183265132616899
0.8099999999999999,76.16152740402606,0.0,131.3997833445509,101.89986852596803,0.0,12.800311409319903,102.70068732868897,17.829397246170213,0.0,10.479407962112878,0.0,0.0,2.0109966712227125,0.0,3.319611197274969,0.0,6379.198950349641,0.3022481633141872,102.70068732868899,2.1903778999402266,1.2096213462450318,99756.39953723768,287.2959014082604,0.0,0.0,0.0,413.1252631578947,0.2217213309646729,0.88,nominal,6562.307274228408,nan,pitch_program,14.392500000000002,0.0,0.0,-2.5679942446643746,-0.0,0.0,-2.5519821128515874,0.0,0.0,0.88,0.0,0.0,0.0,0.0,0.0,0.0,-0.04454049032126169,0.0,0.0,-0.04454049032126169,0.0,0.0,21.21045007949237,-0.021630962028553524,3.3659027934806636,-0.0011493400900994912,0.0344564456936613,0.0005795482963934554,1.0,56.347559815793936,-2.369897657162302,130.74614568053903,98.28723789079541,0.08516999583013322,13.288359421291798,129.89063488936876,102.47147694071381,6358.634653699388,0.6183265132616899
0.84,79.23675133104486,0.0,131.78140758762106,102.50746423396006,0.0,12.720808102337857,103.29375190423237,17.822745606241273,0.0,10.419265989462103,0.0,0.0,2.0047326057635146,0.0,3.345230813619843,0.0,6452.850342123114,0.3039948649662696,103.29375190423237,2.1892579711884674,1.2095768982091235,99751.87266649138,287.29342085068043,0.0,0.0,0.0,413.0905263157895,0.2217026879535769,0.88,nominal,6627.133731945697,nan,pitch_program,14.37,0.0,0.0,-2.589878173823124,-0.0,0.0,-2.574719749434509,0.0,0.0,0.88,0.0,0.0,0.0,0.0,0.0,0.0,-0.044937336943755596,0.0,0.0,-0.044937336943755596,0.0,0.0,21.201980642923893,-0.0504411622837238,3.448025477571311,-0.0032862329941996645,0.034318166157829386,8.470532420962073e-05,1.0,81.97806001874997,0.7856322245474219,133.21080209037171,102.3249017663145,-0.12125238269974731,12.720911211063608,131.44414579665943,103.3685580006113,6447.179077741413,1.287610067822948
0.87,82.33017938763086,0.0,132.16068411143127,103.11426855286692,0.0,12.642550793673813,103.8864113816787,17.816094525602665,0.0,10.359418589409957,0.0,0.0,1.9949135164509617,0.0,3.369430429443594,0.0,6526.872307212649,0.3057403813712725,103.88641138167868,2.188149760517374,1.2095327248516796,99747.37380947222,287.2909555532757,0.0,0.0,0.0,413.05578947368423,0.2216840449424809,0.88,nominal,6692.246807723059,nan,pitch_program,14.347500000000002,0.0,0.0,-2.610730795043383,-0.0,0.0,-2.5963263767998335,0.0,0.0,0.88,0.0,0.0,0.0,0.0,0.0,0.0,-0.04531444373153201,0.0,0.0,-0.04531444373153201,0.0,0.0,21.207765352352048,-0.006106529823581551,3.487491334853943,-0.0004374009978750236,0.0343474614942704,0.0033758606328115016,1.0,81.97806001874997,0.7856322245474219,133.21080209037171,102.3249017663145,-0.12125238269974731,12.720911211063608,131.44414579665943,104.1567077395589,6478.452924589808,1.287610067822948
0.8999999999999999,85.44178796444571,0.0,132.5376499472471,103.72028589382816,0.0,12.565527860527531,104.47865904724821,17.80944400425439,0.0,10.299954960466948,0.0,0.0,1.9821211426795309,0.0,3.392336208394608,0.0,6601.263111978123,0.30748469274475704,104.47865904724821,2.1870528100890203,1.2094888218370008,99742.90252389529,287.28850527534286,0.0,0.0,0.0,413.021052631579,0.22166540193138493,0.88,nominal,6757.6454430107415,nan,pitch_program,14.325,0.0,0.0,-2.630647361699063,-0.0,0.0,-2.616918967739371,0.0,0.0,0.88,0.0,0.0,0.0,0.0,0.0,0.0,-0.045673852244943296,0.0,0.0,-0.045673852244943296,0.0,0.0,21.066366431917704,-0.05621390467770728,3.5392698057525727,0.0023169753609393515,0.034894974712602125,0.0016338917095786406,1.0,81.97806001874997,0.7856322245474219,133.21080209037171,102.3249017663145,-0.12125238269974731,12.720911211063608,133.59809949559514,104.31083466656011,6639.046069428649,0.9099472452598878
0.9299999999999999,88.57155354765197,0.0,132.91234187470258,104.32551944020905,0.0,12.489730915182188,105.0704876966082,17.80279404219645,0.0,10.240952030399743,0.0,0.0,1.966764509382791,0.0,3.4140593426978074,0.0,6676.020941662189,0.30922777786045613,105.0704876966082,2.185966824208689,1.2094451848593122,99738.45837054287,287.2860697778144,0.0,0.0,0.0,412.9863157894737,0.2216467589202889,0.88,nominal,6823.328509847099,nan,pitch_program,14.3025,0.0,0.0,-2.6496867740200276,-0.0,0.0,-2.6365796515077653,0.0,0.0,0.88,0.0,0.0,0.0,0.0,0.0,0.0,-0.04601699590989518,0.0,0.0,-0.04601699590989518,0.0,0.0,21.08813445662203,0.07983700939287723,3.6391640440753346,-0.0001454757552859011,0.029996962412059406,0.0025591032862356663,1.0,81.97806001874997,0.7856322245474219,133.21080209037171,102.3249017663145,-0.12125238269974731,12.720911211063608,133.59809949559514,104.0413325928515,6678.47549695085,0.9099472452598878
0.96,91.71945268604149,0.0,133.28479650943223,104.9299712796506,0.0,12.415154490988769,105.6618896943615,17.796144639428842,0.0,10.182475039139119,0.0,0.0,1.9492332112236168,0.0,3.4346968925936836,0.0,6751.1439062212485,0.310969614225607,105.6618896943615,2.184891598748806,1.2094018096325476,99734.04091222335,287.2836488226887,0.0,0.0,0.0,412.95157894736843,0.22162811590919293,0.88,nominal,6889.294816580933,nan,pitch_program,14.28,0.0,0.0,-2.6679095807145554,-0.0,0.0,-2.6553776090318393,0.0,0.0,0.88,0.0,0.0,0.0,0.0,0.0,0.0,-0.04634508216134031,0.0,0.0,-0.04634508216134031,0.0,0.0,21.151480143515553,0.08266092745965845,3.701150708471783,0.002053665118920414,0.03466809251578402,-0.0013204632423934077,1.0,81.97806001874997,0.7856322245474219,133.21080209037171,102.3249017663145,-0.12125238269974731,12.720911211063608,134.24892072396125,105.33911411671677,6766.133954421677,0.19475842974751367
0.99,94.88546196257892,0.0,133.65505037858202,105.53364255124737,0.0,12.341795638326815,106.25285704258815,17.789495795951566,0.0,10.12457767749872,0.0,0.0,1.9299122189008417,0.0,3.4543322215767382,0.0,6826.630047582039,0.3127101782828983,106.25285704258813,2.183826971290356,1.209358691881541,99729.64971287409,287.2812421725392,0.0,0.0,0.0,412.91684210526313,0.2216094728980969,0.88,nominal,6955.5431146514575,nan,pitch_program,14.2575,0.0,0.0,-2.6853816097911425,-0.0,0.0,-2.6733800094874214,0.0,0.0,0.88,0.0,0.0,0.0,0.0,0.0,0.0,-0.046659283322552744,0.0,0.0,-0.046659283322552744,0.0,0.0,21.094354044461358,0.03248928159225364,3.7552703694740655,-0.002882973465521326,0.03660094468868965,-2.426654634752167e-05,1.0,81.97806001874997,0.7856322245474219,133.21080209037171,102.3249017663145,-0.12125238269974731,12.720911211063608,134.24892072396125,106.6871233693016,6812.145834622777,0.19475842974751367
1.02,98.06955797071747,0.0,134.02313998237884,106.13653360461863,0.0,12.269653459894293,106.84338145917246,17.782847511764622,0.0,10.067303771626232,0.0,0.0,1.9091303547224148,0.0,3.4730369999837127,0.0,6902.477348464839,0.3144494456411832,106.84338145917245,2.1827728192775133,1.209315827334857,99725.28433683084,287.27884959011453,0.0,0.0,0.0,412.8821052631579,0.2215908298870009,0.88,nominal,7022.072106523314,nan,pitch_program,14.235000000000001,0.0,0.0,-2.7021601500844037,-0.0,0.0,-2.6906480938456108,0.0,0.0,0.88,0.0,0.0,0.0,0.0,0.0,0.0,-0.04696066825011529,0.0,0.0,-0.04696066825011529,0.0,0.0,21.10144758447176,-0.00029371236211978816,3.781193317360357,0.0016647274909901257,0.036327442706748064,0.0003023919856949614,1.0,81.97806001874997,0.7856322245474219,133.21080209037171,102.3249017663145,-0.12125238269974731,12.720911211063608,134.16537027938253,107.08765851177708,6869.73070407951,0.318066946908345
1.05,101.27171729472278,0.0,134.38910184424012,106.73864413351038,0.0,12.198728728708891,107.43345444533,17.776199786868013,0.0,10.010689403398807,0.0,0.0,1.8871457611246085,0.0,3.4908735880529416,0.0,6978.6837401455305,0.31618739127437695,107.43345444533,2.181729068373207,1.2092732117189386,99720.94434823167,287.2764708380124,0.0,0.0,0.0,412.84736842105264,0.22157218687590494,0.88,nominal,7088.880452629215,nan,pitch_program,14.2125,0.0,0.0,-2.7182891356074714,-0.0,0.0,-2.707232718902727,0.0,0.0,0.88,0.0,0.0,0.0,0.0,0.0,0.0,-0.04725012456257072,0.0,0.0,-0.04725012456257072,0.0,0.0,21.07185311796089,-0.020062261719546594,3.839588952531134,-0.001471248252749794,0.03295890229717721,0.0007279906538786025,1.0,100.411265493142,1.7007348809258032,132.81193888767874,106.8691246457657,-0.10246450623199137,12.067758363053542,134.16537027938253,107.02766440024823,7046.005891337358,0.318066946908345
1.08,104.4919164929957,0.0,134.75297255271533,107.3399732757641,0.0,12.12902361584055,108.023067336173,17.769552621261735,0.0,9.95476425377174,0.0,0.0,1.864171802239666,0.0,3.5078965730120624,0.0,7055.247108295845,0.3179239896704175,108.02306733617301,2.180695683781467,1.2092308407532257,99716.62931051948,287.27410567840735,0.0,0.0,0.0,412.8126315789474,0.22155354386480894,0.88,nominal,7155.96677664177,nan,pitch_program,14.19,0.0,0.0,-2.7338048725099906,-0.0,0.0,-2.723176011067085,0.0,0.0,0.88,0.0,0.0,0.0,0.0,0.0,0.0,-0.04752838750444618,0.0,0.0,-0.04752838750444618,0.0,0.0,20.994711417523217,-0.06373808976459289,3.9566170650397865,0.0011334120123799986,0.03288978172333584,0.0010145608015628689,1.0,100.411265493142,1.7007348809258032,132.81193888767874,106.8691246457657,-0.10246450623199137,12.067758363053542,135.01020590858343,107.68379283796665,7009.466849896961,-1.4022973576045086
1.1099999999999999,107.73013208388673,0.0,135.11478879665864,107.94051969636772,0.0,12.060541464776868,108.61221134267338,17.76290601494579,0.0,9.899552309921052,0.0,0.0,1.8403982707698439,0.0,3.5241536378440097,0.0,7132.16529791409,0.31965921495489225,108.61221134267338,2.179672653255282,1.2091887101460468,99712.33878602358,287.2717538728217,0.0,0.0,0.0,412.77789473684214,0.22153490085371297,0.88,nominal,7223.329669925527,nan,pitch_program,14.167500000000002,0.0,0.0,-2.7487409482107528,-0.0,0.0,-2.7385149733532854,0.0,0.0,0.88,0.0,0.0,0.0,0.0,0.0,0.0,-0.04779610290017961,0.0,0.0,-0.04779610290017961,0.0,0.0,20.991773228239104,-0.03270677282228255,4.040578651786743,-0.0011778832736588079,0.0269690712681065,0.0006080647738163194,1.0,100.411265493142,1.7007348809258032,132.81193888767874,106.8691246457657,-0.10246450623199137,12.067758363053542,135.01020590858343,108.37136369747846,7090.786899381437,-1.4022973576045086
1.14,110.986340533831,0.0,135.47458739387787,108.54028166480897,0.0,11.993286573974524,109.20087759135247,17.75625996792018,0.0,9.845072546649236,0.0,0.0,1.815992245883244,0.0,3.539686394187737,0.0,7209.436118139233,0.32139304100795735,109.20087759135245,2.1786599774216366,1.2091468155912848,99708.07233561992,287.2694151819398,0.0,0.0,0.0,412.74315789473684,0.22151625784261694,0.88,nominal,7290.967695826945,nan,pitch_program,14.145,0.0,0.0,-2.7631280672909257,-0.0,0.0,-2.75328282971587,0.0,0.0,0.88,0.0,0.0,0.0,0.0,0.0,0.0,-0.0480538506171683,0.0,0.0,-0.0480538506171683,0.0,0.0,21.007233852769986,0.015764355281451835,4.0655905795519125,-0.00099000375191871,0.03292413218978144,0.00125571738302969,1.0,100.411265493142,1.7007348809258032,132.81193888767874,106.8691246457657,-0.10246450623199137,12.067758363053542,135.32402869274657,109.99918101993548,7163.410005331952,0.42330803149400587
1.17,114.26051824757286,0.0,135.83240531383456,109.13925712472886,0.0,11.92726399855664,109.78905716067035,17.749614480184903,0.0,9.79133972285772,0.0,0.0,1.7910942576556041,0.0,3.554531314800229,0.0,7287.057346799986,0.3231254415715275,109.78905716067037,2.1776576677168054,1.2091051527657237,99703.82951846071,287.26708936546004,0.0,0.0,0.0,412.7084210526316,0.22149761483152094,0.88,nominal,7358.879393685387,nan,pitch_program,14.1225,0.0,0.0,-2.7769926491112407,-0.0,0.0,-2.7675087213530922,0.0,0.0,0.88,0.0,0.0,0.0,0.0,0.0,0.0,-0.04830213926526976,0.0,0.0,-0.04830213926526976,0.0,0.0,20.949338666113125,-0.013651829391640918,4.184281341873306,0.003115768636781326,0.03025068926440858,0.001968791877443261,1.0,100.411265493142,1.7007348809258032,132.81193888767874,106.8691246457657,-0.10246450623199137,12.067758363053542,135.32402869274657,109.90876757394986,7249.39363435292,0.42330803149400587
1.2,117.55264156013814,0.0,136.18827969542446,109.7374437521762,0.0,11.862479386330289,110.37674111176297,17.742969551739957,0.0,9.738365084947732,0.0,0.0,1.7658213894591974,0.0,3.568720550025758,0.0,7365.0267343679925,0.3248563903398177,110.37674111176298,2.1766657442506987,1.2090637173269776,99699.60989176351,287.2647761819797,0.0,0.0,0.0,412.67368421052635,0.22147897182042497,0.88,nominal,7427.063282301708,nan,pitch_program,14.1,0.0,0.0,-2.790357211610637,-0.0,0.0,-2.781217815507619,0.0,0.0,0.88,0.0,0.0,0.0,0.0,0.0,0.0,-0.04854140809573216,0.0,0.0,-0.04854140809573216,0.0,0.0,20.95283481791998,0.05199871311918669,4.108848394377497,-0.00042473975584095134,0.029948350669165763,0.001901231373311969,1.0,100.411265493142,1.7007348809258032,132.81193888767874,106.8691246457657,-0.10246450623199137,12.067758363053542,135.80133206645763,110.15106718990745,7397.93534478503,-0.40129843833258927
1.23,120.86268673025756,0.0,136.5422478607099,110.33483900398055,0.0,11.798938842847482,110.96392051406423,17.736325182585343,0.0,9.686156880547125,0.0,0.0,1.74027360043181,0.0,3.5822825353615544,0.0,7443.342007358427,0.3265858610348201,110.96392051406423,2.175684231126589,1.2090225049118897,99695.41301064793,287.2624753889054,0.0,0.0,0.0,412.63894736842104,0.22146032880932895,0.88,nominal,7495.517862909012,nan,pitch_program,14.0775,0.0,0.0,-2.803241666034975,-0.0,0.0,-2.794432125824033,0.0,0.0,0.88,0.0,0.0,0.0,0.0,0.0,0.0,-0.04877204131913383,0.0,0.0,-0.04877204131913383,0.0,0.0,20.970907298425466,-0.01786358288200783,4.271787954972977,-0.0017975244993464312,0.03042602853298363,0.001560089050076721,1.0,100.411265493142,1.7007348809258032,132.81193888767874,106.8691246457657,-0.10246450623199137,12.067758363053542,135.80133206645763,110.11839429256169,7421.58722897956,-0.40129843833258927
1.26,124.19062993504801,0.0,136.89434732511532,110.93144015968136,0.0,11.736648813514421,111.5505864676324,17.729681372721064,0.0,9.634720767529746,0.0,0.0,1.7145372157274088,0.0,3.59524248214964,0.0,7522.000871397408,0.32831382747207055,111.5505864676324,2.174713152060272,1.208981511135334,99691.2384280136,287.26018674238674,0.0,0.0,0.0,412.6042105263158,0.22144168579823295,0.88,nominal,7564.241621832209,nan,pitch_program,14.055,0.0,0.0,-2.815663962003861,-0.0,0.0,-2.8071712275319296,0.0,0.0,0.88,0.0,0.0,0.0,0.0,0.0,0.0,-0.048994380587683066,0.0,0.0,-0.048994380587683066,0.0,0.0,20.8530932770941,0.013924771830314113,4.3944546484454685,0.002034441863298608,0.030231320987643532,0.0006006044292950906,1.0,126.54975073599685,-0.7080416589679408,137.3596460324993,111.00558751221777,0.06717272386264542,11.670738350614528,136.2929061597919,112.20354878976077,7620.387263782116,-0.011683097028151413
1.29,127.5364472658001,0.0,137.24461580447988,111.52724435840338,0.0,11.675615978818843,112.1367301229346,17.723038122147116,0.0,9.584060195162492,0.0,0.0,1.6886858555928146,0.0,3.607622830777048,0.0,7601.001014041996,0.3300402636189241,112.13673012293462,2.1737525280218195,1.2089407315894025,99687.08569445727,287.2579099972709,0.0,0.0,0.0,412.5694736842105,0.22142304278713695,0.88,nominal,7633.233032910936,nan,pitch_program,14.0325,0.0,0.0,-2.8276401076617343,-0.0,0.0,-2.8194525556098124,0.0,0.0,0.88,0.0,0.0,0.0,0.0,0.0,0.0,-0.04920873019915974,0.0,0.0,-0.04920873019915974,0.0,0.0,20.87076164303429,0.0051451596235976395,4.43054647780278,0.0017635588317750724,0.032621898196601856,8.272197698021936e-05,1.0,126.54975073599685,-0.7080416589679408,137.3596460324993,111.00558751221777,0.06717272386264542,11.670738350614528,136.2929061597919,112.31200315880646,7553.908358449754,-0.011683097028151413
1.3199999999999998,130.90011472471687,0.0,137.59309121940387,112.12224863055886,0.0,11.615847164133617,112.72234269794684,17.716395430863503,0.0,9.534176749416368,0.0,0.0,1.6627816299028164,0.0,3.619443658052023,0.0,7680.34010732005,0.33176514364492243,112.72234269794683,2.172802375819015,1.208900161842887,99682.95435821991,287.2556449070739,0.0,0.0,0.0,412.53473684210525,0.22140439977604096,0.88,nominal,7702.490559663452,nan,pitch_program,14.01,0.0,0.0,-2.8391842760535972,-0.0,0.0,-2.8312915878760836,0.0,0.0,0.88,0.0,0.0,0.0,0.0,0.0,0.0,-0.04941536029245602,0.0,0.0,-0.04941536029245602,0.0,0.0,20.772043770122824,-0.0726649902272648,4.481694360281995,-0.0005428139020419717,0.024463114644046217,0.0008722050745357573,1.0,126.54975073599685,-0.7080416589679408,137.3596460324993,111.00558751221777,0.06717272386264542,11.670738350614528,137.5025059885552,112.63719341214538,7658.169523007794,0.3540222220728201
1.3499999999999999,134.28160822245766,0.0,137.93981169730972,112.71644992469265,0.0,11.557349263528435,113.307415492654,17.709753298870222,0.0,9.485070438180662,0.0,0.0,1.6368771413895178,0.0,3.630723015181684,0.0,7760.015809988147,0.33348844196450117,113.307415492654,2.171862706470554,1.208859797441041,99678.8439651624,287.25339122396747,0.0,0.0,0.0,412.5,0.22138575676494499,0.88,nominal,7772.012657193887,nan,pitch_program,13.9875,0.0,0.0,-2.850309147162611,-0.0,0.0,-2.842702123448,0.0,0.0,0.88,0.0,0.0,0.0,0.0,0.0,0.0,-0.0496145117076019,0.0,0.0,-0.0496145117076019,0.0,0.0,20.82020985111607,0.04347607795748933,4.663552257880546,-0.0007312121278034421,0.02646149312214229,0.002204328553873276,1.0,126.54975073599685,-0.7080416589679408,137.3596460324993,111.00558751221777,0.06717272386264542,11.670738350614528,137.5025059885552,113.36387587937557,7718.3233935917815,0.3540222220728201
1.38,137.68090357637016,0.0,138.2848155725461,113.30984513041689,0.0,11.50012917454581,113.89193990142718,17.703111726167272,0.0,9.436739924902044,0.0,0.0,1.6110172048121338,0.0,3.6414772067992836,0.0,7840.025769559849,0.33521013327344235,113.89193990142718,2.170933523561705,1.2088196339055637,99674.75405876384,287.2511486987784,0.0,0.0,0.0,412.46526315789475,0.221367113753849,0.88,nominal,7841.797773889659,nan,pitch_program,13.965,0.0,0.0,-2.8610262076677624,-0.0,0.0,-2.8536965739798577,0.0,0.0,0.88,0.0,0.0,0.0,0.0,0.0,0.0,-0.049806401068830455,0.0,0.0,-0.049806401068830455,0.0,0.0,20.8352898799438,-0.0015273729696975002,4.571012809233192,0.002260068665132597,0.03238483845605179,-0.004313733308643021,1.0,126.54975073599685,-0.7080416589679408,137.3596460324993,111.00558751221777,0.06717272386264542,11.670738350614528,138.89145349455902,113.53755168920553,7902.733036245744,2.781720389143117
1.41,141.097976509316,0.0,138.6281413847955,113.90243109819433,0.0,11.44419374164621,114.47590742368125,17.696470712754657,0.0,9.38918273097806,0.0,0.0,1.5852398884786127,0.0,3.651721032831548,0.0,7920.367624149513,0.3369301925802605,114.47590742368124,2.170014822083537,1.2087796667347819,99670.68418013996,287.2489170809988,0.0,0.0,0.0,412.4305263157895,0.221348470742753,0.88,nominal,7911.844352948825,nan,pitch_program,13.9425,0.0,0.0,-2.871345898671496,-0.0,0.0,-2.864286168794841,0.0,0.0,0.88,0.0,0.0,0.0,0.0,0.0,0.0,-0.049991224364804035,0.0,0.0,-0.049991224364804035,0.0,0.0,20.75685342175501,0.09557549318866054,4.651399829413614,0.0024475535974894237,0.025619439866964674,-0.0016350169384046478,1.0,126.54975073599685,-0.7080416589679408,137.3596460324993,111.00558751221777,0.06717272386264542,11.670738350614528,138.89145349455902,115.19547416942628,7938.517676901522,2.781720389143117
1.44,144.53280264900548,0.0,138.96982787602164,114.49420465631623,0.0,11.389549707538063,115.05930967298085,17.689830258632373,0.0,9.342395413505187,0.0,0.0,1.5595773357593852,0.0,3.6614680004356095,0.0,8001.039004146223,0.3386485952330161,115.05930967298085,2.1691065876845994,1.2087398914040037,99666.63386807904,287.24669611880586,0.0,0.0,0.0,412.3957894736842,0.221329827731657,0.88,nominal,7982.15083375184,nan,pitch_program,13.920000000000002,0.0,0.0,-2.88127772211557,-0.0,0.0,-2.8744811007872784,0.0,0.0,0.88,0.0,0.0,0.0,0.0,0.0,0.0,-0.050169159495088975,0.0,0.0,-0.050169159495088975,0.0,0.0,20.668256956754398,-0.01233180480342562,4.720284872851498,-0.0005388987838662135,0.027452346661705488,-0.002685451344552687,1.0,126.54975073599685,-0.7080416589679408,137.3596460324993,111.00558751221777,0.06717272386264542,11.670738350614528,139.76296788633013,114.7974630521599,7864.011367365773,0.21234149482131529
1.47,147.98535752776598,0.0,139.30991398617428,115.0851626253505,0.0,11.336203671754584,115.64213838472062,17.683190363800424,0.0,9.296373716630477,0.0,0.0,1.534056644968716,0.0,3.6707305047807677,0.0,8082.037533727513,0.34036531694192723,115.64213838472062,2.1682087960358767,1.2087003033660146,99662.60265909239,287.24448555908987,0.0,0.0,0.0,412.36105263157896,0.221311184720561,0.88,nominal,8052.715653087954,nan,pitch_program,13.8975,0.0,0.0,-2.8908303764842147,-0.0,0.0,-2.88429066620544,0.0,0.0,0.88,0.0,0.0,0.0,0.0,0.0,0.0,-0.050340368709825674,0.0,0.0,-0.050340368709825674,0.0,0.0,20.735180952925585,-0.06861755159099077,4.758370840330467,0.005285290234046241,0.02824698611305714,4.060325700573412e-06,1.0,149.547554327351,-0.05584460731857883,136.84559774013326,115.07966317386092,0.012458674420540177,11.508510869650774,139.76296788633013,116.49781288297234,7996.929276910268,0.21234149482131529
1.5,151.45561658267897,0.0,139.64843884783616,115.6753018304327,0.0,11.284162055395829,116.22438542257018,17.676551028258807,0.0,9.251112698764745,0.0,0.0,1.5087006739802913,0.0,3.679519981658543,0.0,8163.360832232545,0.3420803337983421,116.22438542257018,2.167321412256434,1.2086608980517013,99658.59008747769,287.24228514748904,0.0,0.0,0.0,412.32631578947365,0.22129254170946497,0.88,nominal,8123.537246254204,nan,pitch_program,13.875,0.0,0.0,-2.9000118871281995,-0.0,0.0,-2.893723398759096,0.0,0.0,0.88,0.0,0.0,0.0,0.0,0.0,0.0,-0.05050500095034702,0.0,0.0,-0.05050500095034702,0.0,0.0,20.685743549067414,0.0312793501348389,4.813982413990313,-0.001688465064039369,0.024562362411464755,0.0007612003263100515,1.0,149.547554327351,-0.05584460731857883,136.84559774013326,115.07966317386092,0.012458674420540177,11.508510869650774,141.09698057978903,116.20955052121724,8162.699521688718,1.1008105358601372
1.53,154.94355515603144,0.0,139.9854417799666,116.26461911174857,0.0,11.233431071014847,116.80604278386977,17.669912252007524,0.0,9.206606841298006,0.0,0.0,1.4835286568186197,0.0,3.687847038225824,0.0,8245.006515414574,0.34379362229061816,116.80604278386976,2.1664443904941333,1.2086216708707742,99654.59568539265,287.2400946284302,0.0,0.0,0.0,412.2915789473684,0.221273898698369,0.88,nominal,8194.614048045118,nan,pitch_program,13.8525,0.0,0.0,-2.90882969987962,-0.0,0.0,-2.90278717943141,0.0,0.0,0.88,0.0,0.0,0.0,0.0,0.0,0.0,-0.05066319376575753,0.0,0.0,-0.05066319376575753,0.0,0.0,20.62555138178801,0.011326083542563882,4.9239796459092355,0.0010723662590994556,0.027872807629844308,0.0007025155751547534,1.0,149.547554327351,-0.05584460731857883,136.84559774013326,115.07966317386092,0.012458674420540177,11.508510869650774,141.09698057978903,117.26237720348406,8229.663486683188,1.1008105358601372
1.56,158.44914849603504,0.0,140.32096228087633,116.85311133345313,0.0,11.18401669699054,117.38710260410619,17.663274035046573,0.0,9.162850142379321,0.0,0.0,1.4585567015129826,0.0,3.6957215658978533,0.0,8326.972196585879,0.3455051593172913,117.38710260410618,2.165577673662793,1.2085826172125826,99650.61898293778,287.2379137451743,0.0,0.0,0.0,412.25684210526316,0.221255255687273,0.88,nominal,8265.944493645233,nan,pitch_program,13.83,0.0,0.0,-2.917290753288543,-0.0,0.0,-2.91148932374569,0.0,0.0,0.88,0.0,0.0,0.0,0.0,0.0,0.0,-0.05081507483602541,0.0,0.0,-0.05081507483602541,0.0,0.0,20.66285241634386,-0.04243929139647091,5.006331185570835,0.003967005446367646,0.023817436978400695,-0.0021842404554908153,1.0,149.547554327351,-0.05584460731857883,136.84559774013326,115.07966317386092,0.012458674420540177,11.508510869650774,139.71909266477746,116.48071281926201,8448.552092208716,0.26819830647342263
1.5899999999999999,161.97237175777164,0.0,140.6550400205527,117.44077539122014,0.0,11.135924655878513,117.96755716057031,17.656636377375953,0.0,9.119836197063684,0.0,0.0,1.433798244529094,0.0,3.7031528370547515,0.0,8409.255487664906,0.3472149221978318,117.9675571605703,2.1647211932645773,1.208543732447007,99646.65950824728,287.2357422398664,0.0,0.0,0.0,412.2221052631579,0.22123661267617703,0.88,nominal,8337.527019433765,nan,pitch_program,13.807500000000001,0.0,0.0,-2.9254015475883084,-0.0,0.0,-2.9198366580512607,0.0,0.0,0.88,0.0,0.0,0.0,0.0,0.0,0.0,-0.0509607633034223,0.0,0.0,-0.0509607633034223,0.0,0.0,20.654445065604456,-0.06145980202242991,5.08583399398257,0.0016468024968682921,0.026526128067697285,-0.00016451071215957096,1.0,149.547554327351,-0.05584460731857883,136.84559774013326,115.07966317386092,0.012458674420540177,11.508510869650774,139.71909266477746,118.22630178052033,8467.51363525199,0.26819830647342263
1.6199999999999999,165.51320000433003,0.0,140.98771483243883,118.02760821861285,0.0,11.089160396204587,118.54739887529848,17.64999927899567,0.0,9.077558265364381,0.0,0.0,1.4092644539197479,0.0,3.710149587458647,0.0,8491.85400013616,0.34892288868129023,118.54739887529848,2.1638748692685437,1.2085050119254137,99642.716787586,287.2335798535891,0.0,0.0,0.0,412.1873684210526,0.221217969665081,0.88,nominal,8409.360063711098,nan,pitch_program,13.785,0.0,0.0,-2.9331682075775936,-0.0,0.0,-2.9278355877670603,0.0,0.0,0.88,0.0,0.0,0.0,0.0,0.0,0.0,-0.05110037096359862,0.0,0.0,-0.05110037096359862,0.0,0.0,20.604885204261002,-0.006520424942204692,5.094229187110439,-0.004403868157836772,0.024006676240308073,0.0015293733424196806,1.0,149.547554327351,-0.05584460731857883,136.84559774013326,115.07966317386092,0.012458674420540177,11.508510869650774,141.39732336917453,118.7406273196214,8428.127543782799,-1.2485814827905788
1.65,169.07160820810353,0.0,141.31902670475498,118.61360679244987,0.0,11.043729077204837,119.12662031739426,17.643362739905715,0.0,9.036009330316439,0.0,0.0,1.3849645622900995,0.0,3.7167200868110966,0.0,8574.765345933025,0.35062903695311587,119.12662031739426,2.1630386100568795,1.2084664509816616,99638.79034545211,287.23142632641907,0.0,0.0,0.0,412.15263157894736,0.221199326653985,0.88,nominal,8481.442067356491,nan,pitch_program,13.7625,0.0,0.0,-2.9405965335119655,-0.0,0.0,-2.9354921552140034,0.0,0.0,0.88,0.0,0.0,0.0,0.0,0.0,0.0,-0.051234003274948786,0.0,0.0,-0.051234003274948786,0.0,0.0,20.52839092047019,-0.08267294926094021,5.144292202670675,-0.002395653862722053,0.02172942953222227,-0.0012987842241062905,1.0,149.547554327351,-0.05584460731857883,136.84559774013326,115.07966317386092,0.012458674420540177,11.508510869650774,141.39732336917453,119.3174207523201,8578.434300271503,-1.2485814827905788
1.68,172.64757125222272,0.0,141.64901577143868,119.1987681373064,0.0,10.999635556123465,119.70521420480759,17.636726760106097,0.0,8.995182147699092,0.0,0.0,1.3609061448287585,0.0,3.7228721993569174,0.0,8657.98713825164,0.3523333456403761,119.70521420480759,2.1622123124358748,1.2084280449331521,99634.87970468376,287.22928139748564,0.0,0.0,0.0,412.1178947368421,0.22118068364288904,0.88,nominal,8553.771474424413,nan,pitch_program,13.74,0.0,0.0,-2.947692042900596,-0.0,0.0,-2.9428120878259585,0.0,0.0,0.88,0.0,0.0,0.0,0.0,0.0,0.0,-0.051361760200051516,0.0,0.0,-0.051361760200051516,0.0,0.0,20.510043189654297,0.013578636643333131,5.196582132455509,-0.0020753890714846433,0.02671416483944661,0.0014798556516631936,1.0,173.97088652120308,-1.9595538746280203,143.82097106571203,119.26977343812905,0.17850913558883957,10.784477679812882,142.02241403083644,120.09048986385571,8632.565468834662,-1.5393931478519496
1.71,176.24106393210076,0.0,141.97772230277113,119.78308932926755,0.0,10.956884377747928,120.28317340563736,17.63009133959681,0.0,8.95506928847782,0.0,0.0,1.337095361989623,0.0,3.7286134358089527,0.0,8741.516992302588,0.3540357938155698,120.28317340563737,2.1613958616920828,1.2083897890819204,99630.98438657011,287.22714480503197,0.0,0.0,0.0,412.08315789473687,0.22116204063179304,0.88,nominal,8626.346732685784,nan,pitch_program,13.7175,0.0,0.0,-2.954460007524119,-0.0,0.0,-2.9498008396448547,0.0,0.0,0.88,0.0,0.0,0.0,0.0,0.0,0.0,-0.051483736929895996,0.0,0.0,-0.051483736929895996,0.0,0.0,20.5508560514755,-8.384150854892813e-05,5.351666428935336,0.0008261726933043622,0.023956541588720688,-0.0012736246371487171,1.0,173.97088652120308,-1.9595538746280203,143.82097106571203,119.26977343812905,0.17850913558883957,10.784477679812882,142.02241403083644,121.09960178580819,8745.96802432238,-1.5393931478519496
1.74,179.8520609570719,0.0,142.30518669574772,120.36656749903848,0.0,10.915479765886277,120.86049093901637,17.623456478377857,0.0,8.915663174936979,0.0,0.0,1.313537169805797,0.0,3.73395099775771,0.0,8825.352526006653,0.3557363609992096,120.86049093901636,2.1605891316830457,1.2083516787157533,99627.10391096519,287.2250162864776,0.0,0.0,0.0,412.0484210526316,0.22114339762069707,0.88,nominal,8699.166294119885,nan,pitch_program,13.695,0.0,0.0,-2.9609054858649113,-0.0,0.0,-2.9564636273768885,0.0,0.0,0.88,0.0,0.0,0.0,0.0,0.0,0.0,-0.05160002451318147,0.0,0.0,-0.05160002451318147,0.0,0.0,20.444855664277462,0.019025867279535938,5.352168490019394,-0.0007691512889594803,0.022315455877860487,-0.00032545419642316883,1.0,173.97088652120308,-1.9595538746280203,143.82097106571203,119.26977343812905,0.17850913558883957,10.784477679812882,142.35891447807043,121.19967213008081,8830.781748123529,1.0676875395882757
1.77,183.480536952107,0.0,142.63144946424345,120.94919983450372,0.0,10.875425616524378,121.43715997563213,17.616822176449237,0.0,8.876956111483313,0.0,0.0,1.2902354975262005,0.0,3.738891815715097,0.0,8909.491360640348,0.3574350271613303,121.43715997563213,2.159791984961405,1.2083137091093297,99623.23779640373,287.2228955784824,0.0,0.0,0.0,412.0136842105263,0.22112475460960104,0.88,nominal,8772.228615362157,nan,pitch_program,13.672500000000001,0.0,0.0,-2.967033350339279,-0.0,0.0,-2.9628054611543226,0.0,0.0,0.88,0.0,0.0,0.0,0.0,0.0,0.0,-0.05171071039321189,0.0,0.0,-0.05171071039321189,0.0,0.0,20.4269658385579,-0.03604474537897983,5.40175858994616,-0.0004199475583056783,0.024703839125893703,-0.0006444304371300035,1.0,173.97088652120308,-1.9595538746280203,143.82097106571203,119.26977343812905,0.17850913558883957,10.784477679812882,142.35891447807043,121.9514184944304,9217.799007433729,1.0676875395882757
1.7999999999999998,187.1264664595914,0.0,142.95655122901675,121.53098358281356,0.0,10.836725492443588,122.01317383792897,17.610188433810947,0.0,8.838940310929903,0.0,0.0,1.2671933982687087,0.0,3.7434425817434844,0.0,8993.931121436062,0.3591317727220562,122.01317383792897,2.1590042729288097,1.2082758755253808,99619.38556021954,287.2207824170114,0.0,0.0,0.0,411.978947368421,0.22110611159850502,0.88,nominal,8845.532158112375,nan,pitch_program,13.65,0.0,0.0,-2.972848310293598,-0.0,0.0,-2.9688311706378876,0.0,0.0,0.88,0.0,0.0,0.0,0.0,0.0,0.0,-0.051815878863468744,0.0,0.0,-0.051815878863468744,0.0,0.0,20.43858946162726,-0.010540415034344578,5.540977076053544,0.0017346244433028516,0.020828394462943586,-3.4676940619449603e-05,1.0,173.97088652120308,-1.9595538746280203,143.82097106571203,119.26977343812905,0.17850913558883957,10.784477679812882,142.19364882622605,122.18497750693896,9076.457013153351,-0.3426853807927085
1.8299999999999998,190.78982394115332,0.0,143.2805327075901,122.1119160520638,0.0,10.799382619111778,122.5885260000309,17.603555250462993,0.0,8.801607916887239,0.0,0.0,1.244413178781599,0.0,3.747609777417021,0.0,9078.669438141125,0.36082657855134576,122.58852600003088,2.158225836012972,1.2082381732158682,99615.54671866495,287.21867653740065,0.0,0.0,0.0,411.94421052631577,0.22108746858740905,0.88,nominal,8919.075389507014,nan,pitch_program,13.6275,0.0,0.0,-2.978354931951388,-0.0,0.0,-2.974545427425988,0.0,0.0,0.88,0.0,0.0,0.0,0.0,0.0,0.0,-0.05191561145872552,0.0,0.0,-0.05191561145872552,0.0,0.0,20.427726500268403,-0.015279554565315918,5.505448901539484,0.0005402149572866834,0.01882593473998785,-0.0010408027502481648,1.0,173.97088652120308,-1.9595538746280203,143.82097106571203,119.26977343812905,0.17850913558883957,10.784477679812882,142.19364882622605,123.1209848467944,8955.207272058698,-0.3426853807927085
1.8599999999999999,194.47058377953212,0.0,143.60343470404058,122.69199461262669,0.0,10.763399881682071,123.1632100874194,17.59692262640537,0.0,8.764951022815424,0.0,0.0,1.221896510739584,0.0,3.751399697774561,0.0,9163.703945539402,0.36251942596801245,123.16321008741939,2.157456503863916,1.208200597423165,99611.72078703142,287.2165776744237,0.0,0.0,0.0,411.9094736842105,0.22106882557631305,0.88,nominal,8992.856782459285,nan,pitch_program,13.605000000000002,0.0,0.0,-2.9835576555939243,-0.0,0.0,-2.97995276432675,0.0,0.0,0.88,0.0,0.0,0.0,0.0,0.0,0.0,-0.052009987291408405,0.0,0.0,-0.052009987291408405,0.0,0.0,20.40937202505444,0.10350445575487588,5.61018286307214,8.77326990892101e-05,0.02016938179424252,-0.002520845874726745,1.0,173.97088652120308,-1.9595538746280203,143.82097106571203,119.26977343812905,0.17850913558883957,10.784477679812882,143.20877798398018,122.80489732560534,9070.615098556702,-0.7478071213665922
1.89,198.16872028047763,0.0,143.92529809872923,123.27121669818348,0.0,10.728779822954817,123.73721987639755,17.59029056163808,0.0,8.728961688236167,0.0,0.0,1.1996445254187165,0.0,3.754818471853799,0.0,9249.0322839389,0.3642102967381147,123.73721987639755,2.156696095567383,1.2081631433812519,99607.90727977088,287.2144855623582,0.0,0.0,0.0,411.8747368421053,0.22105018256521705,0.88,nominal,9066.874815969879,nan,pitch_program,13.5825,0.0,0.0,-2.9884608101740167,-0.0,0.0,-2.98505759183511,0.0,0.0,0.88,0.0,0.0,0.0,0.0,0.0,0.0,-0.05209908333917567,0.0,0.0,-0.05209908333917567,0.0,0.0,20.42337896185076,0.08042401329144179,5.643949819758281,0.0004281569103873066,0.019531653266494493,-0.0016860751952937196,1.0,197.2168013454545,1.5146934503745837,146.20210584551438,123.2822342494736,0.12007398015152826,10.861627676282307,143.20877798398018,124.45418390311423,9272.828109927821,-0.7478071213665922
1.92,201.88420767467267,0.0,144.2461638379946,123.8495798065016,0.0,10.69552464217916,124.31054929336636,17.583659056161125,0.0,8.693631952523525,0.0,0.0,1.177657894402193,0.0,3.7578720803032577,0.0,9334.652099628196,0.3658991730727921,124.31054929336638,2.155944419873119,1.2081258063169114,99604.10571061753,287.212399935053,0.0,0.0,0.0,411.84,0.22103153955412105,0.88,nominal,9141.127975411104,nan,pitch_program,13.56,0.0,0.0,-2.993068625779912,-0.0,0.0,-2.9898642122019914,0.0,0.0,0.88,0.0,0.0,0.0,0.0,0.0,0.0,-0.052182974690471166,0.0,0.0,-0.052182974690471166,0.0,0.0,20.285012832129972,-0.01928814943553388,5.741015654775031,-0.0014633429379370428,0.018375250718782498,-0.004550799542820941,1.0,197.2168013454545,1.5146934503745837,146.20210584551438,123.2822342494736,0.12007398015152826,10.861627676282307,143.63152377375897,124.2592855508686,9328.233924122627,-0.9707078638841842
