time_s,x_m,y_m,altitude_m,vx_mps,vy_mps,vz_mps,speed_mps,mass_kg,roll_deg,pitch_deg,yaw_deg,p_dps,q_dps,r_dps,alpha_deg,beta_deg,qbar_pa,mach,airspeed_mps,load_factor_g,density_kgpm3,pressure_pa,temperature_k,wind_x_mps,wind_y_mps,wind_z_mps,thrust_n,mass_flow_kgps,propulsion_throttle_actual,propulsion_health,energy_j_per_kg,target_distance_m,guidance_mode,pitch_command_deg,heading_command_deg,roll_command_deg
0.0,0.0,0.0,120.0,86.0,0.0,16.0,87.47571091451616,18.0,0.0,10.0,0.0,0.0,0.0,0.0,-0.5391837286282299,0.0,4633.093410827757,0.2574078588887444,87.47571091451614,1.7887233382662049,1.2109496630495968,99891.70180372041,287.37,0.0,0.0,0.0,334.4,0.17947005348411538,0.88,nominal,5002.798,nan,pitch_program,14.999999999999998,0.0,0.0
0.03,2.5956430605347935,0.0,120.47330314433844,86.52143535115978,0.0,15.776771477948124,87.94808294381589,17.994615898395477,0.0,10.379294008134904,0.0,0.0,-12.64317977685787,0.0,0.04521865340142464,0.0,4683.052886220638,0.2587992560201085,87.94808294381589,1.8242603807479665,1.2108944909902168,99886.08128676451,287.3669235295618,0.0,0.0,0.0,340.34,0.1826580083815306,0.88,nominal,5048.872165026586,nan,pitch_program,14.977500000000001,0.0,0.0
0.06,5.207128993487495,0.0,120.94065156236364,87.04953109842339,0.0,15.578280600839731,88.43248097239996,17.98913615814403,0.0,10.796225657982468,0.0,0.0,-13.897782988219307,0.0,0.6500459454750832,0.0,4734.568319018214,0.26022603886584994,88.43248097239994,1.8510738370435031,1.2108400149490426,99880.5317339787,287.3638857648446,0.0,0.0,0.0,346.28000000000003,0.1858459632789458,0.88,nominal,5096.174486110993,nan,pitch_program,14.955000000000002,0.0,0.0
0.09,7.834554764130386,0.0,121.40275722275676,87.58085902142972,0.0,15.40352201310395,88.92511094926857,17.983560779245664,0.0,11.040779494174446,0.0,0.0,-8.15180691562328,0.0,1.0657458398376978,0.0,4787.2519080698885,0.26167704517477347,88.92511094926859,1.8802989770930982,1.2107861518686318,99875.04468206823,287.36088207805204,0.0,0.0,0.0,352.22,0.18903391817636103,0.88,nominal,5144.39202778841,nan,pitch_program,14.9325,0.0,0.0
0.12,10.47809308198667,0.0,121.86001166974489,88.11794392854276,0.0,15.241814899604547,89.42642206656606,17.977889761700375,0.0,11.128847223268112,0.0,0.0,-2.9355915477554313,0.0,1.315460575441586,0.0,4841.166759045408,0.26315359806378946,89.42642206656606,1.9107366881341084,1.210732856050431,99869.61547382081,287.3579099241466,0.0,0.0,0.0,358.16,0.19222187307377622,0.88,nominal,5193.58096525491,nan,pitch_program,14.910000000000002,0.0,0.0
0.15,13.137975432193894,0.0,122.31259638157877,88.66274500690751,0.0,15.086157061129454,89.9370584744296,17.97212310550816,0.0,11.159951844964713,0.0,0.0,-1.0368207486840568,0.0,1.5034338154168645,0.0,4896.398643836677,0.26465759376856984,89.9370584744296,1.9417917762256833,1.2106801062859285,99864.24194698218,287.3549681235197,0.0,0.0,0.0,364.1,0.19540982797119144,0.88,nominal,5243.814066821894,nan,pitch_program,14.8875,0.0,0.0
0.18,15.814446489320655,0.0,122.76066051041627,89.21570190422536,0.0,14.93547096125018,90.45722612980097,17.966260810669024,0.0,11.200127865167739,0.0,0.0,-1.3392007283064995,0.0,1.6964528946737614,0.0,4952.987242386862,0.26618963899331505,90.45722612980097,1.9731480981501623,1.2106278851375025,99858.92232353262,287.3520557066823,0.0,0.0,0.0,370.04,0.19859778286860666,0.88,nominal,5295.125710943447,nan,pitch_program,14.865,0.0,0.0
0.21,18.507738701264934,0.0,123.20440788888716,89.77640706480926,0.0,14.791579282362939,90.98677971624649,17.960302877182965,0.0,11.252603892227146,0.0,0.0,-1.7492010242544977,0.0,1.8965943837359636,0.0,5010.934354095332,0.26774930691997456,90.98677971624649,2.0047079123980684,1.2105761687977599,99853.65417668018,287.3491713487222,0.0,0.0,0.0,375.98,0.20178573776602185,0.88,nominal,5347.519548189936,nan,pitch_program,14.8425,0.0,0.0
0.24,21.218075953498833,0.0,123.64407591997708,90.34457507446328,0.0,14.655601036330541,91.52556411801801,17.954249305049984,0.0,11.293667724356805,0.0,0.0,-1.3687944629129078,0.0,2.079471538929067,0.0,5070.240625466777,0.2693361419934717,91.52556411801801,2.036433530227123,1.2105249295506602,99848.43468159264,287.3463135065201,0.0,0.0,0.0,381.92,0.20497369266343707,0.88,nominal,5400.9986206813555,nan,pitch_program,14.82,0.0,0.0
0.27,23.94568679711534,0.0,124.07988528894647,90.92036145388352,0.0,14.526978965646148,92.07358603189708,17.94810009427008,0.0,11.309316600353265,0.0,0.0,-0.5216292031246766,0.0,2.2315003743018287,0.0,5130.924651658292,0.2709501647826939,92.07358603189707,2.068286970635963,1.2104741416323965,99843.26121242577,287.34348074562183,0.0,0.0,0.0,387.86,0.20816164756085226,0.88,nominal,5455.580629455423,nan,pitch_program,14.7975,0.0,0.0
0.3,26.690810831279016,0.0,124.51201888402018,91.50413447212262,0.0,14.404453169123618,92.63096078846303,17.941855244843257,0.0,11.303144693532728,0.0,0.0,0.20573022755022985,0.0,2.3571368173593497,0.0,5193.017549322748,0.27259171543367755,92.63096078846301,2.1002639921934962,1.210423783687404,99838.13159248664,287.34067187725384,0.0,0.0,0.0,393.8,0.21134960245826748,0.88,nominal,5511.2932382858635,nan,pitch_program,14.775,0.0,0.0
0.32999999999999996,29.453696251338098,0.0,124.94063247615715,92.09618066863608,0.0,14.287119737899058,93.1977911978343,17.93551475676951,0.0,11.28517174161371,0.0,0.0,0.5990984022131957,0.0,2.4670198631090723,0.0,5256.549656179807,0.2742610971766035,93.1977911978343,2.1323670456362214,1.2103738375231112,99833.04396736633,287.33788588890496,0.0,0.0,0.0,399.74,0.21453755735568267,0.88,nominal,5568.163195549868,nan,pitch_program,14.752499999999998,0.0,0.0
0.36,32.23459497940353,0.0,125.36587223284245,92.69662426884776,0.0,14.17465855617683,93.77411740999823,17.92907863004884,0.0,11.261399452191267,0.0,0.0,0.7924096587822502,0.0,2.567389730042605,0.0,5321.544801664451,0.2759584288264073,93.77411740999823,2.1645750981188354,1.2103242860686017,99827.99659699081,287.3351218304865,0.0,0.0,0.0,405.68,0.21772551225309789,0.88,nominal,5626.21177894427,nan,pitch_program,14.73,0.0,0.0
0.39,35.03376036621323,0.0,125.78788200982602,93.3055128936565,0.0,14.06699256611911,94.35994391797585,17.922546864681244,0.0,11.232379778340444,0.0,0.0,0.9673224823730409,0.0,2.658880158007294,0.0,5388.023178116803,0.27768372426599724,94.35994391797585,2.196852939745463,1.210275112524761,99822.987769048,287.33237876693613,0.0,0.0,0.0,411.62,0.2209134671505131,0.88,nominal,5685.457241213435,nan,pitch_program,14.707500000000001,0.0,0.0
0.42,37.85144759640783,0.0,126.20680111444452,93.92290767315333,0.0,13.963970153949742,94.95527920152773,17.91591946066673,0.0,11.197011146648745,0.0,0.0,1.1789544271608623,0.0,2.740517123552211,0.0,5456.0057745482445,0.2794370091014768,94.95527920152774,2.206634736947143,1.210226300624806,99818.0158255224,287.3296557927561,0.0,0.0,0.0,413.57684210526315,0.22196369010892084,0.88,nominal,5745.91845026901,nan,pitch_program,14.684999999999999,0.0,0.0
0.44999999999999996,40.68771831304741,0.0,126.62272192518344,94.5423572213195,0.0,13.864027024630936,95.55348530693834,17.90926054996346,0.0,11.15544699418048,0.0,0.0,1.3854718097009369,0.0,2.812851929781603,0.0,5524.745354663619,0.2811987493958799,95.55348530693834,2.205192811613148,1.210177839572045,99813.07966564086,287.3269523074863,0.0,0.0,0.0,413.5421052631579,0.22194504709782484,0.88,nominal,5806.978993119241,nan,pitch_program,14.662500000000001,0.0,0.0
0.48,43.54253867644139,0.0,127.03570937906615,95.16067877979924,0.0,13.76624846275712,96.15125783145271,17.902602198550525,0.0,11.109105457111744,0.0,0.0,1.5447179865010865,0.0,2.877618888582986,0.0,5593.863594506152,0.2829592209185798,96.15125783145271,2.2038003571066773,1.2101297217685434,99808.17851449428,287.32426788903604,0.0,0.0,0.0,413.5073684210526,0.2219264040867288,0.88,nominal,5868.3269306674665,nan,pitch_program,14.640000000000002,0.0,0.0
0.51,46.41587685857657,0.0,127.4458227102221,95.77793940450607,0.0,13.67044437186524,96.7486161446121,17.895944406427923,0.0,11.059426017751901,0.0,0.0,1.6559814157433494,0.0,2.936428207468246,0.0,5663.361801762409,0.28471848066932676,96.7486161446121,2.2024540825852577,1.2100819402819363,99803.31166500182,287.32160215238355,0.0,0.0,0.0,413.47263157894736,0.22190776107563284,0.88,nominal,5929.963940229949,nan,pitch_program,14.6175,0.0,0.0
0.54,49.30770242320924,0.0,127.85311746210101,96.39418548775575,0.0,13.576491729297057,97.3455706415219,17.889287173595655,0.0,11.007201556946667,0.0,0.0,1.7408154806988092,0.0,2.9901983053933323,0.0,5733.240284531315,0.2864765592312187,97.34557064152192,2.2011464740950966,1.210034488610882,99798.47845401734,287.3189547364963,0.0,0.0,0.0,413.4378947368421,0.22188911806453684,0.88,nominal,5991.890836121479,nan,pitch_program,14.595000000000002,0.0,0.0
0.57,52.21798606852202,0.0,128.25764617885056,97.00945484375924,0.0,13.484290558318106,97.94212791717622,17.88263050005372,0.0,10.952778925993918,0.0,0.0,1.8140878348174792,0.0,3.039384312632964,0.0,5803.498931956671,0.28823347599945487,97.94212791717624,2.199869257212739,1.2099873606044416,99793.67825411556,287.31632529983744,0.0,0.0,0.0,413.40315789473686,0.22187047505344087,0.88,nominal,6054.10805637208,nan,pitch_program,14.5725,0.0,0.0
0.6,55.14669957021118,0.0,128.65945843668317,97.62378338963859,0.0,13.39374192775327,98.53829411012924,17.875974385802117,0.0,10.896473805445337,0.0,0.0,1.8768375026607536,0.0,3.084406686166859,0.0,5874.137599268103,0.28998924902099155,98.53829411012924,2.198617032483255,1.2099405504583578,99788.91047321104,287.3137135201615,0.0,0.0,0.0,413.3684210526316,0.22185183204234488,0.88,nominal,6116.615981145264,nan,pitch_program,14.55,0.0,0.0
0.63,58.09381569360897,0.0,129.05860104141098,98.23720411325952,0.0,13.304753490927586,99.13407455282247,17.869318830840847,0.0,10.83870790941066,0.0,0.0,1.9255300309273788,0.0,3.12578527967643,0.0,5945.15606413981,0.29174389396579564,99.13407455282248,2.1973872988440504,1.209894052691982,99784.17455220608,287.3111190932308,0.0,0.0,0.0,413.3336842105263,0.22183318903124885,0.88,nominal,6179.414898625035,nan,pitch_program,14.5275,0.0,0.0
0.6599999999999999,61.05930802421359,0.0,129.45511853627355,98.8497443534876,0.0,13.217249828752154,99.72947233283399,17.862663835169908,0.0,10.779905676983304,0.0,0.0,1.960074586286931,0.0,3.1640301498863246,0.0,6016.553849959818,0.2934974198940396,99.72947233283399,2.1961783817003067,1.2098478620890598,99779.46995895778,287.3085417295142,0.0,0.0,0.0,413.298947368421,0.22181454602015285,0.88,nominal,6242.504864086497,nan,pitch_program,14.505,0.0,0.0
0.69,64.0431507921357,0.0,129.84905372986495,99.46142559740396,0.0,13.131173119713123,100.32448798457833,17.856009398789304,0.0,10.720392736609929,0.0,0.0,1.9837648574680382,0.0,3.1995400171844826,0.0,6088.330180105513,0.29524982835017155,100.32448798457834,2.194988172517678,1.2098019736361803,99774.79618200766,287.3059811507559,0.0,0.0,0.0,413.26421052631576,0.22179590300905686,0.88,nominal,6305.88566744388,nan,pitch_program,14.4825,0.0,0.0
0.72,67.0453187478621,0.0,130.24044804346926,100.07226519087968,0.0,13.04647712014375,100.91912021852045,17.84935552169903,0.0,10.660401061686457,0.0,0.0,1.9997226801434498,0.0,3.2326113237012706,0.0,6160.4840576674915,0.2970011155097836,100.91912021852045,2.1938144214037965,1.2097563824822875,99770.15272645661,287.30343708771744,0.0,0.0,0.0,413.2294736842105,0.22177725999796086,0.88,nominal,6369.556902645579,nan,pitch_program,14.46,0.0,0.0
0.75,70.06578708072033,0.0,130.62934171884945,100.68227776194107,0.0,12.963122512673324,101.51336661056627,17.842702203899094,0.0,10.600122762097671,0.0,0.0,2.0092768382851114,0.0,3.2634949975691154,0.0,6233.014343497117,0.2987512742089128,101.51336661056627,2.192655429019017,1.2097110839144374,99765.53911149484,287.3009092788275,0.0,0.0,0.0,413.19473684210527,0.2217586169868649,0.88,nominal,6433.51803427277,nan,pitch_program,14.437499999999998,0.0,0.0
0.78,73.10453134824702,0.0,131.0157740022713,101.29147558422306,0.0,12.881076114062198,102.10722377915052,17.836049445389488,0.0,10.539737856675504,0.0,0.0,2.012830367049342,0.0,3.292424865911519,0.0,6305.9197739491765,0.30050029446563914,102.10722377915053,2.1915101616374546,1.2096660733363405,99760.95486821543,287.29839746898523,0.0,0.0,0.0,413.16,0.2217399739757689,0.88,nominal,6497.768414062135,nan,pitch_program,14.415000000000001,0.0,0.0
0.8099999999999999,76.16152740402606,0.0,131.3997833445509,101.89986852596803,0.0,12.800311409319903,102.70068732868897,17.829397246170213,0.0,10.479407962112878,0.0,0.0,2.0109966712227125,0.0,3.319611197274969,0.0,6379.198950349641,0.3022481633141872,102.70068732868899,2.1903778999402266,1.2096213462450318,99756.39953723768,287.2959014082604,0.0,0.0,0.0,413.1252631578947,0.2217213309646729,0.88,nominal,6562.307274228408,nan,pitch_program,14.392500000000002,0.0,0.0
0.84,79.23675133104486,0.0,131.78140758762106,102.50746423396006,0.0,12.720808102337857,103.29375190423237,17.822745606241273,0.0,10.419265989462103,0.0,0.0,2.0047326057635146,0.0,3.345230813619843,0.0,6452.850342123114,0.3039948649662696,103.29375190423237,2.1892579711884674,1.2095768982091235,99751.87266649138,287.29342085068043,0.0,0.0,0.0,413.0905263157895,0.2217026879535769,0.88,nominal,6627.133731945697,nan,pitch_program,14.37,0.0,0.0
0.87,82.33017938763086,0.0,132.16068411143127,103.11426855286692,0.0,12.642550793673813,103.8864113816787,17.816094525602665,0.0,10.359418589409957,0.0,0.0,1.9949135164509617,0.0,3.369430429443594,0.0,6526.872307212649,0.3057403813712725,103.88641138167868,2.188149760517374,1.2095327248516796,99747.37380947222,287.2909555532757,0.0,0.0,0.0,413.05578947368423,0.2216840449424809,0.88,nominal,6692.246807723059,nan,pitch_program,14.347500000000002,0.0,0.0
0.8999999999999999,85.44178796444571,0.0,132.5376499472471,103.72028589382816,0.0,12.565527860527531,104.47865904724821,17.80944400425439,0.0,10.299954960466948,0.0,0.0,1.9821211426795309,0.0,3.392336208394608,0.0,6601.263111978123,0.30748469274475704,104.47865904724821,2.1870528100890203,1.2094888218370008,99742.90252389529,287.28850527534286,0.0,0.0,0.0,413.021052631579,0.22166540193138493,0.88,nominal,6757.6454430107415,nan,pitch_program,14.325,0.0,0.0
0.9299999999999999,88.57155354765197,0.0,132.91234187470258,104.32551944020905,0.0,12.489730915182188,105.0704876966082,17.80279404219645,0.0,10.240952030399743,0.0,0.0,1.966764509382791,0.0,3.4140593426978074,0.0,6676.020941662189,0.30922777786045613,105.0704876966082,2.185966824208689,1.2094451848593122,99738.45837054287,287.2860697778144,0.0,0.0,0.0,412.9863157894737,0.2216467589202889,0.88,nominal,6823.328509847099,nan,pitch_program,14.3025,0.0,0.0
0.96,91.71945268604149,0.0,133.28479650943223,104.9299712796506,0.0,12.415154490988769,105.6618896943615,17.796144639428842,0.0,10.182475039139119,0.0,0.0,1.9492332112236168,0.0,3.4346968925936836,0.0,6751.1439062212485,0.310969614225607,105.6618896943615,2.184891598748806,1.2094018096325476,99734.04091222335,287.2836488226887,0.0,0.0,0.0,412.95157894736843,0.22162811590919293,0.88,nominal,6889.294816580933,nan,pitch_program,14.28,0.0,0.0
0.99,94.88546196257892,0.0,133.65505037858202,105.53364255124737,0.0,12.341795638326815,106.25285704258815,17.789495795951566,0.0,10.12457767749872,0.0,0.0,1.9299122189008417,0.0,3.4543322215767382,0.0,6826.630047582039,0.3127101782828983,106.25285704258813,2.183826971290356,1.209358691881541,99729.64971287409,287.2812421725392,0.0,0.0,0.0,412.91684210526313,0.2216094728980969,0.88,nominal,6955.5431146514575,nan,pitch_program,14.2575,0.0,0.0
1.02,98.06955797071747,0.0,134.02313998237884,106.13653360461863,0.0,12.269653459894293,106.84338145917246,17.782847511764622,0.0,10.067303771626232,0.0,0.0,1.9091303547224148,0.0,3.4730369999837127,0.0,6902.477348464839,0.3144494456411832,106.84338145917245,2.1827728192775133,1.209315827334857,99725.28433683084,287.27884959011453,0.0,0.0,0.0,412.8821052631579,0.2215908298870009,0.88,nominal,7022.072106523314,nan,pitch_program,14.235000000000001,0.0,0.0
1.05,101.27171729472278,0.0,134.38910184424012,106.73864413351038,0.0,12.198728728708891,107.43345444533,17.776199786868013,0.0,10.010689403398807,0.0,0.0,1.8871457611246085,0.0,3.4908735880529416,0.0,6978.6837401455305,0.31618739127437695,107.43345444533,2.181729068373207,1.2092732117189386,99720.94434823167,287.2764708380124,0.0,0.0,0.0,412.84736842105264,0.22157218687590494,0.88,nominal,7088.880452629215,nan,pitch_program,14.2125,0.0,0.0
1.08,104.4919164929957,0.0,134.75297255271533,107.3399732757641,0.0,12.12902361584055,108.023067336173,17.769552621261735,0.0,9.95476425377174,0.0,0.0,1.864171802239666,0.0,3.5078965730120624,0.0,7055.247108295845,0.3179239896704175,108.02306733617301,2.180695683781467,1.2092308407532257,99716.62931051948,287.27410567840735,0.0,0.0,0.0,412.8126315789474,0.22155354386480894,0.88,nominal,7155.96677664177,nan,pitch_program,14.19,0.0,0.0
1.1099999999999999,107.73013208388673,0.0,135.11478879665864,107.94051969636772,0.0,12.060541464776868,108.61221134267338,17.76290601494579,0.0,9.899552309921052,0.0,0.0,1.8403982707698439,0.0,3.5241536378440097,0.0,7132.16529791409,0.31965921495489225,108.61221134267338,2.179672653255282,1.2091887101460468,99712.33878602358,287.2717538728217,0.0,0.0,0.0,412.77789473684214,0.22153490085371297,0.88,nominal,7223.329669925527,nan,pitch_program,14.167500000000002,0.0,0.0
1.14,110.986340533831,0.0,135.47458739387787,108.54028166480897,0.0,11.993286573974524,109.20087759135247,17.75625996792018,0.0,9.845072546649236,0.0,0.0,1.815992245883244,0.0,3.539686394187737,0.0,7209.436118139233,0.32139304100795735,109.20087759135245,2.1786599774216366,1.2091468155912848,99708.07233561992,287.2694151819398,0.0,0.0,0.0,412.74315789473684,0.22151625784261694,0.88,nominal,7290.967695826945,nan,pitch_program,14.145,0.0,0.0
1.17,114.26051824757286,0.0,135.83240531383456,109.13925712472886,0.0,11.92726399855664,109.78905716067035,17.749614480184903,0.0,9.79133972285772,0.0,0.0,1.7910942576556041,0.0,3.554531314800229,0.0,7287.057346799986,0.3231254415715275,109.78905716067037,2.1776576677168054,1.2091051527657237,99703.82951846071,287.26708936546004,0.0,0.0,0.0,412.7084210526316,0.22149761483152094,0.88,nominal,7358.879393685387,nan,pitch_program,14.1225,0.0,0.0
1.2,117.55264156013814,0.0,136.18827969542446,109.7374437521762,0.0,11.862479386330289,110.37674111176297,17.742969551739957,0.0,9.738365084947732,0.0,0.0,1.7658213894591974,0.0,3.568720550025758,0.0,7365.0267343679925,0.3248563903398177,110.37674111176298,2.1766657442506987,1.2090637173269776,99699.60989176351,287.2647761819797,0.0,0.0,0.0,412.67368421052635,0.22147897182042497,0.88,nominal,7427.063282301708,nan,pitch_program,14.1,0.0,0.0
1.23,120.86268673025756,0.0,136.5422478607099,110.33483900398055,0.0,11.798938842847482,110.96392051406423,17.736325182585343,0.0,9.686156880547125,0.0,0.0,1.74027360043181,0.0,3.5822825353615544,0.0,7443.342007358427,0.3265858610348201,110.96392051406423,2.175684231126589,1.2090225049118897,99695.41301064793,287.2624753889054,0.0,0.0,0.0,412.63894736842104,0.22146032880932895,0.88,nominal,7495.517862909012,nan,pitch_program,14.0775,0.0,0.0
1.26,124.19062993504801,0.0,136.89434732511532,110.93144015968136,0.0,11.736648813514421,111.5505864676324,17.729681372721064,0.0,9.634720767529746,0.0,0.0,1.7145372157274088,0.0,3.59524248214964,0.0,7522.000871397408,0.32831382747207055,111.5505864676324,2.174713152060272,1.208981511135334,99691.2384280136,287.26018674238674,0.0,0.0,0.0,412.6042105263158,0.22144168579823295,0.88,nominal,7564.241621832209,nan,pitch_program,14.055,0.0,0.0
1.29,127.5364472658001,0.0,137.24461580447988,111.52724435840338,0.0,11.675615978818843,112.1367301229346,17.723038122147116,0.0,9.584060195162492,0.0,0.0,1.6886858555928146,0.0,3.607622830777048,0.0,7601.001014041996,0.3300402636189241,112.13673012293462,2.1737525280218195,1.2089407315894025,99687.08569445727,287.2579099972709,0.0,0.0,0.0,412.5694736842105,0.22142304278713695,0.88,nominal,7633.233032910936,nan,pitch_program,14.0325,0.0,0.0
1.3199999999999998,130.90011472471687,0.0,137.59309121940387,112.12224863055886,0.0,11.615847164133617,112.72234269794684,17.716395430863503,0.0,9.534176749416368,0.0,0.0,1.6627816299028164,0.0,3.619443658052023,0.0,7680.34010732005,0.33176514364492243,112.72234269794683,2.172802375819015,1.208900161842887,99682.95435821991,287.2556449070739,0.0,0.0,0.0,412.53473684210525,0.22140439977604096,0.88,nominal,7702.490559663452,nan,pitch_program,14.01,0.0,0.0
1.3499999999999999,134.28160822245766,0.0,137.93981169730972,112.71644992469265,0.0,11.557349263528435,113.307415492654,17.709753298870222,0.0,9.485070438180662,0.0,0.0,1.6368771413895178,0.0,3.630723015181684,0.0,7760.015809988147,0.33348844196450117,113.307415492654,2.171862706470554,1.208859797441041,99678.8439651624,287.25339122396747,0.0,0.0,0.0,412.5,0.22138575676494499,0.88,nominal,7772.012657193887,nan,pitch_program,13.9875,0.0,0.0
1.38,137.68090357637016,0.0,138.2848155725461,113.30984513041689,0.0,11.50012917454581,113.89193990142718,17.703111726167272,0.0,9.436739924902044,0.0,0.0,1.6110172048121338,0.0,3.6414772067992836,0.0,7840.025769559849,0.33521013327344235,113.89193990142718,2.170933523561705,1.2088196339055637,99674.75405876384,287.2511486987784,0.0,0.0,0.0,412.46526315789475,0.221367113753849,0.88,nominal,7841.797773889659,nan,pitch_program,13.965,0.0,0.0
1.41,141.097976509316,0.0,138.6281413847955,113.90243109819433,0.0,11.44419374164621,114.47590742368125,17.696470712754657,0.0,9.38918273097806,0.0,0.0,1.5852398884786127,0.0,3.651721032831548,0.0,7920.367624149513,0.3369301925802605,114.47590742368124,2.170014822083537,1.2087796667347819,99670.68418013996,287.2489170809988,0.0,0.0,0.0,412.4305263157895,0.221348470742753,0.88,nominal,7911.844352948825,nan,pitch_program,13.9425,0.0,0.0
1.44,144.53280264900548,0.0,138.96982787602164,114.49420465631623,0.0,11.389549707538063,115.05930967298085,17.689830258632373,0.0,9.342395413505187,0.0,0.0,1.5595773357593852,0.0,3.6614680004356095,0.0,8001.039004146223,0.3386485952330161,115.05930967298085,2.1691065876845994,1.2087398914040037,99666.63386807904,287.24669611880586,0.0,0.0,0.0,412.3957894736842,0.221329827731657,0.88,nominal,7982.15083375184,nan,pitch_program,13.920000000000002,0.0,0.0
1.47,147.98535752776598,0.0,139.30991398617428,115.0851626253505,0.0,11.336203671754584,115.64213838472062,17.683190363800424,0.0,9.296373716630477,0.0,0.0,1.534056644968716,0.0,3.6707305047807677,0.0,8082.037533727513,0.34036531694192723,115.64213838472062,2.1682087960358767,1.2087003033660146,99662.60265909239,287.24448555908987,0.0,0.0,0.0,412.36105263157896,0.221311184720561,0.88,nominal,8052.715653087954,nan,pitch_program,13.8975,0.0,0.0
1.5,151.45561658267897,0.0,139.64843884783616,115.6753018304327,0.0,11.284162055395829,116.22438542257018,17.676551028258807,0.0,9.251112698764745,0.0,0.0,1.5087006739802913,0.0,3.679519981658543,0.0,8163.360832232545,0.3420803337983421,116.22438542257018,2.167321412256434,1.2086608980517013,99658.59008747769,287.24228514748904,0.0,0.0,0.0,412.32631578947365,0.22129254170946497,0.88,nominal,8123.537246254204,nan,pitch_program,13.875,0.0,0.0
1.53,154.94355515603144,0.0,139.9854417799666,116.26461911174857,0.0,11.233431071014847,116.80604278386977,17.669912252007524,0.0,9.206606841298006,0.0,0.0,1.4835286568186197,0.0,3.687847038225824,0.0,8245.006515414574,0.34379362229061816,116.80604278386976,2.1664443904941333,1.2086216708707742,99654.59568539265,287.2400946284302,0.0,0.0,0.0,412.2915789473684,0.221273898698369,0.88,nominal,8194.614048045118,nan,pitch_program,13.8525,0.0,0.0
1.56,158.44914849603504,0.0,140.32096228087633,116.85311133345313,0.0,11.18401669699054,117.38710260410619,17.663274035046573,0.0,9.162850142379321,0.0,0.0,1.4585567015129826,0.0,3.6957215658978533,0.0,8326.972196585879,0.3455051593172913,117.38710260410618,2.165577673662793,1.2085826172125826,99650.61898293778,287.2379137451743,0.0,0.0,0.0,412.25684210526316,0.221255255687273,0.88,nominal,8265.944493645233,nan,pitch_program,13.83,0.0,0.0
1.5899999999999999,161.97237175777164,0.0,140.6550400205527,117.44077539122014,0.0,11.135924655878513,117.96755716057031,17.656636377375953,0.0,9.119836197063684,0.0,0.0,1.433798244529094,0.0,3.7031528370547515,0.0,8409.255487664906,0.3472149221978318,117.9675571605703,2.1647211932645773,1.208543732447007,99646.65950824728,287.2357422398664,0.0,0.0,0.0,412.2221052631579,0.22123661267617703,0.88,nominal,8337.527019433765,nan,pitch_program,13.807500000000001,0.0,0.0
1.6199999999999999,165.51320000433003,0.0,140.98771483243883,118.02760821861285,0.0,11.089160396204587,118.54739887529848,17.64999927899567,0.0,9.077558265364381,0.0,0.0,1.4092644539197479,0.0,3.710149587458647,0.0,8491.85400013616,0.34892288868129023,118.54739887529848,2.1638748692685437,1.2085050119254137,99642.716787586,287.2335798535891,0.0,0.0,0.0,412.1873684210526,0.221217969665081,0.88,nominal,8409.360063711098,nan,pitch_program,13.785,0.0,0.0
1.65,169.07160820810353,0.0,141.31902670475498,118.61360679244987,0.0,11.043729077204837,119.12662031739426,17.643362739905715,0.0,9.036009330316439,0.0,0.0,1.3849645622900995,0.0,3.7167200868110966,0.0,8574.765345933025,0.35062903695311587,119.12662031739426,2.1630386100568795,1.2084664509816616,99638.79034545211,287.23142632641907,0.0,0.0,0.0,412.15263157894736,0.221199326653985,0.88,nominal,8481.442067356491,nan,pitch_program,13.7625,0.0,0.0
1.68,172.64757125222272,0.0,141.64901577143868,119.1987681373064,0.0,10.999635556123465,119.70521420480759,17.636726760106097,0.0,8.995182147699092,0.0,0.0,1.3609061448287585,0.0,3.7228721993569174,0.0,8657.98713825164,0.3523333456403761,119.70521420480759,2.1622123124358748,1.2084280449331521,99634.87970468376,287.22928139748564,0.0,0.0,0.0,412.1178947368421,0.22118068364288904,0.88,nominal,8553.771474424413,nan,pitch_program,13.74,0.0,0.0
1.71,176.24106393210076,0.0,141.97772230277113,119.78308932926755,0.0,10.956884377747928,120.28317340563736,17.63009133959681,0.0,8.95506928847782,0.0,0.0,1.337095361989623,0.0,3.7286134358089527,0.0,8741.516992302588,0.3540357938155698,120.28317340563737,2.1613958616920828,1.2083897890819204,99630.98438657011,287.22714480503197,0.0,0.0,0.0,412.08315789473687,0.22116204063179304,0.88,nominal,8626.346732685784,nan,pitch_program,13.7175,0.0,0.0
1.74,179.8520609570719,0.0,142.30518669574772,120.36656749903848,0.0,10.915479765886277,120.86049093901637,17.623456478377857,0.0,8.915663174936979,0.0,0.0,1.313537169805797,0.0,3.73395099775771,0.0,8825.352526006653,0.3557363609992096,120.86049093901636,2.1605891316830457,1.2083516787157533,99627.10391096519,287.2250162864776,0.0,0.0,0.0,412.0484210526316,0.22114339762069707,0.88,nominal,8699.166294119885,nan,pitch_program,13.695,0.0,0.0
1.77,183.480536952107,0.0,142.63144946424345,120.94919983450372,0.0,10.875425616524378,121.43715997563213,17.616822176449237,0.0,8.876956111483313,0.0,0.0,1.2902354975262005,0.0,3.738891815715097,0.0,8909.491360640348,0.3574350271613303,121.43715997563213,2.159791984961405,1.2083137091093297,99623.23779640373,287.2228955784824,0.0,0.0,0.0,412.0136842105263,0.22112475460960104,0.88,nominal,8772.228615362157,nan,pitch_program,13.672500000000001,0.0,0.0
1.7999999999999998,187.1264664595914,0.0,142.95655122901675,121.53098358281356,0.0,10.836725492443588,122.01317383792897,17.610188433810947,0.0,8.838940310929903,0.0,0.0,1.2671933982687087,0.0,3.7434425817434844,0.0,8993.931121436062,0.3591317727220562,122.01317383792897,2.1590042729288097,1.2082758755253808,99619.38556021954,287.2207824170114,0.0,0.0,0.0,411.978947368421,0.22110611159850502,0.88,nominal,8845.532158112375,nan,pitch_program,13.65,0.0,0.0
1.8299999999999998,190.78982394115332,0.0,143.2805327075901,122.1119160520638,0.0,10.799382619111778,122.5885260000309,17.603555250462993,0.0,8.801607916887239,0.0,0.0,1.244413178781599,0.0,3.747609777417021,0.0,9078.669438141125,0.36082657855134576,122.58852600003088,2.158225836012972,1.2082381732158682,99615.54671866495,287.21867653740065,0.0,0.0,0.0,411.94421052631577,0.22108746858740905,0.88,nominal,8919.075389507014,nan,pitch_program,13.6275,0.0,0.0
1.8599999999999999,194.47058377953212,0.0,143.60343470404058,122.69199461262669,0.0,10.763399881682071,123.1632100874194,17.59692262640537,0.0,8.764951022815424,0.0,0.0,1.221896510739584,0.0,3.751399697774561,0.0,9163.703945539402,0.36251942596801245,123.16321008741939,2.157456503863916,1.208200597423165,99611.72078703142,287.2165776744237,0.0,0.0,0.0,411.9094736842105,0.22106882557631305,0.88,nominal,8992.856782459285,nan,pitch_program,13.605000000000002,0.0,0.0
1.89,198.16872028047763,0.0,143.92529809872923,123.27121669818348,0.0,10.728779822954817,123.73721987639755,17.59029056163808,0.0,8.728961688236167,0.0,0.0,1.1996445254187165,0.0,3.754818471853799,0.0,9249.0322839389,0.3642102967381147,123.73721987639755,2.156696095567383,1.2081631433812519,99607.90727977088,287.2144855623582,0.0,0.0,0.0,411.8747368421053,0.22105018256521705,0.88,nominal,9066.874815969879,nan,pitch_program,13.5825,0.0,0.0
1.92,201.88420767467267,0.0,144.2461638379946,123.8495798065016,0.0,10.69552464217916,124.31054929336636,17.583659056161125,0.0,8.693631952523525,0.0,0.0,1.177657894402193,0.0,3.7578720803032577,0.0,9334.652099628196,0.3658991730727921,124.31054929336638,2.155944419873119,1.2081258063169114,99604.10571061753,287.212399935053,0.0,0.0,0.0,411.84,0.22103153955412105,0.88,nominal,9141.127975411104,nan,pitch_program,13.56,0.0,0.0
1.95,205.61702011967245,0.0,144.56607292383222,124.42708149999312,0.0,10.663636194587351,124.88319241393712,17.577028109974503,0.0,8.658953846620031,0.0,0.0,1.155936898737068,0.0,3.760566370485256,0.0,9420.561045304361,0.36758603762561665,124.88319241393714,2.155201275435377,1.2080885814509295,99600.31559270983,287.2103205259951,0.0,0.0,0.0,411.80526315789473,0.22101289654302506,0.88,nominal,9215.614752786722,nan,pitch_program,13.5375,0.0,0.0
1.98,209.36713170185504,0.0,144.8850664035793,125.00371940608666,0.0,10.633115991568404,125.45514346189954,17.570397723078212,0.0,8.624919402979977,0.0,0.0,1.134481488027224,0.0,3.7629070694294815,0.0,9506.756780474461,0.3692708734895191,125.45514346189954,2.1544664510638616,1.2080514639992863,99596.53643871186,287.2082470683767,0.0,0.0,0.0,411.7705263157895,0.22099425353192909,0.88,nominal,9290.333646969559,nan,pitch_program,13.515,0.0,0.0
2.01,213.13451643837826,0.0,145.2031853596213,125.57949121744014,0.0,10.603965201400005,126.02639680806409,17.563767895472253,0.0,8.5915206640024,0.0,0.0,1.1132913307766517,0.0,3.7648997949494,0.0,9593.236971832892,0.37095366419334236,126.02639680806409,2.153739725983834,1.2080144491743594,99592.76776093563,287.2061792951624,0.0,0.0,0.0,411.73578947368424,0.2209756105208331,0.88,nominal,9365.283163918744,nan,pitch_program,13.4925,0.0,0.0
2.04,216.9191482791388,0.0,145.52047089913535,126.15439469201802,0.0,10.576184650468626,126.59694696899396,17.55713862715663,0.0,8.558749689174858,0.0,0.0,1.092365857364451,0.0,3.766550065185299,0.0,9679.999293616049,0.37263439369806955,126.59694696899398,2.153020870104075,1.2079775321861081,99589.00907146168,287.2041169391556,0.0,0.0,0.0,411.701052631579,0.2209569675097371,0.88,nominal,9440.461816878142,nan,pitch_program,13.47,0.0,0.0
2.07,220.7210011087304,0.0,145.83696414388285,126.72842765305336,0.0,10.549774824917003,127.16678860564039,17.550509918131336,0.0,8.526598561115884,0.0,0.0,1.071704296754088,0.0,3.76786330679873,0.0,9767.041427936103,0.3743130463927658,127.1667886056404,2.152309644291477,1.2079407082432632,99585.25988225994,287.20205973306474,0.0,0.0,0.0,411.6663157894737,0.2209383244986411,0.88,nominal,9515.868126557425,nan,pitch_program,13.4475,0.0,0.0
2.1,224.54004874839777,0.0,146.15270622006284,127.30158798891206,0.0,10.524735872665904,127.73591652189333,17.54388176839638,0.0,8.495059390678371,0.0,0.0,1.051305707796736,0.0,3.768844862012425,0.0,9854.361065095114,0.37598960709027013,127.73591652189332,2.1516058006513648,1.207903972554501,99581.51970530937,287.2000074095696,0.0,0.0,0.0,411.6315789473684,0.22091968148754507,0.88,nominal,9591.50062129703,nan,pitch_program,13.425,0.0,0.0
2.13,228.376264957984,0.0,146.46773824823578,127.87387365287442,0.0,10.501067605764112,128.30432566305828,17.537254177951752,0.0,8.464124321252914,0.0,0.0,1.0311690058984169,0.0,3.769499994662194,0.0,9941.955903880791,0.37766406102266914,128.3043256630583,2.1509090828127864,1.2078673203296122,99577.78805271676,287.1979597013864,0.0,0.0,0.0,411.59684210526314,0.22090103847644907,0.88,nominal,9667.35783721812,nan,pitch_program,13.4025,0.0,0.0
2.16,232.2296234378694,0.0,146.78210133332658,128.44528266284684,0.0,10.478769503026582,128.87201111426864,17.530627146797457,0.0,8.433785532388987,0.0,0.0,1.0112929857599995,0.0,3.7698338954023525,0.0,10029.823651845029,0.3793363938365776,128.87201111426864,2.1502192262179904,1.20783074678067,99574.0644368357,287.1959163413334,0.0,0.0,0.0,411.5621052631579,0.2208823954653531,0.88,nominal,9743.43831835856,nan,pitch_program,13.379999999999999,0.0,0.0
2.19,236.10009783089984,0.0,147.09583655471437,129.0158131010146,0.0,10.457840712925828,129.43896809884131,17.524000674933497,0.0,8.404035242834786,0.0,0.0,0.9916763407539738,0.0,3.7698516861860387,0.0,10117.962025566001,0.3810065915882547,129.43896809884131,2.149535958415473,1.2077942471231689,99570.34837038227,287.19387706239434,0.0,0.0,0.0,411.52736842105264,0.2208637524542571,0.88,nominal,9819.740616795722,nan,pitch_program,13.357500000000002,0.0,0.0
2.2199999999999998,239.9876617243032,0.0,147.40898495641554,129.58546311344543,0.0,10.438280056706045,130.00519197658357,17.517374762359868,0.0,8.374865713082682,0.0,0.0,0.9723176794044768,0.0,3.769558424125064,0.0,10206.368750894942,0.3826746407385724,130.00519197658355,2.148858999356052,1.2077578165771732,99566.63936655199,287.19184159778325,0.0,0.0,0.0,411.4926315789474,0.22084510944316113,0.88,nominal,9896.263292757008,nan,pitch_program,13.335,0.0,0.0
2.25,243.89228865159274,0.0,147.72158753736633,130.15423090965163,0.0,10.420086031693424,130.5706782420571,17.510749409076574,0.0,8.34626924749345,0.0,0.0,0.9532155394285651,0.0,3.7689591048177937,0.0,10295.041563188228,0.384340528147859,130.5706782420571,2.148188061691424,1.2077214503684433,99562.93693913436,287.1898096810071,0.0,0.0,0.0,411.4578947368421,0.2208264664320651,0.88,nominal,9973.004914718716,nan,pitch_program,13.3125,0.0,0.0
2.28,247.81395209445628,0.0,148.0336852418097,130.72211476211797,0.0,10.403256814779327,131.13542252280502,17.50412461508361,0.0,8.318238196062794,0.0,0.0,0.9343683996585989,0.0,3.768058665221926,0.0,10383.978207525353,0.3860042410706311,131.13542252280502,2.147522851074768,1.2076851437295453,99559.24060262582,287.1877810459282,0.0,0.0,0.0,411.42315789473685,0.2208078234209691,0.88,nominal,10049.96405949389,nan,pitch_program,13.29,0.0,0.0
2.31,251.7526254846303,0.0,148.3453189497914,131.28911300580103,0.0,10.387790266056012,131.69942057754682,17.497500380380984,0.0,8.29076495588398,0.0,0.0,0.9157746901733391,0.0,3.766861986137417,0.0,10473.176438913799,0.38766576715023177,131.6994205775468,2.14686306646299,1.2076488919009625,99555.54987234273,287.18575542682635,0.0,0.0,0.0,411.3884210526316,0.22078918040987314,0.88,nominal,10127.139312309751,nan,pitch_program,13.2675,0.0,0.0
2.34,255.70828220575845,0.0,148.656529467769,131.85522403760527,0.0,10.373683932587042,132.26266829434635,17.490876704968688,0.0,8.263841972351825,0.0,0.0,0.8974328009179777,0.0,3.7653738943548962,0.0,10562.634022480963,0.38932509441338836,132.26266829434635,2.14612473791992,1.2076126901321773,99551.86426453153,287.1837325584595,0.0,0.0,0.0,411.35368421052635,0.22077053739877714,0.88,nominal,10204.529266875243,nan,pitch_program,13.245000000000001,0.0,0.0
2.37,259.68089593499053,0.0,148.9673551800551,132.42045764107,0.0,10.360857076203539,132.82516689703021,17.484253588846723,0.0,8.240349032526526,0.0,0.0,0.7830980051481601,0.0,3.7665203714341895,0.0,10652.34957144348,0.39098222658534737,132.82516689703021,2.1455576160360574,1.2075765339548636,99548.18332418118,287.1817121913296,0.0,0.0,0.0,411.31894736842105,0.22075189438768114,0.88,nominal,10282.133194288452,nan,pitch_program,13.2225,0.0,0.0
2.4,263.6704381651444,0.0,149.27784195302854,132.98474100512885,0.0,10.349559099114527,133.3868610986377,17.477631032015093,0.0,8.220025163770359,0.0,0.0,0.6774622989756852,0.0,3.76994169523039,0.0,10742.312593332628,0.39263700108267985,133.38686109863767,2.14511913611322,1.2075404180308014,99544.50650773369,287.1796940273053,0.0,0.0,0.0,411.2842105263158,0.22073325137658514,0.88,nominal,10359.9429056623,nan,pitch_program,13.2,0.0,0.0
2.4299999999999997,267.6768785470219,0.0,149.58804147968814,133.5480127292508,0.0,10.339984221986642,133.94770239777563,17.471009034473795,0.0,8.201320288790628,0.0,0.0,0.6234958381951858,0.0,3.774014613492805,0.0,10832.513539070555,0.3942892753232033,133.94770239777563,2.144676126830969,1.207504336344531,99540.83320269997,287.177677730382,0.0,0.0,0.0,411.2494736842105,0.22071460836548912,0.88,nominal,10437.951055798316,nan,pitch_program,13.1775,0.0,0.0
2.46,271.70018622528596,0.0,149.89800594224272,134.11025594213555,0.0,10.332148751818991,134.50767281718473,17.46438759622283,0.0,8.184562989244586,0.0,0.0,0.5585766555164732,0.0,3.779072768569322,0.0,10922.94768713975,0.3959389965801862,134.50767281718473,2.1442958634148215,1.2074682828242418,99537.16279087156,287.1756629613754,0.0,0.0,0.0,411.21473684210525,0.22069596535439315,0.88,nominal,10516.154303320904,nan,pitch_program,13.155,0.0,0.0
2.4899999999999998,275.7403294004787,0.0,150.20779015087564,134.67143917309147,0.0,10.326140287763836,135.06674536018943,17.4577667172622,0.0,8.169844043433857,0.0,0.0,0.49063152972246593,0.0,3.7851812619259726,0.0,11013.608795174114,0.397586085592131,135.06674536018943,2.1439964935353237,1.2074322510930198,99533.49462299673,287.1736493640193,0.0,0.0,0.0,411.18,0.22067732234329715,0.88,nominal,10594.548076380212,nan,pitch_program,13.1325,0.0,0.0
2.52,279.7972752213844,0.0,150.5174520391745,135.23152736352398,0.0,10.322062943294569,135.62489069664488,17.451146397591902,0.0,8.15665018428426,0.0,0.0,0.4397953069300341,0.0,3.7917944786066804,0.0,11104.490164170433,0.3992304562457785,135.62489069664485,2.1437343037205183,1.2073962344112532,99529.82801291841,287.17163656174534,0.0,0.0,0.0,411.14526315789476,0.22065867933220115,0.88,nominal,10673.127459278405,nan,pitch_program,13.110000000000001,0.0,0.0
2.55,283.87099022698993,0.0,150.82705091101835,135.79050018685226,0.0,10.319962394795457,136.18208973585885,17.444526637211936,0.0,8.144891790370588,0.0,0.0,0.39194646516470466,0.0,3.7988159403467034,0.0,11195.586699994928,0.40087205257855923,136.18208973585885,2.143516501230716,1.2073602258805758,99526.16225833727,287.16962416907836,0.0,0.0,0.0,411.1105263157895,0.22064003632110518,0.88,nominal,10751.888881229295,nan,pitch_program,13.0875,0.0,0.0
2.58,287.9614403663092,0.0,151.13664750454444,136.34833797730994,0.0,10.31988645086991,136.73832427499462,17.437907436122302,0.0,8.13455508597442,0.0,0.0,0.3445568141402382,0.0,3.806224223899396,0.0,11286.893403883663,0.40251082125162124,136.73832427499465,2.1433517967838225,1.2073242184364408,99522.4966400562,287.16761179122045,0.0,0.0,0.0,411.0757894736842,0.22062139331000916,0.88,nominal,10830.828867017233,nan,pitch_program,13.065,0.0,0.0
2.61,292.0685909753794,0.0,151.44630416261288,136.90502030233992,0.0,10.321888602280659,137.29357584498263,17.431288794323002,0.0,8.125449541262554,0.0,0.0,0.3035181577008675,0.0,3.8138188527504138,0.0,11378.405184068031,0.40414670815351766,137.29357584498263,2.143226952537803,1.2072882048283171,99518.83041996497,287.165599022943,0.0,0.0,0.0,411.04105263157896,0.22060275029891319,0.88,nominal,10909.943882867286,nan,pitch_program,13.042500000000002,0.0,0.0
2.6399999999999997,296.1924069291057,0.0,151.756084262197,137.46053179087747,0.0,10.326003319470617,137.8478296702003,17.424670711814034,0.0,8.117475047717301,0.0,0.0,0.265816451937596,0.0,3.821497937158825,0.0,11470.117514617208,0.4057796700537257,137.8478296702003,2.143140113024733,1.207252177686069,99515.16284779838,287.1635854522957,0.0,0.0,0.0,411.00631578947366,0.22058410728781716,0.88,nominal,10989.230876122152,nan,pitch_program,13.02,0.0,0.0
2.67,300.3328527009326,0.0,152.0660520425879,138.01485906089732,0.0,10.332259346363196,138.40107262879093,17.4180531885954,0.0,8.110579068289809,0.0,0.0,0.2298659811938876,0.0,3.829209574093919,0.0,11562.026107252064,0.40740966859793254,138.40107262879093,2.1430927690744412,1.2072161295399528,99511.49316317216,287.16157066172315,0.0,0.0,0.0,410.9715789473684,0.22056546427672116,0.88,nominal,11068.687001663375,nan,pitch_program,12.9975,0.0,0.0
2.6999999999999997,304.4898923850439,0.0,152.37627256912756,138.5679894703766,0.0,10.340684217989011,138.95329235379262,17.4114362246671,0.0,8.104667755554939,0.0,0.0,0.19704375800387913,0.0,3.8368610194606756,0.0,11654.12676621353,0.4090366676620055,138.95329235379265,2.1430799662859137,1.2071800528248433,99507.82059601379,287.15955422830064,0.0,0.0,0.0,410.93684210526317,0.2205468212656252,0.88,nominal,11148.309501369316,nan,pitch_program,12.975,0.0,0.0
2.73,308.6634897637093,0.0,152.68681149866075,139.1199126221807,0.0,10.351297651106089,139.5044782473487,17.40481982002913,0.0,8.099670783964255,0.0,0.0,0.16656571979506468,0.0,3.8443862627807985,0.0,11746.415561933354,0.41066063633653505,139.50447824734871,2.1430993485850864,1.2071439399075239,99504.14436934084,287.1575357252587,0.0,0.0,0.0,410.90210526315786,0.22052817825452917,0.88,nominal,11228.095845515834,nan,pitch_program,12.9525,0.0,0.0
2.76,312.85360835184645,0.0,152.9977349405528,139.67061960457178,0.0,10.364114729734515,140.05462096930646,17.398203974681493,0.0,8.095537005937071,0.0,0.0,0.13779260096578264,0.0,3.8517402960894103,0.0,11838.888750684877,0.4122815474208871,140.05462096930646,2.1431499191831924,1.2071077831028556,99500.46370090722,287.1555147228864,0.0,0.0,0.0,410.8673684210526,0.22050953524343317,0.88,nominal,11308.04366478282,nan,pitch_program,12.93,0.0,0.0
2.79,317.0602114261427,0.0,153.30910937418818,140.22010247654242,0.0,10.379147787846819,140.60371206811726,17.39158868862419,0.0,8.092208396577298,0.0,0.0,0.11095364535698768,0.0,3.8588722415693035,0.0,11931.54271627658,0.4138993763363692,140.60371206811726,2.143228921219637,1.2070715746833807,99496.77780418114,287.15349078906775,0.0,0.0,0.0,410.83263157894737,0.2204908922323372,0.88,nominal,11388.150701111394,nan,pitch_program,12.907499999999999,0.0,0.0
2.82,321.28326206380916,0.0,153.62100152082115,140.76835458888175,0.0,10.396404887765527,141.1517441913188,17.38497396185722,0.0,8.089636006155043,0.0,0.0,0.08574634742290596,0.0,3.8657419095682926,0.0,12024.374009072255,0.4155141017452888,141.1517441913188,2.1433343128617244,1.2070353068942312,99493.08588986288,287.1514634901146,0.0,0.0,0.0,410.7978947368421,0.2204722492212412,0.88,nominal,11468.41483868991,nan,pitch_program,12.885,0.0,0.0
2.85,325.5227231734987,0.0,153.93347824599294,141.3153703229845,0.0,10.415890839059426,141.69871090272292,17.378359794380582,0.0,8.087778631346373,0.0,0.0,0.0619124936278401,0.0,3.8723180197118765,0.0,12117.379318528026,0.41712570501239404,141.69871090272295,2.1434644629808832,1.2069989719644802,99489.38716704052,287.14943239140104,0.0,0.0,0.0,410.7631578947369,0.22045360621014523,0.88,nominal,11548.834080187793,nan,pitch_program,12.8625,0.0,0.0
2.88,329.7785575203257,0.0,154.24660648260425,141.86114489423218,0.0,10.437607887043992,142.24460653784388,17.37174618619428,0.0,8.086595705776492,0.0,0.0,0.03943085233074656,0.0,3.8785707866765664,0.0,12210.555451537653,0.41873416977896055,142.24460653784388,2.143617285357861,1.2069625621160918,99485.680844101,287.14739705786303,0.0,0.0,0.0,410.7284210526316,0.2204349631990492,0.88,nominal,11629.40652801564,nan,pitch_program,12.84,0.0,0.0
2.9099999999999997,334.0507277518641,0.0,154.56045314689706,142.40567438461323,0.0,10.461555476427378,142.7894262189006,17.365133137298308,0.0,8.086051335675444,0.0,0.0,0.018145670035106608,0.0,3.88447603517293,0.0,12303.899337707402,0.42033948200657706,142.78942621890062,2.143790946774968,1.2069260695736999,99481.96612972596,287.1453570545452,0.0,0.0,0.0,410.6936842105263,0.2204163201879532,0.88,nominal,11710.130387814446,nan,pitch_program,12.8175,0.0,0.0
2.94,338.339196420473,0.0,154.8750850678025,142.94895562029686,0.0,10.4877306968478,143.33316576460317,17.358520647692668,0.0,8.086113254880678,0.0,0.0,-0.0020639735078705253,0.0,3.8900139562640432,0.0,12397.408016462026,0.4219416297112532,143.33316576460314,2.143983720001373,1.2068894865728148,99478.242233727,287.14331194705926,0.0,0.0,0.0,410.658947368421,0.2203976771768572,0.88,nominal,11791.003957031768,nan,pitch_program,12.795000000000002,0.0,0.0
2.9699999999999998,342.6439260030746,0.0,155.19056892469123,143.4909860867199,0.0,10.516128562958185,143.8758216243852,17.351908717377363,0.0,8.086750951279791,0.0,0.0,-0.021256546637255614,0.0,3.8951671066301694,0.0,12491.078628022673,0.42354060276951955,143.87582162438517,2.1441937781900653,1.2068528053670797,99474.50836778435,287.14126130198946,0.0,0.0,0.0,410.6242105263158,0.2203790341657612,0.88,nominal,11872.025616791276,nan,pitch_program,12.7725,0.0,0.0
3.0,346.9648789201235,0.0,155.50697118676263,144.03176390163014,0.0,10.546742069046747,144.41739085333847,17.34529734635239,0.0,8.08793660814367,0.0,0.0,-0.03952189546402072,0.0,3.8999213166408575,0.0,12584.908411210088,0.4251363928443419,144.41739085333845,2.1444193989609457,1.2068160182353074,99470.7637461636,287.139204687286,0.0,0.0,0.0,410.58947368421053,0.22036039115466524,0.88,nominal,11953.193829431631,nan,pitch_program,12.75,0.0,0.0
3.03,351.3020175525723,0.0,155.82435805943493,144.57128774829255,0.0,10.579562422410467,144.95787106000586,17.33868653461775,0.0,8.089644422350087,0.0,0.0,-0.05692714021808187,0.0,3.904264904582649,0.0,12678.894696385278,0.426728993231164,144.95787106000586,2.144658886417373,1.206779117487721,99467.00758635062,287.13714167261367,0.0,0.0,0.0,410.5547368421053,0.22034174814356924,0.88,nominal,12034.5071320882,nan,pitch_program,12.7275,0.0,0.0
3.06,355.65530425749375,0.0,156.14279543505052,145.1095568307157,0.0,10.614579187186674,145.4972603691484,17.332076282173443,0.0,8.09185010930858,0.0,0.0,-0.0735228986255317,0.0,3.90818811582918,0.0,12773.03490080259,0.42831839874804145,145.49726036914836,2.1449105378192983,1.2067420954716843,99463.23910963515,287.13507182967214,0.0,0.0,0.0,410.52,0.22032310513247322,0.88,nominal,12115.96413231702,nan,pitch_program,12.705,0.0,0.0
3.09,360.02470138275703,0.0,156.46234884650818,145.64657084211,0.0,10.65178038192246,146.03555739398016,17.32546658901947,0.0,8.094531016738197,0.0,0.0,-0.08936358100350443,0.0,3.911683190906643,0.0,12867.326525475575,0.4299046056536555,146.03555739398018,2.145172696177844,1.2067049445770965,99459.4575416598,287.13299473249765,0.0,0.0,0.0,410.48526315789474,0.22030446212137725,0.88,nominal,12197.563505000848,nan,pitch_program,12.682500000000001,0.0,0.0
3.12,364.4101712805329,0.0,156.7830834249302,146.18232992586167,0.0,10.6911526140676,146.57276120333805,17.31885745515583,0.0,8.097665757249215,0.0,0.0,-0.10449135039343256,0.0,3.914743938853451,0.0,12961.767151027068,0.431487611550428,146.57276120333805,2.1454437154868202,1.2066676572413153,99455.6621129213,287.1309099577379,0.0,0.0,0.0,410.4505263157895,0.22028581911028125,0.88,nominal,12279.30398845447,nan,pitch_program,12.66,0.0,0.0
3.15,368.8116763199606,0.0,157.10506386008785,146.71683464758985,0.0,10.732681171921566,147.10887129655484,17.31224888058252,0.0,8.10123405343085,0.0,0.0,-0.11894320609289362,0.0,3.917365541305236,0.0,13056.354434769564,0.4330674153103226,147.10887129655487,2.145721962914926,1.2066302259537547,99451.85205923852,287.12881708490943,0.0,0.0,0.0,410.41578947368424,0.22026717609918528,0.88,nominal,12361.1843815767,nan,pitch_program,12.6375,0.0,0.0
3.1799999999999997,373.22917889906626,0.0,157.42835436335827,147.2500859701883,0.0,10.776350109013855,147.6438875805561,17.305640865299544,0.0,8.105216661621089,0.0,0.0,-0.13275360639461337,0.0,3.9195444392377716,0.0,13151.086108075053,0.43464401700719835,147.6438875805561,2.1460058276734606,1.2065926432601914,99448.02662219082,287.12671569663814,0.0,0.0,0.0,410.381052631579,0.22024853308808928,0.88,nominal,12443.203541267372,nan,pitch_program,12.615,0.0,0.0
3.21,377.6626414559564,0.0,157.7530186332085,147.78208522967134,0.0,10.822142328341409,148.1778103475845,17.2990334093069,0.0,8.109595193848348,0.0,0.0,-0.14595107431302692,0.0,3.9212781188223826,0.0,13245.95997375975,0.4362174178510183,148.1778103475845,2.14629370933371,1.2065549017667838,99444.18504952712,287.1246053788841,0.0,0.0,0.0,410.34631578947364,0.22022989007699323,0.88,nominal,12525.360379881717,nan,pitch_program,12.592500000000001,0.0,0.0
3.2399999999999998,382.11202647943423,0.0,158.07911982267805,148.31283411592705,0.0,10.870039648984497,148.71064025640192,17.292426512604592,0.0,8.114352041170193,0.0,0.0,-0.15856157748590682,0.0,3.9225650064176447,0.0,13340.973903998649,0.43778762013230194,148.71064025640194,2.146584022305382,1.2065169941438467,99440.32659555005,287.12248572115254,0.0,0.0,0.0,410.3115789473684,0.22021124706589726,0.88,nominal,12607.65386314356,nan,pitch_program,12.57,0.0,0.0
3.27,386.5772965190754,0.0,158.40672050878555,148.8423346547054,0.0,10.920022870250474,149.24237831443892,17.285820175192615,0.0,8.119470286939931,0.0,0.0,-0.17060819243814343,0.0,3.9234043551230307,0.0,13436.125838330743,0.43935462716937135,149.24237831443892,2.1468751951015697,1.2064789131294096,99436.45052147833,287.1203563166929,0.0,0.0,0.0,410.27684210526314,0.22019260405480126,0.88,nominal,12690.083008152538,nan,pitch_program,12.547500000000001,0.0,0.0
3.3,391.0584141948228,0.0,158.73588266367238,149.37058919158008,0.0,10.972071829561143,149.77302586137742,17.27921439707097,0.0,8.124933621491893,0.0,0.0,-0.18211115187004093,0.0,3.9237961358018194,0.0,13531.413781847386,0.4409184432598224,149.77302586137742,2.147165668245629,1.2064406515325685,99432.55609578759,287.11821676268613,0.0,0.0,0.0,410.2421052631579,0.22017396104370526,0.88,nominal,12772.646881560118,nan,pitch_program,12.525,0.0,0.0
3.33,395.5553422061622,0.0,159.06666762727755,149.89760037798067,0.0,11.026165453505296,150.30258455424132,17.27260917823966,0.0,8.13072628851175,0.0,0.0,-0.1930889008263637,0.0,3.9237409629803315,0.0,13626.835803584408,0.4424790736364382,150.30258455424132,2.1474538962324377,1.2064022022366634,99428.64259453418,287.1160666604227,0.0,0.0,0.0,410.20736842105265,0.2201553180326093,0.88,nominal,12855.344597929474,nan,pitch_program,12.5025,0.0,0.0
3.36,400.06804334090975,0.0,159.3991360814601,150.42337115825077,0.0,11.082281806085303,150.83105635326686,17.26600451869868,0.0,8.136833025799532,0.0,0.0,-0.203557909785434,0.0,3.9232400166914507,0.0,13722.390034992733,0.4440365244254028,150.83105635326686,2.147738346677411,1.2063635582022876,99424.70930166106,287.1139056154705,0.0,0.0,0.0,410.17263157894735,0.22013667502151327,0.88,nominal,12938.175318174432,nan,pitch_program,12.480000000000002,0.0,0.0
3.3899999999999997,404.5964804836534,0.0,159.7333480254273,150.9479047581224,0.0,11.140398132239078,151.3584435088178,17.259400418448035,0.0,8.14323902011963,0.0,0.0,-0.21353314422561342,0.0,3.9222949806487195,0.0,13818.074668539703,0.4455908026075948,151.3584435088178,2.1480175009721028,1.2063247124701382,99420.75550928814,287.1117332378347,0.0,0.0,0.0,410.1378947368421,0.2201180320104173,0.88,nominal,13021.138248119552,nan,pitch_program,12.4575,0.0,0.0
3.42,409.1406166238784,0.0,160.06936275237618,151.47120467416588,0.0,11.200490898296112,151.88474854904248,17.25279687748772,0.0,8.149929869002543,0.0,0.0,-0.22302829635055205,0.0,3.920907988920239,0.0,13913.887956390861,0.44714191598206693,151.88474854904248,2.148289855011151,1.206285658163734,99416.78051798884,287.10954914210953,0.0,0.0,0.0,410.10315789473685,0.2200993889993213,0.88,nominal,13104.232637138522,nan,pitch_program,12.435,0.0,0.0
3.4499999999999997,413.7004148638003,0.0,160.40723882726948,151.99327466406405,0.0,11.262535829776642,152.40997426816466,17.246193895817743,0.0,8.156891545835665,0.0,0.0,-0.23205589472293997,0.0,3.919081577240365,0.0,14009.828209155841,0.4486898731313961,152.40997426816463,2.1485539195583043,1.2062463884919945,99412.78363705246,287.1073529476227,0.0,0.0,0.0,410.0684210526316,0.2200807459882253,0.88,nominal,13187.45777685675,nan,pitch_program,12.4125,0.0,0.0
3.48,418.27583842593054,0.0,160.74703406566542,152.51411873767427,0.0,11.32650794653122,152.93412371538355,17.239591473438097,0.0,8.164110372516348,0.0,0.0,-0.2406275563409928,0.0,3.916818643196047,0.0,14105.893794697196,0.4502346833888294,152.93412371538355,2.148808221251122,1.2062068967517028,99408.76418473487,287.10514427857316,0.0,0.0,0.0,410.03368421052636,0.22006210297712933,0.88,nominal,13270.812999916177,nan,pitch_program,12.39,0.0,0.0
3.51,422.86685066039024,0.0,161.0888055135454,153.03374114865662,0.0,11.392381595999247,153.45720018423017,17.23298961034878,0.0,8.171572994705343,0.0,0.0,-0.2487540733181883,0.0,3.9141224099949494,0.0,14202.083136976586,0.45177635680677575,153.45720018423017,2.1490513033291316,1.2061671763298418,99404.72148849623,287.1029227641619,0.0,0.0,0.0,409.99894736842106,0.2200434599660333,0.88,nominal,13354.297678780858,nan,pitch_program,12.3675,0.0,0.0
3.54,427.4734150519894,0.0,161.432609428083,153.5521463866375,0.0,11.46013048458645,153.9792072023593,17.2263883065498,0.0,8.179266361404704,0.0,0.0,-0.2564455570306592,0.0,3.9109963955118143,0.0,14298.394714937307,0.45331490412658393,153.9792072023593,2.1492817265974327,1.2061272207058358,99400.65488522909,287.10068803871746,0.0,0.0,0.0,409.96421052631575,0.22002481695493728,0.88,nominal,13437.911224581461,nan,pitch_program,12.344999999999999,0.0,0.0
3.57,432.0954952270832,0.0,161.7785012593093,154.0693391697924,0.0,11.529727707543389,154.5001485216976,17.21978756204115,0.0,8.187177707513113,0.0,0.0,-0.26371153736593184,0.0,3.907444385095959,0.0,14394.827061410057,0.454850336749371,154.50014852169767,2.1494980704128555,1.2060870234536714,99396.56372147413,287.09843974181445,0.0,0.0,0.0,409.9294736842105,0.2200061739438413,0.88,nominal,13521.653085987917,nan,pitch_program,12.3225,0.0,0.0
3.5999999999999996,436.7330549602166,0.0,162.1265356326353,154.5853244377796,0.0,11.601145777533146,155.02002810890326,17.213187376822837,0.0,8.195294538814661,0.0,0.0,-0.2705610438374525,0.0,3.903470407503309,0.0,14491.378762035827,0.4563826667077696,155.02002810890326,2.1496989336747987,1.206046578243933,99392.44735362737,287.09617751838783,0.0,0.0,0.0,409.89473684210526,0.2199875309327453,0.88,nominal,13605.52274810436,nan,pitch_program,12.3,0.0,0.0
3.63,441.38605818056567,0.0,162.47676633219652,155.1001073449697,0.0,11.674356652040816,155.5388501361,17.206587750894855,0.0,8.203604619424722,0.0,0.0,-0.2770026874876169,0.0,3.899078713900224,0.0,14588.048454200527,0.45791190663848874,155.53885013609997,2.1498829358960436,1.2060058788457317,99388.30514813625,287.0939010188407,0.0,0.0,0.0,409.86,0.21996888792164934,0.88,nominal,13689.519731381723,nan,pitch_program,12.2775,0.0,0.0
3.6599999999999997,446.0544689781829,0.0,162.8292462849911,155.61369325390797,0.0,11.749331759818945,156.05661897184513,17.199988684257207,0.0,8.212095960911078,0.0,0.0,-0.2830447167299455,0.0,3.89427375906759,0.0,14684.834825975004,0.45943806975556245,156.05661897184513,2.150048718242555,1.2059649191285469,99384.13648168708,287.09160989914756,0.0,0.0,0.0,409.82526315789477,0.21995024491055334,0.88,nominal,13773.643590542533,nan,pitch_program,12.255,0.0,0.0
3.69,450.7382516100521,0.0,163.18402754578494,156.1260877289733,0.0,11.826042026461995,156.57333917230835,17.19339017690989,0.0,8.220756813142435,0.0,0.0,-0.2886950749282403,0.0,3.8890601848079047,0.0,14781.736615057609,0.4609611698242234,156.57333917230835,2.150194944611653,1.205923693063977,99379.94074138312,287.08930382095235,0.0,0.0,0.0,409.79052631578946,0.21993160189945732,0.88,nominal,13857.893913515227,nan,pitch_program,12.232500000000002,0.0,0.0
3.7199999999999998,455.4373705059578,0.0,163.54116128276226,156.63729653018987,0.0,11.904457899243736,157.08901547263417,17.186792228852905,0.0,8.229575656397953,0.0,0.0,-0.2939614424309724,0.0,3.8834428050258243,0.0,14878.752607715342,0.46248122113531925,157.0890154726342,2.150320302686423,1.2058821947274072,99375.71732491422,287.08698245166204,0.0,0.0,0.0,409.7557894736842,0.21991295888836135,0.88,nominal,13942.27032037435,nan,pitch_program,12.21,0.0,0.0
3.75,460.1517902741727,0.0,163.90069776390106,157.1473256071635,0.0,11.98454937129369,157.603652778471,17.180194840086255,0.0,8.238541194651251,0.0,0.0,-0.2988512757197053,0.0,3.877426592355793,0.0,14975.881637721073,0.4639982384802225,157.603652778471,2.1504235049888427,1.2058404182995837,99371.46564071685,287.0846454645346,0.0,0.0,0.0,409.72105263157897,0.21989431587726535,0.88,nominal,14026.772462284784,nan,pitch_program,12.1875,0.0,0.0
3.78,464.8814757069661,0.0,164.26268634405696,157.65618109311393,0.0,12.066286005196778,158.1172561576501,17.173598010609936,0.0,8.247642349789098,0.0,0.0,-0.3033718385661694,0.0,3.8710166660553025,0.0,15073.12258528508,0.465512237126184,158.11725615765013,2.150503289908842,1.2057983580681153,99367.18510812691,287.0822925387636,0.0,0.0,0.0,409.68631578947367,0.21987567286616932,0.88,nominal,14111.400020447916,nan,pitch_program,12.165,0.0,0.0
3.81,469.6263917859356,0.0,164.62717545273924,158.16386929898187,0.0,12.149636956075938,158.6298308320029,17.167001740423952,0.0,8.256868256637132,0.0,0.0,-0.3075302289322633,0.0,3.864218281004637,0.0,15170.474375979073,0.4670232327920956,158.62983083200294,2.150558422709479,1.2057560084288863,99362.87515752335,287.0799233595572,0.0,0.0,0.0,409.6515789473684,0.21985702985507335,0.88,nominal,14196.152705048537,nan,pitch_program,12.1425,0.0,0.0
3.84,474.3865036871634,0.0,164.99421258256558,158.67039670759243,0.0,12.234570994211316,159.14138216930615,17.1604060295283,0.0,8.266208258656507,0.0,0.0,-0.31133340133528464,0.0,3.85703681764879,0.0,15267.935979652011,0.46853124162463294,159.14138216930615,2.150587696500772,1.2057133638873976,99358.53523046446,287.0775376182133,0.0,0.0,0.0,409.6168421052632,0.21983838684397736,0.88,nominal,14281.030254201396,nan,pitch_program,12.120000000000001,0.0,0.0
3.8699999999999997,479.1617767861992,0.0,165.36384427838274,159.17576996785994,0.0,12.321056527238929,159.65191567534816,17.15381087792298,0.0,8.275651904199057,0.0,0.0,-0.31478818546422177,0.0,3.8494777727456144,0.0,15365.506409336795,0.4700362801747567,159.65191567534816,2.1505899331768146,1.2056704190600245,99354.16477981587,287.0751350121905,0.0,0.0,0.0,409.58210526315787,0.21981974383288136,0.88,nominal,14366.032432896842,nan,pitch_program,12.0975,0.0,0.0
3.9,483.9521766628699,0.0,165.73611612704164,159.67999588902225,0.0,12.409061621963318,160.16143698611052,17.147216285607993,0.0,8.285188943233692,0.0,0.0,-0.3179013018885443,0.0,3.841546750813249,0.0,15463.184720147588,0.47153836537455623,160.1614369861105,2.150563984313563,1.2056271686751976,99349.76326987041,287.0727152451742,0.0,0.0,0.0,409.5473684210526,0.21980110082178536,0.88,nominal,14451.159031945175,nan,pitch_program,12.075,0.0,0.0
3.9299999999999997,488.7576691059167,0.0,166.11107274781602,160.18308143489477,0.0,12.498554025813124,160.66995186006093,17.140622252583338,0.0,8.294809324456649,0.0,0.0,-0.32067937485194004,0.0,3.8332494561723105,0.0,15560.970008167882,0.4730375145144239,160.66995186006093,2.1505087320215934,1.205583607574516,99345.33017646144,287.0702780271392,0.0,0.0,0.0,409.5126315789474,0.21978245781068936,0.88,nominal,14536.409866919521,nan,pitch_program,12.0525,0.0,0.0
