time_s,x_m,y_m,altitude_m,vx_mps,vy_mps,vz_mps,speed_mps,mass_kg,roll_deg,pitch_deg,yaw_deg,p_dps,q_dps,r_dps,alpha_deg,beta_deg,qbar_pa,mach,airspeed_mps,load_factor_g,density_kgpm3,pressure_pa,temperature_k,wind_x_mps,wind_y_mps,wind_z_mps,thrust_n,mass_flow_kgps,propulsion_throttle_actual,propulsion_health,energy_j_per_kg,target_distance_m,guidance_mode,pitch_command_deg,heading_command_deg,roll_command_deg,elevator_command_deg,aileron_command_deg,rudder_command_deg,elevator_deg,aileron_deg,rudder_deg,throttle,elevator_saturated,aileron_saturated,rudder_saturated,elevator_failed,aileron_failed,rudder_failed,elevator_raw_rad,aileron_raw_rad,rudder_raw_rad,elevator_effective_rad,aileron_effective_rad,rudder_effective_rad,sensor_time_s,imu_valid,imu_ax_mps2,imu_ay_mps2,imu_az_mps2,gyro_p_rps,gyro_q_rps,gyro_r_rps,imu_accel_norm_mps2,imu_gyro_norm_rps,gps_valid,gps_latency_s,gps_x_m,gps_y_m,gps_z_m,gps_vx_mps,gps_vy_mps,gps_vz_mps,baro_valid,baro_alt_m,baro_bias_m,pitot_valid,pitot_airspeed_mps,pitot_qbar_pa,pitot_compressibility_factor,mag_valid,mag_heading_deg,mag_x_ut,mag_y_ut,mag_z_ut,radar_valid,radar_agl_m,optical_flow_valid,optical_flow_x_radps,optical_flow_y_radps,optical_flow_quality,horizon_valid,horizon_roll_deg,horizon_pitch_deg
0.0,0.0,0.0,20.0,85.0,0.0,8.0,85.37564055396598,18.0,0.0,6.000000000000002,0.0,0.0,0.0,0.0,0.5564869907880661,0.0,4456.930974865101,0.2509722163221767,85.38506895236425,1.7466904897941358,1.2226496753673843,101084.96761777384,288.02,0.0,0.0,-0.1,326.8,0.17539118863220368,0.86,nominal,3840.633,nan,pitch_program,13.0,0.0,0.0,-20.05352282957881,-0.0,0.0,-2.6999999999999997,0.0,0.0,0.86,0.0,0.0,0.0,0.0,0.0,0.0,-0.047123889803846894,0.0,0.0,-0.047123889803846894,0.0,0.0,0.0,1.0,17.096536509746663,-0.04331266066330364,0.12548432820521357,0.0016677683591043149,0.0011681274632859406,0.0012765720485123657,17.097051878388257,0.00240324973008537,1.0,0.0,-1.885154541229685,1.8645638091475825,21.162662438547994,85.32748210022089,0.18147237523479218,7.846341299741817,1.0,20.771163472887363,0.0,1.0,85.63642665807238,4466.505573608554,1.0,1.0,-0.8198733225718878,19.523475325297145,-0.00615746722134172,-43.81279554351524,1.0,20.39618647858491,1.0,-0.0077448575321814855,4.273240466216326,0.95,1.0,0.17459483210835952,5.697481511065039
0.03,2.5653186933952696,0.0,20.23290578365111,85.51062311317565,0.0,7.763526121703686,85.86232586557358,17.994738264341034,0.0,6.271740387320408,0.0,0.0,-9.058029889823821,0.0,1.0176185009243097,0.0,4507.748426489432,0.25240242663909496,85.87142544682885,1.774793852321726,1.2226223252837,101082.17508596799,288.01848611240626,0.0,0.0,-0.1,332.605,0.1785066900092231,0.86,nominal,3884.586527026215,nan,pitch_program,12.985,0.0,0.0,-0.4702471222157125,-0.0,0.0,-1.3621482733294275,0.0,0.0,0.86,0.0,0.0,0.0,0.0,0.0,0.0,-0.02377397226995417,0.0,0.0,-0.02377397226995417,0.0,0.0,0.03,1.0,17.402541628429542,-0.024205067786461216,0.6476485575156422,0.001972178925766813,-0.15877170581150923,0.0016995476198838452,17.414605642063268,0.1587930493381997,1.0,0.0,-1.885154541229685,1.8645638091475825,21.162662438547994,85.32748210022089,0.18147237523479218,7.846341299741817,1.0,20.771163472887363,0.0,1.0,85.45774571051679,4494.743988359959,1.0,1.0,-0.8198733225718878,19.523475325297145,-0.00615746722134172,-43.81279554351524,1.0,20.39618647858491,1.0,-0.0077448575321814855,4.273240466216326,0.95,1.0,0.17459483210835952,5.697481511065039
0.06,5.146134471515092,0.0,20.459268352287204,86.0271926039941,0.0,7.545418954536484,86.35746183465662,17.98938306364076,0.0,6.58890623093568,0.0,0.0,-10.572221784007358,0.0,1.5102516467133427,0.0,4559.750478394425,0.2538575357426458,86.36625671125896,1.8038344106802715,1.2225957440170772,101079.46106693026,288.01701475571014,0.0,0.0,-0.1,338.40999999999997,0.18162219138624247,0.86,nominal,3929.442491249045,nan,pitch_program,12.97,0.0,0.0,0.24190175248964207,-0.0,0.0,-0.39971825783798576,0.0,0.0,0.86,0.0,0.0,0.0,0.0,0.0,0.0,-0.006976399679608482,0.0,0.0,-0.006976399679608482,0.0,0.0,0.06,1.0,17.70960615925321,-0.048625240197861,1.1892316928934064,-0.003446139225741984,-0.18598903788367127,-0.00034689119184351384,17.749557367698653,0.18602128486266264,1.0,0.0,-1.885154541229685,1.8645638091475825,21.162662438547994,85.32748210022089,0.18147237523479218,7.846341299741817,1.0,20.525904713889986,0.0,1.0,85.94729004085725,4526.807704769175,1.0,1.0,0.07665381874344163,19.04258188439329,-0.026858555853548426,-44.02062177838265,1.0,20.444254594517183,1.0,0.00018197912592243334,4.219152398659084,0.948851829119282,1.0,-0.15907090264631085,6.40991860600364
0.09,7.7426147401552425,0.0,20.67964923834451,86.54934228800502,0.0,7.346029535243532,86.86053649626466,17.983934397899173,0.0,6.784114061394519,0.0,0.0,-6.506933976217821,0.0,1.8669403194181164,0.0,4612.897924847151,0.2553360406751878,86.86905091185223,1.833519588597963,1.2225698655912458,101076.81882315337,288.01558227995076,0.0,0.0,-0.1,344.215,0.18473769276326188,0.86,nominal,3975.1744824126736,nan,pitch_program,12.955,0.0,0.0,-1.066929951099308,-0.0,0.0,-0.8000452737947791,0.0,0.0,0.86,0.0,0.0,0.0,0.0,0.0,0.0,-0.013963424192738404,0.0,0.0,-0.013963424192738404,0.0,0.0,0.09,1.0,17.98319610195117,-0.01094183278357201,1.3806760264560844,0.0004011470069548937,-0.11525842741153404,0.0025448602353110453,18.03612286648566,0.11528721664572494,1.0,0.0,-1.885154541229685,1.8645638091475825,21.162662438547994,85.32748210022089,0.18147237523479218,7.846341299741817,1.0,20.525904713889986,0.0,1.0,87.23954851375605,4644.907965833186,1.0,1.0,0.07665381874344163,19.04258188439329,-0.026858555853548426,-44.02062177838265,1.0,20.444254594517183,1.0,0.00018197912592243334,4.219152398659084,0.948851829119282,1.0,-0.15907090264631085,6.40991860600364
0.12,10.354967270868329,0.0,20.894358300469307,87.07841769043618,0.0,7.156968737493217,87.37203802693126,17.978392267116273,0.0,6.883163710566247,0.0,0.0,-3.3016557946547813,0.0,2.1192384721931696,0.0,4667.256412982273,0.2568393477602386,87.3802862362388,1.8635317573847128,1.2225446535875124,101074.24463516596,288.0141866710469,0.0,0.0,-0.1,350.02,0.1878531941402813,0.86,nominal,4021.8401733170595,nan,pitch_program,12.94,0.0,0.0,-2.1285422448854345,-0.0,0.0,-1.5971434564491722,0.0,0.0,0.86,0.0,0.0,0.0,0.0,0.0,0.0,-0.027875411941720718,0.0,0.0,-0.027875411941720718,0.0,0.0,0.12,1.0,18.248843265607807,-0.01413003862604277,1.4948394457459075,0.0017811967641120853,-0.05694842150956511,-0.0028376729027249836,18.30997064878229,0.05704689090429417,1.0,0.0,-1.885154541229685,1.8645638091475825,21.162662438547994,85.32748210022089,0.18147237523479218,7.846341299741817,1.0,20.834933476231274,0.0,1.0,87.27259262336824,4713.584151129148,1.0,1.0,-1.8951218293581098,18.82900429297318,-0.005790965511073151,-44.086461392046076,1.0,20.159250316592782,1.0,-0.013840283315854317,4.181200590677009,0.9477641042488267,1.0,0.28335723464815654,7.4899036098307725
0.15,12.98342666920427,0.0,21.10357147787043,87.61531327786471,0.0,6.973772580037541,87.89241505827712,17.972756671292064,0.0,6.969567923343711,0.0,0.0,-2.8801409717450963,0.0,2.353706895608988,0.0,4722.8893452264965,0.2583687605277464,87.90040602461667,1.8940826105560322,1.2225200873153423,101071.73638945575,288.0128267853938,0.0,0.0,-0.1,355.825,0.1909686955173007,0.86,nominal,4069.4936516216885,nan,pitch_program,12.925,0.0,0.0,-2.222859263886106,-0.0,0.0,-1.9725729409113324,0.0,0.0,0.86,0.0,0.0,0.0,0.0,0.0,0.0,-0.034427892554650306,0.0,0.0,-0.034427892554650306,0.0,0.0,0.15,1.0,18.547841167378948,-0.03605765477427094,1.6567469601320783,-0.00013304420042076212,-0.050401082781651195,-0.0016289172586783655,18.621721795115832,0.050427573982472544,1.0,0.0,-1.885154541229685,1.8645638091475825,21.162662438547994,85.32748210022089,0.18147237523479218,7.846341299741817,1.0,20.834933476231274,0.0,1.0,87.54862342106134,4740.725769457413,1.0,1.0,-1.8951218293581098,18.82900429297318,-0.005790965511073151,-44.086461392046076,1.0,20.159250316592782,1.0,-0.013840283315854317,4.181200590677009,0.9477641042488267,1.0,0.28335723464815654,7.4899036098307725
0.18,15.628224826843786,0.0,21.307495375824775,88.15993858798386,0.0,6.797463265144832,88.42160527087302,17.967027610426545,0.0,7.069099021248756,0.0,0.0,-3.317704097813975,0.0,2.5955010010873814,0.0,4779.806965326955,0.25992409948240486,88.42934903826392,1.9251099763971187,1.2224961424854692,101069.29160514325,288.01150128005713,0.0,0.0,-0.1,361.63,0.19408419689432013,0.86,nominal,4118.145288866372,nan,pitch_program,12.91,0.0,0.0,-2.0090793676429834,-0.0,0.0,-1.9944767969503228,0.0,0.0,0.86,0.0,0.0,0.0,0.0,0.0,0.0,-0.03481018696141353,0.0,0.0,-0.03481018696141353,0.0,0.0,0.18,1.0,18.752930496026703,-0.04780444576139571,1.8789234068085303,0.00013974800767314763,-0.06047363942945767,-0.0008869940367906495,18.84688410911724,0.06048030550328767,1.0,0.0,-1.885154541229685,1.8645638091475825,21.162662438547994,85.32748210022089,0.18147237523479218,7.846341299741817,1.0,20.081602566655135,0.0,1.0,88.03975921028169,4844.121556900283,1.0,1.0,-0.5428950996559269,18.715371613448617,0.02966309435753329,-44.22738244356958,1.0,21.361129197181977,1.0,0.006974051956994979,4.138961588398088,0.9467312615604381,1.0,-0.5040599611879599,6.7113570587510365
0.21,18.289585034804077,0.0,21.506387065210117,88.71200693200974,0.0,6.629722979511331,88.95939186331034,17.961205084519715,0.0,7.159579362515572,0.0,0.0,-3.0160120023403896,0.0,2.821411084938876,0.0,4838.002897831754,0.2615047333291445,88.96690027918196,1.9563369976003602,1.2224727888852678,101066.9071966428,288.0102084840761,0.0,0.0,-0.1,367.435,0.19719969827133954,0.86,nominal,4167.792311058046,nan,pitch_program,12.895,0.0,0.0,-2.0590438104487774,-0.0,0.0,-2.033217005049395,0.0,0.0,0.86,0.0,0.0,0.0,0.0,0.0,0.0,-0.03548633114565012,0.0,0.0,-0.03548633114565012,0.0,0.0,0.21,1.0,19.04350574558411,0.06045326675660328,2.0807151689253427,-0.0011844703614280934,-0.050929334418354705,0.0010356537480328346,19.156934548454053,0.050953632382976635,1.0,0.0,18.158744248766908,-0.8507156713177079,22.52761259754094,88.79296802906379,-0.10696639449047544,6.689300481160241,1.0,20.081602566655135,0.0,1.0,88.82004186435208,4834.523571716223,1.0,1.0,-0.5428950996559269,18.715371613448617,0.02966309435753329,-44.22738244356958,1.0,21.361129197181977,1.0,0.006974051956994979,4.138961588398088,0.9467312615604381,1.0,-0.5040599611879599,6.7113570587510365
0.24,20.967732416491927,0.0,21.70049341197027,89.27157938959508,0.0,6.470211558671809,89.50574576152498,17.955289093571576,0.0,7.2241661546421225,0.0,0.0,-2.152893298857954,0.0,3.014899302179856,0.0,4897.490769289014,0.2631105757047666,89.51303015002051,1.9875873531739678,1.2224499975027796,101064.580201033,288.00894679282214,0.0,0.0,-0.1,373.24,0.20031519964835895,0.86,nominal,4218.448405881872,nan,pitch_program,12.88,0.0,0.0,-2.3199601536822385,-0.0,0.0,-2.2052628942291013,0.0,0.0,0.86,0.0,0.0,0.0,0.0,0.0,0.0,-0.03848909837635728,0.0,0.0,-0.03848909837635728,0.0,0.0,0.24,1.0,19.344148461797296,-0.05931437453800777,2.283633209389579,0.0004014737785476082,-0.03753110508164091,0.0011573760834501412,19.478567158343772,0.0375510925172967,1.0,0.0,18.158744248766908,-0.8507156713177079,22.52761259754094,88.79296802906379,-0.10696639449047544,6.689300481160241,1.0,22.184344090441684,0.0,1.0,89.46599419101749,4892.085401893142,1.0,1.0,-0.9874075351661772,18.62535722033746,-0.01105574941250553,-44.30265023066692,1.0,21.596801967813132,1.0,0.015553992101837083,4.126367262006041,0.9457487664700743,1.0,-0.5929147826834491,7.180901100325089
0.27,23.662900366313266,0.0,21.890020788819992,89.83893166071131,0.0,6.3175792283240195,90.06078752289538,17.949279637582126,0.0,7.267990783717835,0.0,0.0,-1.4608210404112338,0.0,3.1820486955090668,0.0,4958.300764500231,0.2647419766425442,90.06785755800887,2.0189210419312884,1.2224277440828075,101062.30814112474,288.00771486487264,0.0,0.0,-0.1,379.045,0.20343070102537836,0.86,nominal,4270.140496990735,nan,pitch_program,12.865,0.0,0.0,-2.5326018181977235,-0.0,0.0,-2.4016662486102747,0.0,0.0,0.86,0.0,0.0,0.0,0.0,0.0,0.0,-0.04191698357226998,0.0,0.0,-0.04191698357226998,0.0,0.0,0.27,1.0,19.55637584938447,-0.02835453910261265,2.4279952302170402,0.0019072580176267414,-0.023384127587217314,-0.002090558849283284,19.706542090895415,0.023554733971398956,1.0,0.0,18.158744248766908,-0.8507156713177079,22.52761259754094,88.79296802906379,-0.10696639449047544,6.689300481160241,1.0,22.184344090441684,0.0,1.0,90.13742137929498,4962.769943396579,1.0,1.0,-0.9874075351661772,18.62535722033746,-0.01105574941250553,-44.30265023066692,1.0,21.596801967813132,1.0,0.015553992101837083,4.126367262006041,0.9457487664700743,1.0,-0.5929147826834491,7.180901100325089
0.3,26.375328078286515,0.0,22.0751512582118,90.41425706577496,0.0,6.171015646393659,90.62460656391328,17.943176716551363,0.0,7.301696634809279,0.0,0.0,-1.1235284021165262,0.0,3.3340897408429306,0.0,5020.460294067145,0.26639919643969434,90.63147090273527,2.050422350498255,1.2224060072264002,101060.08883140802,288.0065115168216,0.0,0.0,-0.1,384.84999999999997,0.20654620240239774,0.86,nominal,4322.8929395183795,nan,pitch_program,12.850000000000001,0.0,0.0,-2.626707937304212,-0.0,0.0,-2.536691261826637,0.0,0.0,0.86,0.0,0.0,0.0,0.0,0.0,0.0,-0.044273614625444366,0.0,0.0,-0.044273614625444366,0.0,0.0,0.3,1.0,19.93701532135208,-0.023144794989114953,2.5703749994838705,-0.0006483740193760299,-0.02186638324307493,0.0011196854561373627,20.10203828578919,0.021904629659565477,1.0,0.0,18.158744248766908,-0.8507156713177079,22.52761259754094,88.79296802906379,-0.10696639449047544,6.689300481160241,1.0,22.081513577166206,0.0,1.0,90.40768824795244,5034.611596413274,1.0,1.0,-0.032100222264470346,18.45858428317552,-0.006038005167106243,-44.301526117946736,1.0,21.912140638723383,1.0,0.0042634016461290366,4.091867918359499,0.9448121218544705,1.0,0.49262759900427344,7.896072387109943
0.32999999999999996,29.105256568137392,0.0,22.256062762857777,90.99761632836261,0.0,6.030383488199263,91.19721323844622,17.93698033047929,0.0,7.328392621166574,0.0,0.0,-0.8898662280085647,0.0,3.474278872990984,0.0,5083.988563371822,0.2680822652414893,91.20388028563409,2.0820578116070485,1.2223847660199905,101057.92013598225,288.0053355920414,0.0,0.0,-0.1,390.655,0.20966170377941715,0.86,nominal,4376.723269122695,nan,pitch_program,12.835,0.0,0.0,-2.688443906233456,-0.0,0.0,-2.627742848470729,0.0,0.0,0.86,0.0,0.0,0.0,0.0,0.0,0.0,-0.04586276460154866,0.0,0.0,-0.04586276460154866,0.0,0.0,0.32999999999999996,1.0,20.176274082451098,-0.05396740755448139,2.7637104487797375,-0.0008335127957680589,-0.015038212067940322,0.0009767482210283772,20.364750029793154,0.015092932215720613,1.0,0.0,18.158744248766908,-0.8507156713177079,22.52761259754094,88.79296802906379,-0.10696639449047544,6.689300481160241,1.0,22.081513577166206,0.0,1.0,90.89815384836317,5074.102628526395,1.0,1.0,-0.032100222264470346,18.45858428317552,-0.006038005167106243,-44.301526117946736,1.0,21.912140638723383,1.0,0.0042634016461290366,4.091867918359499,0.9448121218544705,1.0,0.49262759900427344,7.896072387109943
0.36,31.852928123737765,0.0,22.432930472394233,91.58905185334582,0.0,5.895590317881859,91.77860537506098,17.930690479365907,0.0,7.346162126955561,0.0,0.0,-0.592316864380556,0.0,3.600817257748423,0.0,5148.903689101842,0.2697911765252222,91.78508333413848,2.1137481073789015,1.2223639998771845,101055.79995240031,288.0041859519294,0.0,0.0,-0.1,396.46,0.21277720515643656,0.86,nominal,4431.648099912691,nan,pitch_program,12.82,0.0,0.0,-2.7775195601474465,-0.0,0.0,-2.7176088754767593,0.0,0.0,0.86,0.0,0.0,0.0,0.0,0.0,0.0,-0.047431222658490035,0.0,0.0,-0.047431222658490035,0.0,0.0,0.36,1.0,20.56544796027021,0.04056869726443273,2.8520927217378427,-0.0017116473741721086,-0.010850382363248732,0.0002472742290717788,20.762315104996595,0.010987341748875041,1.0,0.0,18.158744248766908,-0.8507156713177079,22.52761259754094,88.79296802906379,-0.10696639449047544,6.689300481160241,1.0,22.995961747575883,0.0,1.0,91.40021247856167,5126.41054497697,1.0,1.0,0.24703569469091746,18.539281572808612,0.05777323077028381,-44.33887619131648,1.0,22.230992900553627,1.0,0.008474791280591054,4.087355004520289,0.9439176738190144,1.0,-0.12522865530984933,7.132225739000849
0.39,34.61858758913942,0.0,22.605919788398825,92.18864884672186,0.0,5.766310533486462,92.36881136700194,17.924307163211214,0.0,7.354488304706529,0.0,0.0,-0.2775392588540004,0.0,3.7134515123217606,0.0,5215.227489853975,0.27152601283878613,92.3751079861858,2.1454636274861056,1.2223436893599415,101053.72629550635,288.0030615213754,0.0,0.0,-0.1,402.265,0.21589270653345596,0.86,nominal,4487.686999969295,nan,pitch_program,12.805,0.0,0.0,-2.877899368493558,-0.0,0.0,-2.8137831712868384,0.0,0.0,0.86,0.0,0.0,0.0,0.0,0.0,0.0,-0.049109780776162903,0.0,0.0,-0.049109780776162903,0.0,0.0,0.39,1.0,20.834294377079374,-0.03998306635079582,3.004201371368177,-0.004200210305302578,-0.0047325065451694955,0.0021403138457621635,21.04981346036412,0.006679770068438232,1.0,0.0,18.158744248766908,-0.8507156713177079,22.52761259754094,88.79296802906379,-0.10696639449047544,6.689300481160241,1.0,22.995961747575883,0.0,1.0,91.55222982456897,5182.277265512344,1.0,1.0,0.24703569469091746,18.539281572808612,0.05777323077028381,-44.33887619131648,1.0,22.230992900553627,1.0,0.008474791280591054,4.087355004520289,0.9439176738190144,1.0,-0.12522865530984933,7.132225739000849
0.42,37.40248274908701,0.0,22.775184661807838,92.79650533158612,0.0,5.6421624469670775,92.96787293916677,17.91783038201521,0.0,7.355246506803118,0.0,0.0,-0.025273403219920287,0.0,3.8143511213107666,0.0,5282.983661840709,0.2732868957299285,92.97399545745279,2.155310254508413,1.2223238163759969,101051.69731758775,288.0019612996982,0.0,0.0,-0.1,404.1773684210526,0.21691906078826353,0.86,nominal,4544.860964080246,nan,pitch_program,12.79,0.0,0.0,-2.960628676765311,-0.0,0.0,-2.9018904745739222,0.0,0.0,0.86,0.0,0.0,0.0,0.0,0.0,0.0,-0.05064754331357574,0.0,0.0,-0.05064754331357574,0.0,0.0,0.42,1.0,20.876485974130386,-0.028261817516269515,3.1541150140145047,-4.435109278206495e-05,0.0007598469463322621,0.001005012113417697,21.11342953856677,0.0012607076383514668,1.0,0.0,38.989522143535254,0.8561697855581142,23.10373460407204,92.8167726029532,-0.01429878191719496,5.630525342765166,1.0,23.174124057843336,0.0,1.0,93.16369677765606,5285.082846841129,1.0,1.0,1.0151129233973093,18.469799916514404,0.018258774712861983,-44.26366502624646,1.0,22.709155944053244,1.0,0.016688064665782515,4.063073915167803,0.9430620383454804,1.0,0.4032278623625569,6.984329508508233
0.44999999999999996,40.20466972622756,0.0,22.940846056166308,93.4062325713516,0.0,5.522046478615596,93.56931805076606,17.911322810191564,0.0,7.350279323140077,0.0,0.0,0.16557278887170138,0.0,3.905847567016949,0.0,5351.451230378281,0.27505479910289704,93.57527285443061,2.1542768774063226,1.2223043667072506,101049.71156651137,288.00088450063487,0.0,0.0,-0.1,404.14342105263154,0.21690084148196515,0.86,nominal,4602.581488219411,nan,pitch_program,12.775,0.0,0.0,-3.025061299228735,-0.0,0.0,-2.97579296936681,0.0,0.0,0.86,0.0,0.0,0.0,0.0,0.0,0.0,-0.051937385173149594,0.0,0.0,-0.051937385173149594,0.0,0.0,0.44999999999999996,1.0,20.904364741529516,0.03480239865722864,3.281621839097324,0.003273383298076893,0.004947375058099982,0.0006495057299919682,21.160404493976365,0.0059676977030452,1.0,0.0,38.989522143535254,0.8561697855581142,23.10373460407204,92.8167726029532,-0.01429878191719496,5.630525342765166,1.0,23.174124057843336,0.0,1.0,93.15575856247727,5388.132571645406,1.0,1.0,1.0151129233973093,18.469799916514404,0.018258774712861983,-44.26366502624646,1.0,22.709155944053244,1.0,0.016688064665782515,4.063073915167803,0.9430620383454804,1.0,0.4032278623625569,6.984329508508233
0.48,43.02510931033872,0.0,23.103006931520916,94.0146528037054,0.0,5.405362511820233,94.16991497121288,17.904815784947104,0.0,7.340265364716978,0.0,0.0,0.3337986149529876,0.0,3.988934320934301,0.0,5420.26337570337,0.27682022213826174,94.17570789852248,2.1533090916544237,1.2222853282503254,101047.76780608193,287.9998304549451,0.0,0.0,-0.1,404.1094736842105,0.2168826221756668,0.86,nominal,4660.549545767732,nan,pitch_program,12.76,0.0,0.0,-3.0843999956686736,-0.0,0.0,-3.0409571851479282,0.0,0.0,0.86,0.0,0.0,0.0,0.0,0.0,0.0,-0.05307471529301015,0.0,0.0,-0.05307471529301015,0.0,0.0,0.48,1.0,20.85670455250939,0.012525986310875077,3.3765855759355494,-0.0009259558692904829,0.006063133432507111,0.002863435715449263,21.128265708349442,0.006768917593586835,1.0,0.0,38.989522143535254,0.8561697855581142,23.10373460407204,92.8167726029532,-0.01429878191719496,5.630525342765166,1.0,24.4985981851326,0.0,1.0,94.02778559936361,5363.114986315093,1.0,1.0,-0.341560527222041,18.45738342899985,-0.01746976429002118,-44.278214611695915,1.0,23.255248609081374,1.0,0.007915542794734144,4.081076287963608,0.9422424826711977,1.0,0.636746191090788,7.689505482414961
0.51,45.86376387572831,0.0,23.26176473445208,94.62181884631963,0.0,5.291926764372073,94.76968444953907,17.898309306281835,0.0,7.325484615637372,0.0,0.0,0.4926916387192911,0.0,4.064070781731526,0.0,5489.420612817207,0.27858322499678423,94.775321028304,2.152388994694778,1.2222666895500378,101045.86486631037,287.99879852922606,0.0,0.0,-0.1,404.0755263157895,0.21686440286936848,0.86,nominal,4718.7665304657185,nan,pitch_program,12.745,0.0,0.0,-3.143141482231737,-0.0,0.0,-3.102267763398214,0.0,0.0,0.86,0.0,0.0,0.0,0.0,0.0,0.0,-0.05414478674977926,0.0,0.0,-0.05414478674977926,0.0,0.0,0.51,1.0,20.802310816379453,0.06853486531179354,3.5527239109740543,0.0007061520466158617,0.009542527852417089,-0.0019268357040249766,21.103617687890097,0.00976069589513991,1.0,0.0,38.989522143535254,0.8561697855581142,23.10373460407204,92.8167726029532,-0.01429878191719496,5.630525342765166,1.0,24.4985981851326,0.0,1.0,93.78492914630921,5484.978993146347,1.0,1.0,-0.341560527222041,18.45738342899985,-0.01746976429002118,-44.278214611695915,1.0,23.255248609081374,1.0,0.007915542794734144,4.081076287963608,0.9422424826711977,1.0,0.636746191090788,7.689505482414961
0.54,48.72059741408792,0.0,23.41721106747923,95.22778461198693,0.0,5.1815444342383685,95.36864980081747,17.891803374195753,0.0,7.306516157646564,0.0,0.0,0.6322819388019107,0.0,4.132017287804787,0.0,5558.923819058628,0.2803438753619633,95.37413524492797,2.151510863031676,1.222248439838143,101044.00164736737,287.99778812806136,0.0,0.0,-0.1,404.0415789473684,0.2168461835630701,0.86,nominal,4777.234075330376,nan,pitch_program,12.73,0.0,0.0,-3.1974745132800777,-0.0,0.0,-3.159391813327332,0.0,0.0,0.86,0.0,0.0,0.0,0.0,0.0,0.0,-0.05514178950311601,0.0,0.0,-0.05514178950311601,0.0,0.0,0.54,1.0,20.813191208322277,-0.011959623866143985,3.6385484039788447,0.00258475109658373,0.012568165516229385,-0.000786372376342729,21.128845349305855,0.012855275344733116,1.0,0.0,38.989522143535254,0.8561697855581142,23.10373460407204,92.8167726029532,-0.01429878191719496,5.630525342765166,1.0,23.59430707462564,0.0,1.0,95.02849005670856,5542.705941007467,1.0,1.0,0.6010780516446778,18.496690579322753,-0.00910350250981173,-44.22361476579262,1.0,23.611081619437027,1.0,-0.0028495226081697673,4.05052412168096,0.9414569723313019,1.0,0.0064165621930257054,7.186356697809714
0.57,51.59557538089677,0.0,23.569432331522005,95.83259889362823,0.0,5.074042134759207,95.96683236562696,17.885297988688862,0.0,7.284083171648888,0.0,0.0,0.7477662094749572,0.0,4.193660543058816,0.0,5628.773714457605,0.28210223519533756,95.97217160572797,2.1506737200728505,1.2222305689578488,101042.1771118746,287.9967986898451,0.0,0.0,-0.1,404.0076315789474,0.21682796425677175,0.86,nominal,4835.953630720093,nan,pitch_program,12.715,0.0,0.0,-3.245315029326984,-0.0,0.0,-3.2109457429271235,0.0,0.0,0.86,0.0,0.0,0.0,0.0,0.0,0.0,-0.05604157531697373,0.0,0.0,-0.05604157531697373,0.0,0.0,0.57,1.0,20.787257528796083,0.012149172236429435,3.6992205083986542,0.0034063518963941427,0.015739724875820305,-0.0048126073959461535,21.113845115010026,0.016807836337735447,1.0,0.0,38.989522143535254,0.8561697855581142,23.10373460407204,92.8167726029532,-0.01429878191719496,5.630525342765166,1.0,23.59430707462564,0.0,1.0,96.35939970927106,5659.983686062492,1.0,1.0,0.6010780516446778,18.496690579322753,-0.00910350250981173,-44.22361476579262,1.0,23.611081619437027,1.0,-0.0028495226081697673,4.05052412168096,0.9414569723313019,1.0,0.0064165621930257054,7.186356697809714
0.6,54.48866446717908,0.0,23.718510687002134,96.43630287607695,0.0,4.969278516004269,96.56424929225138,17.878793149761158,0.0,7.258732102187754,0.0,0.0,0.8450356624905706,0.0,4.249686995536045,0.0,5698.970593482295,0.28385835424963723,96.56944701653451,2.149873180498669,1.222213067250916,101040.39027337627,287.9958296805345,0.0,0.0,-0.1,403.9736842105263,0.21680974495047337,0.86,nominal,4894.926253516724,nan,pitch_program,12.7,0.0,0.0,-3.288420696460793,-0.0,0.0,-3.257430715047325,0.0,0.0,0.86,0.0,0.0,0.0,0.0,0.0,0.0,-0.05685289113316902,0.0,0.0,-0.05685289113316902,0.0,0.0,0.6,1.0,20.77792294477446,0.03723658218695693,3.8502412718570436,-0.00218884881802764,0.019288194850195416,0.0005021721522843135,21.1316782654277,0.019418488525058168,1.0,0.0,38.989522143535254,0.8561697855581142,23.10373460407204,92.8167726029532,-0.01429878191719496,5.630525342765166,1.0,23.921105740947027,0.0,1.0,96.62318688709732,5726.648414777651,1.0,1.0,-2.0884129315731466,18.56558900422417,-0.05198653732366435,-44.30879837634901,1.0,23.29619339427358,1.0,0.0059601927122216744,4.055036640944753,0.9407037232824946,1.0,-0.031199227627410092,7.203843263022862
0.63,57.39983245096084,0.0,23.86452459396305,97.03893279272529,0.0,4.867130232030545,97.16091515751897,17.872288857412645,0.0,7.230842285212575,0.0,0.0,0.929660584195765,0.0,4.300601572297565,0.0,5769.51450015828,0.28561227478773527,97.16597583667344,2.1491030724363807,1.222195925494205,101038.64018985935,287.9948805901392,0.0,0.0,-0.1,403.9397368421053,0.21679152564417503,0.86,nominal,4954.152757232688,nan,pitch_program,12.685,0.0,0.0,-3.3285302100502268,-0.0,0.0,-3.300090412049066,0.0,0.0,0.86,0.0,0.0,0.0,0.0,0.0,0.0,-0.05759744330375255,0.0,0.0,-0.05759744330375255,0.0,0.0,0.63,1.0,20.746250429761403,0.0482501784753116,3.955151829514588,0.000997562163779802,0.01424066645440265,0.0018119332194381364,21.119954094850932,0.014390094277934992,1.0,0.0,57.72193282437806,-1.4405247638228156,24.334821397837025,97.24981590808349,0.11105817103984193,4.833486396366521,1.0,23.921105740947027,0.0,1.0,97.3838990668903,5769.875375257146,1.0,1.0,-2.0884129315731466,18.56558900422417,-0.05198653732366435,-44.30879837634901,1.0,23.29619339427358,1.0,0.0059601927122216744,4.055036640944753,0.9407037232824946,1.0,-0.031199227627410092,7.203843263022862
0.6599999999999999,60.32904811067888,0.0,24.00754906886478,97.6405219906016,0.0,4.767482496724342,97.75684336123854,17.86578511164332,0.0,7.200771937831409,0.0,0.0,1.0023449357129854,0.0,4.346879726491456,0.0,5840.405383966087,0.2873640356508979,97.76177126286672,2.148359475358559,1.222179134869486,101036.92596066986,287.9939509310524,0.0,0.0,-0.1,403.9057894736842,0.21677330633787664,0.86,nominal,5013.633843053047,nan,pitch_program,12.67,0.0,0.0,-3.365690663289241,-0.0,0.0,-3.3394505627931714,0.0,0.0,0.86,0.0,0.0,0.0,0.0,0.0,0.0,-0.05828440752831848,0.0,0.0,-0.05828440752831848,0.0,0.0,0.6599999999999999,1.0,20.64474899865981,0.01932912714719676,3.980237823639964,0.0011141667637941386,0.013838771515014366,0.002382543117453245,21.02494537366401,0.01408649978982857,1.0,0.0,57.72193282437806,-1.4405247638228156,24.334821397837025,97.24981590808349,0.11105817103984193,4.833486396366521,1.0,23.94854642600131,0.0,1.0,98.42431028894391,5696.765598511222,1.0,1.0,-1.670335623109286,18.658654728591394,0.0066186895430424015,-44.23691540746333,1.0,24.04822021253113,1.0,0.005384943889153253,4.049904126139728,0.939981127327838,1.0,-0.05654672738215016,7.654726565700638
0.69,63.276281129101136,0.0,24.147656012634158,98.241100614075,0.0,4.670231458979331,98.35204579339083,17.859281912453184,0.0,7.168886106906013,0.0,0.0,1.0628610582778226,0.0,4.388994269070147,0.0,5911.643055625553,0.2891136712869598,98.35684499838861,2.1476405161174337,1.2221626869248778,101035.24672257494,287.9930402359179,0.0,0.0,-0.1,403.8718421052631,0.21675508703157828,0.86,nominal,5073.3700667089215,nan,pitch_program,12.655,0.0,0.0,-3.3996190387350826,-0.0,0.0,-3.375551648358318,0.0,0.0,0.86,0.0,0.0,0.0,0.0,0.0,0.0,-0.05891449033497449,0.0,0.0,-0.05891449033497449,0.0,0.0,0.69,1.0,20.678857187387525,0.03405703130360546,4.154578938741672,-0.00024342411824013636,0.0192569393018051,0.002091143341679508,21.09210327624976,0.019371676413005596,1.0,0.0,57.72193282437806,-1.4405247638228156,24.334821397837025,97.24981590808349,0.11105817103984193,4.833486396366521,1.0,23.94854642600131,0.0,1.0,97.6038323715452,5920.64672714988,1.0,1.0,-1.670335623109286,18.658654728591394,0.0066186895430424015,-44.23691540746333,1.0,24.04822021253113,1.0,0.005384943889153253,4.049904126139728,0.939981127327838,1.0,-0.05654672738215016,7.654726565700638
0.72,66.24150198225648,0.0,24.28491461790257,98.84069510517824,0.0,4.575286842280388,98.94653232207762,17.852779259842237,0.0,7.135505793073553,0.0,0.0,1.1126771592205793,0.0,4.427363257496454,0.0,5983.227119750119,0.29086121025252215,98.95120674318431,2.146944297311551,1.2221465735270103,101033.60164487748,287.9921480549836,0.0,0.0,-0.1,403.8378947368421,0.21673686772527995,0.86,nominal,5133.361787219629,nan,pitch_program,12.64,0.0,0.0,-3.4306503453251627,-0.0,0.0,-3.408610866538425,0.0,0.0,0.86,0.0,0.0,0.0,0.0,0.0,0.0,-0.059491482540352525,0.0,0.0,-0.059491482540352525,0.0,0.0,0.72,1.0,20.615539966630326,-0.007930072127170567,4.24790458292789,0.0025088031883426986,0.01954285707334094,-0.0021429161886015883,21.04863996431684,0.01981942092540146,1.0,0.0,57.72193282437806,-1.4405247638228156,24.334821397837025,97.24981590808349,0.11105817103984193,4.833486396366521,1.0,23.541724003445633,0.0,1.0,98.83121153824466,5965.724513667279,1.0,1.0,0.2874945668536168,18.604365734435373,-0.004236792949381907,-44.20525310965753,1.0,24.86260299198225,1.0,0.005990995406906327,4.067429875023684,0.9392877134552435,1.0,-0.44453082773386493,6.7876276655747745
0.75,69.22468184255794,0.0,24.419391708302918,99.43932867671529,0.0,4.482569680011582,99.54031102328328,17.84627715381048,0.0,7.100895276396498,0.0,0.0,1.1536839243165102,0.0,4.462338975705215,0.0,6055.1569949651885,0.29260667588067135,99.54486442076244,2.1462685791503895,1.2221307868211593,101031.98992534529,287.991273953896,0.0,0.0,-0.1,403.80394736842106,0.21671864841898159,0.86,nominal,5193.609187002214,nan,pitch_program,12.625,0.0,0.0,-3.45929906437961,-0.0,0.0,-3.4390237852431365,0.0,0.0,0.86,0.0,0.0,0.0,0.0,0.0,0.0,-0.06002228810689111,0.0,0.0,-0.06002228810689111,0.0,0.0,0.75,1.0,20.566424095133005,0.011625204899593356,4.2501926197483355,0.0011903280909354376,0.023878657046746854,0.0013521571613500842,21.001001702566942,0.0239465127379586,1.0,0.0,57.72193282437806,-1.4405247638228156,24.334821397837025,97.24981590808349,0.11105817103984193,4.833486396366521,1.0,23.541724003445633,0.0,1.0,99.96547486847841,6038.633152562281,1.0,1.0,0.2874945668536168,18.604365734435373,-0.004236792949381907,-44.20525310965753,1.0,24.86260299198225,1.0,0.005990995406906327,4.067429875023684,0.9392877134552435,1.0,-0.44453082773386493,6.7876276655747745
0.78,72.22579250158418,0.0,24.55115199081249,100.03702196754114,0.0,4.392009416985745,100.13338859168404,17.83977559435791,0.0,7.065287485202155,0.0,0.0,1.1869264113468916,0.0,4.494235262037744,0.0,6127.431957167406,0.2943500874790695,100.13782458560101,2.1456116040875055,1.2221153192015897,101030.4107871824,287.9904175120597,0.0,0.0,-0.1,403.77,0.21670042911268322,0.86,nominal,5254.112310097302,nan,pitch_program,12.61,0.0,0.0,-3.4858011246379617,-0.0,0.0,-3.4670901888800314,0.0,0.0,0.86,0.0,0.0,0.0,0.0,0.0,0.0,-0.06051213925954864,0.0,0.0,-0.06051213925954864,0.0,0.0,0.78,1.0,20.57065387213836,-0.06683260163433906,4.364067844374303,0.0007836953734760417,0.019978917586685702,-0.0002538655740981199,21.028584247976944,0.019995893931097432,1.0,0.0,57.72193282437806,-1.4405247638228156,24.334821397837025,97.24981590808349,0.11105817103984193,4.833486396366521,1.0,23.500229073667427,0.0,1.0,100.17891862855679,6214.800693976143,1.0,1.0,0.02320020698432135,18.731588858069,0.020512500027092834,-44.23529510746551,1.0,24.35845384313046,1.0,0.02958593775135763,4.0682210427918575,0.9386221200229687,1.0,-0.3641198977541506,6.5453893970910375
0.8099999999999999,75.24480629967168,0.0,24.68025828693508,100.63379326958335,0.0,4.303543204086373,100.72577044597216,17.83327458148453,0.0,7.028896732047206,0.0,0.0,1.2130251459428854,0.0,4.523340874651734,0.0,6200.051147255404,0.2960914606368671,100.73009252738476,2.1449722482883335,1.222100163284392,101028.86347625485,287.9895783211349,0.0,0.0,-0.1,403.73605263157896,0.21668220980638486,0.86,nominal,5314.871070896911,nan,pitch_program,12.595,0.0,0.0,-3.5102541648299592,-0.0,0.0,-3.492988574449988,0.0,0.0,0.86,0.0,0.0,0.0,0.0,0.0,0.0,-0.06096415135869537,0.0,0.0,-0.06096415135869537,0.0,0.0,0.8099999999999999,1.0,20.606094533458187,-0.01909293271997271,4.521834173281403,0.001127163187817565,0.020619784956061846,0.0027680952868012225,21.09640919096306,0.020835267696936763,1.0,0.0,57.72193282437806,-1.4405247638228156,24.334821397837025,97.24981590808349,0.11105817103984193,4.833486396366521,1.0,23.500229073667427,0.0,1.0,99.9104640661207,6151.33415474505,1.0,1.0,0.02320020698432135,18.731588858069,0.020512500027092834,-44.23529510746551,1.0,24.35845384313046,1.0,0.02958593775135763,4.0682210427918575,0.9386221200229687,1.0,-0.3641198977541506,6.5453893970910375
0.84,78.28169605776576,0.0,24.806771761877194,101.22965860313593,0.0,4.217115831403881,101.31746072046481,17.82677411519034,0.0,6.991913475887038,0.0,0.0,1.2327752481413108,0.0,4.54991449475073,0.0,6273.013565325162,0.2978308071993668,101.32167226220267,2.1443495836569175,1.2220853118805546,101027.34725834086,287.9887559835478,0.0,0.0,-0.1,403.7021052631579,0.2166639905000865,0.86,nominal,5375.885251720078,nan,pitch_program,12.58,0.0,0.0,-3.532830175457563,-0.0,0.0,-3.516893535054533,0.0,0.0,0.86,0.0,0.0,0.0,0.0,0.0,0.0,-0.061381371628804214,0.0,0.0,-0.061381371628804214,0.0,0.0,0.84,1.0,20.493834805355988,0.05166430092585032,4.51001022955324,0.0012661216670166629,0.025312608331454343,-5.870225580505489e-05,20.984282844545476,0.025344321860569428,1.0,0.0,77.87571918200928,0.11040984545368764,24.911672938420804,101.23863394999461,0.017043018975863612,4.164897122400916,1.0,25.953087179378436,0.0,1.0,101.08030070237258,6291.262278711536,1.0,1.0,-0.2524767918030103,18.66857629045059,0.042477749502781575,-44.17013293565,1.0,24.635135836099998,1.0,-0.015716378217716927,4.074318635031673,0.9379830705953071,1.0,0.559642409700591,7.4311665585241125
0.87,81.3364350158214,0.0,24.9307521287438,101.82463193518805,0.0,4.132678895553624,101.90846237477176,17.82027419547534,0.0,6.95450258949504,0.0,0.0,1.247029590704289,0.0,4.574183658860729,0.0,6346.318079461389,0.29956813558748585,101.91256664106434,2.143742715722184,1.2220707579719665,101025.86141668033,287.9879501111631,0.0,0.0,-0.1,403.66815789473685,0.21664577119378817,0.86,nominal,5437.154512158481,nan,pitch_program,12.565,0.0,0.0,-3.553735589804934,-0.0,0.0,-3.538998767904774,0.0,0.0,0.86,0.0,0.0,0.0,0.0,0.0,0.0,-0.061767180723960924,0.0,0.0,-0.061767180723960924,0.0,0.0,0.87,1.0,20.457422942223403,-0.0032009294677551336,4.626081273235576,-0.0007627910474587565,0.02136929583423876,0.001423801640237294,20.973955078371336,0.021430255848776975,1.0,0.0,77.87571918200928,0.11040984545368764,24.911672938420804,101.23863394999461,0.017043018975863612,4.164897122400916,1.0,25.953087179378436,0.0,1.0,101.67382938834275,6284.980634668136,1.0,1.0,-0.2524767918030103,18.66857629045059,0.042477749502781575,-44.17013293565,1.0,24.635135836099998,1.0,-0.015716378217716927,4.074318635031673,0.9379830705953071,1.0,0.559642409700591,7.4311665585241125
0.8999999999999999,84.40899677919009,0.0,25.05225782134215,102.41872544562332,0.0,4.050189753278224,102.49877735340813,17.813774822339525,0.0,6.916809045384767,0.0,0.0,1.2564515156585703,0.0,4.596351205438051,0.0,6419.963441260586,0.3013034512634582,102.50277750819332,2.1431509221288727,1.2220564946911199,101024.40524990161,287.98716032416127,0.0,0.0,-0.1,403.6342105263158,0.2166275518874898,0.86,nominal,5498.67840363543,nan,pitch_program,12.55,0.0,0.0,-3.573121562560482,-0.0,0.0,-3.5594724446981987,0.0,0.0,0.86,0.0,0.0,0.0,0.0,0.0,0.0,-0.06212451379399535,0.0,0.0,-0.06212451379399535,0.0,0.0,0.8999999999999999,1.0,20.48830931816448,-0.010573689704318741,4.657393052015265,0.00044742135249231185,0.021880235640905125,0.00382627890876341,21.011002845191836,0.02221677987143611,1.0,0.0,77.87571918200928,0.11040984545368764,24.911672938420804,101.23863394999461,0.017043018975863612,4.164897122400916,1.0,25.03834566244198,0.0,1.0,101.97211783646347,6554.137043508618,1.0,1.0,-2.017714388591032,18.889228716051413,-0.03530780576572019,-44.09798406893188,1.0,25.192521332115444,1.0,0.0004759712891396072,4.076985281363253,0.9373693554466447,1.0,0.18807463782397235,6.697559416013802
0.9299999999999999,87.49935527046381,0.0,25.17134614825598,103.01194970912374,0.0,3.9696108971277835,103.0884066883839,17.8072759957829,0.0,6.8789620266243405,0.0,0.0,1.2615673378861416,0.0,4.616599882388559,0.0,6493.948294930446,0.3030367570302313,103.0923058027565,2.1425736859902718,1.2220425153029921,101022.97807017161,287.98638625003633,0.0,0.0,-0.1,403.6002631578947,0.21660933258119142,0.86,nominal,5560.456378479611,nan,pitch_program,12.535000000000002,0.0,0.0,-3.5911000534910054,-0.0,0.0,-3.5784490099738826,0.0,0.0,0.86,0.0,0.0,0.0,0.0,0.0,0.0,-0.062455717338775654,0.0,0.0,-0.062455717338775654,0.0,0.0,0.9299999999999999,1.0,20.43072097270603,-0.03394187802056017,4.722002092863927,-0.0007921764512016805,0.023161418045861283,-0.001474918900734763,20.969330348884892,0.023221847798759077,1.0,0.0,77.87571918200928,0.11040984545368764,24.911672938420804,101.23863394999461,0.017043018975863612,4.164897122400916,1.0,25.03834566244198,0.0,1.0,102.97835370889759,6456.243789894036,1.0,1.0,-2.017714388591032,18.889228716051413,-0.03530780576572019,-44.09798406893188,1.0,25.192521332115444,1.0,0.0004759712891396072,4.076985281363253,0.9373693554466447,1.0,0.18807463782397235,6.697559416013802
0.96,90.60748468536542,0.0,25.28807343419335,103.60431383005377,0.0,3.8909095312455784,103.6773505698164,17.800777715805463,0.0,6.8410754954377015,0.0,0.0,1.262884418903781,0.0,4.635093282693675,0.0,6568.271182819399,0.30476805323750705,103.68115162884166,2.1420105952254813,1.2220288131884451,101021.57920150015,287.9856275226777,0.0,0.0,-0.1,403.56631578947366,0.21659111327489305,0.86,nominal,5622.487795931736,nan,pitch_program,12.520000000000001,0.0,0.0,-3.607784843978476,-0.0,0.0,-3.5960505103766387,0.0,0.0,0.86,0.0,0.0,0.0,0.0,0.0,0.0,-0.06276292147409486,0.0,0.0,-0.06276292147409486,0.0,0.0,0.96,1.0,20.40353622674659,0.0403044881716855,4.870150033201691,0.005810731508932576,0.021641903159106326,-0.0017345670483146591,20.97675562030081,0.022475437612249898,1.0,0.0,77.87571918200928,0.11040984545368764,24.911672938420804,101.23863394999461,0.017043018975863612,4.164897122400916,1.0,25.005647519644675,0.0,1.0,103.18226129757208,6582.675604308402,1.0,1.0,0.32106353464181236,18.916790699230027,0.01749869089294133,-44.14876059104317,1.0,25.43722131313157,1.0,0.008488511521670595,4.074598302817725,0.9367798164145167,1.0,-0.2852912671137542,6.623765957041505
0.99,93.73335945307457,0.0,25.402495145855877,104.1958255903049,0.0,3.814057055417545,104.26560843186606,17.794279982407215,0.0,6.8032490870737705,0.0,0.0,1.2608803245946953,0.0,4.651977142500803,0.0,6642.930553207151,0.3064973380326002,104.26931434069327,2.1414612948030896,1.2220153818294324,101020.20797822933,287.9848837815519,0.0,0.0,-0.1,403.53236842105264,0.21657289396859472,0.86,nominal,5684.771929855717,nan,pitch_program,12.505,0.0,0.0,-3.6232872502566313,-0.0,0.0,-3.6123925543046345,0.0,0.0,0.86,0.0,0.0,0.0,0.0,0.0,0.0,-0.06304814394714393,0.0,0.0,-0.06304814394714393,0.0,0.0,0.99,1.0,20.47667058519999,0.02423630645272609,4.938264373416909,-0.0014060586879246736,0.022332439944750003,0.003593470265315887,21.063738525606123,0.022663360374566333,1.0,0.0,77.87571918200928,0.11040984545368764,24.911672938420804,101.23863394999461,0.017043018975863612,4.164897122400916,1.0,25.005647519644675,0.0,1.0,103.58219896699359,6599.146386742316,1.0,1.0,0.32106353464181236,18.916790699230027,0.01749869089294133,-44.14876059104317,1.0,25.43722131313157,1.0,0.008488511521670595,4.074598302817725,0.9367798164145167,1.0,-0.2852912671137542,6.623765957041505
1.02,96.87695420096145,0.0,25.514666002130493,104.78649159622913,0.0,3.739028542487162,104.8531790433086,17.787782795588157,0.0,6.765570208817212,0.0,0.0,1.255962653815309,0.0,4.667381833400479,0.0,6717.924769073665,0.30822460762494186,104.85679263260263,2.14092550476691,1.2220022147960452,101018.8637437106,287.98415467098613,0.0,0.0,-0.1,403.49842105263156,0.21655467466229633,0.86,nominal,5747.307977093858,nan,pitch_program,12.49,0.0,0.0,-3.637700895315434,-0.0,0.0,-3.6275775589111143,0.0,0.0,0.86,0.0,0.0,0.0,0.0,0.0,0.0,-0.06331317227445751,0.0,0.0,-0.06331317227445751,0.0,0.0,1.02,1.0,20.35957162193087,-0.003617189695431459,5.030703189703286,-0.0012687287302588265,0.022836472806890055,0.0009741654625859581,20.971889383064294,0.022892425847849947,1.0,0.0,77.87571918200928,0.11040984545368764,24.911672938420804,101.23863394999461,0.017043018975863612,4.164897122400916,1.0,25.34407658707755,0.0,1.0,105.02844383824294,6838.993302434099,1.0,1.0,0.20716255069020592,18.92134913199059,-0.02774534788802444,-44.09384456445305,1.0,25.573556337912432,1.0,0.004000979885722656,4.1229659486544525,0.9362133349946737,1.0,-0.2350183702845472,6.420361033606768
1.05,100.03824372298081,0.0,25.624640071937975,105.37631740064522,0.0,3.6658023269160345,105.44006058240647,17.781286155348287,0.0,6.728115703501138,0.0,0.0,1.248483554995265,0.0,4.681424344350084,0.0,6793.25211526105,0.30994985650478685,105.44358461322781,2.1404030167705805,1.2219893057350153,101017.5458491304,287.98343983953237,0.0,0.0,-0.1,403.46447368421053,0.216536455355998,0.86,nominal,5810.095064372244,nan,pitch_program,12.475,0.0,0.0,-3.6511058644844714,-0.0,0.0,-3.6416945422551286,0.0,0.0,0.86,0.0,0.0,0.0,0.0,0.0,0.0,-0.06355956011425976,0.0,0.0,-0.06355956011425976,0.0,0.0,1.05,1.0,20.392186752348643,0.023065120251563386,5.073933334378868,-0.0009619480502852831,0.023310904378004055,-0.000216186253064102,21.01396231138137,0.02333174540123199,1.0,0.0,100.9654115834332,-0.5143213134600304,25.086457069120833,105.48709935428765,-0.10413279965858194,3.6523997204957652,1.0,25.34407658707755,0.0,1.0,105.08573276009126,6695.466620396931,1.0,1.0,0.20716255069020592,18.92134913199059,-0.02774534788802444,-44.09384456445305,1.0,25.573556337912432,1.0,0.004000979885722656,4.1229659486544525,0.9362133349946737,1.0,-0.2350183702845472,6.420361033606768
1.08,103.21720295122755,0.0,25.732470861654157,105.96530760822475,0.0,3.594359657206019,106.026250701659,17.774790061687607,0.0,6.6909527899775165,0.0,0.0,1.2387638275498196,0.0,4.694209494446849,0.0,6868.910804664521,0.31167307763238195,106.02968786987202,2.1398936655843293,1.2219766483594379,101016.2536524608,287.9827389393992,0.0,0.0,-0.1,403.43052631578945,0.21651823604969964,0.86,nominal,5873.132254300963,nan,pitch_program,12.46,0.0,0.0,-3.6635766200353603,-0.0,0.0,-3.6548237889232675,0.0,0.0,0.86,0.0,0.0,0.0,0.0,0.0,0.0,-0.06378870869692528,0.0,0.0,-0.06378870869692528,0.0,0.0,1.08,1.0,20.304223051008133,-0.022853924830118926,5.217759567491258,6.010971362783861e-05,0.021770372868536423,0.0015833385952579505,20.963945499621886,0.021827957053284042,1.0,0.0,100.9654115834332,-0.5143213134600304,25.086457069120833,105.48709935428765,-0.10413279965858194,3.6523997204957652,1.0,26.150284779952372,0.0,1.0,105.84580218800207,6860.472035080898,1.0,1.0,0.7264451323418568,19.008194132219405,-0.02658840919779483,-44.02508306167633,1.0,25.677112442084933,1.0,-0.0045325187658295995,4.116365072657112,0.9356688228458646,1.0,-0.808246265656688,6.763009562404804
1.1099999999999999,106.41380693050021,0.0,25.83821139236219,106.55346597575578,0.0,3.5246843569344355,106.61174659137033,17.768294514606115,0.0,6.654140023227792,0.0,0.0,1.2270922672039706,0.0,4.705831151006612,0.0,6944.8989845586975,0.31339426262370745,106.61509953160457,2.1393973151934738,1.221964236439693,101014.98651753204,287.9820516259496,0.0,0.0,-0.1,403.3965789473684,0.21650001674340127,0.86,nominal,5936.418551382191,nan,pitch_program,12.445,0.0,0.0,-3.6751812395843504,-0.0,0.0,-3.6670382593199173,0.0,0.0,0.86,0.0,0.0,0.0,0.0,0.0,0.0,-0.0640018914217342,0.0,0.0,-0.0640018914217342,0.0,0.0,1.1099999999999999,1.0,20.338835689431733,-0.051319635676952136,5.267965137329466,-0.0009535318708432641,0.022090939528892774,0.002824344071052272,21.010053012661025,0.022291158599983072,1.0,0.0,100.9654115834332,-0.5143213134600304,25.086457069120833,105.48709935428765,-0.10413279965858194,3.6523997204957652,1.0,26.150284779952372,0.0,1.0,107.13498923714879,6987.411922713556,1.0,1.0,0.7264451323418568,19.008194132219405,-0.02658840919779483,-44.02508306167633,1.0,25.677112442084933,1.0,-0.0045325187658295995,4.116365072657112,0.9356688228458646,1.0,-0.808246265656688,6.763009562404804
1.14,109.62803079563349,0.0,25.941914267734447,107.14079550444261,0.0,3.4567625124084986,107.19654503943671,17.761799514103814,0.0,6.6177283657513595,0.0,0.0,1.2137219567293616,0.0,4.716373535539861,0.0,7021.214742713996,0.31511340192520243,107.19981632864146,2.138913857718719,1.2219520637954646,101013.74381321744,287.9813775572597,0.0,0.0,-0.1,403.3626315789474,0.21648179743710294,0.86,nominal,5999.95290774967,nan,pitch_program,12.43,0.0,0.0,-3.68597952242668,-0.0,0.0,-3.6784030171839746,0.0,0.0,0.86,0.0,0.0,0.0,0.0,0.0,0.0,-0.06420024386515391,0.0,0.0,-0.06420024386515391,0.0,0.0,1.14,1.0,20.287750026103577,0.00532466447862414,5.289202877837081,0.00121304139877298,0.017785809279622852,0.0019481353936812015,20.96588888067085,0.017933257168689935,1.0,0.0,100.9654115834332,-0.5143213134600304,25.086457069120833,105.48709935428765,-0.10413279965858194,3.6523997204957652,1.0,26.660915154784988,0.0,1.0,106.97611458146326,6958.941637990492,1.0,1.0,-0.7598756353801139,19.077514550744198,0.06539829339394247,-44.0947720002319,1.0,25.996298154794058,1.0,0.0038094536017736326,4.126068508611013,0.9351452143306639,1.0,-0.20272584193111715,6.912526440593116
1.17,112.85984975126176,0.0,26.043631733848148,107.72729852094217,0.0,3.3905822037900895,107.78064248417174,17.7553050601807,0.0,6.581762066646707,0.0,0.0,1.1988766761894407,0.0,4.7259123059942265,0.0,7097.856112865823,0.31683048496816596,107.78383464481863,2.138443206844255,1.2219401242887085,101012.5249127152,287.98071639372995,0.0,0.0,-0.1,403.3286842105263,0.21646357813080455,0.86,nominal,6063.734228293165,nan,pitch_program,12.415,0.0,0.0,-3.69602474486628,-0.0,0.0,-3.6889760537933576,0.0,0.0,0.86,0.0,0.0,0.0,0.0,0.0,0.0,-0.06438477816592154,0.0,0.0,-0.06438477816592154,0.0,0.0,1.17,1.0,20.198070976522384,-0.02730403298349267,5.316981030084279,-0.0008634720567739232,0.02315503981648266,-0.001090500165282645,20.886194099383665,0.023196780886713748,1.0,0.0,100.9654115834332,-0.5143213134600304,25.086457069120833,105.48709935428765,-0.10413279965858194,3.6523997204957652,1.0,26.660915154784988,0.0,1.0,107.85136328316558,7018.0010620886505,1.0,1.0,-0.7598756353801139,19.077514550744198,0.06539829339394247,-44.0947720002319,1.0,25.996298154794058,1.0,0.0038094536017736326,4.126068508611013,0.9351452143306639,1.0,-0.20272584193111715,6.912526440593116
1.2,116.10923905376157,0.0,26.143415731805952,108.31297674999344,0.0,3.326133265260081,108.36403506211315,17.748811152836776,0.0,6.546279362081922,0.0,0.0,1.1827568566270719,0.0,4.734515437896959,0.0,7174.821079756249,0.31854550030850415,108.36715056508565,2.1379852882303214,1.2219284118174647,101011.32919291638,287.98006779774323,0.0,0.0,-0.1,403.2947368421053,0.21644535882450622,0.86,nominal,6127.761375357759,nan,pitch_program,12.4,0.0,0.0,-3.7053653553504,-0.0,0.0,-3.6988096347275827,0.0,0.0,0.86,0.0,0.0,0.0,0.0,0.0,0.0,-0.06455640653048511,0.0,0.0,-0.06455640653048511,0.0,0.0,1.2,1.0,20.171038156740888,0.05991784686592215,5.5144417645987955,-0.00012476373930662816,0.020190341745990534,-0.0010175630330780644,20.9113232112227,0.02021635230047253,1.0,0.0,100.9654115834332,-0.5143213134600304,25.086457069120833,105.48709935428765,-0.10413279965858194,3.6523997204957652,1.0,26.831368626500158,0.0,1.0,107.76864951771763,7203.201372277124,1.0,1.0,2.06342647402825,19.11300772991673,0.08539920361413032,-44.030456700784406,1.0,26.388296444813673,1.0,-5.519108586433316e-05,4.132194141418413,0.9346414606704851,1.0,-0.11770425331794655,6.1478049311917085
1.23,119.37617399518906,0.0,26.24131794373201,108.89783138091653,0.0,3.2634070642019744,108.94671865243676,17.74231779207204,0.0,6.511313141532767,0.0,0.0,1.1655407211459983,0.0,4.742244054985544,0.0,7252.107583937406,0.32025843575656915,108.94975991963474,2.1375400345760798,1.2219169203104485,101010.15603385231,287.97943143336573,0.0,0.0,-0.1,403.26078947368416,0.2164271395182078,0.86,nominal,6192.033173179506,nan,pitch_program,12.385,0.0,0.0,-3.714045003961405,-0.0,0.0,-3.707950856267876,0.0,0.0,0.86,0.0,0.0,0.0,0.0,0.0,0.0,-0.06471595094401746,0.0,0.0,-0.06471595094401746,0.0,0.0,1.23,1.0,20.21923780272396,-0.0034837575534648673,5.512375898901193,0.0002589862009826061,0.02118568106930405,0.0025757760128478453,20.95719154635122,0.021343260723022846,1.0,0.0,100.9654115834332,-0.5143213134600304,25.086457069120833,105.48709935428765,-0.10413279965858194,3.6523997204957652,1.0,26.831368626500158,0.0,1.0,109.28550359492615,7294.507888673703,1.0,1.0,2.06342647402825,19.11300772991673,0.08539920361413032,-44.030456700784406,1.0,26.388296444813673,1.0,-5.519108586433316e-05,4.132194141418413,0.9346414606704851,1.0,-0.11770425331794655,6.1478049311917085
1.26,122.66062988901623,0.0,26.33738983281801,109.48186312757215,0.0,3.2023963028665747,109.52868891740218,17.735824977886494,0.0,6.476891568091426,0.0,0.0,1.1473858158879673,0.0,4.749153196471464,0.0,7329.713526242269,0.32196927849540885,109.53165832409198,2.1371073828016964,1.2219056437223397,101009.0048182134,287.97880696608667,0.0,0.0,-0.1,403.22684210526313,0.21640892021190947,0.86,nominal,6256.548411986533,nan,pitch_program,12.37,0.0,0.0,-3.7221027337232937,-0.0,0.0,-3.7164419827411264,0.0,0.0,0.86,0.0,0.0,0.0,0.0,0.0,0.0,-0.06486414905817893,0.0,0.0,-0.06486414905817893,0.0,0.0,1.26,1.0,20.209532645737802,0.00794684442405135,5.576514822910114,-0.0014282419835606125,0.02062675346680782,-0.00016546531227039135,20.96479884190675,0.0206768037305972,1.0,0.0,120.3515281386311,-0.9886792019865726,28.2538769309749,109.52751337095111,-0.10364898284714909,3.166609911499362,1.0,25.611559326627116,0.0,1.0,110.13112661961041,7440.170885156488,1.0,1.0,0.9629097954391108,19.211444935639726,0.023134658006696746,-43.952623343816924,1.0,26.711128941466086,1.0,0.0006925181714708218,4.1441595424057525,0.934156525417955,1.0,-0.16193324251844712,6.347273883906245
1.29,125.96258205747391,0.0,26.431682678092926,110.06507228192261,0.0,3.1430948424972205,110.1099413387083,17.729332710280136,0.0,6.443038607611313,0.0,0.0,1.1284320488315829,0.0,4.75529247640899,0.0,7407.636771885655,0.32367801518706324,110.11284121564695,2.136687270093855,1.2218945760296958,101007.87493093169,287.97819406259237,0.0,0.0,-0.1,403.1928947368421,0.21639070090561113,0.86,nominal,6321.30585174201,nan,pitch_program,12.355,0.0,0.0,-3.729573750378297,-0.0,0.0,-3.7243210433234286,0.0,0.0,0.86,0.0,0.0,0.0,0.0,0.0,0.0,-0.06500166460730421,0.0,0.0,-0.06500166460730421,0.0,0.0,1.29,1.0,20.198750229784114,-0.049476832008403165,5.659528446997188,-0.003389608958674506,0.018548943802110956,-0.0003681181865630906,20.976706630080894,0.018859699787267967,1.0,0.0,120.3515281386311,-0.9886792019865726,28.2538769309749,109.52751337095111,-0.10364898284714909,3.166609911499362,1.0,25.611559326627116,0.0,1.0,110.02862530250569,7336.998736097984,1.0,1.0,0.9629097954391108,19.211444935639726,0.023134658006696746,-43.952623343816924,1.0,26.711128941466086,1.0,0.0006925181714708218,4.1441595424057525,0.934156525417955,1.0,-0.16193324251844712,6.347273883906245
1.3199999999999998,129.28200582034324,0.0,26.52424760444319,110.64745876231099,0.0,3.08549754500876,110.69047125049909,17.72284098925297,0.0,6.409774492628465,0.0,0.0,1.1088038639060043,0.0,4.7607066643235925,0.0,7485.875154273988,0.3253846320690716,110.6933038858565,2.1362796303698928,1.221883711227415,101006.76575881941,287.9775923905711,0.0,0.0,-0.1,403.158947368421,0.21637248159931274,0.86,nominal,6386.304225598896,nan,pitch_program,12.34,0.0,0.0,-3.7364899257702135,-0.0,0.0,-3.7316223727914997,0.0,0.0,0.86,0.0,0.0,0.0,0.0,0.0,0.0,-0.06512909684629493,0.0,0.0,-0.06512909684629493,0.0,0.0,1.3199999999999998,1.0,20.079263787742878,0.03567348886726788,5.728124498405848,-0.0005986024000608491,0.02155981554939326,0.00022732488971947352,20.88036199697715,0.02156932191708177,1.0,0.0,120.3515281386311,-0.9886792019865726,28.2538769309749,109.52751337095111,-0.10364898284714909,3.166609911499362,1.0,26.370956466519903,0.0,1.0,111.22183185143489,7375.037334704848,1.0,1.0,1.6927284296326035,19.178124659159238,-0.030682723420617862,-43.918846133822726,1.0,26.521394461407983,1.0,0.013162503591316774,4.151132356969424,0.933689380988892,1.0,-0.7218941598180079,6.527767516175208
1.3499999999999999,132.61887648505538,0.0,26.615135608345206,111.22902215707163,0.0,3.029600130067194,111.27027386937822,17.71634981480499,0.0,6.377116146184198,0.0,0.0,1.0886115776158871,0.0,4.76543621387279,0.0,7564.426478554928,0.3270891150422348,111.27304151047748,2.135884392129571,1.2218730433257097,101005.67669025983,287.9770016185457,0.0,0.0,-0.1,403.125,0.2163542622930144,0.86,nominal,6451.542243096796,nan,pitch_program,12.325,0.0,0.0,-3.7428800303072953,-0.0,0.0,-3.7383769673009772,0.0,0.0,0.86,0.0,0.0,0.0,0.0,0.0,0.0,-0.06524698676012244,0.0,0.0,-0.06524698676012244,0.0,0.0,1.3499999999999999,1.0,20.12235767125271,-0.08324399002846977,5.814044219600553,-0.002692286164653651,0.020643783855362523,0.00011597472438910492,20.94562765827678,0.020818925687844915,1.0,0.0,120.3515281386311,-0.9886792019865726,28.2538769309749,109.52751337095111,-0.10364898284714909,3.166609911499362,1.0,26.370956466519903,0.0,1.0,110.50594945072962,7546.114009280084,1.0,1.0,1.6927284296326035,19.178124659159238,-0.030682723420617862,-43.918846133822726,1.0,26.521394461407983,1.0,0.013162503591316774,4.151132356969424,0.933689380988892,1.0,-0.7218941598180079,6.527767516175208
1.38,135.97316933796603,0.0,26.70439757976351,111.80976176368843,0.0,2.975399047276785,111.84934432147243,17.7098591869362,0.0,6.345077559187255,0.0,0.0,1.0679529277255166,0.0,4.769517733794248,0.0,7643.288524896941,0.3287914497497513,111.85204917636848,2.1355014766335527,1.2218625663475302,101004.6071149439,287.9764214157315,0.0,0.0,-0.1,403.0910526315789,0.21633604298671602,0.86,nominal,6517.018593097237,nan,pitch_program,12.31,0.0,0.0,-3.748770065440167,-0.0,0.0,-3.744612826184491,0.0,0.0,0.86,0.0,0.0,0.0,0.0,0.0,0.0,-0.0653558230293295,0.0,0.0,-0.0653558230293295,0.0,0.0,1.38,1.0,20.051316746072665,0.016192227366680224,5.864731112388281,0.000628780306154169,0.018776160739537348,0.0021791237596503594,20.89140101716915,0.018912645429717753,1.0,0.0,120.3515281386311,-0.9886792019865726,28.2538769309749,109.52751337095111,-0.10364898284714909,3.166609911499362,1.0,26.546383339703375,0.0,1.0,111.81072853180324,7755.116214643802,1.0,1.0,0.008506569961628012,19.24006072186849,-0.03420361459673876,-43.96320455490447,1.0,26.8823942933625,1.0,-0.0009266132384222408,4.181168206509099,0.9332390060505913,1.0,-0.06537621353699231,6.923945126591502
1.41,139.34485963668445,0.0,26.79208432061938,112.38967662394707,0.0,2.9228913618624666,112.42767766679451,17.703369105646598,0.0,6.313670121476075,0.0,0.0,1.0469146165876386,0.0,4.7729844025642665,0.0,7722.459051517564,0.33049162164845286,112.43032190570752,2.1351307961132058,1.2218522743263838,101003.55642364745,287.97585145191596,0.0,0.0,-0.1,403.0571052631579,0.2163178236804177,0.86,nominal,6582.731946477124,nan,pitch_program,12.295,0.0,0.0,-3.7541836199903154,-0.0,0.0,-3.7503553024679857,0.0,0.0,0.86,0.0,0.0,0.0,0.0,0.0,0.0,-0.06545604814769417,0.0,0.0,-0.06545604814769417,0.0,0.0,1.41,1.0,20.117481963649798,-0.07625831548021851,5.870193012292594,-0.003819351200820914,0.01484872868063511,-0.0006470055900708794,20.956575624133432,0.015345709604313213,1.0,0.0,120.3515281386311,-0.9886792019865726,28.2538769309749,109.52751337095111,-0.10364898284714909,3.166609911499362,1.0,26.546383339703375,0.0,1.0,112.4410152785032,7651.991995730113,1.0,1.0,0.008506569961628012,19.24006072186849,-0.03420361459673876,-43.96320455490447,1.0,26.8823942933625,1.0,-0.0009266132384222408,4.181168206509099,0.9332390060505913,1.0,-0.06537621353699231,6.923945126591502
1.44,142.73392260335157,0.0,26.878246560179818,112.96876555557103,0.0,2.8720746520145193,113.00526892121586,17.696879570936186,0.0,6.282902917497786,0.0,0.0,1.0255734905872655,0.0,4.775866339002461,0.0,7801.935797489426,0.3321896160730524,113.00785467783518,2.1347722524552872,1.221842161304528,101002.52400804646,287.97529139735883,0.0,0.0,-0.1,403.02315789473687,0.21629960437411935,0.86,nominal,6648.680958607544,nan,pitch_program,12.28,0.0,0.0,-3.759142118760172,-0.0,0.0,-3.755627392243298,0.0,0.0,0.86,0.0,0.0,0.0,0.0,0.0,0.0,-0.06554806347273409,0.0,0.0,-0.06554806347273409,0.0,0.0,1.44,1.0,20.12363758181536,0.027761547359216102,5.952327841722872,-0.00031388330610222076,0.017410687628114794,0.001718790116999069,20.98551326422855,0.017498137211712936,1.0,0.0,120.3515281386311,-0.9886792019865726,28.2538769309749,109.52751337095111,-0.10364898284714909,3.166609911499362,1.0,27.192037752966755,0.0,1.0,113.3693189965865,7686.552456832045,1.0,1.0,1.430724974756069,19.302419554588063,0.04184226310548753,-43.92414142621037,1.0,26.686632126468073,1.0,0.00636477619432341,4.201119850631423,0.9328043835995504,1.0,-0.3017590074810985,5.899991276161467
1.47,146.14033341877126,0.0,26.962934967687534,113.54702718065641,0.0,2.822946916923821,113.5821130762256,17.690390582804962,0.0,6.252782990920357,0.0,0.0,1.0039975757023627,0.0,4.778190933964388,0.0,7881.7164853357945,0.33388541829391405,113.58464244889747,2.134425736272963,1.2218322213314752,101001.50926056424,287.97474092271,0.0,0.0,-0.1,402.9892105263158,0.21628138506782096,0.86,nominal,6714.864271631121,nan,pitch_program,12.265,0.0,0.0,-3.7636650380199126,-0.0,0.0,-3.760449979709266,0.0,0.0,0.86,0.0,0.0,0.0,0.0,0.0,0.0,-0.06563223350248065,0.0,0.0,-0.06563223350248065,0.0,0.0,1.47,1.0,19.985532726184946,-0.014612581059159788,6.077202527141378,0.0003055854345507461,0.017796761680961337,-0.0003411062948706504,20.889090991061057,0.017802653237400982,1.0,0.0,145.79476228061023,-1.2389951447554337,26.755294849332902,113.82181064844792,-0.12167131273932834,3.185759985349993,1.0,27.192037752966755,0.0,1.0,113.38471907056818,7937.280905185085,1.0,1.0,1.430724974756069,19.302419554588063,0.04184226310548753,-43.92414142621037,1.0,26.686632126468073,1.0,0.00636477619432341,4.201119850631423,0.9328043835995504,1.0,-0.3017590074810985,5.899991276161467
