time_s,sensor_time_s,imu_valid,imu_ax_mps2,imu_ay_mps2,imu_az_mps2,gyro_p_rps,gyro_q_rps,gyro_r_rps,imu_accel_norm_mps2,imu_gyro_norm_rps,gps_valid,gps_latency_s,gps_x_m,gps_y_m,gps_z_m,gps_vx_mps,gps_vy_mps,gps_vz_mps,baro_valid,baro_alt_m,baro_bias_m,pitot_valid,pitot_airspeed_mps,pitot_qbar_pa,pitot_compressibility_factor,mag_valid,mag_heading_deg,mag_x_ut,mag_y_ut,mag_z_ut,radar_valid,radar_agl_m,optical_flow_valid,optical_flow_x_radps,optical_flow_y_radps,optical_flow_quality,horizon_valid,horizon_roll_deg,horizon_pitch_deg
0.0,0.0,1.0,17.096536509746663,-0.04331266066330364,0.12548432820521357,0.0016677683591043149,0.0011681274632859406,0.0012765720485123657,17.097051878388257,0.00240324973008537,1.0,0.0,-1.885154541229685,1.8645638091475825,21.162662438547994,85.32748210022089,0.18147237523479218,7.846341299741817,1.0,20.771163472887363,0.0,1.0,85.63642665807238,4466.505573608554,1.0,1.0,-0.8198733225718878,19.523475325297145,-0.00615746722134172,-43.81279554351524,1.0,20.39618647858491,1.0,-0.0077448575321814855,4.273240466216326,0.95,1.0,0.17459483210835952,5.697481511065039
0.03,0.03,1.0,17.402541628429542,-0.024205067786461216,0.6476485575156422,0.001972178925766813,-0.15877170581150923,0.0016995476198838452,17.414605642063268,0.1587930493381997,1.0,0.0,-1.885154541229685,1.8645638091475825,21.162662438547994,85.32748210022089,0.18147237523479218,7.846341299741817,1.0,20.771163472887363,0.0,1.0,85.45774571051679,4494.743988359959,1.0,1.0,-0.8198733225718878,19.523475325297145,-0.00615746722134172,-43.81279554351524,1.0,20.39618647858491,1.0,-0.0077448575321814855,4.273240466216326,0.95,1.0,0.17459483210835952,5.697481511065039
0.06,0.06,1.0,17.70960615925321,-0.048625240197861,1.1892316928934064,-0.003446139225741984,-0.18598903788367127,-0.00034689119184351384,17.749557367698653,0.18602128486266264,1.0,0.0,-1.885154541229685,1.8645638091475825,21.162662438547994,85.32748210022089,0.18147237523479218,7.846341299741817,1.0,20.525904713889986,0.0,1.0,85.94729004085725,4526.807704769175,1.0,1.0,0.07665381874344163,19.04258188439329,-0.026858555853548426,-44.02062177838265,1.0,20.444254594517183,1.0,0.00018197912592243334,4.219152398659084,0.948851829119282,1.0,-0.15907090264631085,6.40991860600364
0.09,0.09,1.0,17.98319610195117,-0.01094183278357201,1.3806760264560844,0.0004011470069548937,-0.11525842741153404,0.0025448602353110453,18.03612286648566,0.11528721664572494,1.0,0.0,-1.885154541229685,1.8645638091475825,21.162662438547994,85.32748210022089,0.18147237523479218,7.846341299741817,1.0,20.525904713889986,0.0,1.0,87.23954851375605,4644.907965833186,1.0,1.0,0.07665381874344163,19.04258188439329,-0.026858555853548426,-44.02062177838265,1.0,20.444254594517183,1.0,0.00018197912592243334,4.219152398659084,0.948851829119282,1.0,-0.15907090264631085,6.40991860600364
0.12,0.12,1.0,18.248843265607807,-0.01413003862604277,1.4948394457459075,0.0017811967641120853,-0.05694842150956511,-0.0028376729027249836,18.30997064878229,0.05704689090429417,1.0,0.0,-1.885154541229685,1.8645638091475825,21.162662438547994,85.32748210022089,0.18147237523479218,7.846341299741817,1.0,20.834933476231274,0.0,1.0,87.27259262336824,4713.584151129148,1.0,1.0,-1.8951218293581098,18.82900429297318,-0.005790965511073151,-44.086461392046076,1.0,20.159250316592782,1.0,-0.013840283315854317,4.181200590677009,0.9477641042488267,1.0,0.28335723464815654,7.4899036098307725
0.15,0.15,1.0,18.547841167378948,-0.03605765477427094,1.6567469601320783,-0.00013304420042076212,-0.050401082781651195,-0.0016289172586783655,18.621721795115832,0.050427573982472544,1.0,0.0,-1.885154541229685,1.8645638091475825,21.162662438547994,85.32748210022089,0.18147237523479218,7.846341299741817,1.0,20.834933476231274,0.0,1.0,87.54862342106134,4740.725769457413,1.0,1.0,-1.8951218293581098,18.82900429297318,-0.005790965511073151,-44.086461392046076,1.0,20.159250316592782,1.0,-0.013840283315854317,4.181200590677009,0.9477641042488267,1.0,0.28335723464815654,7.4899036098307725
0.18,0.18,1.0,18.752930496026703,-0.04780444576139571,1.8789234068085303,0.00013974800767314763,-0.06047363942945767,-0.0008869940367906495,18.84688410911724,0.06048030550328767,1.0,0.0,-1.885154541229685,1.8645638091475825,21.162662438547994,85.32748210022089,0.18147237523479218,7.846341299741817,1.0,20.081602566655135,0.0,1.0,88.03975921028169,4844.121556900283,1.0,1.0,-0.5428950996559269,18.715371613448617,0.02966309435753329,-44.22738244356958,1.0,21.361129197181977,1.0,0.006974051956994979,4.138961588398088,0.9467312615604381,1.0,-0.5040599611879599,6.7113570587510365
0.21,0.21,1.0,19.04350574558411,0.06045326675660328,2.0807151689253427,-0.0011844703614280934,-0.050929334418354705,0.0010356537480328346,19.156934548454053,0.050953632382976635,1.0,0.0,18.158744248766908,-0.8507156713177079,22.52761259754094,88.79296802906379,-0.10696639449047544,6.689300481160241,1.0,20.081602566655135,0.0,1.0,88.82004186435208,4834.523571716223,1.0,1.0,-0.5428950996559269,18.715371613448617,0.02966309435753329,-44.22738244356958,1.0,21.361129197181977,1.0,0.006974051956994979,4.138961588398088,0.9467312615604381,1.0,-0.5040599611879599,6.7113570587510365
0.24,0.24,1.0,19.344148461797296,-0.05931437453800777,2.283633209389579,0.0004014737785476082,-0.03753110508164091,0.0011573760834501412,19.478567158343772,0.0375510925172967,1.0,0.0,18.158744248766908,-0.8507156713177079,22.52761259754094,88.79296802906379,-0.10696639449047544,6.689300481160241,1.0,22.184344090441684,0.0,1.0,89.46599419101749,4892.085401893142,1.0,1.0,-0.9874075351661772,18.62535722033746,-0.01105574941250553,-44.30265023066692,1.0,21.596801967813132,1.0,0.015553992101837083,4.126367262006041,0.9457487664700743,1.0,-0.5929147826834491,7.180901100325089
0.27,0.27,1.0,19.55637584938447,-0.02835453910261265,2.4279952302170402,0.0019072580176267414,-0.023384127587217314,-0.002090558849283284,19.706542090895415,0.023554733971398956,1.0,0.0,18.158744248766908,-0.8507156713177079,22.52761259754094,88.79296802906379,-0.10696639449047544,6.689300481160241,1.0,22.184344090441684,0.0,1.0,90.13742137929498,4962.769943396579,1.0,1.0,-0.9874075351661772,18.62535722033746,-0.01105574941250553,-44.30265023066692,1.0,21.596801967813132,1.0,0.015553992101837083,4.126367262006041,0.9457487664700743,1.0,-0.5929147826834491,7.180901100325089
0.3,0.3,1.0,19.93701532135208,-0.023144794989114953,2.5703749994838705,-0.0006483740193760299,-0.02186638324307493,0.0011196854561373627,20.10203828578919,0.021904629659565477,1.0,0.0,18.158744248766908,-0.8507156713177079,22.52761259754094,88.79296802906379,-0.10696639449047544,6.689300481160241,1.0,22.081513577166206,0.0,1.0,90.40768824795244,5034.611596413274,1.0,1.0,-0.032100222264470346,18.45858428317552,-0.006038005167106243,-44.301526117946736,1.0,21.912140638723383,1.0,0.0042634016461290366,4.091867918359499,0.9448121218544705,1.0,0.49262759900427344,7.896072387109943
0.32999999999999996,0.32999999999999996,1.0,20.176274082451098,-0.05396740755448139,2.7637104487797375,-0.0008335127957680589,-0.015038212067940322,0.0009767482210283772,20.364750029793154,0.015092932215720613,1.0,0.0,18.158744248766908,-0.8507156713177079,22.52761259754094,88.79296802906379,-0.10696639449047544,6.689300481160241,1.0,22.081513577166206,0.0,1.0,90.89815384836317,5074.102628526395,1.0,1.0,-0.032100222264470346,18.45858428317552,-0.006038005167106243,-44.301526117946736,1.0,21.912140638723383,1.0,0.0042634016461290366,4.091867918359499,0.9448121218544705,1.0,0.49262759900427344,7.896072387109943
0.36,0.36,1.0,20.56544796027021,0.04056869726443273,2.8520927217378427,-0.0017116473741721086,-0.010850382363248732,0.0002472742290717788,20.762315104996595,0.010987341748875041,1.0,0.0,18.158744248766908,-0.8507156713177079,22.52761259754094,88.79296802906379,-0.10696639449047544,6.689300481160241,1.0,22.995961747575883,0.0,1.0,91.40021247856167,5126.41054497697,1.0,1.0,0.24703569469091746,18.539281572808612,0.05777323077028381,-44.33887619131648,1.0,22.230992900553627,1.0,0.008474791280591054,4.087355004520289,0.9439176738190144,1.0,-0.12522865530984933,7.132225739000849
0.39,0.39,1.0,20.834294377079374,-0.03998306635079582,3.004201371368177,-0.004200210305302578,-0.0047325065451694955,0.0021403138457621635,21.04981346036412,0.006679770068438232,1.0,0.0,18.158744248766908,-0.8507156713177079,22.52761259754094,88.79296802906379,-0.10696639449047544,6.689300481160241,1.0,22.995961747575883,0.0,1.0,91.55222982456897,5182.277265512344,1.0,1.0,0.24703569469091746,18.539281572808612,0.05777323077028381,-44.33887619131648,1.0,22.230992900553627,1.0,0.008474791280591054,4.087355004520289,0.9439176738190144,1.0,-0.12522865530984933,7.132225739000849
0.42,0.42,1.0,20.876485974130386,-0.028261817516269515,3.1541150140145047,-4.435109278206495e-05,0.0007598469463322621,0.001005012113417697,21.11342953856677,0.0012607076383514668,1.0,0.0,38.989522143535254,0.8561697855581142,23.10373460407204,92.8167726029532,-0.01429878191719496,5.630525342765166,1.0,23.174124057843336,0.0,1.0,93.16369677765606,5285.082846841129,1.0,1.0,1.0151129233973093,18.469799916514404,0.018258774712861983,-44.26366502624646,1.0,22.709155944053244,1.0,0.016688064665782515,4.063073915167803,0.9430620383454804,1.0,0.4032278623625569,6.984329508508233
0.44999999999999996,0.44999999999999996,1.0,20.904364741529516,0.03480239865722864,3.281621839097324,0.003273383298076893,0.004947375058099982,0.0006495057299919682,21.160404493976365,0.0059676977030452,1.0,0.0,38.989522143535254,0.8561697855581142,23.10373460407204,92.8167726029532,-0.01429878191719496,5.630525342765166,1.0,23.174124057843336,0.0,1.0,93.15575856247727,5388.132571645406,1.0,1.0,1.0151129233973093,18.469799916514404,0.018258774712861983,-44.26366502624646,1.0,22.709155944053244,1.0,0.016688064665782515,4.063073915167803,0.9430620383454804,1.0,0.4032278623625569,6.984329508508233
0.48,0.48,1.0,20.85670455250939,0.012525986310875077,3.3765855759355494,-0.0009259558692904829,0.006063133432507111,0.002863435715449263,21.128265708349442,0.006768917593586835,1.0,0.0,38.989522143535254,0.8561697855581142,23.10373460407204,92.8167726029532,-0.01429878191719496,5.630525342765166,1.0,24.4985981851326,0.0,1.0,94.02778559936361,5363.114986315093,1.0,1.0,-0.341560527222041,18.45738342899985,-0.01746976429002118,-44.278214611695915,1.0,23.255248609081374,1.0,0.007915542794734144,4.081076287963608,0.9422424826711977,1.0,0.636746191090788,7.689505482414961
0.51,0.51,1.0,20.802310816379453,0.06853486531179354,3.5527239109740543,0.0007061520466158617,0.009542527852417089,-0.0019268357040249766,21.103617687890097,0.00976069589513991,1.0,0.0,38.989522143535254,0.8561697855581142,23.10373460407204,92.8167726029532,-0.01429878191719496,5.630525342765166,1.0,24.4985981851326,0.0,1.0,93.78492914630921,5484.978993146347,1.0,1.0,-0.341560527222041,18.45738342899985,-0.01746976429002118,-44.278214611695915,1.0,23.255248609081374,1.0,0.007915542794734144,4.081076287963608,0.9422424826711977,1.0,0.636746191090788,7.689505482414961
0.54,0.54,1.0,20.813191208322277,-0.011959623866143985,3.6385484039788447,0.00258475109658373,0.012568165516229385,-0.000786372376342729,21.128845349305855,0.012855275344733116,1.0,0.0,38.989522143535254,0.8561697855581142,23.10373460407204,92.8167726029532,-0.01429878191719496,5.630525342765166,1.0,23.59430707462564,0.0,1.0,95.02849005670856,5542.705941007467,1.0,1.0,0.6010780516446778,18.496690579322753,-0.00910350250981173,-44.22361476579262,1.0,23.611081619437027,1.0,-0.0028495226081697673,4.05052412168096,0.9414569723313019,1.0,0.0064165621930257054,7.186356697809714
0.57,0.57,1.0,20.787257528796083,0.012149172236429435,3.6992205083986542,0.0034063518963941427,0.015739724875820305,-0.0048126073959461535,21.113845115010026,0.016807836337735447,1.0,0.0,38.989522143535254,0.8561697855581142,23.10373460407204,92.8167726029532,-0.01429878191719496,5.630525342765166,1.0,23.59430707462564,0.0,1.0,96.35939970927106,5659.983686062492,1.0,1.0,0.6010780516446778,18.496690579322753,-0.00910350250981173,-44.22361476579262,1.0,23.611081619437027,1.0,-0.0028495226081697673,4.05052412168096,0.9414569723313019,1.0,0.0064165621930257054,7.186356697809714
0.6,0.6,1.0,20.77792294477446,0.03723658218695693,3.8502412718570436,-0.00218884881802764,0.019288194850195416,0.0005021721522843135,21.1316782654277,0.019418488525058168,1.0,0.0,38.989522143535254,0.8561697855581142,23.10373460407204,92.8167726029532,-0.01429878191719496,5.630525342765166,1.0,23.921105740947027,0.0,1.0,96.62318688709732,5726.648414777651,1.0,1.0,-2.0884129315731466,18.56558900422417,-0.05198653732366435,-44.30879837634901,1.0,23.29619339427358,1.0,0.0059601927122216744,4.055036640944753,0.9407037232824946,1.0,-0.031199227627410092,7.203843263022862
0.63,0.63,1.0,20.746250429761403,0.0482501784753116,3.955151829514588,0.000997562163779802,0.01424066645440265,0.0018119332194381364,21.119954094850932,0.014390094277934992,1.0,0.0,57.72193282437806,-1.4405247638228156,24.334821397837025,97.24981590808349,0.11105817103984193,4.833486396366521,1.0,23.921105740947027,0.0,1.0,97.3838990668903,5769.875375257146,1.0,1.0,-2.0884129315731466,18.56558900422417,-0.05198653732366435,-44.30879837634901,1.0,23.29619339427358,1.0,0.0059601927122216744,4.055036640944753,0.9407037232824946,1.0,-0.031199227627410092,7.203843263022862
0.6599999999999999,0.6599999999999999,1.0,20.64474899865981,0.01932912714719676,3.980237823639964,0.0011141667637941386,0.013838771515014366,0.002382543117453245,21.02494537366401,0.01408649978982857,1.0,0.0,57.72193282437806,-1.4405247638228156,24.334821397837025,97.24981590808349,0.11105817103984193,4.833486396366521,1.0,23.94854642600131,0.0,1.0,98.42431028894391,5696.765598511222,1.0,1.0,-1.670335623109286,18.658654728591394,0.0066186895430424015,-44.23691540746333,1.0,24.04822021253113,1.0,0.005384943889153253,4.049904126139728,0.939981127327838,1.0,-0.05654672738215016,7.654726565700638
0.69,0.69,1.0,20.678857187387525,0.03405703130360546,4.154578938741672,-0.00024342411824013636,0.0192569393018051,0.002091143341679508,21.09210327624976,0.019371676413005596,1.0,0.0,57.72193282437806,-1.4405247638228156,24.334821397837025,97.24981590808349,0.11105817103984193,4.833486396366521,1.0,23.94854642600131,0.0,1.0,97.6038323715452,5920.64672714988,1.0,1.0,-1.670335623109286,18.658654728591394,0.0066186895430424015,-44.23691540746333,1.0,24.04822021253113,1.0,0.005384943889153253,4.049904126139728,0.939981127327838,1.0,-0.05654672738215016,7.654726565700638
0.72,0.72,1.0,20.615539966630326,-0.007930072127170567,4.24790458292789,0.0025088031883426986,0.01954285707334094,-0.0021429161886015883,21.04863996431684,0.01981942092540146,1.0,0.0,57.72193282437806,-1.4405247638228156,24.334821397837025,97.24981590808349,0.11105817103984193,4.833486396366521,1.0,23.541724003445633,0.0,1.0,98.83121153824466,5965.724513667279,1.0,1.0,0.2874945668536168,18.604365734435373,-0.004236792949381907,-44.20525310965753,1.0,24.86260299198225,1.0,0.005990995406906327,4.067429875023684,0.9392877134552435,1.0,-0.44453082773386493,6.7876276655747745
0.75,0.75,1.0,20.566424095133005,0.011625204899593356,4.2501926197483355,0.0011903280909354376,0.023878657046746854,0.0013521571613500842,21.001001702566942,0.0239465127379586,1.0,0.0,57.72193282437806,-1.4405247638228156,24.334821397837025,97.24981590808349,0.11105817103984193,4.833486396366521,1.0,23.541724003445633,0.0,1.0,99.96547486847841,6038.633152562281,1.0,1.0,0.2874945668536168,18.604365734435373,-0.004236792949381907,-44.20525310965753,1.0,24.86260299198225,1.0,0.005990995406906327,4.067429875023684,0.9392877134552435,1.0,-0.44453082773386493,6.7876276655747745
0.78,0.78,1.0,20.57065387213836,-0.06683260163433906,4.364067844374303,0.0007836953734760417,0.019978917586685702,-0.0002538655740981199,21.028584247976944,0.019995893931097432,1.0,0.0,57.72193282437806,-1.4405247638228156,24.334821397837025,97.24981590808349,0.11105817103984193,4.833486396366521,1.0,23.500229073667427,0.0,1.0,100.17891862855679,6214.800693976143,1.0,1.0,0.02320020698432135,18.731588858069,0.020512500027092834,-44.23529510746551,1.0,24.35845384313046,1.0,0.02958593775135763,4.0682210427918575,0.9386221200229687,1.0,-0.3641198977541506,6.5453893970910375
0.8099999999999999,0.8099999999999999,1.0,20.606094533458187,-0.01909293271997271,4.521834173281403,0.001127163187817565,0.020619784956061846,0.0027680952868012225,21.09640919096306,0.020835267696936763,1.0,0.0,57.72193282437806,-1.4405247638228156,24.334821397837025,97.24981590808349,0.11105817103984193,4.833486396366521,1.0,23.500229073667427,0.0,1.0,99.9104640661207,6151.33415474505,1.0,1.0,0.02320020698432135,18.731588858069,0.020512500027092834,-44.23529510746551,1.0,24.35845384313046,1.0,0.02958593775135763,4.0682210427918575,0.9386221200229687,1.0,-0.3641198977541506,6.5453893970910375
0.84,0.84,1.0,20.493834805355988,0.05166430092585032,4.51001022955324,0.0012661216670166629,0.025312608331454343,-5.870225580505489e-05,20.984282844545476,0.025344321860569428,1.0,0.0,77.87571918200928,0.11040984545368764,24.911672938420804,101.23863394999461,0.017043018975863612,4.164897122400916,1.0,25.953087179378436,0.0,1.0,101.08030070237258,6291.262278711536,1.0,1.0,-0.2524767918030103,18.66857629045059,0.042477749502781575,-44.17013293565,1.0,24.635135836099998,1.0,-0.015716378217716927,4.074318635031673,0.9379830705953071,1.0,0.559642409700591,7.4311665585241125
0.87,0.87,1.0,20.457422942223403,-0.0032009294677551336,4.626081273235576,-0.0007627910474587565,0.02136929583423876,0.001423801640237294,20.973955078371336,0.021430255848776975,1.0,0.0,77.87571918200928,0.11040984545368764,24.911672938420804,101.23863394999461,0.017043018975863612,4.164897122400916,1.0,25.953087179378436,0.0,1.0,101.67382938834275,6284.980634668136,1.0,1.0,-0.2524767918030103,18.66857629045059,0.042477749502781575,-44.17013293565,1.0,24.635135836099998,1.0,-0.015716378217716927,4.074318635031673,0.9379830705953071,1.0,0.559642409700591,7.4311665585241125
0.8999999999999999,0.8999999999999999,1.0,20.48830931816448,-0.010573689704318741,4.657393052015265,0.00044742135249231185,0.021880235640905125,0.00382627890876341,21.011002845191836,0.02221677987143611,1.0,0.0,77.87571918200928,0.11040984545368764,24.911672938420804,101.23863394999461,0.017043018975863612,4.164897122400916,1.0,25.03834566244198,0.0,1.0,101.97211783646347,6554.137043508618,1.0,1.0,-2.017714388591032,18.889228716051413,-0.03530780576572019,-44.09798406893188,1.0,25.192521332115444,1.0,0.0004759712891396072,4.076985281363253,0.9373693554466447,1.0,0.18807463782397235,6.697559416013802
0.9299999999999999,0.9299999999999999,1.0,20.43072097270603,-0.03394187802056017,4.722002092863927,-0.0007921764512016805,0.023161418045861283,-0.001474918900734763,20.969330348884892,0.023221847798759077,1.0,0.0,77.87571918200928,0.11040984545368764,24.911672938420804,101.23863394999461,0.017043018975863612,4.164897122400916,1.0,25.03834566244198,0.0,1.0,102.97835370889759,6456.243789894036,1.0,1.0,-2.017714388591032,18.889228716051413,-0.03530780576572019,-44.09798406893188,1.0,25.192521332115444,1.0,0.0004759712891396072,4.076985281363253,0.9373693554466447,1.0,0.18807463782397235,6.697559416013802
0.96,0.96,1.0,20.40353622674659,0.0403044881716855,4.870150033201691,0.005810731508932576,0.021641903159106326,-0.0017345670483146591,20.97675562030081,0.022475437612249898,1.0,0.0,77.87571918200928,0.11040984545368764,24.911672938420804,101.23863394999461,0.017043018975863612,4.164897122400916,1.0,25.005647519644675,0.0,1.0,103.18226129757208,6582.675604308402,1.0,1.0,0.32106353464181236,18.916790699230027,0.01749869089294133,-44.14876059104317,1.0,25.43722131313157,1.0,0.008488511521670595,4.074598302817725,0.9367798164145167,1.0,-0.2852912671137542,6.623765957041505
0.99,0.99,1.0,20.47667058519999,0.02423630645272609,4.938264373416909,-0.0014060586879246736,0.022332439944750003,0.003593470265315887,21.063738525606123,0.022663360374566333,1.0,0.0,77.87571918200928,0.11040984545368764,24.911672938420804,101.23863394999461,0.017043018975863612,4.164897122400916,1.0,25.005647519644675,0.0,1.0,103.58219896699359,6599.146386742316,1.0,1.0,0.32106353464181236,18.916790699230027,0.01749869089294133,-44.14876059104317,1.0,25.43722131313157,1.0,0.008488511521670595,4.074598302817725,0.9367798164145167,1.0,-0.2852912671137542,6.623765957041505
1.02,1.02,1.0,20.35957162193087,-0.003617189695431459,5.030703189703286,-0.0012687287302588265,0.022836472806890055,0.0009741654625859581,20.971889383064294,0.022892425847849947,1.0,0.0,77.87571918200928,0.11040984545368764,24.911672938420804,101.23863394999461,0.017043018975863612,4.164897122400916,1.0,25.34407658707755,0.0,1.0,105.02844383824294,6838.993302434099,1.0,1.0,0.20716255069020592,18.92134913199059,-0.02774534788802444,-44.09384456445305,1.0,25.573556337912432,1.0,0.004000979885722656,4.1229659486544525,0.9362133349946737,1.0,-0.2350183702845472,6.420361033606768
1.05,1.05,1.0,20.392186752348643,0.023065120251563386,5.073933334378868,-0.0009619480502852831,0.023310904378004055,-0.000216186253064102,21.01396231138137,0.02333174540123199,1.0,0.0,100.9654115834332,-0.5143213134600304,25.086457069120833,105.48709935428765,-0.10413279965858194,3.6523997204957652,1.0,25.34407658707755,0.0,1.0,105.08573276009126,6695.466620396931,1.0,1.0,0.20716255069020592,18.92134913199059,-0.02774534788802444,-44.09384456445305,1.0,25.573556337912432,1.0,0.004000979885722656,4.1229659486544525,0.9362133349946737,1.0,-0.2350183702845472,6.420361033606768
1.08,1.08,1.0,20.304223051008133,-0.022853924830118926,5.217759567491258,6.010971362783861e-05,0.021770372868536423,0.0015833385952579505,20.963945499621886,0.021827957053284042,1.0,0.0,100.9654115834332,-0.5143213134600304,25.086457069120833,105.48709935428765,-0.10413279965858194,3.6523997204957652,1.0,26.150284779952372,0.0,1.0,105.84580218800207,6860.472035080898,1.0,1.0,0.7264451323418568,19.008194132219405,-0.02658840919779483,-44.02508306167633,1.0,25.677112442084933,1.0,-0.0045325187658295995,4.116365072657112,0.9356688228458646,1.0,-0.808246265656688,6.763009562404804
1.1099999999999999,1.1099999999999999,1.0,20.338835689431733,-0.051319635676952136,5.267965137329466,-0.0009535318708432641,0.022090939528892774,0.002824344071052272,21.010053012661025,0.022291158599983072,1.0,0.0,100.9654115834332,-0.5143213134600304,25.086457069120833,105.48709935428765,-0.10413279965858194,3.6523997204957652,1.0,26.150284779952372,0.0,1.0,107.13498923714879,6987.411922713556,1.0,1.0,0.7264451323418568,19.008194132219405,-0.02658840919779483,-44.02508306167633,1.0,25.677112442084933,1.0,-0.0045325187658295995,4.116365072657112,0.9356688228458646,1.0,-0.808246265656688,6.763009562404804
1.14,1.14,1.0,20.287750026103577,0.00532466447862414,5.289202877837081,0.00121304139877298,0.017785809279622852,0.0019481353936812015,20.96588888067085,0.017933257168689935,1.0,0.0,100.9654115834332,-0.5143213134600304,25.086457069120833,105.48709935428765,-0.10413279965858194,3.6523997204957652,1.0,26.660915154784988,0.0,1.0,106.97611458146326,6958.941637990492,1.0,1.0,-0.7598756353801139,19.077514550744198,0.06539829339394247,-44.0947720002319,1.0,25.996298154794058,1.0,0.0038094536017736326,4.126068508611013,0.9351452143306639,1.0,-0.20272584193111715,6.912526440593116
1.17,1.17,1.0,20.198070976522384,-0.02730403298349267,5.316981030084279,-0.0008634720567739232,0.02315503981648266,-0.001090500165282645,20.886194099383665,0.023196780886713748,1.0,0.0,100.9654115834332,-0.5143213134600304,25.086457069120833,105.48709935428765,-0.10413279965858194,3.6523997204957652,1.0,26.660915154784988,0.0,1.0,107.85136328316558,7018.0010620886505,1.0,1.0,-0.7598756353801139,19.077514550744198,0.06539829339394247,-44.0947720002319,1.0,25.996298154794058,1.0,0.0038094536017736326,4.126068508611013,0.9351452143306639,1.0,-0.20272584193111715,6.912526440593116
1.2,1.2,1.0,20.171038156740888,0.05991784686592215,5.5144417645987955,-0.00012476373930662816,0.020190341745990534,-0.0010175630330780644,20.9113232112227,0.02021635230047253,1.0,0.0,100.9654115834332,-0.5143213134600304,25.086457069120833,105.48709935428765,-0.10413279965858194,3.6523997204957652,1.0,26.831368626500158,0.0,1.0,107.76864951771763,7203.201372277124,1.0,1.0,2.06342647402825,19.11300772991673,0.08539920361413032,-44.030456700784406,1.0,26.388296444813673,1.0,-5.519108586433316e-05,4.132194141418413,0.9346414606704851,1.0,-0.11770425331794655,6.1478049311917085
1.23,1.23,1.0,20.21923780272396,-0.0034837575534648673,5.512375898901193,0.0002589862009826061,0.02118568106930405,0.0025757760128478453,20.95719154635122,0.021343260723022846,1.0,0.0,100.9654115834332,-0.5143213134600304,25.086457069120833,105.48709935428765,-0.10413279965858194,3.6523997204957652,1.0,26.831368626500158,0.0,1.0,109.28550359492615,7294.507888673703,1.0,1.0,2.06342647402825,19.11300772991673,0.08539920361413032,-44.030456700784406,1.0,26.388296444813673,1.0,-5.519108586433316e-05,4.132194141418413,0.9346414606704851,1.0,-0.11770425331794655,6.1478049311917085
1.26,1.26,1.0,20.209532645737802,0.00794684442405135,5.576514822910114,-0.0014282419835606125,0.02062675346680782,-0.00016546531227039135,20.96479884190675,0.0206768037305972,1.0,0.0,120.3515281386311,-0.9886792019865726,28.2538769309749,109.52751337095111,-0.10364898284714909,3.166609911499362,1.0,25.611559326627116,0.0,1.0,110.13112661961041,7440.170885156488,1.0,1.0,0.9629097954391108,19.211444935639726,0.023134658006696746,-43.952623343816924,1.0,26.711128941466086,1.0,0.0006925181714708218,4.1441595424057525,0.934156525417955,1.0,-0.16193324251844712,6.347273883906245
1.29,1.29,1.0,20.198750229784114,-0.049476832008403165,5.659528446997188,-0.003389608958674506,0.018548943802110956,-0.0003681181865630906,20.976706630080894,0.018859699787267967,1.0,0.0,120.3515281386311,-0.9886792019865726,28.2538769309749,109.52751337095111,-0.10364898284714909,3.166609911499362,1.0,25.611559326627116,0.0,1.0,110.02862530250569,7336.998736097984,1.0,1.0,0.9629097954391108,19.211444935639726,0.023134658006696746,-43.952623343816924,1.0,26.711128941466086,1.0,0.0006925181714708218,4.1441595424057525,0.934156525417955,1.0,-0.16193324251844712,6.347273883906245
1.3199999999999998,1.3199999999999998,1.0,20.079263787742878,0.03567348886726788,5.728124498405848,-0.0005986024000608491,0.02155981554939326,0.00022732488971947352,20.88036199697715,0.02156932191708177,1.0,0.0,120.3515281386311,-0.9886792019865726,28.2538769309749,109.52751337095111,-0.10364898284714909,3.166609911499362,1.0,26.370956466519903,0.0,1.0,111.22183185143489,7375.037334704848,1.0,1.0,1.6927284296326035,19.178124659159238,-0.030682723420617862,-43.918846133822726,1.0,26.521394461407983,1.0,0.013162503591316774,4.151132356969424,0.933689380988892,1.0,-0.7218941598180079,6.527767516175208
1.3499999999999999,1.3499999999999999,1.0,20.12235767125271,-0.08324399002846977,5.814044219600553,-0.002692286164653651,0.020643783855362523,0.00011597472438910492,20.94562765827678,0.020818925687844915,1.0,0.0,120.3515281386311,-0.9886792019865726,28.2538769309749,109.52751337095111,-0.10364898284714909,3.166609911499362,1.0,26.370956466519903,0.0,1.0,110.50594945072962,7546.114009280084,1.0,1.0,1.6927284296326035,19.178124659159238,-0.030682723420617862,-43.918846133822726,1.0,26.521394461407983,1.0,0.013162503591316774,4.151132356969424,0.933689380988892,1.0,-0.7218941598180079,6.527767516175208
1.38,1.38,1.0,20.051316746072665,0.016192227366680224,5.864731112388281,0.000628780306154169,0.018776160739537348,0.0021791237596503594,20.89140101716915,0.018912645429717753,1.0,0.0,120.3515281386311,-0.9886792019865726,28.2538769309749,109.52751337095111,-0.10364898284714909,3.166609911499362,1.0,26.546383339703375,0.0,1.0,111.81072853180324,7755.116214643802,1.0,1.0,0.008506569961628012,19.24006072186849,-0.03420361459673876,-43.96320455490447,1.0,26.8823942933625,1.0,-0.0009266132384222408,4.181168206509099,0.9332390060505913,1.0,-0.06537621353699231,6.923945126591502
1.41,1.41,1.0,20.117481963649798,-0.07625831548021851,5.870193012292594,-0.003819351200820914,0.01484872868063511,-0.0006470055900708794,20.956575624133432,0.015345709604313213,1.0,0.0,120.3515281386311,-0.9886792019865726,28.2538769309749,109.52751337095111,-0.10364898284714909,3.166609911499362,1.0,26.546383339703375,0.0,1.0,112.4410152785032,7651.991995730113,1.0,1.0,0.008506569961628012,19.24006072186849,-0.03420361459673876,-43.96320455490447,1.0,26.8823942933625,1.0,-0.0009266132384222408,4.181168206509099,0.9332390060505913,1.0,-0.06537621353699231,6.923945126591502
1.44,1.44,1.0,20.12363758181536,0.027761547359216102,5.952327841722872,-0.00031388330610222076,0.017410687628114794,0.001718790116999069,20.98551326422855,0.017498137211712936,1.0,0.0,120.3515281386311,-0.9886792019865726,28.2538769309749,109.52751337095111,-0.10364898284714909,3.166609911499362,1.0,27.192037752966755,0.0,1.0,113.3693189965865,7686.552456832045,1.0,1.0,1.430724974756069,19.302419554588063,0.04184226310548753,-43.92414142621037,1.0,26.686632126468073,1.0,0.00636477619432341,4.201119850631423,0.9328043835995504,1.0,-0.3017590074810985,5.899991276161467
1.47,1.47,1.0,19.985532726184946,-0.014612581059159788,6.077202527141378,0.0003055854345507461,0.017796761680961337,-0.0003411062948706504,20.889090991061057,0.017802653237400982,1.0,0.0,145.79476228061023,-1.2389951447554337,26.755294849332902,113.82181064844792,-0.12167131273932834,3.185759985349993,1.0,27.192037752966755,0.0,1.0,113.38471907056818,7937.280905185085,1.0,1.0,1.430724974756069,19.302419554588063,0.04184226310548753,-43.92414142621037,1.0,26.686632126468073,1.0,0.00636477619432341,4.201119850631423,0.9328043835995504,1.0,-0.3017590074810985,5.899991276161467
1.5,1.5,1.0,20.018399842857274,-0.05849183849588691,6.099443562194665,0.0005658666969142462,0.017725353870016315,0.001447673505714987,20.927086881170936,0.017793373303427548,1.0,0.0,145.79476228061023,-1.2389951447554337,26.755294849332902,113.82181064844792,-0.12167131273932834,3.185759985349993,1.0,26.94821553786355,0.0,1.0,114.40780216814174,8056.572060562938,1.0,1.0,-1.2019821554122339,19.394305037770515,0.031243065780116114,-43.87299926588396,1.0,27.03878878784023,1.0,0.0008202138454862203,4.201190763353069,0.9323844995936859,1.0,0.3489614714784054,6.303117731490134
1.53,1.53,1.0,19.984683423445148,-0.004045045969823648,6.2393967527314125,0.003779395934551159,0.014560060907801172,0.000847128737547872,20.93603734558466,0.015066414117730907,1.0,0.0,145.79476228061023,-1.2389951447554337,26.755294849332902,113.82181064844792,-0.12167131273932834,3.185759985349993,1.0,26.94821553786355,0.0,1.0,114.845937425606,7948.782248424234,1.0,1.0,-1.2019821554122339,19.394305037770515,0.031243065780116114,-43.87299926588396,1.0,27.03878878784023,1.0,0.0008202138454862203,4.201190763353069,0.9323844995936859,1.0,0.3489614714784054,6.303117731490134
1.56,1.56,1.0,19.98044166976337,0.06228828308165944,6.237128674138999,0.0019368357837205887,0.01731574327409952,-0.0016953108876864049,20.93140471269887,0.017506009739330416,1.0,0.0,145.79476228061023,-1.2389951447554337,26.755294849332902,113.82181064844792,-0.12167131273932834,3.185759985349993,1.0,27.177306044173868,0.0,1.0,115.14946018547842,8030.403614429032,1.0,1.0,0.7895691799827573,19.36452688023496,-0.08293977770278484,-43.87302946952137,1.0,27.299316122128275,1.0,0.002017349946885081,4.219881812431166,0.9319783420294585,1.0,-0.12955041479895812,5.303713834288893
1.5899999999999999,1.5899999999999999,1.0,19.885666540127946,-0.027721553808669343,6.3358697990254615,0.0007793280462142175,0.013166819539204285,0.0014853473402726709,20.870643218164425,0.01327323418398255,1.0,0.0,145.79476228061023,-1.2389951447554337,26.755294849332902,113.82181064844792,-0.12167131273932834,3.185759985349993,1.0,27.177306044173868,0.0,1.0,115.82752040544365,8163.5316884171525,1.0,1.0,0.7895691799827573,19.36452688023496,-0.08293977770278484,-43.87302946952137,1.0,27.299316122128275,1.0,0.002017349946885081,4.219881812431166,0.9319783420294585,1.0,-0.12955041479895812,5.303713834288893
1.6199999999999999,1.6199999999999999,1.0,19.95649180647193,-0.04133767912465263,6.416140723704887,-0.00022357653111030915,0.013133602821723236,-0.0008930185862735824,20.962588957757127,0.01316582666373327,1.0,0.0,145.79476228061023,-1.2389951447554337,26.755294849332902,113.82181064844792,-0.12167131273932834,3.185759985349993,1.0,27.890301676296488,0.0,1.0,116.88869665586003,8337.593329740572,1.0,1.0,0.2672245144087914,19.41928331947603,0.0836155907880831,-43.94336561542371,1.0,27.176546700453773,1.0,0.0016252355438096673,4.235765145953542,0.931584900374952,1.0,0.2590999534225386,5.574014239813842
1.65,1.65,1.0,19.814078766091672,-0.03149770820662431,6.4247995132346665,-0.00031166391982524196,0.018773802267965486,-0.0008708280710869574,20.829708549083627,0.01879657222806807,1.0,0.0,145.79476228061023,-1.2389951447554337,26.755294849332902,113.82181064844792,-0.12167131273932834,3.185759985349993,1.0,27.890301676296488,0.0,1.0,117.44029632270188,8277.399805458439,1.0,1.0,0.2672245144087914,19.41928331947603,0.0836155907880831,-43.94336561542371,1.0,27.176546700453773,1.0,0.0016252355438096673,4.235765145953542,0.931584900374952,1.0,0.2590999534225386,5.574014239813842
1.68,1.68,1.0,19.915410651735098,0.0016834332470432795,6.626662848752815,0.0007375120723331163,0.01432152696825536,0.002200374561925831,20.98895530445077,0.014508332329116016,1.0,0.0,169.38543926940787,0.10467949366459839,25.699616016244022,117.39564429424695,-0.11996303888903753,2.5288401580743094,1.0,28.114651614383188,0.0,1.0,118.03977755321833,8431.205198038679,1.0,1.0,0.21119975031304736,19.463926889693866,-0.05832704608835584,-43.85483327800927,1.0,27.69719436779299,1.0,-0.00543425822334291,4.248269488626392,0.9312031652867523,1.0,0.10699802367398142,5.868052960137281
1.71,1.71,1.0,19.721358651123513,-0.022542819924003258,6.607540212662116,0.0007828565490089715,0.011888079980578897,0.0008870477358788632,20.79884811442502,0.011946805585037985,1.0,0.0,169.38543926940787,0.10467949366459839,25.699616016244022,117.39564429424695,-0.11996303888903753,2.5288401580743094,1.0,28.114651614383188,0.0,1.0,118.17675584621489,8651.010180837873,1.0,1.0,0.21119975031304736,19.463926889693866,-0.05832704608835584,-43.85483327800927,1.0,27.69719436779299,1.0,-0.00543425822334291,4.248269488626392,0.9312031652867523,1.0,0.10699802367398142,5.868052960137281
1.74,1.74,1.0,19.75095798748606,0.06386807782458512,6.614751490730312,0.0012293759769343958,0.01663477278349803,-0.0013421034472542188,20.829290862603155,0.016734045312308734,1.0,0.0,169.38543926940787,0.10467949366459839,25.699616016244022,117.39564429424695,-0.11996303888903753,2.5288401580743094,1.0,27.636822631484915,0.0,1.0,118.7108765211256,8519.206654180834,1.0,1.0,0.35735351418991396,19.475521632516568,0.013098680850136067,-43.82945996647555,1.0,27.99752325328592,1.0,0.0041346211143124464,4.2812649422745555,0.9308321285520714,1.0,-0.07440528772314185,5.990025289351664
1.77,1.77,1.0,19.760329089208437,0.008778923153284957,6.803127144486001,-0.002399117131381455,0.011642212847668382,-0.002344988067335383,20.898641623975255,0.01211593380786013,1.0,0.0,169.38543926940787,0.10467949366459839,25.699616016244022,117.39564429424695,-0.11996303888903753,2.5288401580743094,1.0,27.636822631484915,0.0,1.0,119.59496824431358,8763.75278439602,1.0,1.0,0.35735351418991396,19.475521632516568,0.013098680850136067,-43.82945996647555,1.0,27.99752325328592,1.0,0.0041346211143124464,4.2812649422745555,0.9308321285520714,1.0,-0.07440528772314185,5.990025289351664
1.7999999999999998,1.7999999999999998,1.0,19.75740326666304,-0.021217514946967615,6.831310370360946,-0.0006837096447960569,0.010528781475310865,0.001158210139002124,20.905076785333485,0.010614336953353407,1.0,0.0,169.38543926940787,0.10467949366459839,25.699616016244022,117.39564429424695,-0.11996303888903753,2.5288401580743094,1.0,28.142655361322504,0.0,1.0,119.7096476403068,8594.006424379182,1.0,1.0,-2.254423487237513,19.494109202729618,0.015143301359906294,-43.81112693270865,1.0,27.82787206951393,1.0,-0.02474790865352522,4.298524054752141,0.9304707832086182,1.0,-0.23641239826435617,5.86810676172455
1.8299999999999998,1.8299999999999998,1.0,19.70544391109878,0.033205225890756,6.912113135536357,7.149624547488423e-05,0.014712553680150382,0.0006277958355700721,20.88259874438382,0.014726115411593877,1.0,0.0,169.38543926940787,0.10467949366459839,25.699616016244022,117.39564429424695,-0.11996303888903753,2.5288401580743094,1.0,28.142655361322504,0.0,1.0,120.0699444620066,8916.274222309248,1.0,1.0,-2.254423487237513,19.494109202729618,0.015143301359906294,-43.81112693270865,1.0,27.82787206951393,1.0,-0.02474790865352522,4.298524054752141,0.9304707832086182,1.0,-0.23641239826435617,5.86810676172455
1.8599999999999999,1.8599999999999999,1.0,19.71225285091684,-0.014808011295835657,6.938831613624378,-0.0020288310169881587,0.009721556110833437,0.0005026141464205757,20.897859122357744,0.009943713063627603,1.0,0.0,169.38543926940787,0.10467949366459839,25.699616016244022,117.39564429424695,-0.11996303888903753,2.5288401580743094,1.0,28.217123830378565,0.0,1.0,120.87550629459214,8966.151728154626,1.0,1.0,-0.38454546694159275,19.568826519552967,0.019967761008969995,-43.804003041985496,1.0,27.836140087836714,1.0,0.003225422314104629,4.31207584440037,0.9301181238036862,1.0,0.06865813693711625,6.340216317668873
1.89,1.89,1.0,19.660116089771755,-0.007213876384782036,7.0348862303163475,-0.001675229689958972,0.012334457132275769,4.729491857227685e-05,20.880848665147912,0.012447789525509794,1.0,0.0,195.91090522763022,0.5803632647016573,28.317386996076,121.71674284827928,-0.020949794872449978,2.0938460086857154,1.0,28.217123830378565,0.0,1.0,121.70508748527185,8942.172592551211,1.0,1.0,-0.38454546694159275,19.568826519552967,0.019967761008969995,-43.804003041985496,1.0,27.836140087836714,1.0,0.003225422314104629,4.31207584440037,0.9301181238036862,1.0,0.06865813693711625,6.340216317668873
1.92,1.92,1.0,19.6943440560267,0.0009528939202755693,7.074992918797722,-2.475920507279969e-05,0.007899589888325361,0.0008898182702178508,20.926603009236807,0.00794958552227609,1.0,0.0,195.91090522763022,0.5803632647016573,28.317386996076,121.71674284827928,-0.020949794872449978,2.0938460086857154,1.0,27.22316978699448,0.0,1.0,122.27677456486451,9097.69352572876,1.0,1.0,0.027167083226558676,19.581445285147826,0.06485926045376163,-43.892275461918956,1.0,27.86572542053889,1.0,-0.01561150849108961,4.346037273047739,0.9297731467612149,1.0,0.04638167746826721,6.673095144857367
1.95,1.95,1.0,19.6585535010898,-0.029418256994016394,7.156018370852068,0.0002499554068132249,0.013778356549775805,0.0006055810501484147,20.92052078971809,0.013793923130365916,1.0,0.0,195.91090522763022,0.5803632647016573,28.317386996076,121.71674284827928,-0.020949794872449978,2.0938460086857154,1.0,27.22316978699448,0.0,1.0,122.43542750427287,9266.593974232912,1.0,1.0,0.027167083226558676,19.581445285147826,0.06485926045376163,-43.892275461918956,1.0,27.86572542053889,1.0,-0.01561150849108961,4.346037273047739,0.9297731467612149,1.0,0.04638167746826721,6.673095144857367
1.98,1.98,1.0,19.64127008122499,0.02372509537056146,7.197570747621595,-0.0022144301550635105,0.014816317926918834,0.00044669641978878404,20.918534316504882,0.014987545346541679,1.0,0.0,195.91090522763022,0.5803632647016573,28.317386996076,121.71674284827928,-0.020949794872449978,2.0938460086857154,1.0,28.962105859757493,0.0,1.0,123.40225194729729,9366.452277273656,1.0,1.0,0.22990760679561076,19.59475167144337,-0.030262560087283178,-43.77980455748731,1.0,28.148501280124915,1.0,-0.0008272722942451474,4.362611313029444,0.929434850831488,1.0,0.5447030672880988,5.16023601326427
2.01,2.01,1.0,19.557823673094042,0.008599499041272819,7.310625748064187,0.0002276717814214487,0.011608369916941808,0.00047190024471040166,20.879506450284705,0.011620188312139046,1.0,0.0,195.91090522763022,0.5803632647016573,28.317386996076,121.71674284827928,-0.020949794872449978,2.0938460086857154,1.0,28.962105859757493,0.0,1.0,124.00228465997576,9390.209924108078,1.0,1.0,0.22990760679561076,19.59475167144337,-0.030262560087283178,-43.77980455748731,1.0,28.148501280124915,1.0,-0.0008272722942451474,4.362611313029444,0.929434850831488,1.0,0.5447030672880988,5.16023601326427
2.04,2.04,1.0,19.527390830133957,0.00901287799253271,7.342591929477786,0.0012959509496534008,0.008413895240958931,-0.0010481736513931015,20.862232145856343,0.008577399955301934,1.0,0.0,195.91090522763022,0.5803632647016573,28.317386996076,121.71674284827928,-0.020949794872449978,2.0938460086857154,1.0,27.28000267273832,0.0,1.0,124.3235380441455,9545.445792348182,1.0,1.0,0.5174757826812354,19.660468452810232,0.022011415832582027,-43.76930689342657,1.0,28.134642354313545,1.0,-0.00815869616760906,4.375921522155957,0.9291022376029342,1.0,0.21326898200569677,5.956584391561112
2.07,2.07,1.0,19.465522958737473,0.022062440982930705,7.405001728170423,-5.2136427482700744e-05,0.008258480648970648,-0.0012669380291954451,20.82645244401083,0.008355258990977775,1.0,0.0,195.91090522763022,0.5803632647016573,28.317386996076,121.71674284827928,-0.020949794872449978,2.0938460086857154,1.0,27.28000267273832,0.0,1.0,125.43971787023413,9621.81866892819,1.0,1.0,0.5174757826812354,19.660468452810232,0.022011415832582027,-43.76930689342657,1.0,28.134642354313545,1.0,-0.00815869616760906,4.375921522155957,0.9291022376029342,1.0,0.21326898200569677,5.956584391561112
2.1,2.1,1.0,19.50140076925606,0.004081106689045281,7.450918803552853,-0.002733906544495553,0.008825511461891363,0.002438693497912051,20.876322464354445,0.009555685403714898,1.0,0.0,220.70463131396068,-0.9126351324079304,27.6952198759353,125.39080335502243,-0.16126875235301044,2.0863509280496153,1.0,28.87975082747409,0.0,1.0,125.80484248807598,9780.223534664243,1.0,1.0,-0.132208708406364,19.615084791960985,-0.021724524062429765,-43.813197513221155,1.0,28.317396380407384,1.0,0.009225769955652965,4.382326796903675,0.9287743120593897,1.0,0.002188521992375938,6.365729886113521
2.13,2.13,1.0,19.439566854032943,-0.03772153904689924,7.5418959075975165,-0.003215320442064753,0.007862354185736274,0.0021725951250623253,20.851339915409763,0.008767842862675446,1.0,0.0,220.70463131396068,-0.9126351324079304,27.6952198759353,125.39080335502243,-0.16126875235301044,2.0863509280496153,1.0,28.87975082747409,0.0,1.0,125.59331470226145,9740.679397413243,1.0,1.0,-0.132208708406364,19.615084791960985,-0.021724524062429765,-43.813197513221155,1.0,28.317396380407384,1.0,0.009225769955652965,4.382326796903675,0.9287743120593897,1.0,0.002188521992375938,6.365729886113521
2.16,2.16,1.0,19.415706059637408,0.0008643724797329816,7.557216159177114,-0.002053445989291011,0.010981195482791594,0.00012167427065311867,20.834614434107202,0.01117220207883642,1.0,0.0,220.70463131396068,-0.9126351324079304,27.6952198759353,125.39080335502243,-0.16126875235301044,2.0863509280496153,1.0,28.909470258888884,0.0,1.0,126.13873632768285,9761.400164630983,1.0,1.0,-1.1808146066566236,19.722510473047805,0.017835522692160915,-43.74085489749761,1.0,28.462743457499233,1.0,0.005341512196297713,4.405124826843496,0.9284500831693441,1.0,0.4447806537253375,5.678214012642384
2.19,2.19,1.0,19.38902551592457,-0.0680490998716121,7.66646853082805,0.002127563673337678,0.010183425636918474,-0.0016183734827011527,20.84978850903155,0.01052842901938674,1.0,0.0,220.70463131396068,-0.9126351324079304,27.6952198759353,125.39080335502243,-0.16126875235301044,2.0863509280496153,1.0,28.909470258888884,0.0,1.0,126.53972852800719,9629.532564201374,1.0,1.0,-1.1808146066566236,19.722510473047805,0.017835522692160915,-43.74085489749761,1.0,28.462743457499233,1.0,0.005341512196297713,4.405124826843496,0.9284500831693441,1.0,0.4447806537253375,5.678214012642384
2.2199999999999998,2.2199999999999998,1.0,19.355235556228894,-0.03674808958546651,7.697510024077509,0.0005881574895730492,0.007850310249433336,-0.0001691356679671133,20.829742063452663,0.007874128975263083,1.0,0.0,220.70463131396068,-0.9126351324079304,27.6952198759353,125.39080335502243,-0.16126875235301044,2.0863509280496153,1.0,28.79910111238736,0.0,1.0,127.82257039741738,10028.501745010246,1.0,1.0,1.1001754087521782,19.70666004127887,-0.012095677645621642,-43.75510099501191,1.0,28.94068984911013,1.0,0.006808794125097082,4.4222759750628,0.9281285644962614,1.0,0.5526411510499093,5.8792664103731
2.25,2.25,1.0,19.333662967120638,-0.04122723800333921,7.802374058230546,0.0015116432580279864,0.006864923448383914,0.001822756685767126,20.848723326763064,0.007261864858782593,1.0,0.0,220.70463131396068,-0.9126351324079304,27.6952198759353,125.39080335502243,-0.16126875235301044,2.0863509280496153,1.0,28.79910111238736,0.0,1.0,128.75005785531224,10165.206526861417,1.0,1.0,1.1001754087521782,19.70666004127887,-0.012095677645621642,-43.75510099501191,1.0,28.94068984911013,1.0,0.006808794125097082,4.4222759750628,0.9281285644962614,1.0,0.5526411510499093,5.8792664103731
2.28,2.28,1.0,19.412031292580924,0.01221413090344737,7.857560882383447,0.0010587851842506692,0.008332810553845759,0.002181179473663335,20.942024045194323,0.008678381282762484,1.0,0.0,220.70463131396068,-0.9126351324079304,27.6952198759353,125.39080335502243,-0.16126875235301044,2.0863509280496153,1.0,29.507216701910423,0.0,1.0,129.5296636877831,10141.541324904354,1.0,1.0,0.7489650167228306,19.741471974600543,-0.014113850951209258,-43.68178162373637,1.0,28.440615258917184,1.0,-0.0046198615492057185,4.4426892977596335,0.9278087748211488,1.0,-0.5889626797749533,5.762723720905876
2.31,2.31,1.0,19.407830749728664,0.0027120919167082113,7.908402512969459,4.77148430652025e-05,0.006983925556154179,-0.0006233268279356578,20.957259650839315,0.007011849200786946,1.0,0.0,248.82701700091377,0.39841727765723006,29.31434318178261,129.30502668956234,0.275570978637166,1.993172133488587,1.0,29.507216701910423,0.0,1.0,129.78604508906756,10218.593489062294,1.0,1.0,0.7489650167228306,19.741471974600543,-0.014113850951209258,-43.68178162373637,1.0,28.440615258917184,1.0,-0.0046198615492057185,4.4426892977596335,0.9278087748211488,1.0,-0.5889626797749533,5.762723720905876
2.34,2.34,1.0,19.30515189572146,0.008517984442994285,7.880579866390828,0.00017656879866341583,0.009063814379795743,-0.0003304306777197846,20.851678620761,0.009071554006058273,1.0,0.0,248.82701700091377,0.39841727765723006,29.31434318178261,129.30502668956234,0.275570978637166,1.993172133488587,1.0,29.082434616429403,0.0,1.0,129.93437975801345,10137.532011565874,1.0,1.0,0.8814232332534068,19.761879815169443,-0.05036015320854237,-43.69012188297288,1.0,29.155787410287168,1.0,0.001965513710947383,4.460339049036813,0.9274897387702459,1.0,0.3201883821516754,5.398412479033462
2.37,2.37,1.0,19.223177078941333,0.04330105164029876,8.020628127792946,0.0016188102975515004,0.008421823783484704,-0.0032302341210303106,20.829375592027525,0.00916417345406534,1.0,0.0,248.82701700091377,0.39841727765723006,29.31434318178261,129.30502668956234,0.275570978637166,1.993172133488587,1.0,29.082434616429403,0.0,1.0,130.78231758354033,10383.528262166756,1.0,1.0,0.8814232332534068,19.761879815169443,-0.05036015320854237,-43.69012188297288,1.0,29.155787410287168,1.0,0.001965513710947383,4.460339049036813,0.9274897387702459,1.0,0.3201883821516754,5.398412479033462
2.4,2.4,1.0,19.249673885272585,-0.026595376024048878,8.146654216543446,-0.00102717545926293,0.003832159818018548,0.003772060297661713,20.902598568773605,0.0054743928598652595,1.0,0.0,248.82701700091377,0.39841727765723006,29.31434318178261,129.30502668956234,0.275570978637166,1.993172133488587,1.0,30.358029983099243,0.0,1.0,130.498616375929,10539.929114917628,1.0,1.0,-1.2292660481253275,19.83392699502078,-0.013679138290930001,-43.77433106857799,1.0,28.95259106130185,1.0,0.0047068960552744945,4.478754956325631,0.9271704874420783,1.0,0.5933274989912868,6.01881817160615
2.4299999999999997,2.4299999999999997,1.0,19.22063645097052,0.037674202403097524,8.097982308625088,0.001272348202470435,0.00960779845988519,-0.002397425815906407,20.85693175893109,0.009983802468843044,1.0,0.0,248.82701700091377,0.39841727765723006,29.31434318178261,129.30502668956234,0.275570978637166,1.993172133488587,1.0,30.358029983099243,0.0,1.0,131.93116927979437,10614.256017819038,1.0,1.0,-1.2292660481253275,19.83392699502078,-0.013679138290930001,-43.77433106857799,1.0,28.95259106130185,1.0,0.0047068960552744945,4.478754956325631,0.9271704874420783,1.0,0.5933274989912868,6.01881817160615
2.46,2.46,1.0,19.140505414934132,0.01725438232334368,8.24287735704853,-0.0001487685996427187,0.003392224099583549,-0.0036123455428427372,20.83996814719676,0.0049576563776577804,1.0,0.0,248.82701700091377,0.39841727765723006,29.31434318178261,129.30502668956234,0.275570978637166,1.993172133488587,1.0,28.709212954171655,0.0,1.0,132.09352284087532,10644.429244299472,1.0,1.0,2.090500705405645,19.850421710208174,-0.04437813586878794,-43.62642186917572,1.0,29.00297034117959,1.0,-0.007722047058818455,4.501947276676626,0.9268500684998795,1.0,0.8662572561451346,5.547686554169623
2.4899999999999998,2.4899999999999998,1.0,19.221414960781136,0.024032802005368833,8.301606602538941,-0.0019050035423399088,0.00043895421681554433,-0.0011308485599816366,20.937527142750913,0.0022584370184710245,1.0,0.0,248.82701700091377,0.39841727765723006,29.31434318178261,129.30502668956234,0.275570978637166,1.993172133488587,1.0,28.709212954171655,0.0,1.0,132.62028550733498,10683.51378904227,1.0,1.0,2.090500705405645,19.850421710208174,-0.04437813586878794,-43.62642186917572,1.0,29.00297034117959,1.0,-0.007722047058818455,4.501947276676626,0.9268500684998795,1.0,0.8662572561451346,5.547686554169623
2.52,2.52,1.0,19.166279192491043,0.011535326374274377,8.377918785385893,0.002291227630734123,0.001597471253971622,0.0007244888954484719,20.917359162255437,0.002885571455142519,1.0,0.0,273.9209700953219,0.20176025599158562,29.423896294603832,133.31468851980347,-0.0696421494113209,2.2226057179012733,1.0,29.64274114220723,0.0,1.0,133.1281713994983,10749.08312364088,1.0,1.0,-0.6098023610345005,19.83920256692519,0.036790822791022346,-43.64033641461923,1.0,29.5214246669372,1.0,0.012029913998308855,4.51033695680642,0.9265274501348135,1.0,0.22765828148255066,5.470259084421006
2.55,2.55,1.0,19.073352857874447,-0.009835198927267665,8.534648401845637,0.0001440186347443477,0.00011906807141994852,-0.0006658152489848269,20.89576773691868,0.0006915406846787967,1.0,0.0,273.9209700953219,0.20176025599158562,29.423896294603832,133.31468851980347,-0.0696421494113209,2.2226057179012733,1.0,29.64274114220723,0.0,1.0,133.53708930386682,11133.097557440238,1.0,1.0,-0.6098023610345005,19.83920256692519,0.036790822791022346,-43.64033641461923,1.0,29.5214246669372,1.0,0.012029913998308855,4.51033695680642,0.9265274501348135,1.0,0.22765828148255066,5.470259084421006
2.58,2.58,1.0,19.071122496920186,0.05370447164653571,8.492587601495533,-0.0036574406157678244,0.0031908808833001952,-0.0012609970144927824,20.876653027530196,0.005014848565992643,1.0,0.0,273.9209700953219,0.20176025599158562,29.423896294603832,133.31468851980347,-0.0696421494113209,2.2226057179012733,1.0,29.358865396523377,0.0,1.0,134.95430945201196,10850.932368840164,1.0,1.0,-0.4421226376729621,19.851564834395894,0.028040520701193124,-43.68963853091956,1.0,29.760607099092553,1.0,-0.00389804089071116,4.538720574938306,0.9262014669178091,1.0,-0.29934993309376307,6.222051129718078
2.61,2.61,1.0,19.0405611087213,0.0664022513206286,8.56282813519655,-0.00024114491760876216,-0.0012092313838428935,0.002171356915759841,20.8774855350649,0.0024970346947083503,1.0,0.0,273.9209700953219,0.20176025599158562,29.423896294603832,133.31468851980347,-0.0696421494113209,2.2226057179012733,1.0,29.358865396523377,0.0,1.0,135.73459698623242,11172.452130446887,1.0,1.0,-0.4421226376729621,19.851564834395894,0.028040520701193124,-43.68963853091956,1.0,29.760607099092553,1.0,-0.00389804089071116,4.538720574938306,0.9262014669178091,1.0,-0.29934993309376307,6.222051129718078
2.6399999999999997,2.6399999999999997,1.0,18.99035613638197,0.0904396940321086,8.68519478512302,0.0015596281021600699,-0.004232046351573136,0.0004070795264131864,20.882394833457322,0.004528616773335507,1.0,0.0,273.9209700953219,0.20176025599158562,29.423896294603832,133.31468851980347,-0.0696421494113209,2.2226057179012733,1.0,29.29284071573711,0.0,1.0,135.20821145673622,11063.514365690124,1.0,1.0,-0.5640543747808037,19.931594741342682,-0.021717159203047003,-43.6855925925169,1.0,29.79029582732869,1.0,0.008479129042409857,4.543702960930262,0.9258708536307081,1.0,0.5719898668425217,6.380510046230981
2.67,2.67,1.0,19.059182896741795,-0.04863038105835259,8.766576349532693,0.001541810122804799,-0.003667131743519355,-0.0015914128913733369,20.978743491868208,0.004284580337669011,1.0,0.0,273.9209700953219,0.20176025599158562,29.423896294603832,133.31468851980347,-0.0696421494113209,2.2226057179012733,1.0,29.29284071573711,0.0,1.0,136.1405455199327,11553.471319057548,1.0,1.0,-0.5640543747808037,19.931594741342682,-0.021717159203047003,-43.6855925925169,1.0,29.79029582732869,1.0,0.008479129042409857,4.543702960930262,0.9258708536307081,1.0,0.5719898668425217,6.380510046230981
2.6999999999999997,2.6999999999999997,1.0,18.869621654753878,-0.04796357526115563,8.759890422614989,0.0006356576811287177,-0.0035916358601909416,-0.0021755139739447864,20.803860269534837,0.004246971849520138,1.0,0.0,273.9209700953219,0.20176025599158562,29.423896294603832,133.31468851980347,-0.0696421494113209,2.2226057179012733,1.0,30.253157515844237,0.0,1.0,135.82339326415374,11369.637796078832,1.0,1.0,1.356642701192511,19.744654617085335,0.027156923288884763,-43.676828717791146,1.0,29.83776257268776,1.0,-0.014418349992410054,4.572235262480786,0.9255342695049956,1.0,-0.4059408602265983,5.445512824475932
2.73,2.73,1.0,18.849532211075726,-0.007278845032513286,8.925102302126843,-0.0012000749088391701,-0.005842794388421923,-0.0009280501254632214,20.855751452810235,0.00603653071619555,1.0,0.0,302.73705230598813,0.9234410924736416,32.32885671676371,137.12611146744203,0.011270291125223627,2.3477901833078905,1.0,30.253157515844237,0.0,1.0,137.27291323687143,11438.48857781365,1.0,1.0,1.356642701192511,19.744654617085335,0.027156923288884763,-43.676828717791146,1.0,29.83776257268776,1.0,-0.014418349992410054,4.572235262480786,0.9255342695049956,1.0,-0.4059408602265983,5.445512824475932
2.76,2.76,1.0,18.86369918116324,0.030824936769150945,8.94246781157766,0.000304903391135432,-0.005534215949005406,-0.0037273558382535585,20.876010814694652,0.006679348306018678,1.0,0.0,302.73705230598813,0.9234410924736416,32.32885671676371,137.12611146744203,0.011270291125223627,2.3477901833078905,1.0,29.793567197849036,0.0,1.0,137.78277943815428,11603.586605550467,1.0,1.0,-1.4421442425219928,19.736147493435794,0.026670993516435048,-43.76943065303698,1.0,29.41227551431114,1.0,0.020682851812615907,4.586715375108478,0.9251903164312533,1.0,0.1256258689012356,5.592438829639696
2.79,2.79,1.0,18.9108222245543,0.0404730276103574,8.971961021608982,0.003993726602763566,-0.009013166958841098,-0.001959319294788977,20.931242673284633,0.01005116724089788,1.0,0.0,302.73705230598813,0.9234410924736416,32.32885671676371,137.12611146744203,0.011270291125223627,2.3477901833078905,1.0,29.793567197849036,0.0,1.0,138.0456993869522,11567.476258070741,1.0,1.0,-1.4421442425219928,19.736147493435794,0.026670993516435048,-43.76943065303698,1.0,29.41227551431114,1.0,0.020682851812615907,4.586715375108478,0.9251903164312533,1.0,0.1256258689012356,5.592438829639696
2.82,2.82,1.0,18.85337763673177,0.02293663732086746,9.128556159525393,-0.002564169592683705,-0.007796225963854351,0.0019164528533044678,20.947097936472208,0.008427864291649413,1.0,0.0,302.73705230598813,0.9234410924736416,32.32885671676371,137.12611146744203,0.011270291125223627,2.3477901833078905,1.0,30.405823227661358,0.0,1.0,138.5768866574883,11840.418197231777,1.0,1.0,-1.8266271924628283,19.75111298985573,0.0030350272323798264,-43.7212503769074,1.0,30.095476164488353,1.0,0.003368237854427196,4.599397272095932,0.924837554004601,1.0,-0.35809540184838956,5.614424187482781
2.85,2.85,1.0,18.882495878450896,0.05353413402624443,9.212114730885093,-0.00028237044305409227,-0.010261662201771469,0.002668347357816831,21.009868498355985,0.010606673457420281,1.0,0.0,302.73705230598813,0.9234410924736416,32.32885671676371,137.12611146744203,0.011270291125223627,2.3477901833078905,1.0,30.405823227661358,0.0,1.0,139.73626332637093,12108.309436204201,1.0,1.0,-1.8266271924628283,19.75111298985573,0.0030350272323798264,-43.7212503769074,1.0,30.095476164488353,1.0,0.003368237854427196,4.599397272095932,0.924837554004601,1.0,-0.35809540184838956,5.614424187482781
2.88,2.88,1.0,18.77535902246905,-0.03615650005563831,9.28202252916086,0.0006034458294573401,-0.008420199531939804,0.001600319573296504,20.944482708984626,0.008592143490622388,1.0,0.0,302.73705230598813,0.9234410924736416,32.32885671676371,137.12611146744203,0.011270291125223627,2.3477901833078905,1.0,29.84653167892131,0.0,1.0,139.5756477639404,11871.677787239587,1.0,1.0,0.29787603331982676,19.773900252483763,0.0458927442708022,-43.75317951684244,1.0,30.30868760669268,1.0,0.018989474823699035,4.620576736012248,0.9244745122666664,1.0,-0.6145416429887318,5.770779724109457
2.9099999999999997,2.9099999999999997,1.0,18.744767804873874,-0.024628922534964213,9.395112092623283,0.002396700685191622,-0.00961352790505953,-0.00020077747661171683,20.967476192317893,0.009909813547734932,1.0,0.0,302.73705230598813,0.9234410924736416,32.32885671676371,137.12611146744203,0.011270291125223627,2.3477901833078905,1.0,29.84653167892131,0.0,1.0,140.58496948529572,11839.831392465547,1.0,1.0,0.29787603331982676,19.773900252483763,0.0458927442708022,-43.75317951684244,1.0,30.30868760669268,1.0,0.018989474823699035,4.620576736012248,0.9244745122666664,1.0,-0.6145416429887318,5.770779724109457
2.94,2.94,1.0,18.749147085053036,0.012246636495848735,9.512099997763979,0.004059827262651679,-0.009058035862775371,-9.796278652709261e-05,21.024050817207414,0.009926721906119802,1.0,0.0,335.1895701792948,-2.2542872146042616,30.442895720363673,141.221156407702,0.025456919087767427,2.8290522451697155,1.0,31.930118148229088,0.0,1.0,141.19317961487312,12408.941900678852,1.0,1.0,0.20243712099329267,19.670388363240807,-0.013421981974192084,-43.68579176579362,1.0,30.550580491241433,1.0,-0.01461027070043123,4.624557345413922,0.9240997024749329,1.0,-0.6431591562241735,5.809143787881785
2.9699999999999998,2.9699999999999998,1.0,18.70282869770063,0.03704693588504008,9.510878189428686,0.0027584679670912783,-0.007332891346499686,-0.001437560076455922,20.98223004604475,0.007965363770629601,1.0,0.0,335.1895701792948,-2.2542872146042616,30.442895720363673,141.221156407702,0.025456919087767427,2.8290522451697155,1.0,31.930118148229088,0.0,1.0,141.20905448578554,12143.488299655732,1.0,1.0,0.20243712099329267,19.670388363240807,-0.013421981974192084,-43.68579176579362,1.0,30.550580491241433,1.0,-0.01461027070043123,4.624557345413922,0.9240997024749329,1.0,-0.6431591562241735,5.809143787881785
3.0,3.0,1.0,18.651422178705484,0.0596521370930404,9.591739636126796,-0.0014416629791642013,-0.012467569538831704,-0.0010842513525904714,20.973330134077717,0.012597391926374723,1.0,0.0,335.1895701792948,-2.2542872146042616,30.442895720363673,141.221156407702,0.025456919087767427,2.8290522451697155,1.0,31.240819610746293,0.0,1.0,141.7347623455892,12503.75470542391,1.0,1.0,-0.3837121961309631,19.728576398218667,-0.03950730821613547,-43.728501551529014,1.0,30.47605700002335,1.0,-0.014780175839994046,4.6343561232149515,0.9237116262053159,1.0,0.30255840620065566,5.503385000240814
