time_s,x_m,y_m,altitude_m,vx_mps,vy_mps,vz_mps,speed_mps,mass_kg,roll_deg,pitch_deg,yaw_deg,p_dps,q_dps,r_dps,alpha_deg,beta_deg,qbar_pa,mach,airspeed_mps,load_factor_g,density_kgpm3,pressure_pa,temperature_k,wind_x_mps,wind_y_mps,wind_z_mps,thrust_n,mass_flow_kgps,propulsion_throttle_actual,propulsion_health,energy_j_per_kg,target_distance_m,guidance_mode,pitch_command_deg,heading_command_deg,roll_command_deg
0.0,0.0,0.0,20.0,85.0,0.0,8.0,85.37564055396598,18.0,0.0,6.000000000000002,0.0,0.0,0.0,0.0,0.5564869907880661,0.0,4456.930974865101,0.2509722163221767,85.38506895236425,1.7466904897941358,1.2226496753673843,101084.96761777384,288.02,0.0,0.0,-0.1,326.8,0.17539118863220368,0.86,nominal,3840.633,nan,pitch_program,13.0,0.0,0.0
0.03,2.5653186933952696,0.0,20.23290578365111,85.51062311317565,0.0,7.763526121703686,85.86232586557358,17.994738264341034,0.0,6.271740387320408,0.0,0.0,-9.058029889823821,0.0,1.0176185009243097,0.0,4507.748426489432,0.25240242663909496,85.87142544682885,1.774793852321726,1.2226223252837,101082.17508596799,288.01848611240626,0.0,0.0,-0.1,332.605,0.1785066900092231,0.86,nominal,3884.586527026215,nan,pitch_program,12.985,0.0,0.0
0.06,5.146134471515092,0.0,20.459268352287204,86.0271926039941,0.0,7.545418954536484,86.35746183465662,17.98938306364076,0.0,6.58890623093568,0.0,0.0,-10.572221784007358,0.0,1.5102516467133427,0.0,4559.750478394425,0.2538575357426458,86.36625671125896,1.8038344106802715,1.2225957440170772,101079.46106693026,288.01701475571014,0.0,0.0,-0.1,338.40999999999997,0.18162219138624247,0.86,nominal,3929.442491249045,nan,pitch_program,12.97,0.0,0.0
0.09,7.7426147401552425,0.0,20.67964923834451,86.54934228800502,0.0,7.346029535243532,86.86053649626466,17.983934397899173,0.0,6.784114061394519,0.0,0.0,-6.506933976217821,0.0,1.8669403194181164,0.0,4612.897924847151,0.2553360406751878,86.86905091185223,1.833519588597963,1.2225698655912458,101076.81882315337,288.01558227995076,0.0,0.0,-0.1,344.215,0.18473769276326188,0.86,nominal,3975.1744824126736,nan,pitch_program,12.955,0.0,0.0
0.12,10.354967270868329,0.0,20.894358300469307,87.07841769043618,0.0,7.156968737493217,87.37203802693126,17.978392267116273,0.0,6.883163710566247,0.0,0.0,-3.3016557946547813,0.0,2.1192384721931696,0.0,4667.256412982273,0.2568393477602386,87.3802862362388,1.8635317573847128,1.2225446535875124,101074.24463516596,288.0141866710469,0.0,0.0,-0.1,350.02,0.1878531941402813,0.86,nominal,4021.8401733170595,nan,pitch_program,12.94,0.0,0.0
0.15,12.98342666920427,0.0,21.10357147787043,87.61531327786471,0.0,6.973772580037541,87.89241505827712,17.972756671292064,0.0,6.969567923343711,0.0,0.0,-2.8801409717450963,0.0,2.353706895608988,0.0,4722.8893452264965,0.2583687605277464,87.90040602461667,1.8940826105560322,1.2225200873153423,101071.73638945575,288.0128267853938,0.0,0.0,-0.1,355.825,0.1909686955173007,0.86,nominal,4069.4936516216885,nan,pitch_program,12.925,0.0,0.0
0.18,15.628224826843786,0.0,21.307495375824775,88.15993858798386,0.0,6.797463265144832,88.42160527087302,17.967027610426545,0.0,7.069099021248756,0.0,0.0,-3.317704097813975,0.0,2.5955010010873814,0.0,4779.806965326955,0.25992409948240486,88.42934903826392,1.9251099763971187,1.2224961424854692,101069.29160514325,288.01150128005713,0.0,0.0,-0.1,361.63,0.19408419689432013,0.86,nominal,4118.145288866372,nan,pitch_program,12.91,0.0,0.0
0.21,18.289585034804077,0.0,21.506387065210117,88.71200693200974,0.0,6.629722979511331,88.95939186331034,17.961205084519715,0.0,7.159579362515572,0.0,0.0,-3.0160120023403896,0.0,2.821411084938876,0.0,4838.002897831754,0.2615047333291445,88.96690027918196,1.9563369976003602,1.2224727888852678,101066.9071966428,288.0102084840761,0.0,0.0,-0.1,367.435,0.19719969827133954,0.86,nominal,4167.792311058046,nan,pitch_program,12.895,0.0,0.0
0.24,20.967732416491927,0.0,21.70049341197027,89.27157938959508,0.0,6.470211558671809,89.50574576152498,17.955289093571576,0.0,7.2241661546421225,0.0,0.0,-2.152893298857954,0.0,3.014899302179856,0.0,4897.490769289014,0.2631105757047666,89.51303015002051,1.9875873531739678,1.2224499975027796,101064.580201033,288.00894679282214,0.0,0.0,-0.1,373.24,0.20031519964835895,0.86,nominal,4218.448405881872,nan,pitch_program,12.88,0.0,0.0
0.27,23.662900366313266,0.0,21.890020788819992,89.83893166071131,0.0,6.3175792283240195,90.06078752289538,17.949279637582126,0.0,7.267990783717835,0.0,0.0,-1.4608210404112338,0.0,3.1820486955090668,0.0,4958.300764500231,0.2647419766425442,90.06785755800887,2.0189210419312884,1.2224277440828075,101062.30814112474,288.00771486487264,0.0,0.0,-0.1,379.045,0.20343070102537836,0.86,nominal,4270.140496990735,nan,pitch_program,12.865,0.0,0.0
0.3,26.375328078286515,0.0,22.0751512582118,90.41425706577496,0.0,6.171015646393659,90.62460656391328,17.943176716551363,0.0,7.301696634809279,0.0,0.0,-1.1235284021165262,0.0,3.3340897408429306,0.0,5020.460294067145,0.26639919643969434,90.63147090273527,2.050422350498255,1.2224060072264002,101060.08883140802,288.0065115168216,0.0,0.0,-0.1,384.84999999999997,0.20654620240239774,0.86,nominal,4322.8929395183795,nan,pitch_program,12.850000000000001,0.0,0.0
0.32999999999999996,29.105256568137392,0.0,22.256062762857777,90.99761632836261,0.0,6.030383488199263,91.19721323844622,17.93698033047929,0.0,7.328392621166574,0.0,0.0,-0.8898662280085647,0.0,3.474278872990984,0.0,5083.988563371822,0.2680822652414893,91.20388028563409,2.0820578116070485,1.2223847660199905,101057.92013598225,288.0053355920414,0.0,0.0,-0.1,390.655,0.20966170377941715,0.86,nominal,4376.723269122695,nan,pitch_program,12.835,0.0,0.0
0.36,31.852928123737765,0.0,22.432930472394233,91.58905185334582,0.0,5.895590317881859,91.77860537506098,17.930690479365907,0.0,7.346162126955561,0.0,0.0,-0.592316864380556,0.0,3.600817257748423,0.0,5148.903689101842,0.2697911765252222,91.78508333413848,2.1137481073789015,1.2223639998771845,101055.79995240031,288.0041859519294,0.0,0.0,-0.1,396.46,0.21277720515643656,0.86,nominal,4431.648099912691,nan,pitch_program,12.82,0.0,0.0
0.39,34.61858758913942,0.0,22.605919788398825,92.18864884672186,0.0,5.766310533486462,92.36881136700194,17.924307163211214,0.0,7.354488304706529,0.0,0.0,-0.2775392588540004,0.0,3.7134515123217606,0.0,5215.227489853975,0.27152601283878613,92.3751079861858,2.1454636274861056,1.2223436893599415,101053.72629550635,288.0030615213754,0.0,0.0,-0.1,402.265,0.21589270653345596,0.86,nominal,4487.686999969295,nan,pitch_program,12.805,0.0,0.0
0.42,37.40248274908701,0.0,22.775184661807838,92.79650533158612,0.0,5.6421624469670775,92.96787293916677,17.91783038201521,0.0,7.355246506803118,0.0,0.0,-0.025273403219920287,0.0,3.8143511213107666,0.0,5282.983661840709,0.2732868957299285,92.97399545745279,2.155310254508413,1.2223238163759969,101051.69731758775,288.0019612996982,0.0,0.0,-0.1,404.1773684210526,0.21691906078826353,0.86,nominal,4544.860964080246,nan,pitch_program,12.79,0.0,0.0
0.44999999999999996,40.20466972622756,0.0,22.940846056166308,93.4062325713516,0.0,5.522046478615596,93.56931805076606,17.911322810191564,0.0,7.350279323140077,0.0,0.0,0.16557278887170138,0.0,3.905847567016949,0.0,5351.451230378281,0.27505479910289704,93.57527285443061,2.1542768774063226,1.2223043667072506,101049.71156651137,288.00088450063487,0.0,0.0,-0.1,404.14342105263154,0.21690084148196515,0.86,nominal,4602.581488219411,nan,pitch_program,12.775,0.0,0.0
0.48,43.02510931033872,0.0,23.103006931520916,94.0146528037054,0.0,5.405362511820233,94.16991497121288,17.904815784947104,0.0,7.340265364716978,0.0,0.0,0.3337986149529876,0.0,3.988934320934301,0.0,5420.26337570337,0.27682022213826174,94.17570789852248,2.1533090916544237,1.2222853282503254,101047.76780608193,287.9998304549451,0.0,0.0,-0.1,404.1094736842105,0.2168826221756668,0.86,nominal,4660.549545767732,nan,pitch_program,12.76,0.0,0.0
0.51,45.86376387572831,0.0,23.26176473445208,94.62181884631963,0.0,5.291926764372073,94.76968444953907,17.898309306281835,0.0,7.325484615637372,0.0,0.0,0.4926916387192911,0.0,4.064070781731526,0.0,5489.420612817207,0.27858322499678423,94.775321028304,2.152388994694778,1.2222666895500378,101045.86486631037,287.99879852922606,0.0,0.0,-0.1,404.0755263157895,0.21686440286936848,0.86,nominal,4718.7665304657185,nan,pitch_program,12.745,0.0,0.0
0.54,48.72059741408792,0.0,23.41721106747923,95.22778461198693,0.0,5.1815444342383685,95.36864980081747,17.891803374195753,0.0,7.306516157646564,0.0,0.0,0.6322819388019107,0.0,4.132017287804787,0.0,5558.923819058628,0.2803438753619633,95.37413524492797,2.151510863031676,1.222248439838143,101044.00164736737,287.99778812806136,0.0,0.0,-0.1,404.0415789473684,0.2168461835630701,0.86,nominal,4777.234075330376,nan,pitch_program,12.73,0.0,0.0
0.57,51.59557538089677,0.0,23.569432331522005,95.83259889362823,0.0,5.074042134759207,95.96683236562696,17.885297988688862,0.0,7.284083171648888,0.0,0.0,0.7477662094749572,0.0,4.193660543058816,0.0,5628.773714457605,0.28210223519533756,95.97217160572797,2.1506737200728505,1.2222305689578488,101042.1771118746,287.9967986898451,0.0,0.0,-0.1,404.0076315789474,0.21682796425677175,0.86,nominal,4835.953630720093,nan,pitch_program,12.715,0.0,0.0
0.6,54.48866446717908,0.0,23.718510687002134,96.43630287607695,0.0,4.969278516004269,96.56424929225138,17.878793149761158,0.0,7.258732102187754,0.0,0.0,0.8450356624905706,0.0,4.249686995536045,0.0,5698.970593482295,0.28385835424963723,96.56944701653451,2.149873180498669,1.222213067250916,101040.39027337627,287.9958296805345,0.0,0.0,-0.1,403.9736842105263,0.21680974495047337,0.86,nominal,4894.926253516724,nan,pitch_program,12.7,0.0,0.0
0.63,57.39983245096084,0.0,23.86452459396305,97.03893279272529,0.0,4.867130232030545,97.16091515751897,17.872288857412645,0.0,7.230842285212575,0.0,0.0,0.929660584195765,0.0,4.300601572297565,0.0,5769.51450015828,0.28561227478773527,97.16597583667344,2.1491030724363807,1.222195925494205,101038.64018985935,287.9948805901392,0.0,0.0,-0.1,403.9397368421053,0.21679152564417503,0.86,nominal,4954.152757232688,nan,pitch_program,12.685,0.0,0.0
0.6599999999999999,60.32904811067888,0.0,24.00754906886478,97.6405219906016,0.0,4.767482496724342,97.75684336123854,17.86578511164332,0.0,7.200771937831409,0.0,0.0,1.0023449357129854,0.0,4.346879726491456,0.0,5840.405383966087,0.2873640356508979,97.76177126286672,2.148359475358559,1.222179134869486,101036.92596066986,287.9939509310524,0.0,0.0,-0.1,403.9057894736842,0.21677330633787664,0.86,nominal,5013.633843053047,nan,pitch_program,12.67,0.0,0.0
0.69,63.276281129101136,0.0,24.147656012634158,98.241100614075,0.0,4.670231458979331,98.35204579339083,17.859281912453184,0.0,7.168886106906013,0.0,0.0,1.0628610582778226,0.0,4.388994269070147,0.0,5911.643055625553,0.2891136712869598,98.35684499838861,2.1476405161174337,1.2221626869248778,101035.24672257494,287.9930402359179,0.0,0.0,-0.1,403.8718421052631,0.21675508703157828,0.86,nominal,5073.3700667089215,nan,pitch_program,12.655,0.0,0.0
0.72,66.24150198225648,0.0,24.28491461790257,98.84069510517824,0.0,4.575286842280388,98.94653232207762,17.852779259842237,0.0,7.135505793073553,0.0,0.0,1.1126771592205793,0.0,4.427363257496454,0.0,5983.227119750119,0.29086121025252215,98.95120674318431,2.146944297311551,1.2221465735270103,101033.60164487748,287.9921480549836,0.0,0.0,-0.1,403.8378947368421,0.21673686772527995,0.86,nominal,5133.361787219629,nan,pitch_program,12.64,0.0,0.0
0.75,69.22468184255794,0.0,24.419391708302918,99.43932867671529,0.0,4.482569680011582,99.54031102328328,17.84627715381048,0.0,7.100895276396498,0.0,0.0,1.1536839243165102,0.0,4.462338975705215,0.0,6055.1569949651885,0.29260667588067135,99.54486442076244,2.1462685791503895,1.2221307868211593,101031.98992534529,287.991273953896,0.0,0.0,-0.1,403.80394736842106,0.21671864841898159,0.86,nominal,5193.609187002214,nan,pitch_program,12.625,0.0,0.0
0.78,72.22579250158418,0.0,24.55115199081249,100.03702196754114,0.0,4.392009416985745,100.13338859168404,17.83977559435791,0.0,7.065287485202155,0.0,0.0,1.1869264113468916,0.0,4.494235262037744,0.0,6127.431957167406,0.2943500874790695,100.13782458560101,2.1456116040875055,1.2221153192015897,101030.4107871824,287.9904175120597,0.0,0.0,-0.1,403.77,0.21670042911268322,0.86,nominal,5254.112310097302,nan,pitch_program,12.61,0.0,0.0
0.8099999999999999,75.24480629967168,0.0,24.68025828693508,100.63379326958335,0.0,4.303543204086373,100.72577044597216,17.83327458148453,0.0,7.028896732047206,0.0,0.0,1.2130251459428854,0.0,4.523340874651734,0.0,6200.051147255404,0.2960914606368671,100.73009252738476,2.1449722482883335,1.222100163284392,101028.86347625485,287.9895783211349,0.0,0.0,-0.1,403.73605263157896,0.21668220980638486,0.86,nominal,5314.871070896911,nan,pitch_program,12.595,0.0,0.0
0.84,78.28169605776576,0.0,24.806771761877194,101.22965860313593,0.0,4.217115831403881,101.31746072046481,17.82677411519034,0.0,6.991913475887038,0.0,0.0,1.2327752481413108,0.0,4.54991449475073,0.0,6273.013565325162,0.2978308071993668,101.32167226220267,2.1443495836569175,1.2220853118805546,101027.34725834086,287.9887559835478,0.0,0.0,-0.1,403.7021052631579,0.2166639905000865,0.86,nominal,5375.885251720078,nan,pitch_program,12.58,0.0,0.0
0.87,81.3364350158214,0.0,24.9307521287438,101.82463193518805,0.0,4.132678895553624,101.90846237477176,17.82027419547534,0.0,6.95450258949504,0.0,0.0,1.247029590704289,0.0,4.574183658860729,0.0,6346.318079461389,0.29956813558748585,101.91256664106434,2.143742715722184,1.2220707579719665,101025.86141668033,287.9879501111631,0.0,0.0,-0.1,403.66815789473685,0.21664577119378817,0.86,nominal,5437.154512158481,nan,pitch_program,12.565,0.0,0.0
0.8999999999999999,84.40899677919009,0.0,25.05225782134215,102.41872544562332,0.0,4.050189753278224,102.49877735340813,17.813774822339525,0.0,6.916809045384767,0.0,0.0,1.2564515156585703,0.0,4.596351205438051,0.0,6419.963441260586,0.3013034512634582,102.50277750819332,2.1431509221288727,1.2220564946911199,101024.40524990161,287.98716032416127,0.0,0.0,-0.1,403.6342105263158,0.2166275518874898,0.86,nominal,5498.67840363543,nan,pitch_program,12.55,0.0,0.0
0.9299999999999999,87.49935527046381,0.0,25.17134614825598,103.01194970912374,0.0,3.9696108971277835,103.0884066883839,17.8072759957829,0.0,6.8789620266243405,0.0,0.0,1.2615673378861416,0.0,4.616599882388559,0.0,6493.948294930446,0.3030367570302313,103.0923058027565,2.1425736859902718,1.2220425153029921,101022.97807017161,287.98638625003633,0.0,0.0,-0.1,403.6002631578947,0.21660933258119142,0.86,nominal,5560.456378479611,nan,pitch_program,12.535000000000002,0.0,0.0
0.96,90.60748468536542,0.0,25.28807343419335,103.60431383005377,0.0,3.8909095312455784,103.6773505698164,17.800777715805463,0.0,6.8410754954377015,0.0,0.0,1.262884418903781,0.0,4.635093282693675,0.0,6568.271182819399,0.30476805323750705,103.68115162884166,2.1420105952254813,1.2220288131884451,101021.57920150015,287.9856275226777,0.0,0.0,-0.1,403.56631578947366,0.21659111327489305,0.86,nominal,5622.487795931736,nan,pitch_program,12.520000000000001,0.0,0.0
0.99,93.73335945307457,0.0,25.402495145855877,104.1958255903049,0.0,3.814057055417545,104.26560843186606,17.794279982407215,0.0,6.8032490870737705,0.0,0.0,1.2608803245946953,0.0,4.651977142500803,0.0,6642.930553207151,0.3064973380326002,104.26931434069327,2.1414612948030896,1.2220153818294324,101020.20797822933,287.9848837815519,0.0,0.0,-0.1,403.53236842105264,0.21657289396859472,0.86,nominal,5684.771929855717,nan,pitch_program,12.505,0.0,0.0
1.02,96.87695420096145,0.0,25.514666002130493,104.78649159622913,0.0,3.739028542487162,104.8531790433086,17.787782795588157,0.0,6.765570208817212,0.0,0.0,1.255962653815309,0.0,4.667381833400479,0.0,6717.924769073665,0.30822460762494186,104.85679263260263,2.14092550476691,1.2220022147960452,101018.8637437106,287.98415467098613,0.0,0.0,-0.1,403.49842105263156,0.21655467466229633,0.86,nominal,5747.307977093858,nan,pitch_program,12.49,0.0,0.0
1.05,100.03824372298081,0.0,25.624640071937975,105.37631740064522,0.0,3.6658023269160345,105.44006058240647,17.781286155348287,0.0,6.728115703501138,0.0,0.0,1.248483554995265,0.0,4.681424344350084,0.0,6793.25211526105,0.30994985650478685,105.44358461322781,2.1404030167705805,1.2219893057350153,101017.5458491304,287.98343983953237,0.0,0.0,-0.1,403.46447368421053,0.216536455355998,0.86,nominal,5810.095064372244,nan,pitch_program,12.475,0.0,0.0
1.08,103.21720295122755,0.0,25.732470861654157,105.96530760822475,0.0,3.594359657206019,106.026250701659,17.774790061687607,0.0,6.6909527899775165,0.0,0.0,1.2387638275498196,0.0,4.694209494446849,0.0,6868.910804664521,0.31167307763238195,106.02968786987202,2.1398936655843293,1.2219766483594379,101016.2536524608,287.9827389393992,0.0,0.0,-0.1,403.43052631578945,0.21651823604969964,0.86,nominal,5873.132254300963,nan,pitch_program,12.46,0.0,0.0
1.1099999999999999,106.41380693050021,0.0,25.83821139236219,106.55346597575578,0.0,3.5246843569344355,106.61174659137033,17.768294514606115,0.0,6.654140023227792,0.0,0.0,1.2270922672039706,0.0,4.705831151006612,0.0,6944.8989845586975,0.31339426262370745,106.61509953160457,2.1393973151934738,1.221964236439693,101014.98651753204,287.9820516259496,0.0,0.0,-0.1,403.3965789473684,0.21650001674340127,0.86,nominal,5936.418551382191,nan,pitch_program,12.445,0.0,0.0
1.14,109.62803079563349,0.0,25.941914267734447,107.14079550444261,0.0,3.4567625124084986,107.19654503943671,17.761799514103814,0.0,6.6177283657513595,0.0,0.0,1.2137219567293616,0.0,4.716373535539861,0.0,7021.214742713996,0.31511340192520243,107.19981632864146,2.138913857718719,1.2219520637954646,101013.74381321744,287.9813775572597,0.0,0.0,-0.1,403.3626315789474,0.21648179743710294,0.86,nominal,5999.95290774967,nan,pitch_program,12.43,0.0,0.0
1.17,112.85984975126176,0.0,26.043631733848148,107.72729852094217,0.0,3.3905822037900895,107.78064248417174,17.7553050601807,0.0,6.581762066646707,0.0,0.0,1.1988766761894407,0.0,4.7259123059942265,0.0,7097.856112865823,0.31683048496816596,107.78383464481863,2.138443206844255,1.2219401242887085,101012.5249127152,287.98071639372995,0.0,0.0,-0.1,403.3286842105263,0.21646357813080455,0.86,nominal,6063.734228293165,nan,pitch_program,12.415,0.0,0.0
1.2,116.10923905376157,0.0,26.143415731805952,108.31297674999344,0.0,3.326133265260081,108.36403506211315,17.748811152836776,0.0,6.546279362081922,0.0,0.0,1.1827568566270719,0.0,4.734515437896959,0.0,7174.821079756249,0.31854550030850415,108.36715056508565,2.1379852882303214,1.2219284118174647,101011.32919291638,287.98006779774323,0.0,0.0,-0.1,403.2947368421053,0.21644535882450622,0.86,nominal,6127.761375357759,nan,pitch_program,12.4,0.0,0.0
1.23,119.37617399518906,0.0,26.24131794373201,108.89783138091653,0.0,3.2634070642019744,108.94671865243676,17.74231779207204,0.0,6.511313141532767,0.0,0.0,1.1655407211459983,0.0,4.742244054985544,0.0,7252.107583937406,0.32025843575656915,108.94975991963474,2.1375400345760798,1.2219169203104485,101010.15603385231,287.97943143336573,0.0,0.0,-0.1,403.26078947368416,0.2164271395182078,0.86,nominal,6192.033173179506,nan,pitch_program,12.385,0.0,0.0
1.26,122.66062988901623,0.0,26.33738983281801,109.48186312757215,0.0,3.2023963028665747,109.52868891740218,17.735824977886494,0.0,6.476891568091426,0.0,0.0,1.1473858158879673,0.0,4.749153196471464,0.0,7329.713526242269,0.32196927849540885,109.53165832409198,2.1371073828016964,1.2219056437223397,101009.0048182134,287.97880696608667,0.0,0.0,-0.1,403.22684210526313,0.21640892021190947,0.86,nominal,6256.548411986533,nan,pitch_program,12.37,0.0,0.0
1.29,125.96258205747391,0.0,26.431682678092926,110.06507228192261,0.0,3.1430948424972205,110.1099413387083,17.729332710280136,0.0,6.443038607611313,0.0,0.0,1.1284320488315829,0.0,4.75529247640899,0.0,7407.636771885655,0.32367801518706324,110.11284121564695,2.136687270093855,1.2218945760296958,101007.87493093169,287.97819406259237,0.0,0.0,-0.1,403.1928947368421,0.21639070090561113,0.86,nominal,6321.30585174201,nan,pitch_program,12.355,0.0,0.0
1.3199999999999998,129.28200582034324,0.0,26.52424760444319,110.64745876231099,0.0,3.08549754500876,110.69047125049909,17.72284098925297,0.0,6.409774492628465,0.0,0.0,1.1088038639060043,0.0,4.7607066643235925,0.0,7485.875154273988,0.3253846320690716,110.6933038858565,2.1362796303698928,1.221883711227415,101006.76575881941,287.9775923905711,0.0,0.0,-0.1,403.158947368421,0.21637248159931274,0.86,nominal,6386.304225598896,nan,pitch_program,12.34,0.0,0.0
1.3499999999999999,132.61887648505538,0.0,26.615135608345206,111.22902215707163,0.0,3.029600130067194,111.27027386937822,17.71634981480499,0.0,6.377116146184198,0.0,0.0,1.0886115776158871,0.0,4.76543621387279,0.0,7564.426478554928,0.3270891150422348,111.27304151047748,2.135884392129571,1.2218730433257097,101005.67669025983,287.9770016185457,0.0,0.0,-0.1,403.125,0.2163542622930144,0.86,nominal,6451.542243096796,nan,pitch_program,12.325,0.0,0.0
1.38,135.97316933796603,0.0,26.70439757976351,111.80976176368843,0.0,2.975399047276785,111.84934432147243,17.7098591869362,0.0,6.345077559187255,0.0,0.0,1.0679529277255166,0.0,4.769517733794248,0.0,7643.288524896941,0.3287914497497513,111.85204917636848,2.1355014766335527,1.2218625663475302,101004.6071149439,287.9764214157315,0.0,0.0,-0.1,403.0910526315789,0.21633604298671602,0.86,nominal,6517.018593097237,nan,pitch_program,12.31,0.0,0.0
1.41,139.34485963668445,0.0,26.79208432061938,112.38967662394707,0.0,2.9228913618624666,112.42767766679451,17.703369105646598,0.0,6.313670121476075,0.0,0.0,1.0469146165876386,0.0,4.7729844025642665,0.0,7722.459051517564,0.33049162164845286,112.43032190570752,2.1351307961132058,1.2218522743263838,101003.55642364745,287.97585145191596,0.0,0.0,-0.1,403.0571052631579,0.2163178236804177,0.86,nominal,6582.731946477124,nan,pitch_program,12.295,0.0,0.0
1.44,142.73392260335157,0.0,26.878246560179818,112.96876555557103,0.0,2.8720746520145193,113.00526892121586,17.696879570936186,0.0,6.282902917497786,0.0,0.0,1.0255734905872655,0.0,4.775866339002461,0.0,7801.935797489426,0.3321896160730524,113.00785467783518,2.1347722524552872,1.221842161304528,101002.52400804646,287.97529139735883,0.0,0.0,-0.1,403.02315789473687,0.21629960437411935,0.86,nominal,6648.680958607544,nan,pitch_program,12.28,0.0,0.0
1.47,146.14033341877126,0.0,26.962934967687534,113.54702718065641,0.0,2.822946916923821,113.5821130762256,17.690390582804962,0.0,6.252782990920357,0.0,0.0,1.0039975757023627,0.0,4.778190933964388,0.0,7881.7164853357945,0.33388541829391405,113.58464244889747,2.134425736272963,1.2218322213314752,101001.50926056424,287.97474092271,0.0,0.0,-0.1,402.9892105263158,0.21628138506782096,0.86,nominal,6714.864271631121,nan,pitch_program,12.265,0.0,0.0
1.5,149.56406721730698,0.0,27.046200162525636,114.1244599511908,0.0,2.7755064946033645,114.15820511663863,17.68390214125293,0.0,6.223315579015115,0.0,0.0,0.9822470851591176,0.0,4.779983144714011,0.0,7961.798823427117,0.3355790135688241,114.16068016945003,2.1340911261132396,1.2218224484627977,101000.51157424915,287.97419969894355,0.0,0.0,-0.1,402.9552631578947,0.2162631657615226,0.86,nominal,6781.280516550101,nan,pitch_program,12.25,0.0,0.0
1.53,153.00509908246605,0.0,27.128092722177588,114.70106217196879,0.0,2.7297519883983776,114.73354003645149,17.677414246280083,0.0,6.194504320781671,0.0,0.0,0.9603752946848153,0.0,4.7812657567667065,0.0,8042.18050819551,0.3372703871893418,114.73596280022099,2.133768287852061,1.2218128367591825,100999.53034267794,287.9736673973058,0.0,0.0,-0.1,402.9213157894737,0.21624494645522424,0.86,nominal,6847.92831514195,nan,pitch_program,12.235,0.0,0.0
1.56,156.46340404310112,0.0,27.208663188216573,115.27683202116962,0.0,2.6856822012994983,115.30811285301367,17.670926897886428,0.0,6.166351442559675,0.0,0.0,0.9384292929472752,0.0,4.782059617624699,0.0,8122.859226181491,0.3389595245222211,115.31048532619917,2.1334570743095544,1.221803380285727,100998.56495988368,287.9731436892766,0.0,0.0,-0.1,402.8873684210526,0.21622672714892588,0.86,nominal,6914.806281716392,nan,pitch_program,12.220000000000002,0.0,0.0
1.5899999999999999,159.93895707016569,0.0,27.287962070536974,115.85176756881891,0.0,2.6432960773466854,115.8819186196542,17.66444009607196,0.0,6.1388579230237745,0.0,0.0,0.9164506687817386,0.0,4.782383844863746,0.0,8203.832655923712,0.34064641104630944,115.88424276918595,2.1331573249989475,1.2217940731114294,100997.61482030348,287.9726282465415,0.0,0.0,-0.1,402.8534210526316,0.21620850784262752,0.86,nominal,6981.9130247251105,nan,pitch_program,12.205000000000002,0.0,0.0
1.6199999999999999,163.43173307396614,0.0,27.366039850019185,116.42586679334865,0.0,2.602592649406997,116.45495243690287,17.657953840836683,0.0,6.112023639692955,0.0,0.0,0.8944761273774633,0.0,4.782256011242688,0.0,8285.098469703893,0.3423310323853348,116.45723019894982,2.1328688659830912,1.2217849093088777,100996.6793187467,287.97212074097484,0.0,0.0,-0.1,402.8194736842105,0.21619028853632916,0.86,nominal,7049.247148235846,nan,pitch_program,12.19,0.0,0.0
1.65,166.94170690185967,0.0,27.44294697979936,116.99912759645107,0.0,2.5635709926724517,117.02720946243703,17.651468132180593,0.0,6.085847499286501,0.0,0.0,0.8725380287249008,0.0,4.781692309654707,0.0,8366.654335158115,0.3440133743369604,117.02944274311334,2.1325915098480515,1.221775882954092,100995.75785037845,287.9716208446313,0.0,0.0,-0.1,402.78552631578947,0.21617206923003082,0.86,nominal,7116.807253282004,nan,pitch_program,12.175,0.0,0.0
1.68,170.46885333635154,0.0,27.51873388529908,117.5715478163959,0.0,2.526230183324088,117.59868491986722,17.64498297010369,0.0,6.060327553637773,0.0,0.0,0.8506648690210852,0.0,4.780707700048639,0.0,8448.497916764354,0.3456934228984406,117.60087559588521,2.1323250557672018,1.2217669881265134,100994.84981071852,287.97112822974555,0.0,0.0,-0.1,402.75157894736844,0.21615384992373246,0.86,nominal,7184.591939097372,nan,pitch_program,12.16,0.0,0.0
1.71,174.01314709355051,0.0,27.593450963154634,118.14312523996554,0.0,2.4905692618517024,118.16937410646747,17.63849835460598,0.0,6.035461102663116,0.0,0.0,0.8288817121657075,0.0,4.779316040196252,0.0,8530.626877215513,0.34737116428918563,118.17152402574249,2.1320692896340585,1.2217582189091285,100993.95459565372,287.9706425687395,0.0,0.0,-0.1,402.71763157894736,0.2161356306174341,0.86,nominal,7252.599804244952,nan,pitch_program,12.145,0.0,0.0
1.74,177.574562821945,0.0,27.667148579171418,118.71385761314976,0.0,2.456587200559398,118.7392723999484,17.632014285687454,0.0,6.011244785884887,0.0,0.0,0.8072105712907836,0.0,4.777530202147551,0.0,8613.038878686746,0.34904658497052427,118.74138338216066,2.1318239842601554,1.2217495693887015,100993.07160146169,287.9701635342354,0.0,0.0,-0.1,402.68368421052634,0.21611741131113574,0.86,nominal,7320.829447648505,nan,pitch_program,12.13,0.0,0.0
1.77,181.15307510146675,0.0,27.739877065416714,119.2837426507254,0.0,2.4242828748431466,119.30837526436166,17.62553076334812,0.0,5.98767466377446,0.0,0.0,0.785670748094256,0.0,4.775362175941874,0.0,8695.731584005105,0.3507196716629211,119.31044910147943,2.1315888996269075,1.221741033656113,100992.20022484507,287.9696907990748,0.0,0.0,-0.1,402.64973684210526,0.21609919200483738,0.86,nominal,7389.279469534441,nan,pitch_program,12.115,0.0,0.0
1.7999999999999998,184.74865844281177,0.0,27.811686716552725,119.85277804483414,0.0,2.393655037867001,119.87667825521602,17.619047787587974,0.0,5.9647462900081045,0.0,0.0,0.7642791357444708,0.0,4.772823161937738,0.0,8778.702657728778,0.3523904113608858,119.87871671198417,2.1313637831795793,1.2217326058067852,100991.33986297488,287.9692240363424,0.0,0.0,-0.1,402.6157894736842,0.216080972698539,0.86,nominal,7457.948472291173,nan,pitch_program,12.1,0.0,0.0
1.8299999999999998,188.3612872869916,0.0,27.882627785501665,120.4209614726608,0.0,2.3647022982979697,120.44417702387955,17.612565358407018,0.0,5.942454775652432,0.0,0.0,0.7430504878952525,0.0,4.769923653021215,0.0,8861.94976714287,0.3540587913457901,120.44618183827701,2.1311483701575655,1.2217242799411858,100990.48991354193,287.96876291939424,0.0,0.0,-0.1,402.58184210526315,0.21606275339224065,0.86,nominal,7526.835061252506,nan,pitch_program,12.085,0.0,0.0
1.8599999999999999,191.99093600509073,0.0,27.95275047852552,120.98829060330407,0.0,2.3374231007951827,121.01086732133477,17.60608347580525,0.0,5.920794846177555,0.0,0.0,0.7219976577610927,0.0,4.766673507807329,0.0,8945.470583177957,0.35572479919679023,121.01284020500405,2.1309423839549377,1.2217160501654016,100989.649774815,287.96830712188955,0.0,0.0,-0.1,402.54789473684207,0.2160445340859423,0.86,nominal,7595.937845411076,nan,pitch_program,12.07,0.0,0.0
1.89,195.63757889820837,0.0,28.02210494979491,121.55476310392191,0.0,2.3118157089797515,121.57674500134827,17.59960213978267,0.0,5.899760892080858,0.0,0.0,0.7011318110976766,0.0,4.76308201581034,0.0,9029.262781257257,0.3573884228000323,121.57868763999986,2.130745536504515,1.221707910591774,100988.81884570587,287.9678563178263,0.0,0.0,-0.1,402.51394736842104,0.21602631477964393,0.86,nominal,7665.255438067336,nan,pitch_program,12.055,0.0,0.0
1.92,199.30119019756518,0.0,28.090741295514036,122.12037664522646,0.0,2.2878781906375036,122.14180602311056,17.59312135033928,0.0,5.879347013831817,0.0,0.0,0.6804626154995905,0.0,4.759157955466585,0.0,9113.324042077737,0.35904965035630726,122.14372007690487,2.130557528681187,1.2216998553395813,100987.9965258387,287.9674101815791,0.0,0.0,-0.1,402.48,0.2160080954733456,0.86,nominal,7734.786457419236,nan,pitch_program,12.040000000000001,0.0,0.0
1.95,202.981744064757,0.0,28.158709547661992,122.68512890639454,0.0,2.2656084049318883,122.70604645339668,17.58664110747508,0.0,5.859547061768687,0.0,0.0,0.6599984086724782,0.0,4.7549096457951325,0.0,9197.652052330097,0.360708470387299,122.70793355730561,2.1303780507205383,1.221691878535775,100987.18221562509,287.9669683879402,0.0,0.0,-0.1,402.44605263157894,0.2159898761670472,0.86,nominal,7804.529527097151,nan,pitch_program,12.025,0.0,0.0
1.98,206.67921459214065,0.0,28.22605966740479,123.24901757945436,0.0,2.245003991426605,123.26946246829411,17.58016141119007,0.0,5.840354671503222,0.0,0.0,0.6397463481640501,0.0,4.750344992390468,0.0,9282.244505362089,0.362364871740567,123.27132423244448,2.1302067826489086,1.2216839743157408,100986.37531634177,287.9665306121618,0.0,0.0,-0.1,402.4121052631579,0.21597165686074887,0.86,nominal,7874.483276648441,nan,pitch_program,12.01,0.0,0.0
2.01,210.39357580333672,0.0,28.2928415382269,123.81204037320192,0.0,2.226062360736938,123.83205035453977,17.573682261484247,0.0,5.821763295332815,0.0,0.0,0.6197125444509476,0.0,4.745471528370151,0.0,9367.09910178954,0.36401884359338105,123.83388836454026,2.1300433947219948,1.2216761368241151,100985.57523021373,287.9660965300015,0.0,0.0,-0.1,402.37815789473683,0.2159534375544505,0.86,nominal,7944.64634197549,nan,pitch_program,11.995000000000001,0.0,0.0
2.04,214.12480165383758,0.0,28.359104958826304,124.37419501669568,0.0,2.2087806866468873,124.39380651050418,17.567203658357613,0.0,5.8037662301037924,0.0,0.0,0.5999021792330941,0.0,4.740296450831549,0.0,9452.213550058554,0.36567037545552294,124.39562232775751,2.1298875478695396,1.2216683602156038,100984.78136049779,287.9656658177676,0.0,0.0,-0.1,402.3442105263158,0.21593521824815215,0.86,nominal,8015.0173657308505,nan,pitch_program,11.98,0.0,0.0
2.07,217.87286603170875,0.0,28.424899635812665,124.9354792623729,0.0,2.193155899545387,124.9547274468578,17.56072560181017,0.0,5.786356641918434,0.0,0.0,0.5803196106436083,0.0,4.734826653308858,0.0,9537.585566962794,0.3673194571711558,124.95652260885956,2.1297388941436357,1.2216606386558415,100983.99311157025,287.9652381523672,0.0,0.0,-0.1,402.3102631578947,0.2159169989418538,0.86,nominal,8085.5949976728025,nan,pitch_program,11.965,0.0,0.0
2.1,221.63774275837355,0.0,28.49027517624414,125.49589088882668,0.0,2.1791846810491724,125.51480978695068,17.554248091841913,0.0,5.7695275880382075,0.0,0.0,0.5609684667072328,0.0,4.729068754671226,0.0,9623.21287811883,0.3689660789198532,125.5165858075761,2.1295970771690285,1.2216529663222664,100983.20988901609,287.9648132113544,0.0,0.0,-0.1,402.27631578947364,0.2158987796355554,0.86,nominal,8156.377894984319,nan,pitch_program,11.95,0.0,0.0
2.13,225.41940558947192,0.0,28.555281080034934,126.05542770327875,0.0,2.1668634596932024,126.07405026693435,17.547771128452847,0.0,5.7532720362940335,0.0,0.0,0.5418517284403979,0.0,4.723029124851627,0.0,9709.093218402642,0.3706102312168729,126.07580863671438,2.129461732593591,1.2216453374050076,100982.43109971941,287.96439067297973,0.0,0.0,-0.1,402.2423684210526,0.21588056032925707,0.86,nominal,8227.36472255827,nan,pitch_program,11.935,0.0,0.0
2.16,229.2178282157853,0.0,28.619966732262366,126.61408754377929,0.0,2.1561884075811015,126.63244573565179,17.54129471164297,0.0,5.737582882282313,0.0,0.0,0.5229718036585126,0.0,4.71671390775581,0.0,9795.224332349937,0.3722519049127495,126.63418792203909,2.129332488537791,1.2216377461077852,100981.65615195547,287.9639702162403,0.0,0.0,-0.1,402.2084210526316,0.2158623410229587,0.86,nominal,8298.554153251338,nan,pitch_program,11.92,0.0,0.0
2.19,233.03298426422015,0.0,28.68438139539933,127.17186828116202,0.0,2.1471554378988866,127.18999315431903,17.53481884141228,0.0,5.722452964592243,0.0,0.0,0.5043305925995691,0.0,4.710129041659928,0.0,9881.603974522859,0.3738910911922772,127.19172060194524,2.1292089660417526,1.2216301866488193,100980.88445548317,287.96355152092985,0.0,0.0,-0.1,402.1744736842105,0.21584412171666034,0.86,nominal,8369.944868109054,nan,pitch_program,11.905,0.0,0.0
2.2199999999999998,236.86484729884356,0.0,28.74857420149547,127.72876782077988,0.0,2.1397602032045553,127.7466895960201,17.52834351776078,0.0,5.707875078286046,0.0,0.0,0.4859295461613299,0.0,4.703280277374948,0.0,9968.229909845475,0.37552778157294464,127.74840372694506,2.1290907795092293,1.2216226532617513,100980.11542163926,287.96313426769024,0.0,0.0,-0.1,402.1405263157895,0.215825902410362,0.86,nominal,8441.535556564051,nan,pitch_program,11.890000000000002,0.0,0.0
2.25,240.71339082196488,0.0,28.81259414432792,128.2847841040438,0.0,2.133998094415018,128.30253224503443,17.521868740688472,0.0,5.69384198682557,0.0,0.0,0.4677697176875303,0.0,4.6961731944217195,0.0,10055.099913909924,0.3771619679028785,128.30423445898808,2.1289775371473296,1.221615140196558,100979.3484634314,287.96271813806186,0.0,0.0,-0.1,402.1065789473684,0.21580768310406362,0.86,nominal,8513.324916609523,nan,pitch_program,11.875,0.0,0.0
2.28,244.57858827525843,0.0,28.8764900715405,128.83991510978498,0.0,2.129864240419301,128.8575183960145,17.51539451019535,0.0,5.680346432620414,0.0,0.0,0.44985180891835086,0.0,4.688813215437096,0.0,10142.211773255429,0.37879364235834756,128.85921007063214,2.128868841401544,1.2216076417204718,100978.5829956323,287.96230281453495,0.0,0.0,-0.1,402.0726315789474,0.21578946379776529,0.86,nominal,8585.31165494968,nan,pitch_program,11.86,0.0,0.0
2.31,248.4604130409222,0.0,28.940310676788123,129.39415885545858,0.0,2.1273535082541493,129.41164545302996,17.508920826281418,0.0,5.667381146351292,0.0,0.0,0.4321762108149309,0.0,4.681205619005143,0.0,10229.56328562196,0.38042279744087565,129.41332794408152,2.1287642893853023,1.2216001521189093,100977.8184348743,287.96188798060086,0.0,0.0,-0.1,402.03868421052636,0.21577124449146692,0.86,nominal,8657.49448712889,nan,pitch_program,11.845,0.0,0.0
2.34,252.35883844286835,0.0,29.00410449190165,129.94751339820553,0.0,2.1264605037843016,129.96491092849237,17.502447688946674,0.0,5.654938855206608,0.0,0.0,0.4147430397859822,0.0,4.673355551087628,0.0,10317.152260179995,0.38204942597400415,129.96658557010613,2.128663473303692,1.2215926656963827,100977.05419974242,287.9614733208026,0.0,0.0,-0.1,402.0047368421053,0.21575302518516856,0.86,nominal,8729.872137640987,nan,pitch_program,11.83,0.0,0.0
2.37,256.27383774794197,0.0,29.067919879086713,130.49997683578658,0.0,2.1271795728354634,130.51731244197424,17.49597509819112,0.0,5.643012290153606,0.0,0.0,0.39755216986888997,0.0,4.665268035207454,0.0,10404.976517738169,0.38367352109974445,130.5189805468557,2.128565980870761,1.221585176777416,100976.28971086795,287.9610585207859,0.0,0.0,-0.1,401.9707894736842,0.21573480587887017,0.86,nominal,8802.443340020207,nan,pitch_program,11.815,0.0,0.0
2.4,260.205384167164,0.0,29.131805023168702,131.0515473074019,0.0,2.129504802732974,131.06884771893382,17.489503054014754,0.0,5.631594192353817,0.0,0.0,0.3806032612526272,0.0,4.656947981523778,0.0,10493.033890930095,0.38529507627475396,131.07051057857984,2.128471395720248,1.2215776797074585,100975.52439102155,287.9606432673494,0.0,0.0,-0.1,401.9368421052631,0.2157165865725718,0.86,nominal,8875.20683691499,nan,pitch_program,11.8,0.0,0.0
2.4299999999999997,264.15345085699624,0.0,29.19580792389482,131.60222299440773,0.0,2.133430024203928,131.61951458935712,17.483031556417576,0.0,5.620677318818063,0.0,0.0,0.36389578562604025,0.0,4.648400194919924,0.0,10581.322224381645,0.3869140852662695,131.62117347426604,2.128210978609531,1.2215701688537828,100974.75766520505,287.9602272484947,0.0,0.0,-0.1,401.9028947368421,0.21569836726627348,0.86,nominal,8948.161380145859,nan,pitch_program,11.785,0.0,0.0
2.46,268.1180112934464,0.0,29.2599726000482,132.15201454833885,0.0,2.138822538446101,132.16932136859646,17.476560605399587,0.0,5.614903412839677,0.0,0.0,0.19246353277575373,0.0,4.644333171027348,0.0,10669.84103956729,0.38853057236976407,132.17097743280488,2.1284845234489476,1.2215626390509364,100973.98900612401,287.95981017809964,0.0,0.0,-0.1,401.86894736842106,0.21568014795997512,0.86,nominal,9021.307065815927,nan,pitch_program,11.77,0.0,0.0
2.4899999999999998,272.09903556157076,0.0,29.324358748232058,132.70080893747965,0.0,2.146204939461906,132.7181633699911,17.470090200960787,0.0,5.609488170738357,0.0,0.0,0.18050807017836853,0.0,4.639744469349173,0.0,10758.57162518452,0.39014423123274666,132.719818148201,2.1285084619373853,1.2215550832937714,100973.21769868724,287.95939166813645,0.0,0.0,-0.1,401.835,0.21566192865367675,0.86,nominal,9094.629166870172,nan,pitch_program,11.755,0.0,0.0
2.52,276.0964943467398,0.0,29.389019946074615,133.2486261723008,0.0,2.155373261418547,133.2660572340219,17.463620343101177,0.0,5.607129599504945,0.0,0.0,0.07861904112484147,0.0,4.637430815485319,0.0,10847.514659325008,0.3917551105082395,133.26771208868965,2.128799026198428,1.2215474952953285,100972.44310112184,287.95897137035047,0.0,0.0,-0.1,401.80105263157895,0.2156437093473784,0.86,nominal,9168.128837804972,nan,pitch_program,11.74,0.0,0.0
2.55,280.1103565141293,0.0,29.45401745168986,133.79540557964958,0.0,2.166583520508206,133.81294645277887,17.457151031820754,0.0,5.606385253049356,0.0,0.0,0.024811548519982338,0.0,4.635849321746453,0.0,10936.658957517742,0.39336304488106055,133.81460292164817,2.1291012674701086,1.221539867867476,100971.66447966539,287.958548886564,0.0,0.0,-0.1,401.7671052631579,0.21562549004108003,0.86,nominal,9241.797559429746,nan,pitch_program,11.725000000000001,0.0,0.0
2.58,284.1405903593638,0.0,29.51941323287636,134.34112817448198,0.0,2.1798593728833575,134.35881253597825,17.45068226711952,0.0,5.60738067929116,0.0,0.0,-0.033180874727671644,0.0,4.635126064482272,0.0,11025.999396452235,0.3949679802823124,134.36047215588636,2.129475695805419,1.221532193738935,100970.88109207216,287.9581238139863,0.0,0.0,-0.1,401.73315789473685,0.2156072707347817,0.86,nominal,9315.631806819258,nan,pitch_program,11.71,0.0,0.0
2.61,288.1871634119726,0.0,29.585271373675468,134.88576842029377,0.0,2.1952713599702633,134.9036313027823,17.444214048997477,0.0,5.610174183533257,0.0,0.0,-0.09311680808834683,0.0,4.635299870955755,0.0,11115.52987097971,0.3965698460314012,134.90529564457069,2.129944512794429,1.2215244653902384,100970.09217076545,287.95769573607106,0.0,0.0,-0.1,401.6992105263158,0.21558905142848334,0.86,nominal,9389.627270855166,nan,pitch_program,11.695,0.0,0.0
2.6399999999999997,292.25004236059954,0.0,29.65165854771674,135.42929828756363,0.0,2.2129058013757392,135.44737644837437,17.437746377454623,0.0,5.614322965303667,0.0,0.0,-0.13829272574078408,0.0,4.635902041748817,0.0,11205.24386116304,0.3981685652529481,135.44904712809137,2.1304465617354458,1.2215166749981865,100969.2969171679,287.9572642194398,0.0,0.0,-0.1,401.6652631578947,0.21557083212218495,0.86,nominal,9463.779330670788,nan,pitch_program,11.68,0.0,0.0
2.67,296.32919339625016,0.0,29.71864228565505,135.9717011883539,0.0,2.2327912646103427,135.99003228504037,17.431279252490956,0.0,5.620012417147265,0.0,0.0,-0.18964839494239605,0.0,4.637116849967045,0.0,11295.136534800755,0.39976409216306147,135.99171092070003,2.1310333735211073,1.2215088146391686,100968.4945224571,287.95682882514325,0.0,0.0,-0.1,401.63131578947366,0.21555261281588659,0.86,nominal,9538.08476381378,nan,pitch_program,11.665,0.0,0.0
2.6999999999999997,300.4245820107567,0.0,29.786292198001743,136.5129538168835,0.0,2.254997078223069,136.53157719602217,17.42481267410648,0.0,5.626920288558691,0.0,0.0,-0.23026238065977,0.0,4.638603745929798,0.0,11385.202034029626,0.40135636365084015,136.5332654375812,2.131657511399874,1.221500876145674,100967.68415291823,287.95638910071295,0.0,0.0,-0.1,401.59736842105264,0.21553439350958825,0.86,nominal,9612.539528200215,nan,pitch_program,11.65,0.0,0.0
2.73,304.53617325315395,0.0,29.854678665291942,137.05304141324092,0.0,2.279548909673348,137.07199751900868,17.41834664230119,0.0,5.635107124393271,0.0,0.0,-0.2728945282836909,0.0,4.640423524967451,0.0,11475.435771579347,0.4029453399014944,137.07369701599595,2.1323457723533448,1.2214928512600096,100966.86496563604,287.9559445886756,0.0,0.0,-0.1,401.56342105263155,0.21551617420328986,0.86,nominal,9687.140636458547,nan,pitch_program,11.635,0.0,0.0
2.76,308.66393164117756,0.0,29.923873427498684,137.5919462674538,0.0,2.306492073558083,137.61127709367165,17.411881157075094,0.0,5.644391025701952,0.0,0.0,-0.3094633776330673,0.0,4.642386285555435,0.0,11565.832707306494,0.40453097381029957,137.61298950958803,2.133074152740053,1.2214847315651347,100966.03610143451,287.9554948227212,0.0,0.0,-0.1,401.52947368421053,0.21549795489699153,0.86,nominal,9761.88474502342,nan,pitch_program,11.620000000000001,0.0,0.0
2.79,312.80782129933175,0.0,29.99394890879202,138.12965527180657,0.0,2.3358493764445374,138.14940411676614,17.405416218428183,0.0,5.654760538145059,0.0,0.0,-0.345650415713726,0.0,4.644482012414945,0.0,11656.3884925011,0.40611323104025643,138.1511311126074,2.1338526695507096,1.2214765085639114,100965.19669296728,287.95503933209284,0.0,0.0,-0.1,401.49552631578945,0.21547973559069317,0.86,nominal,9836.769087975183,nan,pitch_program,11.605,0.0,0.0
2.82,316.96780594114864,0.0,30.064978398159607,138.6661547272298,0.0,2.3676496455862344,138.6863664232367,17.398951826360463,0.0,5.666103258314852,0.0,0.0,-0.3780906735612643,0.0,4.646597177400106,0.0,11747.098688236905,0.4076920762127727,138.6881096619656,2.1346688065596013,1.2214681736579118,100964.3458625542,287.9545776404119,0.0,0.0,-0.1,401.4615789473684,0.2154615162843948,0.86,nominal,9911.790836248452,nan,pitch_program,11.59,0.0,0.0
2.85,321.1438489487515,0.0,30.137035685621612,139.2014335867611,0.0,2.4019095820668634,139.22215442324506,17.39248798087193,0.0,5.678386438662487,0.0,0.0,-0.4094393464893084,0.0,4.648702883787329,0.0,11837.959261963753,0.40926748150113806,139.22391556110716,2.1355259134138853,1.2214597181901208,100963.48272654098,287.95410926804345,0.0,0.0,-0.1,401.4276315789474,0.21544329697809647,0.86,nominal,9986.947502131346,nan,pitch_program,11.575,0.0,0.0
2.88,325.33591337961394,0.0,30.21019509333345,139.73548102874895,0.0,2.4386469237279313,139.75675889614234,17.38602468196259,0.0,5.691528214773582,0.0,0.0,-0.4380592056236443,0.0,4.650720584951372,0.0,11928.966221036444,0.4108394201740486,139.75853958359474,2.1364157462688507,1.2214511334412865,100962.60639492671,287.9536337318933,0.0,0.0,-0.1,401.3936842105263,0.21542507767179808,0.86,nominal,10062.23663828927,nan,pitch_program,11.56,0.0,0.0
2.9099999999999997,329.5439620219876,0.0,30.28453123521742,140.26828807912364,0.0,2.477871396132262,140.2901724544659,17.379561929632434,0.0,5.705494629153552,0.0,0.0,-0.46554714830418176,0.0,4.652622825286423,0.0,12020.115864061565,0.4124078708790617,140.29197433061884,2.1373395409287292,1.2214424106581419,100961.71597424503,287.9531505469711,0.0,0.0,-0.1,401.3597368421053,0.21540685836549975,0.86,nominal,10137.656041889737,nan,pitch_program,11.545,0.0,0.0
2.94,333.7679574066346,0.0,30.360119010026825,140.7998461548987,0.0,2.519592493646922,140.82238821855415,17.37309972388147,0.0,5.72021877441293,0.0,0.0,-0.4908048446804583,0.0,4.654349147387845,0.0,12111.40455994557,0.4139728137630223,140.82421291126008,2.138290482867404,1.2214335410542192,100960.8105676476,287.9526592264348,0.0,0.0,-0.1,401.3257894736842,0.21538863905920136,0.86,nominal,10213.20357287827,nan,pitch_program,11.53,0.0,0.0
2.9699999999999998,338.00786185179203,0.0,30.437033410652027,141.3301481719141,0.0,2.5638133541734494,141.35340081232653,17.366638064709694,0.0,5.735671594091569,0.0,0.0,-0.5150939924101996,0.0,4.655879384897164,0.0,12202.8289210275,0.4155342333856233,141.35524993392025,2.1392693862688668,1.2214245158322437,100959.88927719022,287.95215928283073,0.0,0.0,-0.1,401.29184210526313,0.215370419752903,0.86,nominal,10288.877294301685,nan,pitch_program,11.515,0.0,0.0
3.0,342.2636374732788,0.0,30.51534951787363,141.85918738289206,0.0,2.610536907386791,141.88320530591108,17.360176952117108,0.0,5.751794322776029,0.0,0.0,-0.5374242930282296,0.0,4.65716356660244,0.0,12294.385625543295,0.41709211562407883,141.88508045337534,2.140269729225513,1.2214153261848673,100958.95120390796,287.9516502281338,0.0,0.0,-0.1,401.2578947368421,0.21535220044660466,0.86,nominal,10364.67532628911,nan,pitch_program,11.5,0.0,0.0
3.03,346.53524622476255,0.0,30.59514232940635,142.38695838279202,0.0,2.6597603844240174,142.41179811660794,17.35371638610371,0.0,5.768564845147199,0.0,0.0,-0.5590174163634016,0.0,4.6581904941426275,0.0,12386.071575382217,0.41864645030943315,142.41370086786728,2.1412926878193117,1.2214059633147387,100957.99544986438,287.95113157485883,0.0,0.0,-0.1,401.223947368421,0.21533398114030627,0.86,nominal,10440.59597392742,nan,pitch_program,11.485,0.0,0.0
3.06,350.8226499035718,0.0,30.676486770457316,142.91345596030814,0.0,2.711481368365486,142.93917596561806,17.3472563666695,0.0,5.785928194011864,0.0,0.0,-0.5787782999183658,0.0,4.658915768201183,0.0,12477.883719074896,0.42019722817241506,142.94110788014623,2.1423313275068927,1.221396418433281,100957.02111802674,287.950602835992,0.0,0.0,-0.1,401.19,0.21531576183400794,0.86,nominal,10516.637581852468,nan,pitch_program,11.47,0.0,0.0
3.09,355.12581018991557,0.0,30.759457524247388,143.43867621145975,0.0,2.765691793002447,143.46533687406819,17.34079689381448,0.0,5.803870841066025,0.0,0.0,-0.5980882400264683,0.0,4.65933849158124,0.0,12569.819226820899,0.4217444437581921,143.46729948928595,2.1433878612628643,1.2213866827805768,100956.02731429646,287.9500635260924,0.0,0.0,-0.1,401.156052631579,0.21529754252770958,0.86,nominal,10592.798676325097,nan,pitch_program,11.455,0.0,0.0
3.12,359.4446886461527,0.0,30.844129072436157,143.96261520790384,0.0,2.8223849396256138,143.99027895745743,17.33433796753865,0.0,5.822337286359471,0.0,0.0,-0.6155481817767376,0.0,4.659415028250908,0.0,12661.875283490936,0.42328809189713407,143.9922737900695,2.1444541295269346,1.2213767476206425,100955.01314702678,287.94951316102913,0.0,0.0,-0.1,401.1221052631579,0.21527932322141122,0.86,nominal,10669.07779549141,nan,pitch_program,11.44,0.0,0.0
3.15,363.7792467588554,0.0,30.930575507710905,144.48527042342306,0.0,2.881547842491621,144.5140016998293,17.32787958784201,0.0,5.841325574212617,0.0,0.0,-0.6329429342312711,0.0,4.659157556115319,0.0,12754.04931316104,0.4248281714339226,144.51603024186193,2.1455343757981167,1.2213666042634246,100953.97772926853,287.9489512591999,0.0,0.0,-0.1,401.08815789473687,0.21526110391511288,0.86,nominal,10745.473671951824,nan,pitch_program,11.425,0.0,0.0
3.1799999999999997,368.12944592793417,0.0,31.018870623669617,145.00663896929362,0.0,2.9431705319570995,145.03650436338862,17.321421754724557,0.0,5.860773580444756,0.0,0.0,-0.6482668806287377,0.0,4.658516649912587,0.0,12846.338702805962,0.4263646805717496,145.0385680846913,2.1466178596151,1.2213562440542638,100952.92017769489,287.94837734094614,0.0,0.0,-0.1,401.0542105263158,0.2152428846088145,0.86,nominal,10821.98500657723,nan,pitch_program,11.410000000000002,0.0,0.0
3.21,372.49524751749215,0.0,31.109087679452138,145.52671965193312,0.0,3.0072351927506995,145.55778782379477,17.314964468186293,0.0,5.880697251802208,0.0,0.0,-0.6641223852738121,0.0,4.657523831143605,0.0,12938.741126851457,0.42789762224416056,145.55988816702012,2.1477127094389616,1.221345658401521,100951.83961542184,287.94779093008356,0.0,0.0,-0.1,401.0202631578947,0.21522466530251613,0.86,nominal,10898.610732770125,nan,pitch_program,11.395000000000001,0.0,0.0
3.2399999999999998,376.876612827684,0.0,31.20129957644128,146.04551033972962,0.0,3.073729899638054,146.07785220863565,17.308507728227216,0.0,5.901017132811986,0.0,0.0,-0.6773293740918189,0.0,4.656112637285307,0.0,13031.25413245336,0.42942699720174754,146.07999059374262,2.1488029409781415,1.2213348387558571,100950.73516989317,287.9471915527531,0.0,0.0,-0.1,400.9863157894737,0.21520644599621777,0.86,nominal,10975.349677435308,nan,pitch_program,11.38,0.0,0.0
3.27,381.2735031654314,0.0,31.29557851862583,146.56301125824655,0.0,3.1426314061517298,146.5966998306573,17.30205153484733,0.0,5.921780828656975,0.0,0.0,-0.6921232024077082,0.0,4.654347884656334,0.0,13123.87566062965,0.43095281259828244,146.59887764754907,2.1499044196205275,1.2213237766500926,100949.60597694988,287.94657873962893,0.0,0.0,-0.1,400.9523684210526,0.2151882266899194,0.86,nominal,11052.2009856996,nan,pitch_program,11.365,0.0,0.0
3.3,385.6858797838789,0.0,31.391996354180748,147.07922061491476,0.0,3.2139278518305643,147.114331283283,17.29559588804663,0.0,5.942869930856665,0.0,0.0,-0.7029700812594099,0.0,4.652123642963249,0.0,13216.603353986786,0.4324750705603339,147.1165499000636,2.150990197218336,1.221312463659139,100948.45117674011,287.9459520236978,0.0,0.0,-0.1,400.9184210526316,0.21517000738362105,0.86,nominal,11129.163555510495,nan,pitch_program,11.35,0.0,0.0
3.33,390.11370399609774,0.0,31.490624013804876,147.59414040729484,0.0,3.287588654137566,147.6307505966392,17.289140787825122,0.0,5.964394581410004,0.0,0.0,-0.7174883602164314,0.0,4.649569615794913,0.0,13309.43547797029,0.4339937832808847,147.63301134725222,2.1520924711149836,1.2213008914659107,100947.26992044786,287.9453109439103,0.0,0.0,-0.1,400.8844736842105,0.2151517880773227,0.86,nominal,11206.23678884852,nan,pitch_program,11.335,0.0,0.0
3.36,394.55693704818685,0.0,31.59153219063957,148.10776840297015,0.0,3.363605894489729,148.14595811537112,17.2826862341828,0.0,5.986149491456442,0.0,0.0,-0.7251636769266985,0.0,4.646490965934992,0.0,13402.369647245234,0.4355089521687201,148.1482623154932,2.153160173077894,1.2212890517815604,100946.06136215095,287.94465504076084,0.0,0.0,-0.1,400.85052631578947,0.21513356877102435,0.86,nominal,11283.41955211798,nan,pitch_program,11.32,0.0,0.0
3.3899999999999997,399.0155403283511,0.0,31.69479029052186,148.620109338808,0.0,3.4419366627429224,148.6599604058523,17.27623222711967,0.0,6.008379926408118,0.0,0.0,-0.7410145076851978,0.0,4.643156774074761,0.0,13495.404607131073,0.4370205968519609,148.6623093295746,2.154262252228178,1.2212769364686595,100944.8246713954,287.9439838631116,0.0,0.0,-0.1,400.81657894736844,0.215115349464726,0.86,nominal,11360.711629137333,nan,pitch_program,11.305,0.0,0.0
3.42,403.4894750931829,0.0,31.80046785868766,149.13115882772556,0.0,3.52258560552674,149.17275603356188,17.269778766635728,0.0,6.03067948878091,0.0,0.0,-0.7433187551427027,0.0,4.639165751951253,0.0,13588.53767022678,0.43852871353948275,149.17515094602612,2.1552913164973906,1.2212645373738076,100943.55901610898,287.9432969589185,0.0,0.0,-0.1,400.78263157894736,0.21509713015842763,0.86,nominal,11438.111629450685,nan,pitch_program,11.29,0.0,0.0
3.4499999999999997,407.97870289905893,0.0,31.908632399843945,149.6409268625344,0.0,3.6054847052094434,149.68435627091387,17.263325852730976,0.0,6.053608630031102,0.0,0.0,-0.7643047185400981,0.0,4.635111294648829,0.0,13681.768465006024,0.44003333564590263,149.68679837974662,2.1564046030169166,1.2212518465834237,100942.26358871184,287.942593889401,0.0,0.0,-0.1,400.74868421052633,0.21507891085212927,0.86,nominal,11515.620046042864,nan,pitch_program,11.275,0.0,0.0
3.48,412.48318497962333,0.0,32.019352571348634,150.14940268547917,0.0,3.690672383489592,150.1947542008323,17.25687348540541,0.0,6.076269578293719,0.0,0.0,-0.7553649519338477,0.0,4.630087308139724,0.0,13775.093325919435,0.44153444333580005,150.19724472814116,2.1573546638980576,1.2212388560490905,100940.9375678736,287.9418742082862,0.0,0.0,-0.1,400.71473684210525,0.2150606915458309,0.86,nominal,11593.234678618033,nan,pitch_program,11.26,0.0,0.0
3.51,417.002883226926,0.0,32.13269322475771,150.65660824342126,0.0,3.778021780302448,150.70397159990227,17.250421664659036,0.0,6.100010894878166,0.0,0.0,-0.7913772308047198,0.0,4.625497241091528,0.0,13868.513838759405,0.4430321007852647,150.70651167199182,2.158525090620418,1.2212255581693456,100939.58017790022,287.941137494039,0.0,0.0,-0.1,400.6807894736842,0.21504247223953252,0.86,nominal,11670.957604004645,nan,pitch_program,11.245000000000001,0.0,0.0
3.54,421.5377586824569,0.0,32.24872306577993,151.1625151843639,0.0,3.867661367407306,151.21198630173464,17.24397039049185,0.0,6.1226596826858195,0.0,0.0,-0.7549596034192021,0.0,4.619125115283268,0.0,13962.023557522294,0.4445262435169146,151.2145771200299,2.159297331549313,1.2212119448909633,100938.19059699737,287.9403833000724,0.0,0.0,-0.1,400.64684210526315,0.21502425293323418,0.86,nominal,11748.784340711023,nan,pitch_program,11.23,0.0,0.0
3.57,426.08777396504183,0.0,32.36750242386389,151.66717608616395,0.0,3.959311936132075,151.71884672959737,17.237519662903853,0.0,6.147669041466986,0.0,0.0,-0.8336453059416313,0.0,4.614536194823396,0.0,14055.629024383872,0.44601701373168234,151.72148929979,2.1606737156018667,1.221198009143913,100936.76810374472,287.93961123424486,0.0,0.0,-0.1,400.61289473684207,0.21500603362693582,0.86,nominal,11826.720994124516,nan,pitch_program,11.215,0.0,0.0
3.5999999999999996,430.6528893575054,0.0,32.48910296356556,152.17051308211873,0.0,4.053351323388924,152.224487874409,17.231069481895045,0.0,6.169345883727925,0.0,0.0,-0.7225614173166435,0.0,4.605899522141676,0.0,14149.315882222007,0.4475042215157672,152.2271834426781,2.1609884964111825,1.221183742528735,100935.31184103464,287.9388208307368,0.0,0.0,-0.1,400.57894736842104,0.21498781432063746,0.86,nominal,11904.756615890694,nan,pitch_program,11.2,0.0,0.0
3.63,435.23306928851673,0.0,32.61357518788555,152.67266436704395,0.0,4.149074143999776,152.72903214904642,17.224619847465426,0.0,6.197131121800609,0.0,0.0,-0.9261746205735671,0.0,4.602928339495041,0.0,14243.104468892137,0.44898822571497055,152.7317814864125,2.1630448691806783,1.2211691391291914,100933.8212052486,287.93801176127874,0.0,0.0,-0.1,400.545,0.21496959501433913,0.86,nominal,11982.908547708506,nan,pitch_program,11.185,0.0,0.0
3.6599999999999997,439.8282714716486,0.0,32.7410027860436,153.17340610439422,0.0,4.247586605268242,153.23228879577218,17.218170759614996,0.0,6.214996197328954,0.0,0.0,-0.5955025224361339,0.0,4.589181968866173,0.0,14336.95700061695,0.4504684682245543,153.23509339218606,2.1620338043920917,1.2211541891360294,100932.29519540546,287.9371834818907,0.0,0.0,-0.1,400.51105263157893,0.21495137570804074,0.86,nominal,12061.146719767217,nan,pitch_program,11.17,0.0,0.0
3.69,444.4384654727548,0.0,32.87141004355078,153.67313337020786,0.0,4.34690858357255,153.73460096559796,17.211722218343755,0.0,6.250501490810722,0.0,0.0,-1.183509820598716,0.0,4.592970302682088,0.0,14430.9351655916,0.45194595422615275,153.73746100338832,2.1663315729711785,1.2211388897098194,100930.73352197908,287.9363358347169,0.0,0.0,-0.1,400.4771052631579,0.2149331564017424,0.86,nominal,12139.522180329403,nan,pitch_program,11.155,0.0,0.0
3.7199999999999998,449.0636004962589,0.0,33.00492206661841,154.1711674501374,0.0,4.450400768921119,154.2353880921701,17.205274223651703,0.0,6.2553794858866585,0.0,0.0,-0.16259983596280708,0.0,4.564770958868371,0.0,14524.9280316414,0.4534189842240413,154.23830594277192,2.161108565759089,1.2211232261833225,100929.1346881477,287.93546800656696,0.0,0.0,-0.1,400.4431578947368,0.21491493709544401,0.86,nominal,12217.945188955764,nan,pitch_program,11.14,0.0,0.0
3.75,453.7036622335347,0.0,33.14148284693093,154.66872457585978,0.0,4.552026010417187,154.7356949857488,17.19882677553884,0.0,6.315413115597649,0.0,0.0,-2.001121173444309,0.0,4.59262704116171,0.0,14619.12947258645,0.45489061793911495,154.73866907765742,2.1730548636029754,1.2211072051380127,100927.49936603958,287.9345803614949,0.0,0.0,-0.1,400.4092105263158,0.21489671778914568,0.86,nominal,12296.574574122198,nan,pitch_program,11.125,0.0,0.0
3.78,458.358570953111,0.0,33.28135917441833,155.16362398587572,0.0,4.662544249579987,155.2336610639249,17.192379874005166,0.0,6.275644574393723,0.0,0.0,1.3256180933504218,0.0,4.5175776063071575,0.0,14713.186770088138,0.4563554077932596,155.23669680896796,2.1534819899237214,1.2210907952858638,100925.82436233296,287.93367116536626,0.0,0.0,-0.1,400.3752631578947,0.21487849848284732,0.86,nominal,12375.123404602567,nan,pitch_program,11.11,0.0,0.0
3.81,463.02836697239593,0.0,33.42422566370254,155.65986730949749,0.0,4.762216309473971,155.73269725715465,17.185933519050682,0.0,6.420208486759343,0.0,0.0,-4.818799635273926,0.0,4.631090156542357,0.0,14807.74224171542,0.4578233418945641,155.7357872752775,2.192942042228808,1.2210740348114646,100924.11357500267,287.9327425331859,0.0,0.0,-0.1,400.34131578947364,0.21486027917654893,0.86,nominal,12454.116180099241,nan,pitch_program,11.095,0.0,0.0
3.84,467.71286744137507,0.0,33.57085158122304,156.15001563263752,0.0,4.887530584016545,156.22648731019538,17.179487710675385,0.0,6.220097630484784,0.0,0.0,6.670368656365378,0.0,4.390656041364402,0.0,14901.596173244974,0.4592759254281315,156.22964777339618,2.121952634902136,1.2210568334803213,100922.35779395944,287.93178946472204,0.0,0.0,-0.1,400.3073684210526,0.2148420598702506,0.86,nominal,12532.57526030032,nan,pitch_program,11.080000000000002,0.0,0.0
3.8699999999999997,472.41230923486125,0.0,33.71994350103297,156.6480597828738,0.0,4.969730660331025,156.7268734345678,17.17304244887928,0.0,6.674806919958578,0.0,0.0,-15.15705586877261,0.0,4.821143246712687,0.0,14996.998625522672,0.460747834847908,156.7300762543906,2.238196879193115,1.221039343041687,100920.57250898166,287.93082036724326,0.0,0.0,-0.1,400.2734210526316,0.21482384056395223,0.86,nominal,12612.336112221923,nan,pitch_program,11.065000000000001,0.0,0.0
3.9,477.1261699397531,0.0,33.87371238286458,157.1286901630609,0.0,5.125629394387074,157.21226844317144,17.16659773366236,0.0,6.394146547525022,0.0,0.0,9.355364454458758,0.0,4.489362650581042,0.0,15089.828460243143,0.46217584128377337,157.2155605368841,2.1364588460886194,1.2210213041348144,100918.73124701924,287.92982086951133,0.0,0.0,-0.1,400.2394736842105,0.21480562125765387,0.86,nominal,12690.036316063315,nan,pitch_program,11.05,0.0,0.0
3.9299999999999997,481.85479921812873,0.0,34.03037933696205,157.6209759458548,0.0,5.222231803248837,157.7074626107801,17.160153565024633,0.0,6.755724914087803,0.0,0.0,-12.05265221887802,0.0,4.821809678702703,0.0,15184.818638930032,0.46363256229634675,157.71080562057645,2.244057932637442,1.2210029254594992,100916.85531088628,287.92880253430974,0.0,0.0,-0.1,400.2055263157895,0.21478740195135554,0.86,nominal,12769.545901090121,nan,pitch_program,11.035,0.0,0.0
