time_s,x_m,y_m,altitude_m,vx_mps,vy_mps,vz_mps,speed_mps,mass_kg,roll_deg,pitch_deg,yaw_deg,p_dps,q_dps,r_dps,alpha_deg,beta_deg,qbar_pa,mach,airspeed_mps,load_factor_g,density_kgpm3,pressure_pa,temperature_k,wind_x_mps,wind_y_mps,wind_z_mps,thrust_n,mass_flow_kgps,propulsion_throttle_actual,propulsion_health,energy_j_per_kg,target_distance_m,guidance_mode,pitch_command_deg,heading_command_deg,roll_command_deg,elevator_command_deg,aileron_command_deg,rudder_command_deg,elevator_deg,aileron_deg,rudder_deg,throttle,elevator_saturated,aileron_saturated,rudder_saturated,elevator_failed,aileron_failed,rudder_failed,elevator_raw_rad,aileron_raw_rad,rudder_raw_rad,elevator_effective_rad,aileron_effective_rad,rudder_effective_rad,sensor_time_s,imu_valid,imu_ax_mps2,imu_ay_mps2,imu_az_mps2,gyro_p_rps,gyro_q_rps,gyro_r_rps,imu_accel_norm_mps2,imu_gyro_norm_rps,gps_valid,gps_latency_s,gps_x_m,gps_y_m,gps_z_m,gps_vx_mps,gps_vy_mps,gps_vz_mps,baro_valid,baro_alt_m,baro_bias_m,pitot_valid,pitot_airspeed_mps,pitot_qbar_pa,pitot_compressibility_factor,mag_valid,mag_heading_deg,mag_x_ut,mag_y_ut,mag_z_ut,radar_valid,radar_agl_m,optical_flow_valid,horizon_valid,horizon_roll_deg,horizon_pitch_deg,optical_flow_x_radps,optical_flow_y_radps,optical_flow_quality
0.0,0.0,-180.0,450.0,42.0,2.0,0.0,42.04759208325728,11.0,0.0,3.0000000000000004,3.999999999999999,0.0,0.0,0.0,3.4675827967385846,-14.004401711413385,1203.383344165056,0.13379477880266702,45.29788499340546,1.445343206607887,1.1729463340241415,96034.57625081437,285.22499999999997,-2.6076439091004775,9.86942436359809,0.3586780454497614,11.991235629318206,0.0005955894873527215,0.17333333333333334,nominal,5296.992499999999,939.4147114027968,waypoint,4.273326075035703,16.11341823308929,0.0,-8.67236923185308,-0.0,14.32394487827058,-4.8,0.0,4.8,0.78,0.0,0.0,0.0,0.0,0.0,0.0,-0.08377580409572781,0.0,0.08377580409572781,-0.08377580409572781,0.0,0.08377580409572781,0.0,1.0,-3.5671053427412676,11.71765467703465,7.05472871951396,-0.0025899185012765833,0.00014861275303437778,0.001697870518871144,14.134952032546146,0.00310040769778282,1.0,0.0,3.600756630726422,-178.47686827365297,451.3485857159196,42.18669712124764,2.0254531145758117,0.17937241014133767,1.0,449.3794866581097,0.0,1.0,45.818684704627636,1207.7762988351562,1.0,1.0,5.407943136095607,21.715519963451204,-1.678530464324453,-42.853314571377425,1.0,449.59370880351315,0.0,1.0,-0.27629555862650074,3.586918488082886,,,
0.04,1.6724232938163421,-179.90173524558614,449.9954156471345,41.810582345408555,2.4566188603462247,-0.11460882163664035,41.88284741357965,10.999976176420505,1.8554356586470606,3.204854331040006,2.234213403357622,44.0,-5.8351358757344665,-44.0,3.4626773896465406,-12.132200240223126,1188.4965620041958,0.13296459449790934,45.016818132084325,1.5033803370311383,1.172946855544633,96034.62898314334,285.2250297982936,-2.54921784659964,10.103156119718633,0.3878945149648293,21.36712006260753,0.0010546927169570322,0.30814814814814817,nominal,5290.03399659057,937.7856838771257,waypoint,4.281043974254907,16.136072589936457,0.0,0.6275568861049993,2.9686970538352813,9.415662765342187,-0.45795449111600095,2.374957643068225,8.492530212273751,0.78,0.0,0.0,0.0,0.0,0.0,0.0,-0.007992813694269338,0.04145083046694481,0.1482226140292699,-0.007992813694269338,0.04145083046694481,0.1482226140292699,0.04,1.0,-2.6532219147546856,11.228924565640975,9.172563913861243,0.767106955263303,-0.10321505849879731,-0.76751917658174,14.739886776487102,1.0900422540135577,1.0,0.0,3.600756630726422,-178.47686827365297,451.3485857159196,42.18669712124764,2.0254531145758117,0.17937241014133767,1.0,448.5194376638763,0.0,1.0,44.50201866294238,1186.0512227283994,1.0,1.0,5.407943136095607,21.715519963451204,-1.678530464324453,-42.853314571377425,1.0,449.59370880351315,0.0,1.0,-0.27629555862650074,3.586918488082886,,,
0.08,3.339031763518387,-179.78620133805566,449.990123031578,41.66521174255112,2.888347688262135,-0.13231538891283184,41.76541546880687,10.999933988711827,4.968304909737101,2.755030767244289,-1.2676891831977941,73.28498277288153,6.022826859741932,-88.0,2.727606403209324,-8.543428855692738,1176.2932902169416,0.1322801628084675,44.78509796712536,1.1721496346007132,1.1729474576380055,96034.68986241825,285.2250642002947,-2.4967918537171325,10.312891846942001,0.4141114808677501,28.692425982596713,0.0014089836716503145,0.4130041152263375,nominal,5285.07060466865,936.1576497778433,waypoint,4.2888277218382855,16.15768890145514,0.0,-3.7220786408303073,5.629993282270532,14.32394487827058,-3.069253810887446,4.97898615443007,13.157661945071213,0.78,0.0,0.0,0.0,0.0,0.0,0.0,-0.05356858457936931,0.08689970180601558,0.22964452280585396,-0.05356858457936931,0.08689970180601558,0.22964452280585396,0.08,1.0,-1.6784925880128754,9.782956378414571,5.802606485277683,1.2738065369969132,0.10400585525103022,-1.534002639205355,11.497556909751006,1.9966382768823103,1.0,0.0,3.600756630726422,-178.47686827365297,451.3485857159196,42.18669712124764,2.0254531145758117,0.17937241014133767,1.0,449.27442578156547,0.0,1.0,45.29618529710142,1162.3201406192818,1.0,1.0,-1.9499438925719956,21.963973715763018,-3.078474327561542,-42.479759503548586,1.0,450.23352289614684,0.0,1.0,4.904552297781585,3.201681976187697,,,
0.12,5.002663506765753,-179.65585260549736,449.97962615456913,41.590793581184144,3.2587183139575355,-0.2624219252212373,41.71908701097409,10.999877629364962,8.199653379581903,2.097368009726337,-6.505972126473185,75.25332224980524,1.3210643864517713,-131.99999999999997,2.562722768194998,-3.225193454493234,1168.5748840433923,0.13184537865002138,44.637901709772024,0.7824194471383671,1.1729486517741972,96034.81060475142,285.22513242999526,-2.4507781346001423,10.497009704672017,0.4371262130840022,34.39972471015319,0.0016836968535691161,0.4945587562871514,nominal,5283.033811343319,934.528890337653,waypoint,4.296961981805854,16.178455191481582,0.0,-5.397870308965005,6.909064270159676,14.32394487827058,-4.932147009349493,6.523048647013755,14.090688291630707,0.78,0.0,0.0,0.0,0.0,0.0,0.0,-0.0860822045055402,0.11384867615815139,0.24592890456117078,-0.0860822045055402,0.11384867615815139,0.24592890456117078,0.12,1.0,-1.1416995608198635,6.1204584712943175,4.42653007795762,1.3167131229732048,0.021597720747407595,-2.30540280690585,7.639218436272008,2.6550107366714557,1.0,0.0,3.600756630726422,-178.47686827365297,451.3485857159196,42.18669712124764,2.0254531145758117,0.17937241014133767,1.0,450.39137051292823,0.0,1.0,44.20716475030733,1174.003142970227,1.0,1.0,-1.9499438925719956,21.963973715763018,-3.078474327561542,-42.479759503548586,1.0,450.23352289614684,0.0,1.0,4.904552297781585,3.201681976187697,,,
0.16,6.665101351755851,-179.51659684306065,449.96180482025653,41.56094612475245,3.4813940609175833,-0.445533357815565,41.708882115982135,10.999810281490818,11.03300134462342,1.4089010105314503,-13.522185312611972,65.47207846013549,-12.358053279805771,-176.0,3.3396610914043854,3.686214403119336,1164.6466637801996,0.13162344935718912,44.56277382154001,0.643829022089307,1.1729506791507809,96035.01559833555,285.22524826866834,-2.411535805343297,10.654085949705271,0.45676074371315895,38.83567817303059,0.0018976157265689474,0.5579901437788956,nominal,5282.433356923015,932.8994875997672,waypoint,4.3055788249868225,16.198747112021778,0.0,-5.98609725851148,7.403235426920088,14.32394487827058,-5.775307208679083,7.227198070938822,14.277293560942605,0.78,0.0,0.0,0.0,0.0,0.0,0.0,-0.10079812610561323,0.12613840203166515,0.24918578091223414,-0.10079812610561323,0.12613840203166515,0.24918578091223414,0.16,1.0,-1.1238997456437374,1.2340885427589314,6.060516594927687,1.1454513102018269,-0.2164361744391878,-3.0748879848223987,6.286174239314467,3.2884402747889623,1.0,0.0,3.600756630726422,-178.47686827365297,451.3485857159196,42.18669712124764,2.0254531145758117,0.17937241014133767,1.0,448.9837929256056,0.0,1.0,44.49717877780451,1163.6312334732593,1.0,1.0,-12.502939301076756,22.34562487277898,-2.5150606893394496,-42.42465729543256,1.0,450.0283058536965,0.0,1.0,10.744899002171374,1.851158049656692,,,
0.2,8.325685946816352,-179.37681940668725,449.938211998574,41.51461487651251,3.4944359093350195,-0.5898205420637924,41.66559994697597,10.999734376861756,12.886813517791758,0.8707626104787879,-20.982660786259036,42.63297250203355,-25.539087802680662,-185.4956645237487,4.813713009020488,10.752179706821295,1161.7708167168219,0.1314606551212462,44.50766975090087,1.1200754167075408,1.1729533631028823,96035.28698019177,285.22540162200926,-2.3793661955705088,10.78290594572652,0.47286324321581513,42.28846776740278,0.002063773199192082,0.6073256673835854,nominal,5280.397676166538,931.2722861363918,waypoint,4.314571797510462,16.2190476559732,0.0,-5.358042938256755,6.827649947687553,14.32394487827058,-5.44149579234122,6.907559572337807,14.314614614804986,0.78,0.0,0.0,0.0,0.0,0.0,0.0,-0.09497201780977194,0.12055965781494615,0.24983715618244684,-0.09497201780977194,0.12055965781494615,0.24983715618244684,0.2,1.0,-1.2475659509606403,-3.951461258925547,10.158634535714722,0.741712934410615,-0.4466246680685662,-3.236214600287157,10.971249815449545,3.350029344694032,1.0,0.0,10.7070630313152,-179.91132931550598,452.17994550357236,41.838953473555115,3.445582025783397,-0.5153512118110835,1.0,448.7628895041592,0.0,1.0,44.621245005719786,1170.5469234734746,1.0,1.0,-12.502939301076756,22.34562487277898,-2.5150606893394496,-42.42465729543256,1.0,450.0283058536965,0.0,1.0,10.744899002171374,1.851158049656692,,,
0.24,9.98080322154627,-179.24536796340612,449.91341027208307,41.377931868247956,3.286286082028163,-0.620043162273571,41.51285795304129,10.999651825933789,13.436339857476336,0.7062643353052868,-26.752317944681373,11.751533145954433,-28.863979977800472,-141.4956645237487,6.1603752518476895,15.908981268138138,1156.2125110160491,0.1311456070990833,44.40101880075414,1.6933600270437195,1.1729561845867365,96035.57226842309,285.22556283323144,-2.3545114956353306,10.882473555826179,0.4853091944782724,44.999592019277124,0.0021908198807831024,0.6456977412983442,nominal,5273.802032559415,929.6528715086805,waypoint,4.323634794196637,16.239819321053105,0.0,-3.1233180173864725,5.389626874722418,14.32394487827058,-3.5869535723774226,5.693213414245496,14.322078825577462,0.78,0.0,0.0,0.0,0.0,0.0,0.0,-0.06260414995415875,0.09936531909729174,0.24996743123648937,-0.06260414995415875,0.09936531909729174,0.24996743123648937,0.24,1.0,-1.2802172322666125,-7.739762245329449,14.552381763597959,0.20426203882170235,-0.5068456752429786,-2.4722554947017317,16.53223187502274,2.531928662126762,1.0,0.0,10.7070630313152,-179.91132931550598,452.17994550357236,41.838953473555115,3.445582025783397,-0.5153512118110835,1.0,449.14446820688323,0.0,1.0,44.51542620762215,1162.5092427855025,1.0,1.0,-26.711315695444007,20.91313605267617,0.8133228674951911,-43.19508129234309,1.0,450.3337265356619,0.0,1.0,13.275296063269538,-0.14048876595939053,,,
0.28,11.625999807653875,-179.12848372541876,449.8928031893254,41.12991465269012,2.922105949684221,-0.5151770689419148,41.2368038277837,10.999564193138557,12.772260666684113,0.47783198743089444,-30.701802385798935,-17.622859361208125,-16.832046922072117,-97.49566452374872,6.468831970363795,19.296329614473976,1146.4990375055154,0.13059339941391146,44.2140722241299,1.875093536825938,1.1729585288851976,96035.80930720911,285.22569677926936,-2.337156083863613,10.952018845409595,0.49400235567619943,47.15151421472218,0.0022859215514987,0.67554268767649,nominal,5262.178253362156,928.0468492162644,waypoint,4.3324071748226505,16.26135783217794,0.0,-3.657007929501033,3.6401922448491617,14.32394487827058,-3.642997058076311,4.0507964787284285,14.323571667731956,0.78,0.0,0.0,0.0,0.0,0.0,0.0,-0.06358229330389871,0.07069973588200353,0.24999348624729786,-0.06358229330389871,0.07069973588200353,0.24999348624729786,0.28,1.0,-1.087355376945205,-10.204014573166837,15.379516381646038,-0.30695525497026416,-0.2963745461416747,-1.700025569287267,18.48874736856155,1.752753929216831,1.0,0.0,10.7070630313152,-179.91132931550598,452.17994550357236,41.838953473555115,3.445582025783397,-0.5153512118110835,1.0,451.2430272592168,0.0,1.0,44.06397317500408,1163.3988070232554,1.0,1.0,-26.711315695444007,20.91313605267617,0.8133228674951911,-43.19508129234309,1.0,450.3337265356619,0.0,1.0,13.275296063269538,-0.14048876595939053,,,
0.32,13.25876443853757,-179.02891448210215,449.87678716623304,40.81911577209237,2.489231082915544,-0.40040057730805256,40.89690458240013,10.999472756276496,11.045949348926047,0.1874335764720568,-32.826988023579325,-43.46959940364106,-3.861654161989189,-53.495664523748715,5.766433693369464,20.977610187111217,1134.6711608276262,0.12991789388520214,43.985379180802624,1.7523186610433363,1.1729603508990047,96035.99353636269,285.2258008834195,-2.3274338102673484,10.991004035933209,0.498875504491651,48.86280256321368,0.0023566325642320704,0.6987554237483811,nominal,5248.06259707471,926.4573721229568,waypoint,4.340847649687742,16.283786161081068,0.0,-4.21289392009311,1.7081931249265396,14.32394487827058,-4.098914547689751,2.1767137956869176,14.323870236162856,0.78,0.0,0.0,0.0,0.0,0.0,0.0,-0.07153955461508028,0.03799082260831986,0.24999869724945958,-0.07153955461508028,0.03799082260831986,0.24999869724945958,0.32,1.0,-0.5232854448665583,-11.211918996945974,13.070582140193338,-0.7612243893651552,-0.06906257398257216,-0.9367781396332587,17.22849595102336,1.2090432138613578,1.0,0.0,10.7070630313152,-179.91132931550598,452.17994550357236,41.838953473555115,3.445582025783397,-0.5153512118110835,1.0,451.20148735879815,0.0,1.0,44.07571213049229,1146.606186428039,1.0,1.0,-33.228775460828366,20.06306690218566,4.6705571681742075,-43.375268359657646,1.0,449.695436688897,0.0,1.0,10.901410575578177,-0.020337990350771707,,,
0.36,14.879087525878404,-178.94690642307486,449.86219376981643,40.50807718352083,2.0502014756819316,-0.3648349104160698,40.56156737243801,10.999378490973927,8.479094651517803,-0.012565853115120802,-33.1778865087639,-64.19549612828027,3.4409428735484706,-9.49566452374872,4.487883300999825,20.950944002734136,1123.427779809285,0.12927250454306813,43.766881569921715,1.4864564098699773,1.1729620110739305,96036.16140157143,285.2258957404962,-2.3254247934881174,10.999127663428633,0.4998909579285791,50.214587294370105,0.002409798130696482,0.7168097740265186,nominal,5234.261456387184,924.884772232674,waypoint,4.349149327362953,16.30712220646888,0.0,-3.76717079629475,-0.24088524372906162,14.32394487827058,-3.83351954657375,0.24263456415413426,14.323929949849036,0.78,0.0,0.0,0.0,0.0,0.0,0.0,-0.06690753802727205,0.004234772023631053,0.24999973944989193,-0.06690753802727205,0.004234772023631053,0.24999973944989193,0.36,1.0,0.07986497391689487,-10.891423771903474,9.758814850020254,-1.1223705643962985,0.062443938205809485,-0.16432833908119052,14.624088261160717,1.1360540181994425,1.0,0.0,10.7070630313152,-179.91132931550598,452.17994550357236,41.838953473555115,3.445582025783397,-0.5153512118110835,1.0,450.24325917622025,0.0,1.0,43.825945132512,1122.5071257745865,1.0,1.0,-33.228775460828366,20.06306690218566,4.6705571681742075,-43.375268359657646,1.0,449.695436688897,0.0,1.0,10.901410575578177,-0.020337990350771707,,,
0.4,16.48882601069753,-178.88122762992901,449.8447690414186,40.24346212047809,1.6419698286462465,-0.4356182099463768,40.27930078322334,10.999282099048699,5.338538186359226,-0.06413186077915621,-31.78196119781336,-78.55695178254192,5.47993821650395,34.50433547625128,3.1062546485162406,19.20867729667741,1114.6663735920806,0.12876729728053632,43.59584576030882,1.165254833917848,1.1729639933493865,96036.36183539283,285.22600900123075,-2.3311511190234406,10.976326909657725,0.4970408637072156,51.26953995214222,0.0024508102587232268,0.73085204646507,nominal,5222.681240112716,923.3272664738038,waypoint,4.357584208027461,16.33132826842612,0.0,-2.877432298277217,-2.0572072162225,14.32394487827058,-3.0686497479365236,-1.597238860147173,14.323941892586273,0.78,0.0,0.0,0.0,0.0,0.0,0.0,-0.053558041691986406,-0.02787707705036941,0.2499999478899784,-0.053558041691986406,-0.02787707705036941,0.2499999478899784,0.4,1.0,0.6029441377076755,-9.408256930468397,6.47700498336023,-1.3715456859264352,0.09355336355099296,0.6019944485078736,11.438113203556604,1.500762178511112,1.0,0.0,17.421009771266874,-179.79740182814427,449.81452889723505,40.08217987623064,1.7031558330143457,-0.7073445014995289,1.0,448.59749722496895,0.0,1.0,43.77390646811906,1096.6678648291079,1.0,1.0,-30.655472763040446,20.42981733681577,8.756466250819809,-42.44505246770926,1.0,449.642959183028,0.0,1.0,5.232765594068873,0.05695802297448317,,,
0.44,18.090985456945184,-178.82959684975435,449.8205722447584,40.05398615619134,1.2907695043663232,-0.604919916504973,40.07934406922292,10.99918406663835,1.9196445848068555,-0.016371158719229208,-28.640696099763638,-85.55294345261355,3.78214287196626,78.50433547625127,2.0268508313243845,15.777645940082396,1109.3996638267597,0.1284625433273048,43.492679331202204,0.8519705119995767,1.172966746034485,96036.64016777769,285.2261662804091,-2.344574619664787,10.9227780878723,0.4903472609840376,52.07932586589871,0.002483628749638944,0.7417738139172766,nominal,5214.409825313637,921.7816564771516,waypoint,4.366413395528212,16.35632392151155,0.0,-2.240809359719354,-3.601741397258059,12.666209519006985,-2.406377437362788,-3.2008408898358818,12.997755993722842,0.78,0.0,0.0,0.0,0.0,0.0,0.0,-0.041999209327684264,-0.05586521236010124,0.22685363746129103,-0.041999209327684264,-0.05586521236010124,0.22685363746129103,0.44,1.0,0.9798097606947394,-7.263088951719039,3.9742748987185883,-1.494121085413377,0.06343890128789582,1.3728613331185573,8.337106767837419,2.0300666373411307,1.0,0.0,17.421009771266874,-179.79740182814427,449.81452889723505,40.08217987623064,1.7031558330143457,-0.7073445014995289,1.0,448.50287237175127,0.0,1.0,44.05319676709151,1090.3976867182153,1.0,1.0,-30.655472763040446,20.42981733681577,8.756466250819809,-42.44505246770926,1.0,449.642959183028,0.0,1.0,5.232765594068873,0.05695802297448317,,,
0.48,19.68884794252344,-178.7891002295113,449.7867094063782,39.946562139456404,1.0124155060767857,-0.8465709595060816,39.968356162192556,10.999084721488364,-1.4535765433413972,0.034463487706755815,-23.745790659789094,-84.33554563632538,-0.7731736094290566,122.50433547625127,1.5400432963713426,10.70883002841367,1107.6583433737,0.12836142562686303,43.45846137555747,0.6008293189676203,1.172970598359761,96037.02968839201,285.22638638885854,-2.3655961160348697,10.838895279422252,0.4798619099277814,52.69036570224032,0.002510791910893431,0.7502685219356596,nominal,5209.635580953996,920.2442224813726,waypoint,4.375836979197687,16.381995483785634,0.0,-2.2055950871354106,-4.725278200354792,7.115202424900433,-2.245751557180886,-4.42039073825101,8.291713138664914,0.78,0.0,0.0,0.0,0.0,0.0,0.0,-0.03919575885459617,-0.07715037260714297,0.1447176949005759,-0.03919575885459617,-0.07715037260714297,0.1447176949005759,0.48,1.0,1.2018208967235062,-5.086562908770678,2.821998848796074,-1.4723382657855764,-0.017220208801025295,2.13677442445931,5.939795719996546,2.5949723400281255,1.0,0.0,17.421009771266874,-179.79740182814427,449.81452889723505,40.08217987623064,1.7031558330143457,-0.7073445014995289,1.0,450.90151743494647,0.0,1.0,43.44591737797728,1089.2540236084312,1.0,1.0,-21.335511836028626,21.915476955714844,10.700923208197011,-41.32420601538942,1.0,449.8951069437405,0.0,1.0,-1.0355293239248913,0.09707504104336691,,,
0.52,21.28516921560837,-178.75659288787358,449.74191964976563,39.90803182712317,0.812683540943064,-1.1197439153136397,39.93200828017891,10.998984289811927,-4.414164430634177,0.06681403355293868,-18.56002878769006,-73.91643399724057,-7.450326962421739,129.56424212086492,1.7451936045060203,5.5189861118602925,1108.6031429388054,0.12841581373555214,43.47689737900592,0.4319358007063389,1.172975693774771,96037.54490214513,285.2266775222765,-2.3940553375866394,10.725327131754849,0.46566589146935605,53.14641258595223,0.0025335977259449056,0.7568755170610686,nominal,5207.744238977512,918.7115575945928,waypoint,4.385952875783277,16.408205747762356,0.0,-2.316451578972773,-5.245692409837964,4.367555288645414,-2.3023115746143956,-5.0806320755205725,5.152386858649314,0.78,0.0,0.0,0.0,0.0,0.0,0.0,-0.0401829173837963,-0.08867375780026719,0.0899261150199182,-0.0401829173837963,-0.08867375780026719,0.0899261150199182,0.52,1.0,1.0449977707359566,-2.3623305851216383,3.342626068821038,-1.28910178221115,-0.1282387564114152,2.2640780365602287,4.22442601665673,2.6085010905077897,1.0,0.0,17.421009771266874,-179.79740182814427,449.81452889723505,40.08217987623064,1.7031558330143457,-0.7073445014995289,1.0,450.08237142241234,0.0,1.0,42.98754837087091,1094.8046226658614,1.0,1.0,-21.335511836028626,21.915476955714844,10.700923208197011,-41.32420601538942,1.0,449.8951069437405,0.0,1.0,-1.0355293239248913,0.09707504104336691,,,
0.56,22.881998659978397,-178.72782159738327,449.68707318206106,39.920736109250655,0.7192822622578873,-1.371161692614095,39.95075246931552,10.99888294590289,-6.807337424200082,0.18352909376371213,-14.586173542183833,-59.62080565705151,-12.623568447436083,98.64596358930812,2.386958383298289,1.7693973642903833,1110.9094600817336,0.1285488990208583,43.5219823874853,0.536247708067134,1.1729819332940046,96038.1758006618,285.2270340243166,-2.4297314295855017,10.582951842565627,0.44786898032070355,53.48766529374296,0.0025525101171732342,0.7620142910474978,nominal,5207.9550476531185,917.1804520490754,waypoint,4.39672532140207,16.43473783919127,0.0,-1.737319488462324,-5.374034340427399,5.134136472022889,-1.8503179056927384,-5.315353887446034,5.137786549348173,0.78,0.0,0.0,0.0,0.0,0.0,0.0,-0.03229413966294421,-0.09277042624461337,0.08967129155080375,-0.03229413966294421,-0.09277042624461337,0.08967129155080375,0.56,1.0,0.837050690918973,0.07371740510791291,5.172289672269799,-1.0413923081526153,-0.21774103845154577,1.7230446086482214,5.240101961684773,2.02504119037048,1.0,0.0,17.421009771266874,-179.79740182814427,449.81452889723505,40.08217987623064,1.7031558330143457,-0.7073445014995289,1.0,450.71546870569244,0.0,1.0,42.56001545863942,1097.4214710723004,1.0,1.0,-13.788172103439251,23.109323196898647,10.999902271245151,-40.59310172320975,1.0,449.8171571356742,0.0,1.0,-7.05026825709877,0.11683822766467078,,,
0.6,24.480382824759953,-178.69822021589192,449.6247657094043,39.959604119538916,0.7400345372837136,-1.557686816418674,39.99679988104909,10.998780845498203,-8.756085353899373,0.35294815720741685,-12.35744097953843,-48.46243457514999,-11.743254422090756,54.645963589308124,3.0026810704751004,-0.027250961115225198,1113.1498724092223,0.12867797824246313,43.56571484761973,0.7388364389616139,1.1729890216331438,96038.89252713561,285.22743902288886,-2.472345259214066,10.41287036888731,0.4266087961109138,53.74911751365254,0.0025675643935427522,0.766011115259165,nominal,5209.184709006473,915.6484275108023,waypoint,4.408006632067915,16.461337114813567,0.0,-1.3257867800248035,-5.50056478598891,7.699620225581627,-1.4306930051583908,-5.463522606280335,7.187253490334935,0.78,0.0,0.0,0.0,0.0,0.0,0.0,-0.024970303525266135,-0.09535645823673367,0.12544123758179906,-0.024970303525266135,-0.09535645823673367,0.12544123758179906,0.6,1.0,0.6144385418912118,1.8397312270354143,7.055213312508341,-0.8453907603954758,-0.20163403284925266,0.953660664594131,7.316978925382084,1.2902753520699424,1.0,0.0,27.228440049029558,-180.81625931136261,443.969850679497,40.12113168516493,0.7891070140521849,-1.4079806678446554,1.0,449.83996718172216,0.0,1.0,43.34723894451195,1109.1236405501995,1.0,1.0,-13.788172103439251,23.109323196898647,10.999902271245151,-40.59310172320975,1.0,449.8171571356742,0.0,1.0,-7.05026825709877,0.11683822766467078,,,
0.64,26.080673230136643,-178.66424760966564,449.5573363689323,40.00726013441724,0.8493151556572314,-1.6857335118008017,40.051765219143185,10.998678142922461,-10.53941724211988,0.5101569996566545,-11.898810557395823,-44.500515921384824,-5.796845823336163,10.645963589308122,3.2955351802694346,0.08204026260844811,1114.8172323899698,0.1287737939668624,43.59818808771997,0.8376836122188155,1.1729966926927031,96039.66817563206,285.22787731360194,-2.5215645170392555,10.216397913629384,0.40204973920367304,53.953007005014975,0.002579225161516136,0.7691197563126839,nominal,5210.723401287073,914.1139707677623,waypoint,4.419659702040353,16.487796864423512,0.0,-1.326040526481255,-5.91796089501756,11.058033772098838,-1.3469710222166822,-5.827073237270115,10.283877715746058,0.78,0.0,0.0,0.0,0.0,0.0,0.0,-0.023509079266634793,-0.10170161374520827,0.17948752601224222,-0.023509079266634793,-0.10170161374520827,0.17948752601224222,0.64,1.0,0.4871641088419914,2.647506903217191,7.777596838843104,-0.7797204529342214,-0.09781180033158861,0.1881092194139234,8.230287617034337,0.8080323084113465,1.0,0.0,27.228440049029558,-180.81625931136261,443.969850679497,40.12113168516493,0.7891070140521849,-1.4079806678446554,1.0,449.8073236854456,0.0,1.0,43.52664376024412,1116.1885624584272,1.0,1.0,-10.724880675198557,23.05079597311768,12.504811888460475,-40.127743129033895,1.0,449.29472208456116,0.0,1.0,-10.265664128423937,0.3273623446852222,,,
0.68,27.683007330878112,-178.62417348143478,449.48567958509466,40.058352518536694,1.0018532057710534,-1.7914195959407102,40.11090251432881,10.998574973916,-12.515796881399575,0.7057449414873525,-13.220355530320765,-49.765069733016134,1.8115742048648533,-33.354036410691876,3.1847597045075413,2.0460809759003378,1116.3148821883376,0.12885970956035525,43.6273116473046,0.8092377680353252,1.1730048447269525,96040.49245852031,285.2283430826969,-2.577008041772081,9.99505375540111,0.37438171942513854,54.10980772146326,0.0025884489524561475,0.7715375882431986,nominal,5212.390989960162,912.5763903322461,waypoint,4.431633557168262,16.514014627220906,0.0,-0.988332884907852,-6.851003457589468,14.32394487827058,-1.060060512369618,-6.646217413525598,13.515931445765677,0.78,0.0,0.0,0.0,0.0,0.0,0.0,-0.01850154621122791,-0.11599837666940319,0.23589750520244845,-0.01850154621122791,-0.11599837666940319,0.23589750520244845,0.68,1.0,0.6535097840189209,2.1096720957740818,7.5957934778477405,-0.8697263668740292,0.03579593857349728,-0.5819579057494199,7.9103647164723405,1.0470818050747068,1.0,0.0,27.228440049029558,-180.81625931136261,443.969850679497,40.12113168516493,0.7891070140521849,-1.4079806678446554,1.0,447.06348449404334,0.0,1.0,43.710647261544544,1109.7016797688893,1.0,1.0,-10.724880675198557,23.05079597311768,12.504811888460475,-40.127743129033895,1.0,449.29472208456116,0.0,1.0,-10.265664128423937,0.3273623446852222,,,
0.72,29.2874683894943,-178.57848753884844,449.40952406461105,40.11152646540473,1.1421485646584864,-1.903888012090269,40.172924318391324,10.998471435957901,-15.112241897409108,1.0496266138491246,-16.32086888637628,-66.11048676113236,10.164551103318926,-77.35403641069188,2.5856633307102994,5.803713148306908,1118.2924271928812,0.12897320793446668,43.66577604817143,0.6722416484769855,1.1730135086075006,96041.3684975912,285.22883809358,-2.6382483388376703,9.750549500261652,0.3438186875327065,54.22473731457862,0.0025962338112382835,0.7734181241891545,nominal,5214.1338333138165,911.0357634112061,waypoint,4.443946695943604,16.540020582906838,0.0,0.11934533085768774,-8.534840934105116,14.32394487827058,-0.1165358377877734,-8.157116229989212,14.1623421917696,0.78,0.0,0.0,0.0,0.0,0.0,0.0,-0.0020339340659666708,-0.14236853568117877,0.2471795010404897,-0.0020339340659666708,-0.14236853568117877,0.2471795010404897,0.72,1.0,0.8795285207773813,-0.2851754578462013,6.541391994973218,-1.1519505371359424,0.1755677298541737,-1.348791395309224,6.60641390563128,1.7824287631863827,1.0,0.0,27.228440049029558,-180.81625931136261,443.969850679497,40.12113168516493,0.7891070140521849,-1.4079806678446554,1.0,448.8484632414634,0.0,1.0,43.68249634520297,1126.668654142763,1.0,1.0,-17.52191177160402,22.265740780418263,17.475358820152252,-38.74166178625394,1.0,449.1401726847244,0.0,1.0,-15.359389724142341,1.3681034236982956,,,
0.76,30.89364844201396,-178.53090069418278,449.32791192884594,40.15450131299144,1.1896711166415805,-2.040303394127802,40.2238999974007,10.998367586605452,-18.83755357027123,1.4206837612773981,-20.326902233649474,-95.32768057357453,20.383539287412596,-98.56760081131551,1.2514231218196186,10.320955229346378,1120.973671543115,0.12912709885958862,43.717918737803444,0.49477648178899014,1.173022793317652,96042.30731287505,285.2293685724625,-2.704814170545714,9.48477584624407,0.31059698078050874,54.304253192954015,0.0026031457546125732,0.7748807632582313,nominal,5215.3826330174625,909.4936068849061,waypoint,4.456654061917679,16.566031350730942,0.0,0.48497523140491267,-11.249783340672588,14.32394487827058,0.36467301756637543,-10.631249918535913,14.291624340970385,0.78,0.0,0.0,0.0,0.0,0.0,0.0,0.0063647448497163705,-0.1855503146808306,0.24943590020809794,0.0063647448497163705,-0.1855503146808306,0.24943590020809794,0.76,1.0,1.3382263026189098,-3.1996298827723617,3.3531006672929813,-1.6642773570031781,0.3574486148057778,-1.719665258298705,4.824081789185543,2.4196770928906206,1.0,0.0,27.228440049029558,-180.81625931136261,443.969850679497,40.12113168516493,0.7891070140521849,-1.4079806678446554,1.0,447.7311758046691,0.0,1.0,43.52657111911907,1132.9802720511607,1.0,1.0,-17.52191177160402,22.265740780418263,17.475358820152252,-38.74166178625394,1.0,449.1401726847244,0.0,1.0,-15.359389724142341,1.3681034236982956,,,
0.8,32.50056526699761,-178.48697505035483,449.2374174365548,40.172920624591285,1.098141095698704,-2.262362307279465,40.25155585297509,10.998263460775268,-24.17716643344702,1.2180529622139988,-22.869244943543954,-135.0539345256038,28.04372588310604,-57.33351034893518,-0.8542489041973279,12.972698030483812,1124.1771106960455,0.12931077157246537,43.780149036143584,0.6216153428838737,1.1730330886063127,96043.34831395568,285.2299567866624,-2.7761968830951385,9.199787963000118,0.27497349537501475,54.35645131044973,0.0026093569511484336,0.7760183714230688,nominal,5215.607993996776,907.9527127685726,waypoint,4.469960814126173,16.592366784702556,0.0,-3.2278471531267705,-14.32394487827058,14.32394487827058,-2.509343118988141,-13.585405886323647,14.31748077081054,0.78,0.0,0.0,0.0,0.0,0.0,0.0,-0.0437962994886069,-0.23711006293616613,0.24988718004161958,-0.0437962994886069,-0.23711006293616613,0.24988718004161958,0.8,1.0,1.5456956917627753,-4.965553047207679,-3.1334152910845643,-2.357159193251776,0.4944038997539071,-0.9997048089270074,6.0715882290031855,2.6076894721985244,1.0,0.0,32.7004649315232,-173.44639408543185,449.90614452437757,39.84934118564421,1.1793335611917815,-2.456029244336343,1.0,450.99676554090865,0.0,1.0,44.1271557376102,1116.031548905554,1.0,1.0,-22.526532774357943,21.212200405173785,25.671919534045788,-34.531092978412744,1.0,449.33340992732144,0.0,1.0,-24.1172859330853,1.7244177969625245,,,
0.84,34.10622710062641,-178.45264269830002,449.1299994743203,40.141545840720106,0.8583088013701055,-2.6854490558619593,40.2404278445542,10.998159086497223,-30.890791158405595,0.9092021057243929,-23.630800857786078,-168.38755804020332,15.673600942343764,-13.333510348935178,-2.6614831290101026,13.610889199260047,1127.0666294999035,0.12947601841074255,43.836149546184984,0.9898243065101665,1.173045309317433,96044.58400559965,285.23065500341687,-2.851857600883029,8.897789599621962,0.23722369995274525,54.39362887472464,0.0026144816334562667,0.776903177773498,nominal,5214.10672590123,906.4173163825573,waypoint,4.484358841417102,16.619352812932938,0.0,-4.082422481611611,-14.32394487827058,14.32394487827058,-3.7678066090869167,-14.176237079881194,14.322652056778573,0.78,0.0,0.0,0.0,0.0,0.0,0.0,-0.0657606309069696,-0.24742201258723323,0.24997743600832392,-0.0657606309069696,-0.24742201258723323,0.24997743600832392,0.84,1.0,1.1851947352997376,-5.498745914899188,-7.817551860942233,-2.9364540543854574,0.2756587001045776,-0.23570192743906607,9.630940260209492,2.9587675696239857,1.0,0.0,32.7004649315232,-173.44639408543185,449.90614452437757,39.84934118564421,1.1793335611917815,-2.456029244336343,1.0,453.5523559343142,0.0,1.0,43.630224403267526,1120.3711176659021,1.0,1.0,-22.526532774357943,21.212200405173785,25.671919534045788,-34.531092978412744,1.0,449.33340992732144,0.0,1.0,-24.1172859330853,1.7244177969625245,,,
0.88,35.7080112472814,-178.4319890753465,449.00064271658783,40.04460366637457,0.5163405738382549,-3.233918943312006,40.17829167743601,10.998054507231885,-37.65892152355245,0.4949632085724759,-22.431210110385443,-169.03151324172683,-8.345441790736782,30.666489651064822,-3.2852872722982256,12.37927391991485,1128.329850600336,0.12954755314888985,43.86043340779386,1.1171351705835886,1.1730600260875244,96046.07208912537,285.23149582234214,-2.931220025042247,8.581116043531484,0.19763950544143538,54.43104761799383,0.0026177295387779334,0.7775913604904985,nominal,5210.339713955188,904.8915092618711,waypoint,4.500151653741101,16.64719330541937,0.0,-4.993837050270326,-14.32394487827058,14.069428924809603,-4.748630962033644,-14.294403318592703,14.120073551203397,0.78,0.0,0.0,0.0,0.0,0.0,0.0,-0.08287924524963293,-0.24948440251744664,0.24644177409226742,-0.08287924524963293,-0.24948440251744664,0.24644177409226742,0.88,1.0,0.9634486253190278,-4.825664143695996,-9.851695773616369,-2.9501708306917305,-0.1455203530010276,0.5374759277396499,11.012319342321714,3.002259894862781,1.0,0.0,32.7004649315232,-173.44639408543185,449.90614452437757,39.84934118564421,1.1793335611917815,-2.456029244336343,1.0,449.50440365935776,0.0,1.0,43.61348034938908,1140.4475635317428,1.0,1.0,-22.23858645404896,21.818366276434375,32.71822861878652,-27.478282609510465,1.0,449.1946375053362,0.0,1.0,-37.676479958785066,0.4903395790391326,,,
0.92,37.30531790253912,-178.42642219085644,448.8478778841566,39.93266638144307,0.1391721122518232,-3.8191208107809245,40.1151205529262,10.997949798050334,-44.25062603308724,0.49803705599492837,-20.080918781998605,-164.46370371612653,-38.638736627913964,44.40227435250542,-2.4668554070446347,10.68866930915267,1129.6825890515934,0.12962400035628405,43.886392244833125,0.8491847696778692,1.1730774061493527,96047.82947655897,285.23248879375296,-3.0136741676206604,8.252216062212419,0.15652700777655232,54.45700152509832,0.002620527773473619,0.7781266137148322,nominal,5206.305490140565,903.3764191560425,waypoint,4.51743373310382,16.675966788674305,0.0,-2.406112442900737,-14.32394487827058,10.794856249418814,-2.8746161467273184,-14.318036566335005,11.459899709775732,0.78,0.0,0.0,0.0,0.0,0.0,0.0,-0.05017151649138412,-0.24989688050348932,0.2000129818839291,-0.05017151649138412,-0.24989688050348932,0.2000129818839291,0.92,1.0,1.2079362243487362,-4.272660047951774,-7.066746185499963,-2.8680707701144423,-0.6709799638435175,0.7733489089290726,8.34587535599085,3.045342770396476,1.0,0.0,32.7004649315232,-173.44639408543185,449.90614452437757,39.84934118564421,1.1793335611917815,-2.456029244336343,1.0,449.3105057069766,0.0,1.0,44.651049800999,1152.5275619836073,1.0,1.0,-22.23858645404896,21.818366276434375,32.71822861878652,-27.478282609510465,1.0,449.1946375053362,0.0,1.0,-37.676479958785066,0.4903395790391326,,,
0.96,38.8999866853824,-178.43350409221597,448.6761710829733,39.86671957108194,-0.17704753398796885,-4.292670029582303,40.09755218428492,10.997844976939394,-50.601776359078734,0.47172044307903593,-16.97965105438205,-158.28324547258154,-56.748058988263786,53.02941736294533,-0.9135289888523066,8.815487505514412,1132.5643325029905,0.12978789145257685,43.94196631116151,0.5320762994914648,1.173096941474966,96049.80480110084,285.23360488796067,-3.0985775015190566,7.913632967425933,0.1142041209282416,54.46147466980378,0.002624061716224445,0.7785429217782028,nominal,5203.917018736567,901.8692796293714,waypoint,4.53594139574488,16.705562078461718,0.0,-2.6258156865789264,-14.32394487827058,8.004444640136114,-2.6755757786086045,-14.322763215883466,8.695535654064036,0.78,0.0,0.0,0.0,0.0,0.0,0.0,-0.046697606723331016,-0.24997937610069787,0.15176572738797608,-0.046697606723331016,-0.24997937610069787,0.15176572738797608,0.96,1.0,1.5462705039380722,-3.714583104792005,-3.35539699904737,-2.7639132306335696,-0.9896003467752245,0.9290782696956158,5.239061856379557,3.079238805943693,1.0,0.0,32.7004649315232,-173.44639408543185,449.90614452437757,39.84934118564421,1.1793335611917815,-2.456029244336343,1.0,448.8705244196607,0.0,1.0,43.904782037353186,1130.235288152045,1.0,1.0,-16.561924387350913,22.628739288369857,36.661301932402324,-21.021206584841455,1.0,448.5623285053489,0.0,1.0,-50.50686901090937,0.8907123718658689,,,
1.0,40.49465200429357,-178.44885195810298,448.489947707792,39.86663297277914,-0.38369664717486474,-4.655584379532792,40.139383572973365,10.997740014470745,-56.67934642326756,0.19418867209610005,-13.422130196278784,-151.56342630382744,-67.62610132716571,58.412110986381265,1.0359016243890045,6.931542418264792,1137.359184158854,0.13006088738053265,44.034487303944864,0.35293554930814314,1.1731181286530654,96051.94716229745,285.23481533989934,-3.185268841354326,7.567984948335943,0.07099811854199292,54.4430500708233,0.0026286971459777444,0.7788667169386022,nominal,5203.76900249776,900.3660032956133,waypoint,4.555418617722593,16.73576322967452,0.0,-4.371784190366645,-14.32394487827058,5.611675825119473,-4.032542508015037,-14.323708545793158,6.228447790908386,0.78,0.0,0.0,0.0,0.0,0.0,0.0,-0.07038114399149223,-0.24999587522013958,0.10870692123991868,-0.07038114399149223,-0.24999587522013958,0.10870692123991868,1.0,1.0,1.378350514963134,-3.0687253308303966,0.8043845782216568,-2.645223126879376,-1.1847970967841184,1.0183606369716665,3.4588957555642086,3.0721341016399197,1.0,0.0,34.56253290683093,-179.3874433258752,448.47620667040843,39.95722418699897,-0.23639661339764553,-4.594342033748723,1.0,446.72792292861317,0.0,1.0,43.347979357453724,1135.9913192470935,1.0,1.0,-16.561924387350913,22.628739288369857,36.661301932402324,-21.021206584841455,1.0,448.5623285053489,0.0,1.0,-50.50686901090937,0.8907123718658689,,,
1.04,42.090993326522444,-178.4663252861135,448.2928671052867,39.90853305572185,-0.4368332002624196,-4.927015062632865,40.21389450590313,10.997634866584907,-62.46903107385647,-0.32829136145608856,-9.597320141949615,-144.9776349607083,-75.9655563677155,59.782344952196155,3.238175078113429,5.212263960322784,1142.516615403334,0.13035390024242025,44.13379126118281,0.6419784627803214,1.173140551408518,96054.21446994827,285.2360963638156,-3.273074492936112,7.217944825623831,0.027243103202978812,54.416553173686566,0.002633342981272519,0.7791185576189128,nominal,5204.829900864012,898.8629583792848,waypoint,4.575654617078492,16.766228084978874,0.0,-6.215297325249352,-14.32394487827058,3.483999857260288,-5.778746361802488,-14.323897611775095,4.032889443989908,0.78,0.0,0.0,0.0,0.0,0.0,0.0,-0.1008581506510969,-0.2499991750440279,0.07038719916654733,-0.1008581506510969,-0.2499991750440279,0.07038719916654733,1.04,1.0,0.5310487615134042,-2.55733844892121,5.790641105047209,-2.5291892888723315,-1.327502772665959,1.048692335974571,6.352441824755109,3.0428305384812577,1.0,0.0,34.56253290683093,-179.3874433258752,448.47620667040843,39.95722418699897,-0.23639661339764553,-4.594342033748723,1.0,450.6601607588586,0.0,1.0,44.78166595370347,1124.6588325483035,1.0,1.0,-9.439296100700089,23.85207875039587,38.56436370239521,-15.595483260642457,1.0,448.10997971532504,0.0,1.0,-62.86290029203157,-0.1937797528880239,,,
1.08,43.68920209059972,-178.47782625450145,448.08799174252493,39.95521910193189,-0.2875242096987719,-5.121884069044001,40.283196249444664,10.997529532865656,-67.97893634986424,-1.0848503579096913,-5.649199683523699,-139.07441293442892,-81.81810823502256,58.62000203639888,5.529166220811734,3.7521742348120863,1145.9234006637846,0.13054650017885258,44.19910280788112,1.1357171689045884,1.173163861356844,96056.57149811747,285.23742805367357,-3.3613131665988263,6.866219383149544,-0.016722577106306955,54.401221900131205,0.002636496929427909,0.7793144337035989,nominal,5205.610054257469,897.3574016037919,waypoint,4.596471169812786,16.796465040762257,0.0,-8.121794666765727,-14.32394487827058,1.591412178915093,-7.653185005773079,-14.323935424971483,2.0797076319300563,0.78,0.0,0.0,0.0,0.0,0.0,0.0,-0.13357327661500146,-0.24999983500880557,0.03629774565603383,-0.13357327661500146,-0.24999983500880557,0.03629774565603383,1.08,1.0,-0.3583513435311321,-2.1521547992867562,10.870400932719102,-2.425924690642902,-1.4291983987909662,1.0230726497004685,11.08719091580748,2.9957296797846533,1.0,0.0,34.56253290683093,-179.3874433258752,448.47620667040843,39.95722418699897,-0.23639661339764553,-4.594342033748723,1.0,448.54278360864095,0.0,1.0,44.14067257083998,1143.7328008655982,1.0,1.0,-9.439296100700089,23.85207875039587,38.56436370239521,-15.595483260642457,1.0,448.10997971532504,0.0,1.0,-62.86290029203157,-0.1937797528880239,,,
1.12,45.288495671496364,-178.47444501208133,447.87716961367096,39.98233952241596,0.0845310605028114,-5.270553221348799,40.32831945971721,10.997424072988478,-73.22488400084956,-2.1047499897770434,-1.6705144066318431,-134.01580673657557,-85.45044230312082,57.150909433190854,7.784910616347179,2.543228216745998,1146.6792375719017,0.13058789780506305,44.21322499870368,1.6417153059215153,1.17318784827576,96058.99699089747,285.2387983975111,-3.449302136333772,6.515528436982884,-0.06055894537713944,54.4055823533076,0.002637550716855583,0.7794667817694658,nominal,5205.361320614408,895.8473625672692,waypoint,4.6177630305318695,16.825911504446555,0.0,-10.359089559271172,-14.32394487827058,-0.1299787437622311,-9.817908648571553,-14.32394298761076,0.3119585313762265,0.78,0.0,0.0,0.0,0.0,0.0,0.0,-0.17135483157760048,-0.2499999670017611,0.005444703502201189,-0.17135483157760048,-0.2499999670017611,0.005444703502201189,1.12,1.0,-1.1898912306185634,-1.753531177515107,15.942856667328074,-2.338505285284346,-1.4886913495981584,0.9961239770961864,16.08307779767877,2.945686996511532,1.0,0.0,34.56253290683093,-179.3874433258752,448.47620667040843,39.95722418699897,-0.23639661339764553,-4.594342033748723,1.0,446.95703689008695,0.0,1.0,44.60969586606033,1158.9064590432308,1.0,1.0,-2.1357660648160612,25.555443952223555,39.12266696621534,-11.040120735553337,1.0,447.69237943337333,0.0,1.0,-72.82377964859573,-1.8619774210045972,,,
1.16,46.8869753921047,-178.44740872150055,447.6608242637981,39.9619930152085,0.6759072645194995,-5.408633746821716,40.33201030676579,10.997318570959804,-78.21629134102741,-3.4429741142134773,2.3163405338246377,-129.69946956495497,-88.36239034986455,57.04855054183127,9.971430255906691,1.5072120665601223,1144.1263968818628,0.13044076354956038,44.16351852721241,2.1140650018999216,1.1732124640057615,96061.48607947929,285.2402046422853,-3.5363628126894255,6.1685838036595095,-0.10392702454256135,54.435940725198655,0.0026360555666266965,0.7795852747095845,nominal,5203.388549959105,894.3320704171817,waypoint,4.639509753545065,16.853988868764926,0.0,-13.119510188832175,-14.32394487827058,-1.8117428516012741,-12.459189880780052,-14.323944500138618,-1.387002575005774,0.78,0.0,0.0,0.0,0.0,0.0,0.0,-0.21745388555077166,-0.24999999340035223,-0.024207761667490363,-0.21745388555077166,-0.24999999340035223,-0.024207761667490363,1.16,1.0,-1.9694797007721083,-1.5353993127689942,20.589919739933432,-2.2607066550662878,-1.543957269763331,0.9945269123205649,20.74080751172204,2.912676159556005,1.0,0.0,34.56253290683093,-179.3874433258752,448.47620667040843,39.95722418699897,-0.23639661339764553,-4.594342033748723,1.0,447.3019846758546,0.0,1.0,43.45167556204892,1140.9863191496559,1.0,1.0,-2.1357660648160612,25.555443952223555,39.12266696621534,-11.040120735553337,1.0,447.69237943337333,0.0,1.0,-72.82377964859573,-1.8619774210045972,,,
1.2,48.4816472737111,-178.38874249263887,447.4380297903799,39.86679704015993,1.4666557215421436,-5.569861835453415,40.28071431979425,10.997213128737139,-82.93958053414492,-5.171251457228926,6.373619226814047,-125.78479736779222,-92.84931826353252,59.251010341802434,12.168592989672668,0.5353171838677395,1137.861871643081,0.13008143153848034,44.04197076707114,2.3164162766900613,1.1732378139286996,96064.04942086489,285.2416528063625,-3.621825872740522,5.828068330295633,-0.14649145871304595,54.49639383086573,0.0026317199386072195,0.7796774358852324,nominal,5199.136127900268,892.8121229000654,waypoint,4.661770569204278,16.880143261235553,0.0,-16.548723670467467,-14.32394487827058,-3.6495085065805752,-15.730816912529985,-14.323944802644188,-3.1970073202656146,0.78,0.0,0.0,0.0,0.0,0.0,0.0,-0.27455454915205707,-0.24999999868007045,-0.05579830394899581,-0.27455454915205707,-0.24999999868007045,-0.05579830394899581,1.2,1.0,-3.815909108191319,-1.2244674585201938,22.317978933140147,-2.19497457321603,-1.6215220583507601,1.0367471290527233,22.674934763721808,2.9192621965801635,1.0,0.0,49.388050137518,-172.18020676033936,447.3808028608698,40.058925137881104,1.124191620582633,-5.696600057537647,1.0,445.59701516455635,0.0,1.0,43.75377837066935,1146.3319712245238,1.0,1.0,8.083476162054819,27.484983656761464,38.631045405186654,-7.488714220997532,1.0,447.70799806248584,0.0,0.0,-72.82377964859573,-1.8619774210045972,,,
1.24,50.06685611775677,-178.29567621507547,447.20648397450185,39.630221101141764,2.326656939084608,-5.788645396952116,40.118277288154175,10.997107859939595,-87.32829644987692,-7.380174943961355,10.789792581257034,-121.8681079707009,-104.83049415610499,64.40394638991755,14.842057551253651,-0.47217203875666797,1125.9588973220855,0.1293974690291881,43.81051558067956,2.5848687135138837,1.1732641600378793,96066.71350871153,285.2431578541657,-3.7050364868590226,5.496615148716899,-0.18792310641038767,54.60427592253887,0.0026230717994255646,0.7797491167996252,nominal,5190.335552353162,891.2922648583412,waypoint,4.684672002815779,16.904088125704092,0.0,-20.05352282957881,-14.32394487827058,-6.216452851281107,-19.188981646169047,-14.323944863145302,-5.612563745078008,0.78,0.0,0.0,0.0,0.0,0.0,0.0,-0.3349109098304114,-0.24999999973601408,-0.09795771682967493,-0.3349109098304114,-0.24999999973601408,-0.09795771682967493,1.24,1.0,-6.100171770187806,-1.0661102450056654,24.578185631326836,-2.126653219387645,-1.830566089082851,1.1215495675819023,25.34631917277661,3.021837115824589,1.0,0.0,49.388050137518,-172.18020676033936,447.3808028608698,40.058925137881104,1.124191620582633,-5.696600057537647,1.0,448.45639494815293,0.0,1.0,43.75127025428695,1138.9001368846295,1.0,1.0,8.083476162054819,27.484983656761464,38.631045405186654,-7.488714220997532,1.0,447.70799806248584,0.0,0.0,-72.82377964859573,-1.8619774210045972,,,
1.28,51.63564677362679,-178.16583542784764,446.9640507392561,39.21976639675051,3.2460196806960697,-6.060830881143553,39.81784010908891,10.997002937067618,-91.25410890294445,-10.33931461678722,15.806795646284181,-117.54721412711287,-123.22509421210725,75.58565980600532,18.257504506679773,-1.7102700269285696,1107.1131481509433,0.12830814091493115,43.44181826757284,2.9226298873475676,1.173291745441519,96069.50292763322,285.2447336701948,-3.785357095384928,5.176787314024753,-0.2279015857469059,54.77206192858324,0.0026089889917124544,0.7798048686219308,nominal,5175.950203658611,889.7785816099301,waypoint,4.708323135173049,16.925534388273586,0.0,-20.05352282957881,-14.32394487827058,-9.521243333279786,-19.88061459289686,-14.323944875245525,-8.739507415639432,0.78,0.0,0.0,0.0,0.0,0.0,0.0,-0.34698218196608227,-0.24999999994720282,-0.15253317940536865,-0.34698218196608227,-0.24999999994720282,-0.15253317940536865,1.28,1.0,-8.915069052614799,-0.7626490244536194,27.216751698625423,-2.053479769516617,-2.153541420416011,1.3229246802521146,28.649810867997367,3.2564780857364277,1.0,0.0,49.388050137518,-172.18020676033936,447.3808028608698,40.058925137881104,1.124191620582633,-5.696600057537647,1.0,446.41308391501826,0.0,1.0,42.582585585025804,1116.981887277064,1.0,1.0,13.509842760669484,30.125094538611688,36.906891209872384,-5.706995887885066,1.0,446.8722474057612,0.0,0.0,-72.82377964859573,-1.8619774210045972,,,
1.32,53.17910648409045,-177.9978749089006,446.7087890205774,38.58649276159149,4.199012973675913,-6.38154296696683,39.33539403937241,10.99689857750795,-94.59568153705054,-14.327545185883459,21.12939453958675,-112.05590196698894,-135.1831634467302,93.04062206509515,22.206585946706205,-3.3743817785064136,1079.3021486342113,0.12668438584587277,42.89218154029266,2.963504373132651,1.1733207910777035,96072.44002102,285.2463928713662,-3.8621723202064295,4.871057985050817,-0.26611775186864783,55.019428573791274,0.002587613287971733,0.7798482311503906,nominal,5154.353357964992,888.2793089785569,waypoint,4.732809032798104,16.94421724115947,0.0,-20.05352282957881,-14.32394487827058,-12.3656065461728,-20.018941182242422,-14.32394487766557,-11.640386720066127,0.78,0.0,0.0,0.0,0.0,0.0,0.0,-0.34939643639321644,-0.24999999998944056,-0.2031630744705774,-0.34939643639321644,-0.24999999998944056,-0.2031630744705774,1.32,1.0,-10.270210766667569,0.039014854159010307,27.16594050253877,-1.9536443594181456,-2.3550290731652708,1.6240159995966954,29.04250462233063,3.464147252281009,1.0,0.0,49.388050137518,-172.18020676033936,447.3808028608698,40.058925137881104,1.124191620582633,-5.696600057537647,1.0,443.52836321807104,0.0,1.0,42.84385807368455,1083.6614814149507,1.0,1.0,13.509842760669484,30.125094538611688,36.906891209872384,-5.706995887885066,1.0,446.8722474057612,0.0,0.0,-72.82377964859573,-1.8619774210045972,,,
1.36,54.691323416048455,-177.79548066689324,446.43846382443627,37.80542329895024,5.05985605018375,-6.758129903528092,38.73660405681365,10.996795072976433,-97.19875783701396,-19.17467398458195,26.601905443238632,-104.61767507321586,-143.06934242659727,107.18753887690713,26.70318065922993,-5.28839743112746,1046.7238758771443,0.1247557594891653,42.239326730268374,2.7469109922958306,1.1733515513516293,96075.55051712251,285.24814998514114,-3.9348944792734666,4.581791299959516,-0.3022760875050605,55.312023342942005,0.0025617791952793406,0.7798819575614149,nominal,5128.328008191083,886.8013126765741,waypoint,4.7582408030843135,16.960238313250997,0.0,-20.05352282957881,-14.32394487827058,-14.32394487827058,-20.046606500111533,-14.323944878149579,-13.78723324662969,0.78,0.0,0.0,0.0,0.0,0.0,0.0,-0.34987928727864326,-0.2499999999978881,-0.24063261489411547,-0.34987928727864326,-0.2499999999978881,-0.24063261489411547,1.36,1.0,-10.244968262689161,1.2159139682790459,24.911988133222643,-1.8239355789133271,-2.495903962916018,1.8716278316223112,26.963771513488055,3.6137609672236226,1.0,0.0,49.388050137518,-172.18020676033936,447.3808028608698,40.058925137881104,1.124191620582633,-5.696600057537647,1.0,444.61295343157616,0.0,1.0,42.03215273718652,1044.6512611513501,1.0,1.0,25.81141875476721,33.97853757161428,33.321432210937864,-6.656637185944753,1.0,446.3406413343056,0.0,0.0,-72.82377964859573,-1.8619774210045972,,,
1.4000000000000001,56.17009173287971,-177.56593060197983,446.15125450989945,36.96920792078149,5.738751622835352,-7.180232863420177,38.094767993144515,10.996692601808622,-98.92552746213903,-24.389640635009293,32.33012462490638,-96.4394470104867,-150.26922793415315,110.53324675129674,31.824975051950247,-6.998343989583536,1013.5688058877645,0.1227619243939081,41.56439770051271,2.5846760449407293,1.173384233543443,96078.85537963021,285.25001684568565,-4.002967094514228,4.3112240948836895,-0.33609698813953887,55.61392191192581,0.0025346043509128753,0.7799081892144338,nominal,5100.854874265258,885.3489481009294,waypoint,4.784716098257766,16.973993126365112,0.0,-20.05352282957881,-14.32394487827058,-14.32394487827058,-20.052139563685355,-14.32394487824638,-14.216602551942403,0.78,0.0,0.0,0.0,0.0,0.0,0.0,-0.3499758574557286,-0.24999999999957762,-0.2481265229788231,-0.3499758574557286,-0.24999999999957762,-0.2481265229788231,1.4000000000000001,1.0,-10.556448860114532,2.755167370726982,22.912412596866204,-1.6820906452408404,-2.62317970215365,1.9302286942391604,25.377316855529962,3.6655536417657117,1.0,0.0,55.003060789842905,-177.27688487051583,444.15799404651034,37.00554329695179,5.945887599671681,-7.105806465331469,1.0,444.8768545528234,0.0,1.0,42.35753404147698,1026.058610643021,1.0,1.0,25.81141875476721,33.97853757161428,33.321432210937864,-6.656637185944753,1.0,446.3406413343056,0.0,0.0,-72.82377964859573,-1.8619774210045972,,,
1.44,57.613401358881546,-177.31682120882536,445.8461567800935,36.082740650045785,6.227734828861785,-7.627443245148725,37.40222913644386,10.996591217634585,-99.69811630456871,-29.208347858701558,38.52829352657155,-89.32276492406993,-156.27605518069203,96.5469720565949,35.0,-7.8538807782682785,979.4017713526372,0.12067285218719134,40.85722735227896,2.599196260964069,1.173418952060968,96082.36618153313,285.2519999809294,-4.065868613090094,4.061448606959062,-0.36731892413011724,55.92975592504502,0.0025056302122664865,0.7799285916112263,nominal,5071.720585575029,883.9264225666352,waypoint,4.812280249951572,16.985903508626105,0.0,-20.05352282957881,-14.32394487827058,-14.32394487827058,-20.053246176400123,-14.32394487826574,-14.302476413004946,0.78,0.0,0.0,0.0,0.0,0.0,0.0,-0.34999517149114573,-0.2499999999999155,-0.24962530459576462,-0.34999517149114573,-0.2499999999999155,-0.24962530459576462,1.44,1.0,-10.052154868072849,3.553347030500586,23.107382534497795,-1.5623212893314462,-2.7269127145796794,1.6831418032699013,25.448442392541466,3.565090054114937,1.0,0.0,55.003060789842905,-177.27688487051583,444.15799404651034,37.00554329695179,5.945887599671681,-7.105806465331469,1.0,444.1412074446899,0.0,1.0,40.35244973434936,997.583118873581,1.0,1.0,40.06502715790269,36.730782652303965,29.223425148014062,-10.13459441992308,1.0,445.91711853933464,0.0,0.0,-72.82377964859573,-1.8619774210045972,,,
1.48,59.01904765082499,-177.05226902576067,445.5228704301147,35.14115729858597,6.613804576617365,-8.082158749469757,36.660123258293574,10.996490992426095,-99.57954526557309,-33.40884285012685,45.30911900446634,-85.28619164417799,-160.63931291706862,79.2783761620195,35.0,-7.764449129704593,943.7458878099704,0.11845359987135361,40.105984064388615,2.585538879088285,1.1734557412053939,96086.08639576402,285.25410134220425,-4.123116620477034,3.8343962955111777,-0.3957004630611028,56.26487286244364,0.0024742961561469473,0.7799444601420649,nominal,5041.069175960123,882.5370666744751,waypoint,4.840937107777601,16.996173677942725,0.0,-20.05352282957881,-14.32394487827058,-14.32394487827058,-20.053467498943075,-14.323944878269613,-14.319651185217454,0.78,0.0,0.0,0.0,0.0,0.0,0.0,-0.34999903429822915,-0.2499999999999831,-0.24992506091915292,-0.34999903429822915,-0.2499999999999831,-0.24992506091915292,1.48,1.0,-8.261993977663002,3.3429250554656984,23.752951858035964,-1.4884920042651548,-2.804134046048563,1.3807227440221137,25.370029845933846,3.461960642588234,1.0,0.0,55.003060789842905,-177.27688487051583,444.15799404651034,37.00554329695179,5.945887599671681,-7.105806465331469,1.0,446.965400249117,0.0,1.0,40.09259038524374,941.047903611642,1.0,1.0,40.06502715790269,36.730782652303965,29.223425148014062,-10.13459441992308,1.0,445.91711853933464,0.0,0.0,-72.82377964859573,-1.8619774210045972,,,
1.52,60.386442737462566,-176.77441821200424,445.18148400445415,34.1848771659394,6.946270343910899,-8.53466064151427,35.91235067225304,10.996392020579849,-98.68885463427834,-37.18498707066286,52.67311343272876,-84.2878682637296,-163.58581915694913,69.32359073375791,35.0,-6.973029361827104,908.4262312882742,0.1162135271430248,39.347693960016564,2.5603510731644494,1.1734945910491599,96090.01502303731,285.25632035397103,-4.174272047367808,3.631822906502043,-0.42102213668724464,56.60288033228222,0.0024420973822040365,0.7799568023327171,nominal,5010.587465515717,881.1820684302089,waypoint,4.870676383923804,17.004917145943864,0.0,-20.05352282957881,-14.32394487827058,-14.32394487827058,-20.053511763451667,-14.323944878270387,-14.323086139659956,0.78,0.0,0.0,0.0,0.0,0.0,0.0,-0.3499998068596458,-0.2499999999999966,-0.2499850121838306,-0.3499998068596458,-0.2499999999999966,-0.2499850121838306,1.52,1.0,-6.410172811160394,2.5791755766577444,24.150432218428453,-1.476305364359453,-2.8579716813105898,1.211203383357693,25.11943149159779,3.437221740863819,1.0,0.0,55.003060789842905,-177.27688487051583,444.15799404651034,37.00554329695179,5.945887599671681,-7.105806465331469,1.0,445.01982382509465,0.0,1.0,39.29729231105247,897.310567085692,1.0,1.0,52.848452118842886,36.7745806922872,26.893470193864058,-15.140967839287336,1.0,445.04657490190175,0.0,0.0,-72.82377964859573,-1.8619774210045972,,,
1.56,61.71536701940471,-176.48511848575362,444.82272584653947,33.22310704855351,7.232493156265322,-8.968953947867375,35.164270703855586,10.996294336684562,-97.10151485712758,-40.88145240386605,60.6109658799822,-85.50332657344596,-165.626209923637,70.3124722126521,35.0,-5.7568063203832045,873.6177094187606,0.11396283226734018,38.58580912053795,2.528911979667886,1.1735354188599074,96094.14370193906,285.25865228199746,-4.218942187297726,3.4552948957298595,-0.44308813803376756,56.94229639288264,0.0024091716880491956,0.7799664018143355,nominal,4980.483751489985,879.8621280889448,waypoint,4.901448227355814,17.012237082498537,0.0,-20.05352282957881,-14.32394487827058,-14.32394487827058,-20.05352061635338,-14.323944878270543,-14.323773130548457,0.78,0.0,0.0,0.0,0.0,0.0,0.0,-0.3499999613719291,-0.24999999999999933,-0.24999700243676612,-0.3499999613719291,-0.24999999999999933,-0.24999700243676612,1.56,1.0,-4.570030691744191,1.51668892931835,24.34527708507461,-1.4924766504070066,-2.8922600177808406,1.226157875588969,24.816890260080122,3.4779473397871623,1.0,0.0,55.003060789842905,-177.27688487051583,444.15799404651034,37.00554329695179,5.945887599671681,-7.105806465331469,1.0,442.50542492108633,0.0,1.0,38.95104299193817,877.1565530426575,1.0,1.0,52.848452118842886,36.7745806922872,26.893470193864058,-15.140967839287336,1.0,445.04657490190175,0.0,0.0,-72.82377964859573,-1.8619774210045972,,,
1.6,63.005846468103414,-176.1860183060985,444.44759517650084,32.26198621746763,7.477504491377657,-9.378266750965265,34.41948162548217,10.99619796981704,-94.76020611674885,-44.81516706929351,69.21514421295907,-88.01287530243347,-167.27479794151301,81.45099347390374,35.0,-4.287495025310881,839.4165516622464,0.11170729308219124,37.8222849013451,2.494500223377634,1.1735781110764258,96098.46095344424,285.2610906313527,-4.256784278293179,3.3061773157682777,-0.4617278355289653,57.28229297058787,0.002375600004973566,0.7799738680778165,nominal,4950.892366921084,878.5776316847149,waypoint,4.933186174779416,17.018229710951815,0.0,-20.05352282957881,-14.32394487827058,-14.32394487827058,-20.053522386933725,-14.323944878270574,-14.323910528726156,0.78,0.0,0.0,0.0,0.0,0.0,0.0,-0.34999999227438583,-0.24999999999999986,-0.24999940048735322,-0.34999999227438583,-0.24999999999999986,-0.24999940048735322,1.6,1.0,-2.781065079647922,0.40428658194956457,24.335556499174555,-1.5388249031924244,-2.9172835519367366,1.4231283226339377,24.497287211895493,3.5921886960137104,1.0,0.0,68.03317034442671,-169.9692914947898,450.7096370860195,32.21996099462676,7.039514220304728,-9.64695188380194,1.0,443.52985147984447,0.0,1.0,37.96253102628,844.5059806006122,1.0,1.0,70.03989187708046,35.314160492656434,25.201926618137716,-20.391373325854065,1.0,444.5134473079027,0.0,0.0,-72.82377964859573,-1.8619774210045972,,,
