time_s,sensor_time_s,imu_valid,imu_ax_mps2,imu_ay_mps2,imu_az_mps2,gyro_p_rps,gyro_q_rps,gyro_r_rps,imu_accel_norm_mps2,imu_gyro_norm_rps,gps_valid,gps_latency_s,gps_x_m,gps_y_m,gps_z_m,gps_vx_mps,gps_vy_mps,gps_vz_mps,baro_valid,baro_alt_m,baro_bias_m,pitot_valid,pitot_airspeed_mps,pitot_qbar_pa,pitot_compressibility_factor,mag_valid,mag_heading_deg,mag_x_ut,mag_y_ut,mag_z_ut,radar_valid,radar_agl_m,optical_flow_valid,horizon_valid,horizon_roll_deg,horizon_pitch_deg,optical_flow_x_radps,optical_flow_y_radps,optical_flow_quality
0.0,0.0,1.0,-3.5671053427412676,11.71765467703465,7.05472871951396,-0.0025899185012765833,0.00014861275303437778,0.001697870518871144,14.134952032546146,0.00310040769778282,1.0,0.0,3.600756630726422,-178.47686827365297,451.3485857159196,42.18669712124764,2.0254531145758117,0.17937241014133767,1.0,449.3794866581097,0.0,1.0,45.818684704627636,1207.7762988351562,1.0,1.0,5.407943136095607,21.715519963451204,-1.678530464324453,-42.853314571377425,1.0,449.59370880351315,0.0,1.0,-0.27629555862650074,3.586918488082886,,,
0.04,0.04,1.0,-2.6532219147546856,11.228924565640975,9.172563913861243,0.767106955263303,-0.10321505849879731,-0.76751917658174,14.739886776487102,1.0900422540135577,1.0,0.0,3.600756630726422,-178.47686827365297,451.3485857159196,42.18669712124764,2.0254531145758117,0.17937241014133767,1.0,448.5194376638763,0.0,1.0,44.50201866294238,1186.0512227283994,1.0,1.0,5.407943136095607,21.715519963451204,-1.678530464324453,-42.853314571377425,1.0,449.59370880351315,0.0,1.0,-0.27629555862650074,3.586918488082886,,,
0.08,0.08,1.0,-1.6784925880128754,9.782956378414571,5.802606485277683,1.2738065369969132,0.10400585525103022,-1.534002639205355,11.497556909751006,1.9966382768823103,1.0,0.0,3.600756630726422,-178.47686827365297,451.3485857159196,42.18669712124764,2.0254531145758117,0.17937241014133767,1.0,449.27442578156547,0.0,1.0,45.29618529710142,1162.3201406192818,1.0,1.0,-1.9499438925719956,21.963973715763018,-3.078474327561542,-42.479759503548586,1.0,450.23352289614684,0.0,1.0,4.904552297781585,3.201681976187697,,,
0.12,0.12,1.0,-1.1416995608198635,6.1204584712943175,4.42653007795762,1.3167131229732048,0.021597720747407595,-2.30540280690585,7.639218436272008,2.6550107366714557,1.0,0.0,3.600756630726422,-178.47686827365297,451.3485857159196,42.18669712124764,2.0254531145758117,0.17937241014133767,1.0,450.39137051292823,0.0,1.0,44.20716475030733,1174.003142970227,1.0,1.0,-1.9499438925719956,21.963973715763018,-3.078474327561542,-42.479759503548586,1.0,450.23352289614684,0.0,1.0,4.904552297781585,3.201681976187697,,,
0.16,0.16,1.0,-1.1238997456437374,1.2340885427589314,6.060516594927687,1.1454513102018269,-0.2164361744391878,-3.0748879848223987,6.286174239314467,3.2884402747889623,1.0,0.0,3.600756630726422,-178.47686827365297,451.3485857159196,42.18669712124764,2.0254531145758117,0.17937241014133767,1.0,448.9837929256056,0.0,1.0,44.49717877780451,1163.6312334732593,1.0,1.0,-12.502939301076756,22.34562487277898,-2.5150606893394496,-42.42465729543256,1.0,450.0283058536965,0.0,1.0,10.744899002171374,1.851158049656692,,,
0.2,0.2,1.0,-1.2475659509606403,-3.951461258925547,10.158634535714722,0.741712934410615,-0.4466246680685662,-3.236214600287157,10.971249815449545,3.350029344694032,1.0,0.0,10.7070630313152,-179.91132931550598,452.17994550357236,41.838953473555115,3.445582025783397,-0.5153512118110835,1.0,448.7628895041592,0.0,1.0,44.621245005719786,1170.5469234734746,1.0,1.0,-12.502939301076756,22.34562487277898,-2.5150606893394496,-42.42465729543256,1.0,450.0283058536965,0.0,1.0,10.744899002171374,1.851158049656692,,,
0.24,0.24,1.0,-1.2802172322666125,-7.739762245329449,14.552381763597959,0.20426203882170235,-0.5068456752429786,-2.4722554947017317,16.53223187502274,2.531928662126762,1.0,0.0,10.7070630313152,-179.91132931550598,452.17994550357236,41.838953473555115,3.445582025783397,-0.5153512118110835,1.0,449.14446820688323,0.0,1.0,44.51542620762215,1162.5092427855025,1.0,1.0,-26.711315695444007,20.91313605267617,0.8133228674951911,-43.19508129234309,1.0,450.3337265356619,0.0,1.0,13.275296063269538,-0.14048876595939053,,,
0.28,0.28,1.0,-1.087355376945205,-10.204014573166837,15.379516381646038,-0.30695525497026416,-0.2963745461416747,-1.700025569287267,18.48874736856155,1.752753929216831,1.0,0.0,10.7070630313152,-179.91132931550598,452.17994550357236,41.838953473555115,3.445582025783397,-0.5153512118110835,1.0,451.2430272592168,0.0,1.0,44.06397317500408,1163.3988070232554,1.0,1.0,-26.711315695444007,20.91313605267617,0.8133228674951911,-43.19508129234309,1.0,450.3337265356619,0.0,1.0,13.275296063269538,-0.14048876595939053,,,
0.32,0.32,1.0,-0.5232854448665583,-11.211918996945974,13.070582140193338,-0.7612243893651552,-0.06906257398257216,-0.9367781396332587,17.22849595102336,1.2090432138613578,1.0,0.0,10.7070630313152,-179.91132931550598,452.17994550357236,41.838953473555115,3.445582025783397,-0.5153512118110835,1.0,451.20148735879815,0.0,1.0,44.07571213049229,1146.606186428039,1.0,1.0,-33.228775460828366,20.06306690218566,4.6705571681742075,-43.375268359657646,1.0,449.695436688897,0.0,1.0,10.901410575578177,-0.020337990350771707,,,
0.36,0.36,1.0,0.07986497391689487,-10.891423771903474,9.758814850020254,-1.1223705643962985,0.062443938205809485,-0.16432833908119052,14.624088261160717,1.1360540181994425,1.0,0.0,10.7070630313152,-179.91132931550598,452.17994550357236,41.838953473555115,3.445582025783397,-0.5153512118110835,1.0,450.24325917622025,0.0,1.0,43.825945132512,1122.5071257745865,1.0,1.0,-33.228775460828366,20.06306690218566,4.6705571681742075,-43.375268359657646,1.0,449.695436688897,0.0,1.0,10.901410575578177,-0.020337990350771707,,,
0.4,0.4,1.0,0.6029441377076755,-9.408256930468397,6.47700498336023,-1.3715456859264352,0.09355336355099296,0.6019944485078736,11.438113203556604,1.500762178511112,1.0,0.0,17.421009771266874,-179.79740182814427,449.81452889723505,40.08217987623064,1.7031558330143457,-0.7073445014995289,1.0,448.59749722496895,0.0,1.0,43.77390646811906,1096.6678648291079,1.0,1.0,-30.655472763040446,20.42981733681577,8.756466250819809,-42.44505246770926,1.0,449.642959183028,0.0,1.0,5.232765594068873,0.05695802297448317,,,
0.44,0.44,1.0,0.9798097606947394,-7.263088951719039,3.9742748987185883,-1.494121085413377,0.06343890128789582,1.3728613331185573,8.337106767837419,2.0300666373411307,1.0,0.0,17.421009771266874,-179.79740182814427,449.81452889723505,40.08217987623064,1.7031558330143457,-0.7073445014995289,1.0,448.50287237175127,0.0,1.0,44.05319676709151,1090.3976867182153,1.0,1.0,-30.655472763040446,20.42981733681577,8.756466250819809,-42.44505246770926,1.0,449.642959183028,0.0,1.0,5.232765594068873,0.05695802297448317,,,
0.48,0.48,1.0,1.2018208967235062,-5.086562908770678,2.821998848796074,-1.4723382657855764,-0.017220208801025295,2.13677442445931,5.939795719996546,2.5949723400281255,1.0,0.0,17.421009771266874,-179.79740182814427,449.81452889723505,40.08217987623064,1.7031558330143457,-0.7073445014995289,1.0,450.90151743494647,0.0,1.0,43.44591737797728,1089.2540236084312,1.0,1.0,-21.335511836028626,21.915476955714844,10.700923208197011,-41.32420601538942,1.0,449.8951069437405,0.0,1.0,-1.0355293239248913,0.09707504104336691,,,
0.52,0.52,1.0,1.0449977707359566,-2.3623305851216383,3.342626068821038,-1.28910178221115,-0.1282387564114152,2.2640780365602287,4.22442601665673,2.6085010905077897,1.0,0.0,17.421009771266874,-179.79740182814427,449.81452889723505,40.08217987623064,1.7031558330143457,-0.7073445014995289,1.0,450.08237142241234,0.0,1.0,42.98754837087091,1094.8046226658614,1.0,1.0,-21.335511836028626,21.915476955714844,10.700923208197011,-41.32420601538942,1.0,449.8951069437405,0.0,1.0,-1.0355293239248913,0.09707504104336691,,,
0.56,0.56,1.0,0.837050690918973,0.07371740510791291,5.172289672269799,-1.0413923081526153,-0.21774103845154577,1.7230446086482214,5.240101961684773,2.02504119037048,1.0,0.0,17.421009771266874,-179.79740182814427,449.81452889723505,40.08217987623064,1.7031558330143457,-0.7073445014995289,1.0,450.71546870569244,0.0,1.0,42.56001545863942,1097.4214710723004,1.0,1.0,-13.788172103439251,23.109323196898647,10.999902271245151,-40.59310172320975,1.0,449.8171571356742,0.0,1.0,-7.05026825709877,0.11683822766467078,,,
0.6,0.6,1.0,0.6144385418912118,1.8397312270354143,7.055213312508341,-0.8453907603954758,-0.20163403284925266,0.953660664594131,7.316978925382084,1.2902753520699424,1.0,0.0,27.228440049029558,-180.81625931136261,443.969850679497,40.12113168516493,0.7891070140521849,-1.4079806678446554,1.0,449.83996718172216,0.0,1.0,43.34723894451195,1109.1236405501995,1.0,1.0,-13.788172103439251,23.109323196898647,10.999902271245151,-40.59310172320975,1.0,449.8171571356742,0.0,1.0,-7.05026825709877,0.11683822766467078,,,
0.64,0.64,1.0,0.4871641088419914,2.647506903217191,7.777596838843104,-0.7797204529342214,-0.09781180033158861,0.1881092194139234,8.230287617034337,0.8080323084113465,1.0,0.0,27.228440049029558,-180.81625931136261,443.969850679497,40.12113168516493,0.7891070140521849,-1.4079806678446554,1.0,449.8073236854456,0.0,1.0,43.52664376024412,1116.1885624584272,1.0,1.0,-10.724880675198557,23.05079597311768,12.504811888460475,-40.127743129033895,1.0,449.29472208456116,0.0,1.0,-10.265664128423937,0.3273623446852222,,,
0.68,0.68,1.0,0.6535097840189209,2.1096720957740818,7.5957934778477405,-0.8697263668740292,0.03579593857349728,-0.5819579057494199,7.9103647164723405,1.0470818050747068,1.0,0.0,27.228440049029558,-180.81625931136261,443.969850679497,40.12113168516493,0.7891070140521849,-1.4079806678446554,1.0,447.06348449404334,0.0,1.0,43.710647261544544,1109.7016797688893,1.0,1.0,-10.724880675198557,23.05079597311768,12.504811888460475,-40.127743129033895,1.0,449.29472208456116,0.0,1.0,-10.265664128423937,0.3273623446852222,,,
0.72,0.72,1.0,0.8795285207773813,-0.2851754578462013,6.541391994973218,-1.1519505371359424,0.1755677298541737,-1.348791395309224,6.60641390563128,1.7824287631863827,1.0,0.0,27.228440049029558,-180.81625931136261,443.969850679497,40.12113168516493,0.7891070140521849,-1.4079806678446554,1.0,448.8484632414634,0.0,1.0,43.68249634520297,1126.668654142763,1.0,1.0,-17.52191177160402,22.265740780418263,17.475358820152252,-38.74166178625394,1.0,449.1401726847244,0.0,1.0,-15.359389724142341,1.3681034236982956,,,
0.76,0.76,1.0,1.3382263026189098,-3.1996298827723617,3.3531006672929813,-1.6642773570031781,0.3574486148057778,-1.719665258298705,4.824081789185543,2.4196770928906206,1.0,0.0,27.228440049029558,-180.81625931136261,443.969850679497,40.12113168516493,0.7891070140521849,-1.4079806678446554,1.0,447.7311758046691,0.0,1.0,43.52657111911907,1132.9802720511607,1.0,1.0,-17.52191177160402,22.265740780418263,17.475358820152252,-38.74166178625394,1.0,449.1401726847244,0.0,1.0,-15.359389724142341,1.3681034236982956,,,
0.8,0.8,1.0,1.5456956917627753,-4.965553047207679,-3.1334152910845643,-2.357159193251776,0.4944038997539071,-0.9997048089270074,6.0715882290031855,2.6076894721985244,1.0,0.0,32.7004649315232,-173.44639408543185,449.90614452437757,39.84934118564421,1.1793335611917815,-2.456029244336343,1.0,450.99676554090865,0.0,1.0,44.1271557376102,1116.031548905554,1.0,1.0,-22.526532774357943,21.212200405173785,25.671919534045788,-34.531092978412744,1.0,449.33340992732144,0.0,1.0,-24.1172859330853,1.7244177969625245,,,
0.84,0.84,1.0,1.1851947352997376,-5.498745914899188,-7.817551860942233,-2.9364540543854574,0.2756587001045776,-0.23570192743906607,9.630940260209492,2.9587675696239857,1.0,0.0,32.7004649315232,-173.44639408543185,449.90614452437757,39.84934118564421,1.1793335611917815,-2.456029244336343,1.0,453.5523559343142,0.0,1.0,43.630224403267526,1120.3711176659021,1.0,1.0,-22.526532774357943,21.212200405173785,25.671919534045788,-34.531092978412744,1.0,449.33340992732144,0.0,1.0,-24.1172859330853,1.7244177969625245,,,
0.88,0.88,1.0,0.9634486253190278,-4.825664143695996,-9.851695773616369,-2.9501708306917305,-0.1455203530010276,0.5374759277396499,11.012319342321714,3.002259894862781,1.0,0.0,32.7004649315232,-173.44639408543185,449.90614452437757,39.84934118564421,1.1793335611917815,-2.456029244336343,1.0,449.50440365935776,0.0,1.0,43.61348034938908,1140.4475635317428,1.0,1.0,-22.23858645404896,21.818366276434375,32.71822861878652,-27.478282609510465,1.0,449.1946375053362,0.0,1.0,-37.676479958785066,0.4903395790391326,,,
0.92,0.92,1.0,1.2079362243487362,-4.272660047951774,-7.066746185499963,-2.8680707701144423,-0.6709799638435175,0.7733489089290726,8.34587535599085,3.045342770396476,1.0,0.0,32.7004649315232,-173.44639408543185,449.90614452437757,39.84934118564421,1.1793335611917815,-2.456029244336343,1.0,449.3105057069766,0.0,1.0,44.651049800999,1152.5275619836073,1.0,1.0,-22.23858645404896,21.818366276434375,32.71822861878652,-27.478282609510465,1.0,449.1946375053362,0.0,1.0,-37.676479958785066,0.4903395790391326,,,
0.96,0.96,1.0,1.5462705039380722,-3.714583104792005,-3.35539699904737,-2.7639132306335696,-0.9896003467752245,0.9290782696956158,5.239061856379557,3.079238805943693,1.0,0.0,32.7004649315232,-173.44639408543185,449.90614452437757,39.84934118564421,1.1793335611917815,-2.456029244336343,1.0,448.8705244196607,0.0,1.0,43.904782037353186,1130.235288152045,1.0,1.0,-16.561924387350913,22.628739288369857,36.661301932402324,-21.021206584841455,1.0,448.5623285053489,0.0,1.0,-50.50686901090937,0.8907123718658689,,,
1.0,1.0,1.0,1.378350514963134,-3.0687253308303966,0.8043845782216568,-2.645223126879376,-1.1847970967841184,1.0183606369716665,3.4588957555642086,3.0721341016399197,1.0,0.0,34.56253290683093,-179.3874433258752,448.47620667040843,39.95722418699897,-0.23639661339764553,-4.594342033748723,1.0,446.72792292861317,0.0,1.0,43.347979357453724,1135.9913192470935,1.0,1.0,-16.561924387350913,22.628739288369857,36.661301932402324,-21.021206584841455,1.0,448.5623285053489,0.0,1.0,-50.50686901090937,0.8907123718658689,,,
1.04,1.04,1.0,0.5310487615134042,-2.55733844892121,5.790641105047209,-2.5291892888723315,-1.327502772665959,1.048692335974571,6.352441824755109,3.0428305384812577,1.0,0.0,34.56253290683093,-179.3874433258752,448.47620667040843,39.95722418699897,-0.23639661339764553,-4.594342033748723,1.0,450.6601607588586,0.0,1.0,44.78166595370347,1124.6588325483035,1.0,1.0,-9.439296100700089,23.85207875039587,38.56436370239521,-15.595483260642457,1.0,448.10997971532504,0.0,1.0,-62.86290029203157,-0.1937797528880239,,,
1.08,1.08,1.0,-0.3583513435311321,-2.1521547992867562,10.870400932719102,-2.425924690642902,-1.4291983987909662,1.0230726497004685,11.08719091580748,2.9957296797846533,1.0,0.0,34.56253290683093,-179.3874433258752,448.47620667040843,39.95722418699897,-0.23639661339764553,-4.594342033748723,1.0,448.54278360864095,0.0,1.0,44.14067257083998,1143.7328008655982,1.0,1.0,-9.439296100700089,23.85207875039587,38.56436370239521,-15.595483260642457,1.0,448.10997971532504,0.0,1.0,-62.86290029203157,-0.1937797528880239,,,
1.12,1.12,1.0,-1.1898912306185634,-1.753531177515107,15.942856667328074,-2.338505285284346,-1.4886913495981584,0.9961239770961864,16.08307779767877,2.945686996511532,1.0,0.0,34.56253290683093,-179.3874433258752,448.47620667040843,39.95722418699897,-0.23639661339764553,-4.594342033748723,1.0,446.95703689008695,0.0,1.0,44.60969586606033,1158.9064590432308,1.0,1.0,-2.1357660648160612,25.555443952223555,39.12266696621534,-11.040120735553337,1.0,447.69237943337333,0.0,1.0,-72.82377964859573,-1.8619774210045972,,,
1.16,1.16,1.0,-1.9694797007721083,-1.5353993127689942,20.589919739933432,-2.2607066550662878,-1.543957269763331,0.9945269123205649,20.74080751172204,2.912676159556005,1.0,0.0,34.56253290683093,-179.3874433258752,448.47620667040843,39.95722418699897,-0.23639661339764553,-4.594342033748723,1.0,447.3019846758546,0.0,1.0,43.45167556204892,1140.9863191496559,1.0,1.0,-2.1357660648160612,25.555443952223555,39.12266696621534,-11.040120735553337,1.0,447.69237943337333,0.0,1.0,-72.82377964859573,-1.8619774210045972,,,
1.2,1.2,1.0,-3.815909108191319,-1.2244674585201938,22.317978933140147,-2.19497457321603,-1.6215220583507601,1.0367471290527233,22.674934763721808,2.9192621965801635,1.0,0.0,49.388050137518,-172.18020676033936,447.3808028608698,40.058925137881104,1.124191620582633,-5.696600057537647,1.0,445.59701516455635,0.0,1.0,43.75377837066935,1146.3319712245238,1.0,1.0,8.083476162054819,27.484983656761464,38.631045405186654,-7.488714220997532,1.0,447.70799806248584,0.0,0.0,-72.82377964859573,-1.8619774210045972,,,
1.24,1.24,1.0,-6.100171770187806,-1.0661102450056654,24.578185631326836,-2.126653219387645,-1.830566089082851,1.1215495675819023,25.34631917277661,3.021837115824589,1.0,0.0,49.388050137518,-172.18020676033936,447.3808028608698,40.058925137881104,1.124191620582633,-5.696600057537647,1.0,448.45639494815293,0.0,1.0,43.75127025428695,1138.9001368846295,1.0,1.0,8.083476162054819,27.484983656761464,38.631045405186654,-7.488714220997532,1.0,447.70799806248584,0.0,0.0,-72.82377964859573,-1.8619774210045972,,,
1.28,1.28,1.0,-8.915069052614799,-0.7626490244536194,27.216751698625423,-2.053479769516617,-2.153541420416011,1.3229246802521146,28.649810867997367,3.2564780857364277,1.0,0.0,49.388050137518,-172.18020676033936,447.3808028608698,40.058925137881104,1.124191620582633,-5.696600057537647,1.0,446.41308391501826,0.0,1.0,42.582585585025804,1116.981887277064,1.0,1.0,13.509842760669484,30.125094538611688,36.906891209872384,-5.706995887885066,1.0,446.8722474057612,0.0,0.0,-72.82377964859573,-1.8619774210045972,,,
1.32,1.32,1.0,-10.270210766667569,0.039014854159010307,27.16594050253877,-1.9536443594181456,-2.3550290731652708,1.6240159995966954,29.04250462233063,3.464147252281009,1.0,0.0,49.388050137518,-172.18020676033936,447.3808028608698,40.058925137881104,1.124191620582633,-5.696600057537647,1.0,443.52836321807104,0.0,1.0,42.84385807368455,1083.6614814149507,1.0,1.0,13.509842760669484,30.125094538611688,36.906891209872384,-5.706995887885066,1.0,446.8722474057612,0.0,0.0,-72.82377964859573,-1.8619774210045972,,,
1.36,1.36,1.0,-10.244968262689161,1.2159139682790459,24.911988133222643,-1.8239355789133271,-2.495903962916018,1.8716278316223112,26.963771513488055,3.6137609672236226,1.0,0.0,49.388050137518,-172.18020676033936,447.3808028608698,40.058925137881104,1.124191620582633,-5.696600057537647,1.0,444.61295343157616,0.0,1.0,42.03215273718652,1044.6512611513501,1.0,1.0,25.81141875476721,33.97853757161428,33.321432210937864,-6.656637185944753,1.0,446.3406413343056,0.0,0.0,-72.82377964859573,-1.8619774210045972,,,
1.4000000000000001,1.4000000000000001,1.0,-10.556448860114532,2.755167370726982,22.912412596866204,-1.6820906452408404,-2.62317970215365,1.9302286942391604,25.377316855529962,3.6655536417657117,1.0,0.0,55.003060789842905,-177.27688487051583,444.15799404651034,37.00554329695179,5.945887599671681,-7.105806465331469,1.0,444.8768545528234,0.0,1.0,42.35753404147698,1026.058610643021,1.0,1.0,25.81141875476721,33.97853757161428,33.321432210937864,-6.656637185944753,1.0,446.3406413343056,0.0,0.0,-72.82377964859573,-1.8619774210045972,,,
1.44,1.44,1.0,-10.052154868072849,3.553347030500586,23.107382534497795,-1.5623212893314462,-2.7269127145796794,1.6831418032699013,25.448442392541466,3.565090054114937,1.0,0.0,55.003060789842905,-177.27688487051583,444.15799404651034,37.00554329695179,5.945887599671681,-7.105806465331469,1.0,444.1412074446899,0.0,1.0,40.35244973434936,997.583118873581,1.0,1.0,40.06502715790269,36.730782652303965,29.223425148014062,-10.13459441992308,1.0,445.91711853933464,0.0,0.0,-72.82377964859573,-1.8619774210045972,,,
1.48,1.48,1.0,-8.261993977663002,3.3429250554656984,23.752951858035964,-1.4884920042651548,-2.804134046048563,1.3807227440221137,25.370029845933846,3.461960642588234,1.0,0.0,55.003060789842905,-177.27688487051583,444.15799404651034,37.00554329695179,5.945887599671681,-7.105806465331469,1.0,446.965400249117,0.0,1.0,40.09259038524374,941.047903611642,1.0,1.0,40.06502715790269,36.730782652303965,29.223425148014062,-10.13459441992308,1.0,445.91711853933464,0.0,0.0,-72.82377964859573,-1.8619774210045972,,,
1.52,1.52,1.0,-6.410172811160394,2.5791755766577444,24.150432218428453,-1.476305364359453,-2.8579716813105898,1.211203383357693,25.11943149159779,3.437221740863819,1.0,0.0,55.003060789842905,-177.27688487051583,444.15799404651034,37.00554329695179,5.945887599671681,-7.105806465331469,1.0,445.01982382509465,0.0,1.0,39.29729231105247,897.310567085692,1.0,1.0,52.848452118842886,36.7745806922872,26.893470193864058,-15.140967839287336,1.0,445.04657490190175,0.0,0.0,-72.82377964859573,-1.8619774210045972,,,
1.56,1.56,1.0,-4.570030691744191,1.51668892931835,24.34527708507461,-1.4924766504070066,-2.8922600177808406,1.226157875588969,24.816890260080122,3.4779473397871623,1.0,0.0,55.003060789842905,-177.27688487051583,444.15799404651034,37.00554329695179,5.945887599671681,-7.105806465331469,1.0,442.50542492108633,0.0,1.0,38.95104299193817,877.1565530426575,1.0,1.0,52.848452118842886,36.7745806922872,26.893470193864058,-15.140967839287336,1.0,445.04657490190175,0.0,0.0,-72.82377964859573,-1.8619774210045972,,,
1.6,1.6,1.0,-2.781065079647922,0.40428658194956457,24.335556499174555,-1.5388249031924244,-2.9172835519367366,1.4231283226339377,24.497287211895493,3.5921886960137104,1.0,0.0,68.03317034442671,-169.9692914947898,450.7096370860195,32.21996099462676,7.039514220304728,-9.64695188380194,1.0,443.52985147984447,0.0,1.0,37.96253102628,844.5059806006122,1.0,1.0,70.03989187708046,35.314160492656434,25.201926618137716,-20.391373325854065,1.0,444.5134473079027,0.0,0.0,-72.82377964859573,-1.8619774210045972,,,
1.6400000000000001,1.6400000000000001,1.0,-0.8840391285533091,-0.8080098225777348,24.098552789590315,-1.5935576975982246,-2.949178809973516,1.7547905789818377,24.12829566311857,3.7836981598503296,1.0,0.0,68.03317034442671,-169.9692914947898,450.7096370860195,32.21996099462676,7.039514220304728,-9.64695188380194,1.0,447.17672069977874,0.0,1.0,36.76480038981353,792.4893952260489,1.0,1.0,70.03989187708046,35.314160492656434,25.201926618137716,-20.391373325854065,1.0,444.5134473079027,0.0,0.0,-72.82377964859573,-1.8619774210045972,,,
1.68,1.68,1.0,0.8350132722236636,-2.1672887846788127,23.670632485673526,-1.6600129514544582,-2.985102588326219,2.1988932323925177,23.784306382840075,4.062217609790254,1.0,0.0,68.03317034442671,-169.9692914947898,450.7096370860195,32.21996099462676,7.039514220304728,-9.64695188380194,1.0,441.1946963608024,0.0,1.0,36.68595505379342,786.9101448214036,1.0,1.0,88.4853358101112,33.6622177045782,22.82724937348217,-25.449413762276475,1.0,443.30361394249354,0.0,0.0,-72.82377964859573,-1.8619774210045972,,,
1.72,1.72,1.0,2.464511553621161,-3.620772210878617,23.051456428479487,-1.7408236994594481,-3.0303350371646407,2.72951730387337,23.463875470072953,4.434372819487718,1.0,0.0,68.03317034442671,-169.9692914947898,450.7096370860195,32.21996099462676,7.039514220304728,-9.64695188380194,1.0,442.96041868992296,0.0,1.0,35.85889117636317,741.7254622735312,1.0,1.0,88.4853358101112,33.6622177045782,22.82724937348217,-25.449413762276475,1.0,443.30361394249354,0.0,0.0,-72.82377964859573,-1.8619774210045972,,,
1.76,1.76,1.0,3.9376185120885006,-5.288001159383355,22.145228951101014,-1.8463583206422194,-3.0981077034904683,3.3721829962165266,23.10582093553623,4.937502258288457,1.0,0.0,68.03317034442671,-169.9692914947898,450.7096370860195,32.21996099462676,7.039514220304728,-9.64695188380194,1.0,443.37511285317856,0.0,1.0,35.213869582437006,712.2888060266157,1.0,1.0,122.68747132407837,31.99664242277121,18.793043063324177,-30.579844213499285,1.0,442.6494734189929,0.0,1.0,-65.62560994751911,-64.52648427025814,,,
1.8,1.8,1.0,5.315685139611765,-6.8138621281990615,21.26872441169557,-1.424216074353169,-3.18577532769497,4.143425370738623,22.95743591314696,5.417151434829604,1.0,0.0,63.07745720627505,-178.40595209168174,443.25456511710973,27.636622857049904,8.341861356121656,-11.038940717358452,1.0,440.18746532741403,0.0,1.0,34.28819563711563,675.4382724855576,1.0,1.0,122.68747132407837,31.99664242277121,18.793043063324177,-30.579844213499285,1.0,442.6494734189929,0.0,1.0,-65.62560994751911,-64.52648427025814,,,
1.84,1.84,1.0,6.287153633571501,-7.937572048737911,20.145384363677724,-1.0146994183237366,-3.257401320398751,4.910305728996486,22.547058832613793,5.979245824006384,1.0,0.0,63.07745720627505,-178.40595209168174,443.25456511710973,27.636622857049904,8.341861356121656,-11.038940717358452,1.0,443.46934980699103,0.0,1.0,34.22880815080973,641.6842849351034,1.0,1.0,-172.03279856578555,28.69015490879103,11.022237603567376,-36.9089058226391,1.0,442.0885665821608,0.0,1.0,-12.41829333011421,-66.12351192159024,,,
1.8800000000000001,1.8800000000000001,1.0,7.129493744281775,-8.34967514723486,19.590658319962774,-0.6220554459120329,-3.2961812141278335,5.678923101234601,22.457529906996253,6.595599378668634,1.0,0.0,63.07745720627505,-178.40595209168174,443.25456511710973,27.636622857049904,8.341861356121656,-11.038940717358452,1.0,442.21071348424346,0.0,1.0,32.414283919812,626.4083120697148,1.0,1.0,-172.03279856578555,28.69015490879103,11.022237603567376,-36.9089058226391,1.0,442.0885665821608,0.0,1.0,-12.41829333011421,-66.12351192159024,,,
1.92,1.92,1.0,7.592788301893606,-8.599489554182908,19.059965003357238,-0.24557236700244392,-3.118817765073423,6.17784770394093,22.24598662049126,6.924820018763014,1.0,0.0,63.07745720627505,-178.40595209168174,443.25456511710973,27.636622857049904,8.341861356121656,-11.038940717358452,1.0,440.7545912182227,0.0,1.0,31.673236041180328,604.5005374636612,1.0,1.0,-126.85664627613056,21.13138491316656,0.4879375851269843,-43.08024012594944,1.0,441.32084847554165,0.0,1.0,26.516837519309778,-47.74337830188977,,,
1.96,1.96,1.0,7.722432578780261,-8.627453873380661,18.637559466044486,0.12215507651658813,-2.752823755690548,6.4006327264968,21.94145729256519,6.9685765972768685,1.0,0.0,63.07745720627505,-178.40595209168174,443.25456511710973,27.636622857049904,8.341861356121656,-11.038940717358452,1.0,440.6564976610907,0.0,1.0,30.283043343589878,563.0510369111539,1.0,1.0,-126.85664627613056,21.13138491316656,0.4879375851269843,-43.08024012594944,1.0,441.32084847554165,0.0,1.0,26.516837519309778,-47.74337830188977,,,
2.0,2.0,1.0,7.4241133155657195,-8.364796074900084,18.10788220776504,0.41150065673034847,-2.207343175071304,6.400744913113079,21.283389531447238,6.783157975881612,1.0,0.0,75.62489629616351,-169.37373331496642,438.83505839050935,23.178593129346552,8.01644483336077,-11.984388206228413,1.0,440.1549317720628,0.0,1.0,29.76646255418948,549.2091161273626,1.0,1.0,-101.96928671657942,10.08360268048499,-8.502211967887703,-46.136403780230026,1.0,440.1719869642216,0.0,1.0,39.83250444148497,-21.551252308903774,,,
2.04,2.04,1.0,7.008898539667093,-7.661510106817205,17.727879232225387,0.4627972981464072,-1.5332375366316524,6.164918205779918,20.54509912189712,6.369553765128653,1.0,0.0,75.62489629616351,-169.37373331496642,438.83505839050935,23.178593129346552,8.01644483336077,-11.984388206228413,1.0,440.45468214118785,0.0,1.0,29.356894523458642,522.4326381068204,1.0,1.0,-101.96928671657942,10.08360268048499,-8.502211967887703,-46.136403780230026,1.0,440.1719869642216,0.0,1.0,39.83250444148497,-21.551252308903774,,,
2.08,2.08,1.0,6.419744882653428,-6.722012570945007,17.528151373903487,0.4699021971328063,-0.7696304466290144,5.700384123637755,19.840228525618656,5.7712666076234935,1.0,0.0,75.62489629616351,-169.37373331496642,438.83505839050935,23.178593129346552,8.01644483336077,-11.984388206228413,1.0,438.90495139650557,0.0,1.0,29.0151020105609,487.5014885435209,1.0,1.0,-86.14569062419392,0.6312987816348454,-12.77456677479546,-46.27781373884276,1.0,438.8103240772832,0.0,1.0,45.63688204834331,0.9264173202642415,,,
2.12,2.12,1.0,5.725481925671222,-5.70671120291291,17.284301345615837,0.5041258956562256,-0.0009632624390344957,5.0645061881211655,19.081267490413133,5.089535025526723,1.0,0.0,75.62489629616351,-169.37373331496642,438.83505839050935,23.178593129346552,8.01644483336077,-11.984388206228413,1.0,436.80960830545285,0.0,1.0,27.45493054808329,475.1863349318339,1.0,1.0,-86.14569062419392,0.6312987816348454,-12.77456677479546,-46.27781373884276,1.0,438.8103240772832,0.0,1.0,45.63688204834331,0.9264173202642415,,,
2.16,2.16,1.0,4.884443586879099,-4.380720541066338,16.975928010810673,0.5842642803211392,0.7625840423944336,4.399190995852882,18.1997426751191,4.5028635987521195,1.0,0.0,75.62489629616351,-169.37373331496642,438.83505839050935,23.178593129346552,8.01644483336077,-11.984388206228413,1.0,436.4763163585632,0.0,1.0,27.855442739933395,446.54919855379546,1.0,1.0,-68.5159345822447,-3.023803869962364,-14.178805563684538,-45.74472322717794,1.0,437.96229493415717,0.0,1.0,45.49517140034495,14.80492375762576,,,
2.2,2.2,1.0,4.0743329027751365,-2.758845174023254,16.417410424262563,0.7013637590351208,1.5301932290778335,3.6531254675564457,17.13892588044982,4.022278971244165,1.0,0.0,75.87024674402423,-171.76974004391286,440.8967533304004,19.813629057732935,6.785782783665578,-12.928661498743647,1.0,437.722626431442,0.0,1.0,26.867656874361813,427.2101437781089,1.0,1.0,-68.5159345822447,-3.023803869962364,-14.178805563684538,-45.74472322717794,1.0,437.96229493415717,0.0,1.0,45.49517140034495,14.80492375762576,,,
2.24,2.24,1.0,3.1870395877892976,-1.2027278340089256,15.340290791868249,0.8490507011261554,2.301045281053823,2.8843299195911305,15.71395230856686,3.786166341246969,1.0,0.0,75.87024674402423,-171.76974004391286,440.8967533304004,19.813629057732935,6.785782783665578,-12.928661498743647,1.0,439.08120540812564,0.0,1.0,26.63633351221418,412.02850106727703,1.0,1.0,-52.855157292809935,0.123895887621086,-16.38777674662438,-45.14306805974577,1.0,436.8213418157428,0.0,1.0,43.490506681349366,19.00042533760751,,,
2.2800000000000002,2.2800000000000002,1.0,2.268485108990991,0.3638776852869691,14.067156886490258,1.003680226693571,2.958615076148414,2.114446921000439,14.253537614525523,3.772487633909034,1.0,0.0,75.87024674402423,-171.76974004391286,440.8967533304004,19.813629057732935,6.785782783665578,-12.928661498743647,1.0,436.89443396680235,0.0,1.0,25.75837589393774,394.4603871279885,1.0,1.0,-52.855157292809935,0.123895887621086,-16.38777674662438,-45.14306805974577,1.0,436.8213418157428,0.0,1.0,43.490506681349366,19.00042533760751,,,
2.32,2.32,1.0,1.38307234769149,1.8410367285095113,12.776323484716881,1.1780143926187792,3.43549847329921,1.3500091745345821,12.982170355560658,3.8746473956459235,1.0,0.0,75.87024674402423,-171.76974004391286,440.8967533304004,19.813629057732935,6.785782783665578,-12.928661498743647,1.0,435.88573380297595,0.0,1.0,25.365037052503745,386.0850669141127,1.0,1.0,-37.32833572878021,8.75517237726256,-20.70962044012537,-42.456667875885735,1.0,435.86092159178537,0.0,1.0,43.993904513773934,13.65639416256451,,,
2.36,2.36,1.0,0.6903599466721878,3.2006696222785345,11.402264908478479,1.3413915765792297,3.7496517089238335,0.5809284808791131,11.863074134897142,4.024512044937826,1.0,0.0,75.87024674402423,-171.76974004391286,440.8967533304004,19.813629057732935,6.785782783665578,-12.928661498743647,1.0,435.8867710653698,0.0,1.0,25.563145635982423,379.0792205037739,1.0,1.0,-37.32833572878021,8.75517237726256,-20.70962044012537,-42.456667875885735,1.0,435.86092159178537,0.0,1.0,43.993904513773934,13.65639416256451,,,
2.4,2.4,1.0,-0.13300415437782392,3.958630210466781,9.885164408140852,1.4783215875339588,3.908377898742153,-0.18200615985961538,10.649174551310384,4.182580394657333,1.0,0.0,82.84805438428484,-173.77967447375204,432.6547372610266,18.4887770885243,5.278517470795632,-12.462934899120974,1.0,435.54351536175903,0.0,1.0,25.144691093698455,366.8045559987226,1.0,1.0,-24.20498627154112,20.394205633317657,-25.27568278136079,-35.31535181018631,1.0,434.89311406996865,0.0,1.0,48.80252667563186,2.7190225172542757,,,
2.44,2.44,1.0,0.4110124318395721,3.9894107596752857,9.928758413022914,1.5618422491911828,3.925106301891198,-0.9537314603447886,10.708154511992854,4.33075217380953,1.0,0.0,82.84805438428484,-173.77967447375204,432.6547372610266,18.4887770885243,5.278517470795632,-12.462934899120974,1.0,434.44769298878936,0.0,1.0,24.75614544666765,363.96257394880024,1.0,1.0,-24.20498627154112,20.394205633317657,-25.27568278136079,-35.31535181018631,1.0,434.89311406996865,0.0,1.0,48.80252667563186,2.7190225172542757,,,
2.48,2.48,1.0,1.949660593959973,3.0046979765291826,9.041956692768366,1.5911929734739882,3.8105837157188787,-1.718698326549894,9.725552282297267,4.47284778089086,1.0,0.0,82.84805438428484,-173.77967447375204,432.6547372610266,18.4887770885243,5.278517470795632,-12.462934899120974,1.0,433.7533238315466,0.0,1.0,24.657090286724664,370.20994370584384,1.0,1.0,-13.40612808162269,32.31570820174558,-26.10898822680327,-23.816526655861413,1.0,433.9852770529674,0.0,1.0,55.794394458153725,-13.831607206657738,,,
2.52,2.52,1.0,3.9613629495933202,1.7905960304689799,1.9568772510360073,1.5337262592991752,3.498856698798501,-2.3554598489331973,4.767389132257215,4.488040278019726,1.0,0.0,82.84805438428484,-173.77967447375204,432.6547372610266,18.4887770885243,5.278517470795632,-12.462934899120974,1.0,434.66440808521486,0.0,1.0,25.276137167915003,373.18319844285844,1.0,1.0,-13.40612808162269,32.31570820174558,-26.10898822680327,-23.816526655861413,1.0,433.9852770529674,0.0,1.0,55.794394458153725,-13.831607206657738,,,
2.56,2.56,1.0,4.4066088395028125,0.642455051560893,-4.582633202384683,1.4101302343418418,2.9227780903082423,-2.526001061456352,6.389951253746692,4.112393512964134,1.0,0.0,82.84805438428484,-173.77967447375204,432.6547372610266,18.4887770885243,5.278517470795632,-12.462934899120974,1.0,430.54768203968456,0.0,1.0,25.59719056232492,385.74155500413883,1.0,1.0,-4.925461347776546,41.65206956773904,-20.89294721681805,-11.571484440444591,1.0,432.6231374295276,0.0,1.0,66.09557446282788,-30.642141082455062,,,
2.6,2.6,1.0,3.7089469611810264,-0.42981805965087794,-8.567856065508032,1.2679779659248827,2.1808575152670295,-2.25681388598136,9.34607878655636,3.384836264862153,1.0,0.0,86.71029466918966,-162.22263049021106,439.1748705737206,18.66509518133936,5.011463132704145,-13.706056523107012,1.0,430.92661913469243,0.0,1.0,25.361445240595238,398.8370152655747,1.0,1.0,-4.925461347776546,41.65206956773904,-20.89294721681805,-11.571484440444591,1.0,432.6231374295276,0.0,1.0,66.09557446282788,-30.642141082455062,,,
2.64,2.64,1.0,3.0945513408936933,-1.3245689498757172,-10.943313953355217,1.1396501682507125,1.407069476547327,-1.6741583291122253,11.449316625288201,2.4660602443494533,1.0,0.0,86.71029466918966,-162.22263049021106,439.1748705737206,18.66509518133936,5.011463132704145,-13.706056523107012,1.0,433.5510289329818,0.0,1.0,26.34234546121543,397.80214366950037,1.0,1.0,1.5343232613786464,45.509874336371944,-14.67366485590733,-3.5806489923664784,1.0,431.32307757964566,0.0,1.0,74.18354750061319,-41.7257392457086,,,
2.68,2.68,1.0,2.994146944372552,-1.594789306432592,-11.7077867034504,1.0463596130169974,0.6420579359178825,-0.9751640827485865,12.189361687549404,1.5678175343805492,1.0,0.0,86.71029466918966,-162.22263049021106,439.1748705737206,18.66509518133936,5.011463132704145,-13.706056523107012,1.0,432.41839940496635,0.0,1.0,26.633125049480082,408.3574598323495,1.0,1.0,1.5343232613786464,45.509874336371944,-14.67366485590733,-3.5806489923664784,1.0,431.32307757964566,0.0,1.0,74.18354750061319,-41.7257392457086,,,
2.72,2.72,1.0,3.18506339688745,-1.3031820414351656,-10.954725226186508,1.0009649428441345,-0.12445920139081013,-0.3982072070364756,11.48254836944127,1.084430675216074,1.0,0.0,86.71029466918966,-162.22263049021106,439.1748705737206,18.66509518133936,5.011463132704145,-13.706056523107012,1.0,434.6259213702341,0.0,1.0,26.519896423644237,425.15394658514595,1.0,1.0,2.531102208975879,46.44754464968515,-12.455871487604433,-1.504785107266366,1.0,430.4526741131282,0.0,0.0,74.18354750061319,-41.7257392457086,,,
2.7600000000000002,2.7600000000000002,1.0,3.707541607437568,-0.5975836683783817,-8.930554173491796,0.9974614311870182,-0.8390306225221728,-0.12644450166535623,9.688021926960376,1.3095380499386033,1.0,0.0,86.71029466918966,-162.22263049021106,439.1748705737206,18.66509518133936,5.011463132704145,-13.706056523107012,1.0,430.0657601752362,0.0,1.0,27.209438873485247,434.4213598415041,1.0,1.0,2.531102208975879,46.44754464968515,-12.455871487604433,-1.504785107266366,1.0,430.4526741131282,0.0,0.0,74.18354750061319,-41.7257392457086,,,
2.8000000000000003,2.8000000000000003,1.0,4.1453414259654116,-0.3053862546512685,-5.703059427545489,1.0175158425588195,-1.4488552502522636,-0.21763317820552627,7.057053431600923,1.7837836825965117,1.0,0.0,88.70982298710456,-165.43778588005603,428.8987711057872,18.684025572430045,6.983689038185523,-16.369349161870037,1.0,426.58545907508676,0.0,1.0,27.318028614501245,439.38836189808484,1.0,1.0,-5.871460973079802,46.18462060013683,-11.995857856659063,-4.707045172147129,1.0,429.31043321537146,0.0,1.0,79.0976764585045,-44.672603549376745,,,
2.84,2.84,1.0,3.9427393146630814,-0.3399149474613224,-1.2159025119273723,1.043655024208946,-1.9409272112840639,-0.42351330222530503,4.139946182429046,2.2440538688323173,1.0,0.0,88.70982298710456,-165.43778588005603,428.8987711057872,18.684025572430045,6.983689038185523,-16.369349161870037,1.0,428.37376530127113,0.0,1.0,27.031095685281578,459.7377312527781,1.0,1.0,-5.871460973079802,46.18462060013683,-11.995857856659063,-4.707045172147129,1.0,429.31043321537146,0.0,1.0,79.0976764585045,-44.672603549376745,,,
2.88,2.88,1.0,3.10263304441938,-0.4912179106980329,4.520594995512119,1.064044580205172,-2.3096592036767762,-0.5842263452230099,5.504852946043411,2.6092215176648907,1.0,0.0,88.70982298710456,-165.43778588005603,428.8987711057872,18.684025572430045,6.983689038185523,-16.369349161870037,1.0,428.4913816390104,0.0,1.0,27.485163115922624,468.97087590520636,1.0,1.0,-18.751248836242432,45.38950183730403,-10.804391525840698,-11.582556294839794,1.0,427.9580316607259,0.0,1.0,74.25768863777125,-44.92049551862976,,,
2.92,2.92,1.0,1.5509973608136467,-0.7978907377456724,9.200436341945997,1.0711090132111605,-2.521698199537922,-0.6893758074832675,9.364307306193655,2.8251504971732375,1.0,0.0,88.70982298710456,-165.43778588005603,428.8987711057872,18.684025572430045,6.983689038185523,-16.369349161870037,1.0,427.42496895247797,0.0,1.0,28.29053791110088,475.4024723602314,1.0,1.0,-18.751248836242432,45.38950183730403,-10.804391525840698,-11.582556294839794,1.0,427.9580316607259,0.0,1.0,74.25768863777125,-44.92049551862976,,,
2.96,2.96,1.0,-0.5088264718239833,-1.0876724227793202,11.931867129287157,1.0757656890043146,-2.6187046147671604,-0.7301774600601487,11.992138627812256,2.9237039522191095,1.0,0.0,88.70982298710456,-165.43778588005603,428.8987711057872,18.684025572430045,6.983689038185523,-16.369349161870037,1.0,426.63616179111096,0.0,1.0,28.95833906933362,481.47956584527367,1.0,1.0,-37.296040416660794,42.645774922079994,-9.59979160865314,-19.812558127265923,1.0,426.64567837522594,0.0,1.0,67.24527312851939,-43.966837674754295,,,
3.0,3.0,1.0,-1.3668667140122208,-1.3032960827113225,12.129067523124961,1.0824268362793223,-2.6247558467387293,-0.7425755271258707,12.275226444901534,2.9346907033575227,1.0,0.0,95.8940925993928,-164.73775115771093,429.95185316034525,18.657474728093472,6.069733101986252,-18.746348842613862,1.0,425.4431908522516,0.0,1.0,28.83053251957731,487.84320758970887,1.0,1.0,-37.296040416660794,42.645774922079994,-9.59979160865314,-19.812558127265923,1.0,426.64567837522594,0.0,1.0,67.24527312851939,-43.966837674754295,,,
3.04,3.04,1.0,-1.696325892473887,-1.3222227893221459,11.38816479139731,1.0828078879022252,-2.6050315844358582,-0.7505743862047732,11.589481953655286,2.9192506550891353,1.0,0.0,95.8940925993928,-164.73775115771093,429.95185316034525,18.657474728093472,6.069733101986252,-18.746348842613862,1.0,426.92302640693663,0.0,1.0,29.007740725445665,487.29178077207746,1.0,1.0,-53.7716354853638,38.32091299558093,-9.275508818381926,-27.446834268556223,1.0,424.6129245954572,0.0,1.0,61.16303753704312,-41.74122129130915,,,
3.08,3.08,1.0,-2.238188385989362,-1.2259033270413813,11.239758301789793,1.0910877448045957,-2.584957338603327,-0.7708707727066837,11.525818534971014,2.90976264624374,1.0,0.0,95.8940925993928,-164.73775115771093,429.95185316034525,18.657474728093472,6.069733101986252,-18.746348842613862,1.0,426.5823912341263,0.0,1.0,29.324613483058386,483.9649030984451,1.0,1.0,-53.7716354853638,38.32091299558093,-9.275508818381926,-27.446834268556223,1.0,424.6129245954572,0.0,1.0,61.16303753704312,-41.74122129130915,,,
3.12,3.12,1.0,-1.8315973548213476,-1.061963351083974,12.16654195650949,1.1047327918563195,-2.519958630890181,-0.8206285292858783,12.349382908013657,2.8712466327152177,1.0,0.0,95.8940925993928,-164.73775115771093,429.95185316034525,18.657474728093472,6.069733101986252,-18.746348842613862,1.0,421.4135467610635,0.0,1.0,28.63227516832975,477.6225122951862,1.0,1.0,-68.7198625907198,32.6004714358954,-9.702031137098649,-33.82896655774149,1.0,423.2895141347166,0.0,1.0,55.49143412132816,-38.733429734245234,,,
3.16,3.16,1.0,-1.1822654887233657,-0.7789263230848422,12.729167821066474,1.1247117900304642,-2.4184873523820194,-0.9142150144886494,12.807661430545975,2.819547264541207,1.0,0.0,95.8940925993928,-164.73775115771093,429.95185316034525,18.657474728093472,6.069733101986252,-18.746348842613862,1.0,423.1726118241894,0.0,1.0,28.570219767830842,489.07324269032335,1.0,1.0,-68.7198625907198,32.6004714358954,-9.702031137098649,-33.82896655774149,1.0,423.2895141347166,0.0,1.0,55.49143412132816,-38.733429734245234,,,
3.2,3.2,1.0,-0.600494050036312,-0.4071724736106711,13.161257843910644,1.154199647963966,-2.3122975924975635,-1.0504359357355215,13.18124009952382,2.7896796659678924,1.0,0.0,95.8139626394352,-161.88623726365623,421.91596967781186,16.73982741695333,4.693757810517664,-20.074215746546518,1.0,423.4172788786011,0.0,1.0,28.206107379510097,478.78809396387726,1.0,1.0,-84.67302819728545,26.49796535201895,-10.82693027115922,-38.55902204700691,1.0,421.5147283338168,0.0,1.0,52.40539329268748,-36.46934298655385,,,
3.24,3.24,1.0,0.04122794681248411,0.005094844961792973,13.417098369848725,1.1844711548170395,-2.2341006600154376,-1.2131148674412549,13.417162679465465,2.804607879415951,1.0,0.0,95.8139626394352,-161.88623726365623,421.91596967781186,16.73982741695333,4.693757810517664,-20.074215746546518,1.0,421.50464790574785,0.0,1.0,28.55754809772556,485.66623642696453,1.0,1.0,-84.67302819728545,26.49796535201895,-10.82693027115922,-38.55902204700691,1.0,421.5147283338168,0.0,1.0,52.40539329268748,-36.46934298655385,,,
3.2800000000000002,3.2800000000000002,1.0,0.6732038432209743,0.4828258366668298,13.646559835480668,1.217531057508146,-2.195330653413942,-1.4134699401305053,13.671683127780378,2.880929680757294,1.0,0.0,95.8139626394352,-161.88623726365623,421.91596967781186,16.73982741695333,4.693757810517664,-20.074215746546518,1.0,418.06794127456743,0.0,1.0,27.972825959253807,472.81709885797625,1.0,1.0,-98.68783847042666,20.579082629268957,-12.188729273284194,-41.67720390594837,1.0,420.2537382911921,0.0,1.0,49.65453623606587,-34.009539834969,,,
3.3200000000000003,3.3200000000000003,1.0,1.3651957897433575,0.9137216273251915,13.689980895642774,1.2540407362517352,-2.2003063677890764,-1.6395031274723089,13.788191457897549,3.0169416277587198,1.0,0.0,95.8139626394352,-161.88623726365623,421.91596967781186,16.73982741695333,4.693757810517664,-20.074215746546518,1.0,420.9768501835874,0.0,1.0,28.431975006741613,475.4798026339671,1.0,1.0,-98.68783847042666,20.579082629268957,-12.188729273284194,-41.67720390594837,1.0,420.2537382911921,0.0,1.0,49.65453623606587,-34.009539834969,,,
3.36,3.36,1.0,2.1784658054239285,1.4500690746386395,13.783944740426742,1.2994862747389928,-2.227790596498267,-1.902545376190169,14.03016557969872,3.2049016254081373,1.0,0.0,95.8139626394352,-161.88623726365623,421.91596967781186,16.73982741695333,4.693757810517664,-20.074215746546518,1.0,420.54689104187685,0.0,1.0,28.210966552505177,468.0239935207655,1.0,1.0,-112.9710284605632,14.925577347221731,-14.036244639458442,-43.34886187041528,1.0,418.4457073144077,0.0,1.0,47.076937952423286,-32.93264025237622,,,
3.4,3.4,1.0,2.8773131378921324,2.102798370639236,13.883507659105476,1.346619009813856,-2.2703414729407436,-2.198020447804186,14.333613529096217,3.43498574237392,1.0,0.0,100.27226719206493,-164.27138402882994,416.7400291565598,14.917938877313635,3.8693464145764187,-20.439587537403494,1.0,415.79457530185846,0.0,1.0,27.082197025125126,456.5931898158454,1.0,1.0,-112.9710284605632,14.925577347221731,-14.036244639458442,-43.34886187041528,1.0,418.4457073144077,0.0,1.0,47.076937952423286,-32.93264025237622,,,
3.44,3.44,1.0,3.650921780602216,2.794445235298167,13.795418725139829,1.3691446238227043,-2.3125188378085277,-2.5413256548011023,14.5413799834505,3.698734440306869,1.0,0.0,100.27226719206493,-164.27138402882994,416.7400291565598,14.917938877313635,3.8693464145764187,-20.439587537403494,1.0,417.2761952437607,0.0,1.0,27.478354135166633,446.28457731887005,1.0,1.0,-132.43417291298667,9.838220602776776,-16.443129082991945,-43.99803284723858,1.0,416.7634122978867,0.0,1.0,43.007273406533585,-33.25115844734323,,,
3.48,3.48,1.0,4.255311050477083,3.5268632979546184,13.678919387754528,1.3499740295583675,-2.373139531075597,-2.9443162088062786,14.753280058192429,4.015372840954516,1.0,0.0,100.27226719206493,-164.27138402882994,416.7400291565598,14.917938877313635,3.8693464145764187,-20.439587537403494,1.0,411.7147289475439,0.0,1.0,27.817223646394005,444.1299031325242,1.0,1.0,-132.43417291298667,9.838220602776776,-16.443129082991945,-43.99803284723858,1.0,416.7634122978867,0.0,1.0,43.007273406533585,-33.25115844734323,,,
3.52,3.52,1.0,4.925084595185842,4.394295680695106,13.503891245674142,1.2968725409721524,-2.4296855296723754,-3.406654025794201,15.030681008327843,4.380701063994978,1.0,0.0,100.27226719206493,-164.27138402882994,416.7400291565598,14.917938877313635,3.8693464145764187,-20.439587537403494,1.0,418.8136298907813,0.0,1.0,27.337192121016567,429.43173239127617,1.0,1.0,-152.3648830117226,5.870823030202808,-19.102152782179484,-43.679184455319195,1.0,415.3905699734493,0.0,1.0,36.59882580497141,-34.208606600334946,,,
3.56,3.56,1.0,5.451918674106624,4.853214043083713,13.132763812948486,1.2124828694254228,-2.4976854493844773,-3.9341241554645663,15.024865694699129,4.815171874744123,1.0,0.0,100.27226719206493,-164.27138402882994,416.7400291565598,14.917938877313635,3.8693464145764187,-20.439587537403494,1.0,416.2833006645078,0.0,1.0,26.896850830150424,420.17748428232085,1.0,1.0,-152.3648830117226,5.870823030202808,-19.102152782179484,-43.679184455319195,1.0,415.3905699734493,0.0,1.0,36.59882580497141,-34.208606600334946,,,
3.6,3.6,1.0,5.848424513453126,5.376289435076592,12.781310416896279,1.0878168907132104,-2.5641594169269197,-4.24790657592144,15.048935289658766,5.079662329416451,1.0,0.0,101.79603031482787,-163.12720966411013,411.6152530190693,12.016532112287614,3.2417920204897173,-20.61169777641788,1.0,413.3505670966536,0.0,1.0,26.441464036437587,414.73712668244013,1.0,1.0,-179.12933468556136,3.8862386218583915,-21.598427087569643,-42.80756037560839,1.0,413.2416493939849,0.0,1.0,26.646936243674283,-34.42458854931677,,,
3.64,3.64,1.0,6.189771479697347,5.905582547940473,12.626341068910564,0.9542606932305671,-2.623959381246256,-4.438535115310797,15.251677448394696,5.243698148723108,1.0,0.0,101.79603031482787,-163.12720966411013,411.6152530190693,12.016532112287614,3.2417920204897173,-20.61169777641788,1.0,413.3457638149638,0.0,1.0,26.123078602652274,402.9147039214754,1.0,1.0,-179.12933468556136,3.8862386218583915,-21.598427087569643,-42.80756037560839,1.0,413.2416493939849,0.0,1.0,26.646936243674283,-34.42458854931677,,,
3.68,3.68,1.0,6.333218824254555,6.4619690697957655,12.609316091591069,0.8547728505453108,-2.577721411052983,-4.541977468555022,15.519715114413243,5.291960281775726,1.0,0.0,101.79603031482787,-163.12720966411013,411.6152530190693,12.016532112287614,3.2417920204897173,-20.61169777641788,1.0,414.214782308055,0.0,1.0,26.416831343272648,398.90466262465486,1.0,1.0,152.6966739576527,3.0695385048482913,-23.481694918805413,-41.73479528349697,1.0,412.0580071258819,0.0,1.0,15.43946895925557,-31.007579001417383,,,
3.72,3.72,1.0,6.356954048707872,6.994438823365384,12.549033386882472,0.8095082430156546,-2.4191278222939214,-4.594240395231934,15.710228457163675,5.254952694866787,1.0,0.0,101.79603031482787,-163.12720966411013,411.6152530190693,12.016532112287614,3.2417920204897173,-20.61169777641788,1.0,408.3500773542175,0.0,1.0,25.771733638123838,391.39880168367364,1.0,1.0,152.6966739576527,3.0695385048482913,-23.481694918805413,-41.73479528349697,1.0,412.0580071258819,0.0,1.0,15.43946895925557,-31.007579001417383,,,
3.7600000000000002,3.7600000000000002,1.0,6.191531705479426,7.463651230994841,12.424577940009407,0.8228794903847245,-2.1463982973739353,-4.6125684421046484,15.761068857956817,5.153634051789597,1.0,0.0,101.79603031482787,-163.12720966411013,411.6152530190693,12.016532112287614,3.2417920204897173,-20.61169777641788,1.0,410.9580489026852,0.0,1.0,25.455698226058704,383.57956390310244,1.0,1.0,126.2614476139336,4.431170097714494,-24.77713467782843,-40.89391261237032,1.0,410.3212379001974,0.0,1.0,7.157861992189487,-24.023200280588224,,,
3.8000000000000003,3.8000000000000003,1.0,6.0382909277561065,8.0785747253976,12.135978577473978,0.8857361729120129,-1.8019676432210394,-4.649727117637906,15.779933553566122,5.0647387122849405,1.0,0.0,105.10738294124408,-164.6872474596328,412.40258447118396,10.111873137490594,4.239774528687575,-20.993122555603005,1.0,408.54918419605286,0.0,1.0,25.15001109701393,366.96257378125193,1.0,1.0,126.2614476139336,4.431170097714494,-24.77713467782843,-40.89391261237032,1.0,410.3212379001974,0.0,1.0,7.157861992189487,-24.023200280588224,,,
3.84,3.84,1.0,5.352629706277413,8.522480954256196,11.677452848328553,0.97065268739717,-1.4405884723686866,-4.818379410509964,15.415778650886228,5.121937321941693,1.0,0.0,105.10738294124408,-164.6872474596328,412.40258447118396,10.111873137490594,4.239774528687575,-20.993122555603005,1.0,408.893690227643,0.0,1.0,24.594220764438695,359.3169871695605,1.0,1.0,102.11674781008753,8.7030743060206,-25.411734884497406,-39.81625615182086,1.0,408.5544649869601,0.0,1.0,3.2043001726102704,-18.722729998757348,,,
3.88,3.88,1.0,4.8596246650395685,8.774695451049885,11.224238385649238,1.022283474101456,-1.1331632067982653,-5.094654474009496,15.053064786999967,5.318329301971366,1.0,0.0,105.10738294124408,-164.6872474596328,412.40258447118396,10.111873137490594,4.239774528687575,-20.993122555603005,1.0,407.20092289593134,0.0,1.0,24.449192906672593,349.66682814903623,1.0,1.0,102.11674781008753,8.7030743060206,-25.411734884497406,-39.81625615182086,1.0,408.5544649869601,0.0,1.0,3.2043001726102704,-18.722729998757348,,,
3.92,3.92,1.0,4.014847281841966,8.866207962597892,10.812197694758765,1.0246667055812053,-0.8848091773402351,-5.525403127791223,14.547586099525063,5.688840730978252,1.0,0.0,105.10738294124408,-164.6872474596328,412.40258447118396,10.111873137490594,4.239774528687575,-20.993122555603005,1.0,406.89420582963714,0.0,1.0,24.047392991331737,337.00675002213114,1.0,1.0,77.66057601215343,15.974592576741976,-23.36171646870565,-38.74131464566752,1.0,406.91958204536616,0.0,1.0,-0.05388659039979722,-14.992308976129422,,,
3.96,3.96,1.0,3.2448551687678058,8.148131413527999,10.605450950247192,1.0045838771754856,-0.6850321805881147,-6.0682474124679615,13.762148104729146,6.18886778931707,1.0,0.0,105.10738294124408,-164.6872474596328,412.40258447118396,10.111873137490594,4.239774528687575,-20.993122555603005,1.0,406.8906925013669,0.0,1.0,24.628123484931304,347.61007397570995,1.0,1.0,77.66057601215343,15.974592576741976,-23.36171646870565,-38.74131464566752,1.0,406.91958204536616,0.0,1.0,-0.05388659039979722,-14.992308976129422,,,
4.0,4.0,1.0,2.544296507965674,6.5412064319104575,10.528051151904243,0.8914129228358576,-0.5120093025116274,-6.4959554595741595,12.653090032178913,6.576793128693386,1.0,0.0,99.96921801249391,-163.33961243774903,409.25684681918614,8.54885755221285,5.421920938146902,-20.884370816093234,1.0,408.0868015800867,0.0,1.0,23.258573089684468,340.5701936719319,1.0,1.0,47.520272375904675,24.172990094916535,-16.06699965537894,-38.21120228224122,1.0,405.2603058749083,0.0,1.0,-2.331171414404453,-11.690542392840216,,,
4.04,4.04,1.0,2.046148020248851,4.572035181604576,10.496109285339253,0.6723468053909607,-0.3483474082991654,-6.638919807368255,11.630070401867014,6.681964707498441,1.0,0.0,99.96921801249391,-163.33961243774903,409.25684681918614,8.54885755221285,5.421920938146902,-20.884370816093234,1.0,403.11490369237004,0.0,1.0,24.474131271834743,329.57895694392977,1.0,1.0,47.520272375904675,24.172990094916535,-16.06699965537894,-38.21120228224122,1.0,405.2603058749083,0.0,1.0,-2.331171414404453,-11.690542392840216,,,
4.08,4.08,1.0,1.6958706919740367,1.9281517376432944,10.38409359721128,0.3640110822529804,-0.14745688957846514,-6.446251492896226,10.69687554208787,6.458204542437005,1.0,0.0,99.96921801249391,-163.33961243774903,409.25684681918614,8.54885755221285,5.421920938146902,-20.884370816093234,1.0,403.3909377832078,0.0,1.0,23.68932864294145,335.1387948461618,1.0,1.0,17.816211640395288,28.816221781261785,-3.561947812999688,-38.34409419075021,1.0,403.37191463725384,0.0,1.0,-4.218486146854597,-8.250765368973148,,,
4.12,4.12,1.0,1.7244547829889334,-0.7790111216602241,10.426336063269648,-0.008758796400992764,0.09348934941857061,-5.819554703080157,10.596654487642832,5.820312183818963,1.0,0.0,99.96921801249391,-163.33961243774903,409.25684681918614,8.54885755221285,5.421920938146902,-20.884370816093234,1.0,401.8142618963415,0.0,1.0,24.378474889137777,335.6078970327525,1.0,1.0,17.816211640395288,28.816221781261785,-3.561947812999688,-38.34409419075021,1.0,403.37191463725384,0.0,1.0,-4.218486146854597,-8.250765368973148,,,
4.16,4.16,1.0,1.8742363072420825,-3.3099744950653753,10.305585312287748,-0.4169550620504206,0.3601005405501255,-5.049855946960109,10.98516187965424,5.079819781067272,1.0,0.0,99.96921801249391,-163.33961243774903,409.25684681918614,8.54885755221285,5.421920938146902,-20.884370816093234,1.0,402.55929624382895,0.0,1.0,23.39859631434652,335.9560921325257,1.0,1.0,-7.088662802168097,28.22432876677256,9.54198523294659,-37.52776194163182,1.0,401.9468454803851,0.0,1.0,-9.337542071161037,-5.904016050420111,,,
4.2,4.2,1.0,2.0017913344906786,-5.848464027675679,9.976932058630986,-0.8368677170356701,0.6260447109565672,-4.2827354767567405,11.73673179945751,4.40841272112809,1.0,0.0,111.30496118587129,-162.398418835344,400.45979831248195,8.454424139515869,6.112866751842692,-20.974876299724084,1.0,401.9036591609266,0.0,1.0,23.697209730656922,345.10136169984855,1.0,1.0,-7.088662802168097,28.22432876677256,9.54198523294659,-37.52776194163182,1.0,401.9468454803851,0.0,1.0,-9.337542071161037,-5.904016050420111,,,
4.24,4.24,1.0,2.2592948955688015,-7.905393125573976,9.443365621489288,-1.2688861401256766,0.8638725881560483,-3.5153268846644905,12.521054594407826,3.8358663938171023,1.0,0.0,111.30496118587129,-162.398418835344,400.45979831248195,8.454424139515869,6.112866751842692,-20.974876299724084,1.0,400.79800235187014,0.0,1.0,23.423988548230042,343.10158981649874,1.0,1.0,-24.262528909634938,25.673212856701326,21.03570684378586,-34.754110471134766,1.0,400.5013209422452,0.0,1.0,-15.640516530473674,-6.009743942502519,,,
4.28,4.28,1.0,2.4320672105659935,-8.631462195644975,8.919421763704582,-1.705330104725225,1.056670316529982,-2.749832976426716,12.64805025094404,3.403863146802693,1.0,0.0,111.30496118587129,-162.398418835344,400.45979831248195,8.454424139515869,6.112866751842692,-20.974876299724084,1.0,398.67167583360657,0.0,1.0,24.465331683432503,343.2638320605938,1.0,1.0,-24.262528909634938,25.673212856701326,21.03570684378586,-34.754110471134766,1.0,400.5013209422452,1.0,1.0,-15.640516530473674,-6.009743942502519,-0.04009353600387407,0.009217863805885351,0.0014545455680425867
4.32,4.32,1.0,2.563351623379286,-9.207444620184067,8.128020817275983,-1.977009131520663,1.1904740856683653,-1.979548145629584,12.546415041154564,3.0404612340284065,1.0,0.0,111.30496118587129,-162.398418835344,400.45979831248195,8.454424139515869,6.112866751842692,-20.974876299724084,1.0,397.7636759970915,0.0,1.0,23.8812564001858,343.14334034818785,1.0,1.0,-36.77730640331722,23.697500800521585,30.40557656020951,-28.63438343412498,1.0,398.49660336302867,1.0,1.0,-25.441711066748876,-6.448777354853731,-0.03252435894336555,0.02264314064496022,0.003525133247424428
4.36,4.36,1.0,2.6517665535001087,-9.572850281244817,7.275006221678372,-2.136318800307339,1.2475582659674882,-1.2138217641182747,12.312475132435795,2.755652902413073,1.0,0.0,111.30496118587129,-162.398418835344,400.45979831248195,8.454424139515869,6.112866751842692,-20.974876299724084,1.0,395.2231071358757,0.0,1.0,23.44757644252639,338.6824291791506,1.0,1.0,-36.77730640331722,23.697500800521585,30.40557656020951,-28.63438343412498,1.0,398.49660336302867,1.0,1.0,-25.441711066748876,-6.448777354853731,-0.05534640332459959,0.022236733362367436,0.005591220868451652
4.4,4.4,1.0,2.598598132541552,-9.825788261796701,6.564057381643696,-2.1963810529587553,1.1922440007819268,-0.4475614405841967,12.098994856169721,2.538867213994168,1.0,0.0,108.69022414189622,-163.38761588901662,402.3524430452521,8.306352241112364,4.981467939259557,-20.531233177742532,1.0,399.2713652173926,0.0,1.0,23.880081165803094,338.27976564358613,1.0,1.0,-46.03477143098439,23.931537704758895,36.18435538207666,-20.534207509721437,1.0,397.8246884057529,1.0,1.0,-36.89552422002838,-9.640306683759094,-0.027697832355787263,0.021205682300240846,0.007653633275474303
4.44,4.44,1.0,2.8841673359983098,-9.168612352545841,6.788899723840119,-2.210106744593402,1.067543146048404,0.3208942915598426,11.767371548211276,2.4753168155870195,1.0,0.0,108.69022414189622,-163.38761588901662,402.3524430452521,8.306352241112364,4.981467939259557,-20.531233177742532,1.0,397.2654114068893,0.0,1.0,24.083450034393937,338.02657880755834,1.0,1.0,-46.03477143098439,23.931537704758895,36.18435538207666,-20.534207509721437,1.0,397.8246884057529,1.0,1.0,-36.89552422002838,-9.640306683759094,-0.047707102822926416,0.02203800460592925,0.009713286752941586
4.48,4.48,1.0,3.429991291624134,-8.021276869782062,7.683285903868347,-2.206713988026797,0.8976575267631804,1.0931784000613978,11.624913124961415,2.621147587349579,1.0,0.0,108.69022414189622,-163.38761588901662,402.3524430452521,8.306352241112364,4.981467939259557,-20.531233177742532,1.0,394.1494782974925,0.0,1.0,24.09275904776811,347.9916029632969,1.0,1.0,-45.45057378547072,27.395977181581227,37.582761898685426,-11.930408364819206,1.0,394.9022083365845,1.0,1.0,-46.46650806309659,-15.22437287749195,-0.03973463807368212,0.032888454185065766,0.011770730996813472
4.5200000000000005,4.5200000000000005,1.0,4.628667393893127,-5.972731532271981,3.089751512028649,-2.205605052025302,0.6727908954988367,1.8596844309058944,8.163617348085879,2.9623921781458042,1.0,0.0,108.69022414189622,-163.38761588901662,402.3524430452521,8.306352241112364,4.981467939259557,-20.531233177742532,1.0,392.6161001582844,0.0,1.0,24.72606573824506,343.75539494739314,1.0,1.0,-45.45057378547072,27.395977181581227,37.582761898685426,-11.930408364819206,1.0,394.9022083365845,1.0,1.0,-46.46650806309659,-15.22437287749195,-0.07542656555410306,0.014711425853329409,0.013828382209932655
4.5600000000000005,4.5600000000000005,1.0,4.964790327033076,-5.419798533722493,-2.246508516338398,-2.2067296448825506,0.28280260178157235,2.625306271845356,7.685711395279076,3.441201252203721,1.0,0.0,108.69022414189622,-163.38761588901662,402.3524430452521,8.306352241112364,4.981467939259557,-20.531233177742532,1.0,394.0158397203995,0.0,1.0,24.206902100862656,352.1517424011049,1.0,1.0,-40.09792318347358,34.08531506255853,33.40049011788002,-4.458371675796326,1.0,393.60988739042966,1.0,1.0,-55.32412828894957,-25.643866467344594,-0.036167215507998694,0.029931277100900263,0.0159066374754957
