time_s,sensor_time_s,imu_valid,imu_ax_mps2,imu_ay_mps2,imu_az_mps2,gyro_p_rps,gyro_q_rps,gyro_r_rps,imu_accel_norm_mps2,imu_gyro_norm_rps,gps_valid,gps_latency_s,gps_x_m,gps_y_m,gps_z_m,gps_vx_mps,gps_vy_mps,gps_vz_mps,baro_valid,baro_alt_m,baro_bias_m,pitot_valid,pitot_airspeed_mps,pitot_qbar_pa,pitot_compressibility_factor,mag_valid,mag_heading_deg,mag_x_ut,mag_y_ut,mag_z_ut,radar_valid,radar_agl_m,optical_flow_valid,optical_flow_x_radps,optical_flow_y_radps,optical_flow_quality,horizon_valid,horizon_roll_deg,horizon_pitch_deg
0.0,0.0,1.0,16.814264143952194,1.260259370746404,0.8286042313486423,-0.0022319153689813204,-0.0039015279865140195,-0.0023592222364778276,16.881774709915998,0.005076346757751937,1.0,0.0,-0.7785414889531648,-0.7699426628116489,749.9804323702161,85.939862586848,-0.9434081530172551,9.010771297708263,1.0,749.8555948662996,0.0,1.0,88.65372415368083,4500.244903264226,1.0,1.0,-0.5737756339655435,18.843798690923343,0.06929347722390143,-44.11802215367801,1.0,750.0321065721554,1.0,-0.007201073526722839,0.11474759090463373,0.375,1.0,-0.5314886576265022,6.887296576438832
0.03,0.03,1.0,17.06953998725059,1.3665580357269744,1.443859460385656,0.03213668082888313,-0.1159918628715981,-0.05889908910149277,17.1849179917363,0.13399992986605144,1.0,0.0,-0.7785414889531648,-0.7699426628116489,749.9804323702161,85.939862586848,-0.9434081530172551,9.010771297708263,1.0,749.8555948662996,0.0,1.0,89.18436850417089,4518.82341569258,1.0,1.0,-0.5737756339655435,18.843798690923343,0.06929347722390143,-44.11802215367801,1.0,750.0321065721554,1.0,-0.007201073526722839,0.11474759090463373,0.375,1.0,-0.5314886576265022,6.887296576438832
0.06,0.06,1.0,17.411329653822186,1.3448739064963702,1.6798223860150543,0.059011093231798574,-0.02125035644954384,-0.1312911413607266,17.543799171986663,0.1455034383560986,1.0,0.0,-0.7785414889531648,-0.7699426628116489,749.9804323702161,85.939862586848,-0.9434081530172551,9.010771297708263,1.0,751.3524352950473,0.0,1.0,90.36214943801085,4667.09686652308,1.0,1.0,-1.986017406795213,18.56542747046713,0.0025885047385035345,-44.19801559755626,1.0,749.9279232600674,1.0,-0.0018802475210510637,0.10651965597421753,0.3745651604049436,1.0,0.2382785501147354,7.30548664959926
0.09,0.09,1.0,17.68178073777216,1.492576895505479,1.495628561333939,0.10748391172093584,0.0883146739842514,-0.2134176851323872,17.80758435726545,0.25475356964534435,1.0,0.0,-0.7785414889531648,-0.7699426628116489,749.9804323702161,85.939862586848,-0.9434081530172551,9.010771297708263,1.0,751.3524352950473,0.0,1.0,90.1550819798749,4687.82511924001,1.0,1.0,-1.986017406795213,18.56542747046713,0.0025885047385035345,-44.19801559755626,1.0,749.9279232600674,1.0,-0.0018802475210510637,0.10651965597421753,0.3745651604049436,1.0,0.2382785501147354,7.30548664959926
0.12,0.12,1.0,17.952115853456338,1.3593038972010634,1.3049197821522747,0.13295050897570132,0.12583537899531166,-0.28597968215146374,18.050733678682334,0.3395508195355211,1.0,0.0,-0.7785414889531648,-0.7699426628116489,749.9804323702161,85.939862586848,-0.9434081530172551,9.010771297708263,1.0,752.0922948497662,0.0,1.0,90.7844842309299,4701.365649756803,1.0,1.0,-1.8866740579184231,18.773303376454376,-0.0840840778661015,-44.20891730421887,1.0,750.785215596155,1.0,-0.009342982118997352,0.13769132850443816,0.3741487781370677,1.0,1.204509775629896,7.155248985110321
0.15,0.15,1.0,18.319768581845604,1.1927600935653633,1.3189894912265634,0.16567097432733502,0.0946582978222659,-0.3773166236500409,18.405877615890677,0.4228178089483033,1.0,0.0,-0.7785414889531648,-0.7699426628116489,749.9804323702161,85.939862586848,-0.9434081530172551,9.010771297708263,1.0,752.0922948497662,0.0,1.0,91.62148072229488,4786.330689016558,1.0,1.0,-1.8866740579184231,18.773303376454376,-0.0840840778661015,-44.20891730421887,1.0,750.785215596155,1.0,-0.009342982118997352,0.13769132850443816,0.3741487781370677,1.0,1.204509775629896,7.155248985110321
0.18,0.18,1.0,18.65113635617507,1.3117918685705063,1.2951666250967053,0.20429643212710052,0.04811987036298229,-0.45155879070321225,18.74201541643394,0.49795370825505525,1.0,0.0,-0.7785414889531648,-0.7699426628116489,749.9804323702161,85.939862586848,-0.9434081530172551,9.010771297708263,1.0,751.1470191231008,0.0,1.0,92.36352139489581,4720.020472230306,1.0,1.0,-4.077496166815841,19.084631717870852,-0.09081719144687721,-44.07066009224958,1.0,751.4267589281601,1.0,-0.00609376476823051,0.13278403486418563,0.37375128886241993,1.0,1.4271034553982875,6.658942576460791
0.21,0.21,1.0,19.005920957706298,1.1543095839771331,1.3936419948286516,0.2380691347018365,0.03779000163900456,-0.5215945031965414,19.09187523728329,0.5746005768239395,1.0,0.0,19.547521810772086,0.525516396176074,749.453684435872,89.71799971521912,-1.1264829259854474,7.813516483719752,1.0,751.1470191231008,0.0,1.0,93.05993557471498,4827.05443439784,1.0,1.0,-4.077496166815841,19.084631717870852,-0.09081719144687721,-44.07066009224958,1.0,751.4267589281601,1.0,-0.00609376476823051,0.13278403486418563,0.37375128886241993,1.0,1.4271034553982875,6.658942576460791
0.24,0.24,1.0,19.280891384312223,0.8068498907421768,1.6024044515094575,0.27838789448699924,0.036504365352456596,-0.6069375294275096,19.36418031691642,0.6687342918635617,1.0,0.0,19.547521810772086,0.525516396176074,749.453684435872,89.71799971521912,-1.1264829259854474,7.813516483719752,1.0,752.0396935445873,0.0,1.0,93.32130340609184,4987.771340293647,1.0,1.0,-4.264653709790767,19.181723077129302,-0.05431935235183673,-44.08390143712786,1.0,752.0301783319097,1.0,-0.0016977568545485412,0.10746451622126398,0.3733726609687663,1.0,2.534905841506681,6.248442823082312
0.27,0.27,1.0,19.620799978689426,0.8632297705651504,1.6178561581359445,0.3056430265442686,0.030969285381996222,-0.6632133958678601,19.70630396570974,0.7309095462304422,1.0,0.0,19.547521810772086,0.525516396176074,749.453684435872,89.71799971521912,-1.1264829259854474,7.813516483719752,1.0,752.0396935445873,0.0,1.0,93.44086411554892,4954.170679163397,1.0,1.0,-4.264653709790767,19.181723077129302,-0.05431935235183673,-44.08390143712786,1.0,752.0301783319097,1.0,-0.0016977568545485412,0.10746451622126398,0.3733726609687663,1.0,2.534905841506681,6.248442823082312
0.3,0.3,1.0,19.845994215358544,0.5480257525022434,1.7060011348170998,0.3357839417541332,0.029846159986547327,-0.7335762223118425,19.926722221515703,0.8073262802282603,1.0,0.0,19.547521810772086,0.525516396176074,749.453684435872,89.71799971521912,-1.1264829259854474,7.813516483719752,1.0,751.4255931564587,0.0,1.0,93.94475358737023,5079.6849726001765,1.0,1.0,-6.693675762726699,19.246369463161503,-0.1816448838993674,-43.98699265748064,1.0,752.1646453382887,1.0,-0.011492965775269178,0.12028191754674214,0.3730124314199873,1.0,3.5620825168573362,5.502129409491297
0.32999999999999996,0.32999999999999996,1.0,20.20292167034203,0.285698898011691,1.6542328686362269,0.36476556137360233,0.01234897789766494,-0.7801537501301367,20.272546812425347,0.8613049900363007,1.0,0.0,19.547521810772086,0.525516396176074,749.453684435872,89.71799971521912,-1.1264829259854474,7.813516483719752,1.0,751.4255931564587,0.0,1.0,94.1785888809012,5105.017084225097,1.0,1.0,-6.693675762726699,19.246369463161503,-0.1816448838993674,-43.98699265748064,1.0,752.1646453382887,1.0,-0.011492965775269178,0.12028191754674214,0.3730124314199873,1.0,3.5620825168573362,5.502129409491297
0.36,0.36,1.0,20.33196717190023,0.04869057229963943,1.942687135368282,0.38436319759551246,-0.001044289621509533,-0.813845177451763,20.424624676037133,0.9000445161591465,1.0,0.0,19.547521810772086,0.525516396176074,749.453684435872,89.71799971521912,-1.1264829259854474,7.813516483719752,1.0,753.4438179083802,0.0,1.0,95.42000723980026,5237.402181842658,1.0,1.0,-8.390344722174225,19.27826299876551,-0.2330176342425091,-43.9208491794851,1.0,752.7353976218794,1.0,-0.023353978300431656,0.13518903560827564,0.37267022821462636,1.0,5.478116393860828,5.850232954327247
0.39,0.39,1.0,20.784638272147507,-0.13989394013157286,1.9707160461858388,0.4111969277999122,-0.003053590416318524,-0.8506829709104443,20.878325607030817,0.9448564731447505,1.0,0.0,19.547521810772086,0.525516396176074,749.453684435872,89.71799971521912,-1.1264829259854474,7.813516483719752,1.0,753.4438179083802,0.0,1.0,96.03187494672065,5314.3291860744575,1.0,1.0,-8.390344722174225,19.27826299876551,-0.2330176342425091,-43.9208491794851,1.0,752.7353976218794,1.0,-0.023353978300431656,0.13518903560827564,0.37267022821462636,1.0,5.478116393860828,5.850232954327247
0.42,0.42,1.0,20.901249633566287,-0.4602430040107365,2.3043962454509033,0.4250172979768263,-0.02134037795041344,-0.8716341550507197,21.03293374504479,0.9699696982697815,1.0,0.0,38.03280013914253,1.5485675707009359,751.9658926797125,93.61111565512793,-1.129490514063982,6.245477897338052,1.0,753.7197771364247,0.0,1.0,97.04731634078377,5369.40704413054,1.0,1.0,-11.57798291252801,19.189874217290143,-0.22568362465414923,-43.89127370366004,1.0,752.9514625570745,1.0,-0.04327453469090403,0.11328933509971874,0.3723454766178187,1.0,7.8400889685650315,6.148850844977502
0.44999999999999996,0.44999999999999996,1.0,20.739258768347213,-0.8933582509174579,2.437410910240509,0.4410605657550493,-0.031812865247466876,-0.8742109862812912,20.901098420186162,0.9796894046555396,1.0,0.0,38.03280013914253,1.5485675707009359,751.9658926797125,93.61111565512793,-1.129490514063982,6.245477897338052,1.0,753.7197771364247,0.0,1.0,96.9417000742343,5372.753932795699,1.0,1.0,-11.57798291252801,19.189874217290143,-0.22568362465414923,-43.89127370366004,1.0,752.9514625570745,1.0,-0.04327453469090403,0.11328933509971874,0.3723454766178187,1.0,7.8400889685650315,6.148850844977502
0.48,0.48,1.0,20.751247117302174,-1.1449365803623734,2.6969788363165272,0.4523714106491948,-0.03289674683843954,-0.8767459258849467,20.957071158440364,0.9871198041175889,1.0,0.0,38.03280013914253,1.5485675707009359,751.9658926797125,93.61111565512793,-1.129490514063982,6.245477897338052,1.0,753.8546813517604,0.0,1.0,97.95494888165813,5419.02991411847,1.0,1.0,-14.292404403537954,19.153787322326988,-0.47885676349143896,-44.026588626466555,1.0,753.3589153349973,1.0,-0.031332009391561326,0.11942324658917029,0.3720374629338652,1.0,9.959018341086837,5.346654754782445
0.51,0.51,1.0,20.734958457282143,-1.4262839575681636,3.062259752370237,0.4703278412856526,-0.03747397580999443,-0.8609023949604643,21.00833698663031,0.9817155956793665,1.0,0.0,38.03280013914253,1.5485675707009359,751.9658926797125,93.61111565512793,-1.129490514063982,6.245477897338052,1.0,753.8546813517604,0.0,1.0,98.7214590717748,5548.806205422047,1.0,1.0,-14.292404403537954,19.153787322326988,-0.47885676349143896,-44.026588626466555,1.0,753.3589153349973,1.0,-0.031332009391561326,0.11942324658917029,0.3720374629338652,1.0,9.959018341086837,5.346654754782445
0.54,0.54,1.0,20.73209912726437,-1.7253680271809526,3.3897184246535503,0.46430199094452196,-0.03752543810982571,-0.8221893295834644,21.078117089777493,0.9449760795815352,1.0,0.0,38.03280013914253,1.5485675707009359,751.9658926797125,93.61111565512793,-1.129490514063982,6.245477897338052,1.0,754.1040611737162,0.0,1.0,98.73579093166195,5576.356249317993,1.0,1.0,-20.526548301746228,19.102934054173545,-0.7502752933525242,-43.94137361181313,1.0,754.1420716891861,1.0,-0.04148199828159055,0.11354384760266721,0.37174542484503337,1.0,10.551718232987556,5.259756483204476
0.57,0.57,1.0,20.542372125260467,-2.0083519206409144,3.804239207880308,0.4729136979713576,-0.025284694061783786,-0.7657452366575387,20.987967169799795,0.9003623986742518,1.0,0.0,38.03280013914253,1.5485675707009359,751.9658926797125,93.61111565512793,-1.129490514063982,6.245477897338052,1.0,754.1040611737162,0.0,1.0,99.38881217254176,5599.050621041837,1.0,1.0,-20.526548301746228,19.102934054173545,-0.7502752933525242,-43.94137361181313,1.0,754.1420716891861,1.0,-0.04148199828159055,0.11354384760266721,0.37174542484503337,1.0,10.551718232987556,5.259756483204476
0.6,0.6,1.0,20.452456083254827,-2.3239765508981467,4.062935524848004,0.4725712218426541,-0.026248201159366123,-0.7066749007632704,20.981212355954643,0.8505303893140678,1.0,0.0,38.03280013914253,1.5485675707009359,751.9658926797125,93.61111565512793,-1.129490514063982,6.245477897338052,1.0,755.5157576779009,0.0,1.0,100.212091078419,5705.392229958519,1.0,1.0,-21.956410765180298,19.05313943678002,-1.1543939014518176,-43.981788798539846,1.0,754.8439225828456,1.0,-0.04689726647940166,0.12109454372018696,0.37146848394703713,1.0,12.38928533748818,3.8806165043178256
0.63,0.63,1.0,20.406367538867087,-2.7024720728537677,4.42314211205813,0.47195451407299505,-0.02039032692413308,-0.6283792813591851,21.05439093346908,0.7861407952952422,1.0,0.0,58.85255075270273,0.056064625574910876,755.3839708327073,97.75224947340854,-2.787602802286172,5.171576108159217,1.0,755.5157576779009,0.0,1.0,100.63183087998132,5834.574751361253,1.0,1.0,-21.956410765180298,19.05313943678002,-1.1543939014518176,-43.981788798539846,1.0,754.8439225828456,1.0,-0.04689726647940166,0.12109454372018696,0.37146848394703713,1.0,12.38928533748818,3.8806165043178256
0.6599999999999999,0.6599999999999999,1.0,20.457960936748744,-2.8939287812263,4.737944595373426,0.4717237556069471,0.0016999047412239623,-0.5316275241208248,21.197903397958388,0.7107418769728503,1.0,0.0,58.85255075270273,0.056064625574910876,755.3839708327073,97.75224947340854,-2.787602802286172,5.171576108159217,1.0,754.4140663259398,0.0,1.0,100.88933410821704,5712.103509188061,1.0,1.0,-22.013301412832515,19.111370644280928,-1.6957981170285659,-43.95822747185572,1.0,754.7433814845697,1.0,-0.03078877021798381,0.12461900724820069,0.37120575135687817,1.0,14.408114389679646,4.2075096948816135
0.69,0.69,1.0,20.299344457973714,-3.0509166063032698,5.143935809072344,0.459603827035517,0.017888214312169685,-0.43703369884223214,21.162030932071286,0.634471528093022,1.0,0.0,58.85255075270273,0.056064625574910876,755.3839708327073,97.75224947340854,-2.787602802286172,5.171576108159217,1.0,754.4140663259398,0.0,1.0,101.52367260327804,5882.218614511507,1.0,1.0,-22.013301412832515,19.111370644280928,-1.6957981170285659,-43.95822747185572,1.0,754.7433814845697,1.0,-0.03078877021798381,0.12461900724820069,0.37120575135687817,1.0,14.408114389679646,4.2075096948816135
0.72,0.72,1.0,20.243005653368286,-3.2033939440778103,5.353165766546229,0.4553702497862612,0.04157017399102945,-0.3192592438867522,21.182478475555623,0.5576886304768882,1.0,0.0,58.85255075270273,0.056064625574910876,755.3839708327073,97.75224947340854,-2.787602802286172,5.171576108159217,1.0,754.692483164529,0.0,1.0,101.99845697179225,5964.526105523576,1.0,1.0,-24.73772114794911,19.225012315271236,-2.4452153065715176,-43.93438896474098,1.0,754.7987441628221,1.0,-0.05504634918165856,0.10862751095062231,0.3709564725491241,1.0,16.667745555613823,3.879522359389791
0.75,0.75,1.0,20.27320351165044,-3.3441809388505757,5.577236412011906,0.4572691550966243,0.08117855314234339,-0.19836562706339386,21.290652708924604,0.5050088709055697,1.0,0.0,58.85255075270273,0.056064625574910876,755.3839708327073,97.75224947340854,-2.787602802286172,5.171576108159217,1.0,754.692483164529,0.0,1.0,103.26477388097288,6121.217728723726,1.0,1.0,-24.73772114794911,19.225012315271236,-2.4452153065715176,-43.93438896474098,1.0,754.7987441628221,1.0,-0.05504634918165856,0.10862751095062231,0.3709564725491241,1.0,16.667745555613823,3.879522359389791
0.78,0.78,1.0,20.212758884976303,-3.49628861586526,5.778018342446908,0.44833069089907046,0.10375575419277759,-0.06392325229463156,21.311150879135326,0.4645985870771381,1.0,0.0,58.85255075270273,0.056064625574910876,755.3839708327073,97.75224947340854,-2.787602802286172,5.171576108159217,1.0,754.2105994569317,0.0,1.0,103.08533918746204,6065.143575566234,1.0,1.0,-24.27547792512936,19.45491414742312,-3.5473597061735878,-43.72778057559869,1.0,754.9228033674175,1.0,-0.05483469545801975,0.13149246032889622,0.37072017500864407,1.0,17.679559101826907,2.86429469559286
0.8099999999999999,0.8099999999999999,1.0,20.20394061831247,-3.5496577771134175,5.8341948300679,0.456032992995894,0.13548131790250645,0.0732192418693963,21.326910609793188,0.4813339127687995,1.0,0.0,58.85255075270273,0.056064625574910876,755.3839708327073,97.75224947340854,-2.787602802286172,5.171576108159217,1.0,754.2105994569317,0.0,1.0,104.22628395688906,6263.522270449131,1.0,1.0,-24.27547792512936,19.45491414742312,-3.5473597061735878,-43.72778057559869,1.0,754.9228033674175,1.0,-0.05483469545801975,0.13149246032889622,0.37072017500864407,1.0,17.679559101826907,2.86429469559286
0.84,0.84,1.0,20.18893088927569,-3.6148528882184605,5.863505557798011,0.46156806697656594,0.17045561279666718,0.2217176568707616,21.33168510178555,0.539684088847014,1.0,0.0,77.88726184371733,0.30629672292928123,754.7717598478448,101.1737413180746,-5.378343929323056,4.357970465398116,1.0,755.3199857455373,0.0,1.0,105.12334630036354,6202.018533474259,1.0,1.0,-22.526390710136894,19.874465109989195,-4.886903423419691,-43.47584585107265,1.0,755.0276590212178,1.0,-0.031072086932781528,0.1284106551466869,0.3704967890136053,1.0,20.208114843625363,2.8385898473075537
0.87,0.87,1.0,20.151279743720224,-3.4044706761110266,5.881978104171092,0.47413750058548054,0.2158264840865338,0.3609689494169775,21.266456270665245,0.6337870487299324,1.0,0.0,77.88726184371733,0.30629672292928123,754.7717598478448,101.1737413180746,-5.378343929323056,4.357970465398116,1.0,755.3199857455373,0.0,1.0,105.18136774852218,6292.419811907162,1.0,1.0,-22.526390710136894,19.874465109989195,-4.886903423419691,-43.47584585107265,1.0,755.0276590212178,1.0,-0.031072086932781528,0.1284106551466869,0.3704967890136053,1.0,20.208114843625363,2.8385898473075537
0.8999999999999999,0.8999999999999999,1.0,20.238320897344654,-3.2373001758710824,5.820367985662823,0.5051608826865975,0.24316213170270862,0.5093205680910012,21.306018601820497,0.7574449027958721,1.0,0.0,77.88726184371733,0.30629672292928123,754.7717598478448,101.1737413180746,-5.378343929323056,4.357970465398116,1.0,755.042734827811,0.0,1.0,105.61572054300599,6313.219749616559,1.0,1.0,-21.216455235657303,20.371028242185726,-6.799633997080606,-42.99974568217972,1.0,755.7839244218326,1.0,-0.026546358782341444,0.14603065457144943,0.37028670972380484,1.0,21.438401975256806,2.3301044586258683
0.9299999999999999,0.9299999999999999,1.0,20.241530493987018,-2.9693247685568545,5.496787639773438,0.5288833873020952,0.2883646258538767,0.6506373946851941,21.183746615670646,0.8866796570186559,1.0,0.0,77.88726184371733,0.30629672292928123,754.7717598478448,101.1737413180746,-5.378343929323056,4.357970465398116,1.0,755.042734827811,0.0,1.0,105.314935422386,6419.32537752744,1.0,1.0,-21.216455235657303,20.371028242185726,-6.799633997080606,-42.99974568217972,1.0,755.7839244218326,1.0,-0.026546358782341444,0.14603065457144943,0.37028670972380484,1.0,21.438401975256806,2.3301044586258683
0.96,0.96,1.0,20.266676418341902,-2.915521547026781,5.279906092330731,0.5852930565801224,0.3265365829669099,0.7829791311759098,21.145114028559515,1.030655336159276,1.0,0.0,77.88726184371733,0.30629672292928123,754.7717598478448,101.1737413180746,-5.378343929323056,4.357970465398116,1.0,755.6779952061614,0.0,1.0,106.91485443023304,6555.573509694434,1.0,1.0,-17.56753835202187,20.757465905666027,-9.000705816152745,-42.27787398941014,1.0,756.1374533128081,1.0,-0.032173258190331636,0.1316669491974162,0.3700907959352776,1.0,22.632739899339107,2.5380298717227143
0.99,0.99,1.0,20.28049776830217,-2.4162341612904554,4.95325153158894,0.6514998514990514,0.37979145451862095,0.9135966047737322,21.015981489987194,1.1846317409569722,1.0,0.0,77.88726184371733,0.30629672292928123,754.7717598478448,101.1737413180746,-5.378343929323056,4.357970465398116,1.0,755.6779952061614,0.0,1.0,107.03207057825595,6602.536221350554,1.0,1.0,-17.56753835202187,20.757465905666027,-9.000705816152745,-42.27787398941014,1.0,756.1374533128081,1.0,-0.032173258190331636,0.1316669491974162,0.3700907959352776,1.0,22.632739899339107,2.5380298717227143
1.02,1.02,1.0,20.351475290055248,-1.9939977334826455,4.471975635437933,0.7400061213234485,0.41884236828711846,1.0154905205306772,20.93220340830878,1.3244844228439239,1.0,0.0,77.88726184371733,0.30629672292928123,754.7717598478448,101.1737413180746,-5.378343929323056,4.357970465398116,1.0,755.1275624435152,0.0,1.0,108.0434242249491,6597.6091293305235,1.0,1.0,-15.64707761156946,21.104723228240765,-12.058086871644328,-41.43474693583386,1.0,756.1390569386979,1.0,-0.01533479752510959,0.13620666621211006,0.36991033119305783,1.0,25.530567913820345,3.3015002845420507
1.05,1.05,1.0,20.341001065354487,-1.5051646227718352,3.863966351891364,0.8506210105905843,0.457277322933551,1.113677378598701,20.759385367850967,1.4740881782749282,1.0,0.0,101.92437772316349,-2.223104175003187,757.1147622731622,104.67830242447863,-7.715936021038556,3.3441725940305176,1.0,755.1275624435152,0.0,1.0,108.03845276938937,6699.145096338356,1.0,1.0,-15.64707761156946,21.104723228240765,-12.058086871644328,-41.43474693583386,1.0,756.1390569386979,1.0,-0.01533479752510959,0.13620666621211006,0.36991033119305783,1.0,25.530567913820345,3.3015002845420507
1.08,1.08,1.0,20.425654871182655,-0.9109794551925314,3.2314969453830242,0.983805652807662,0.49950420317776256,1.1859214315921345,20.699754418651214,1.619810993109412,1.0,0.0,101.92437772316349,-2.223104175003187,757.1147622731622,104.67830242447863,-7.715936021038556,3.3441725940305176,1.0,756.7674278600974,0.0,1.0,109.29427861459678,6728.731845375339,1.0,1.0,-11.255963390301924,21.3420317855376,-15.640365599437374,-39.94032705368001,1.0,756.7280776171089,1.0,-0.00044382034578631553,0.1406408011056895,0.36974699472740535,1.0,27.879821779404523,2.4880589790615644
1.1099999999999999,1.1099999999999999,1.0,20.52019241496034,-0.47629328004795973,2.3987463694397353,1.149078251410696,0.5290953731597227,1.2294118359585073,20.665409170411195,1.7640227334586582,1.0,0.0,101.92437772316349,-2.223104175003187,757.1147622731622,104.67830242447863,-7.715936021038556,3.3441725940305176,1.0,756.7674278600974,0.0,1.0,109.61378899077134,6792.549402223135,1.0,1.0,-11.255963390301924,21.3420317855376,-15.640365599437374,-39.94032705368001,1.0,756.7280776171089,1.0,-0.00044382034578631553,0.1406408011056895,0.36974699472740535,1.0,27.879821779404523,2.4880589790615644
1.14,1.14,1.0,20.763894542046472,0.03665838370689217,1.5728903308651456,1.343881414551241,0.5662633271423074,1.2636580793650725,20.82341577127183,1.929638088758393,1.0,0.0,101.92437772316349,-2.223104175003187,757.1147622731622,104.67830242447863,-7.715936021038556,3.3441725940305176,1.0,756.8326601499483,0.0,1.0,110.5936262407504,7016.172781344334,1.0,1.0,-7.05949491821591,21.31957404370385,-20.191548324438664,-37.99283360241259,1.0,756.7244596745767,1.0,0.0077413663132419284,0.15379650457692381,0.3696028838569977,1.0,31.487035866295127,3.0554622354269574
1.17,1.17,1.0,20.84964654218654,0.6414124235484577,0.43858359913424744,1.5763967862357784,0.5868214797437402,1.2598497423606883,20.864120551909757,2.101572661144367,1.0,0.0,101.92437772316349,-2.223104175003187,757.1147622731622,104.67830242447863,-7.715936021038556,3.3441725940305176,1.0,756.8326601499483,0.0,1.0,111.78436235723466,7053.031911168504,1.0,1.0,-7.05949491821591,21.31957404370385,-20.191548324438664,-37.99283360241259,1.0,756.7244596745767,1.0,0.0077413663132419284,0.15379650457692381,0.3696028838569977,1.0,31.487035866295127,3.0554622354269574
1.2,1.2,1.0,20.881127678543194,1.204978268771495,-0.7238950775181403,1.8196936427353707,0.6051460324315753,1.225802251008915,20.92838956630656,2.2759784341152542,1.0,0.0,101.92437772316349,-2.223104175003187,757.1147622731622,104.67830242447863,-7.715936021038556,3.3441725940305176,1.0,756.7786664981109,0.0,1.0,111.6574064069999,7068.585672704622,1.0,1.0,-2.480787299603346,20.969560332093526,-25.565061246823312,-34.82518240344858,1.0,756.5912905469398,1.0,0.02923573504966783,0.15104138077883053,0.36948057264111656,1.0,37.478236179222506,4.801760230372225
1.23,1.23,1.0,20.595219935779948,1.8103457224929698,-2.1295619446465843,2.0978160571963604,0.6076627420593061,1.170532073565253,20.784019580297343,2.477949061857989,1.0,0.0,101.92437772316349,-2.223104175003187,757.1147622731622,104.67830242447863,-7.715936021038556,3.3441725940305176,1.0,756.7786664981109,0.0,1.0,112.24289066900239,7213.625946175438,1.0,1.0,-2.480787299603346,20.969560332093526,-25.565061246823312,-34.82518240344858,1.0,756.5912905469398,1.0,0.02923573504966783,0.15104138077883053,0.36948057264111656,1.0,37.478236179222506,4.801760230372225
1.26,1.26,1.0,20.375535387435512,2.2865032946069435,-3.79441239936433,2.374335709415357,0.6050817357804397,1.088065410666088,20.851573204373214,2.6809476507138217,1.0,0.0,124.24225711213931,-6.641776659230516,756.4332792588447,109.09731190260345,-8.34217021911211,2.1524157318984214,1.0,757.7435957164519,0.0,1.0,112.60141979017823,7374.362471613073,1.0,1.0,1.458520167626413,20.185540225666564,-31.155418445462075,-30.370363323138548,1.0,756.766716201761,1.0,0.02390522806018865,0.14554502289620921,0.36938281823120345,1.0,45.24116758805838,5.2984559968597225
1.29,1.29,1.0,20.191064236885715,2.7527147739725355,-5.2951958986172665,2.6733361874578225,0.5719730336197594,0.9795502673347696,21.054586513385274,2.9040313787208523,1.0,0.0,124.24225711213931,-6.641776659230516,756.4332792588447,109.09731190260345,-8.34217021911211,2.1524157318984214,1.0,757.7435957164519,0.0,1.0,114.31537381658279,7401.627138975314,1.0,1.0,1.458520167626413,20.185540225666564,-31.155418445462075,-30.370363323138548,1.0,756.766716201761,1.0,0.02390522806018865,0.14554502289620921,0.36938281823120345,1.0,45.24116758805838,5.2984559968597225
1.3199999999999998,1.3199999999999998,1.0,19.792099981920792,3.0982328525052814,-7.104788541945849,2.9884574414688427,0.5006790729715137,0.8395756056686877,21.255688385193668,3.1442717139611296,1.0,0.0,124.24225711213931,-6.641776659230516,756.4332792588447,109.09731190260345,-8.34217021911211,2.1524157318984214,1.0,757.774761791792,0.0,1.0,114.41609728816016,7242.73482795317,1.0,1.0,5.605306380322023,19.253530505556956,-36.9659091287499,-23.78677168020622,1.0,756.5672929812691,1.0,0.004648515070846928,0.13836159595174086,0.36931206232478253,1.0,54.00204632174257,7.018734195586551
1.3499999999999999,1.3499999999999999,1.0,19.360387268493938,3.3562492896829905,-8.679012204034239,3.294590517590222,0.36162057917719503,0.6853029549964307,21.48055533077148,3.38448463757877,1.0,0.0,124.24225711213931,-6.641776659230516,756.4332792588447,109.09731190260345,-8.34217021911211,2.1524157318984214,1.0,757.774761791792,0.0,1.0,114.93933225957916,7473.177892689921,1.0,1.0,5.605306380322023,19.253530505556956,-36.9659091287499,-23.78677168020622,1.0,756.5672929812691,1.0,0.004648515070846928,0.13836159595174086,0.36931206232478253,1.0,54.00204632174257,7.018734195586551
1.38,1.38,1.0,18.918089290448822,3.7008228306898183,-10.218309341403979,3.625791128245398,0.19170747970858001,0.5302193114015713,21.817516765713123,3.669365828262754,1.0,0.0,124.24225711213931,-6.641776659230516,756.4332792588447,109.09731190260345,-8.34217021911211,2.1524157318984214,1.0,756.6053251001473,0.0,1.0,115.15751317625141,7532.746129446029,1.0,1.0,6.437023583017775,18.16208154158122,-41.77803980636957,-15.320252677691196,1.0,756.5350877408151,1.0,0.012972356854546197,0.16688940173333755,0.36926889666009854,1.0,66.22917497171107,7.442844046985821
1.41,1.41,1.0,18.611974663044972,3.6487299304003216,-11.359575309293206,3.943992528815256,-0.03107214697738303,0.3644368581246201,22.107889591056196,3.9609161527641668,1.0,0.0,124.24225711213931,-6.641776659230516,756.4332792588447,109.09731190260345,-8.34217021911211,2.1524157318984214,1.0,756.6053251001473,0.0,1.0,115.00092289726888,7585.6577461174575,1.0,1.0,6.437023583017775,18.16208154158122,-41.77803980636957,-15.320252677691196,1.0,756.5350877408151,1.0,0.012972356854546197,0.16688940173333755,0.36926889666009854,1.0,66.22917497171107,7.442844046985821
1.44,1.44,1.0,18.4828461023038,3.548468768540943,-12.17639861311509,4.260000878389744,-0.29664011008062796,0.21320337596912195,22.41588530101429,4.27563545199011,1.0,0.0,124.24225711213931,-6.641776659230516,756.4332792588447,109.09731190260345,-8.34217021911211,2.1524157318984214,1.0,757.395295280457,0.0,1.0,116.11639816807127,7555.575474515502,1.0,1.0,8.569105913451029,17.33830496392958,-44.45038822460735,-4.834507421769839,1.0,757.2610680025549,1.0,0.04779738979978761,0.1373663336300494,0.3692500292103357,0.0,66.22917497171107,7.442844046985821
1.47,1.47,1.0,18.49916841993538,3.279068232669955,-12.260179833232748,4.564776528851204,-0.6527643318300094,0.08673921637381746,22.433981595937148,4.612028807685124,1.0,0.0,143.93002947285999,-8.697392732386696,757.9105096430545,112.81624681057393,-6.11120618703091,0.13125238936351036,1.0,757.395295280457,0.0,1.0,117.08621801956838,7690.3641340144495,1.0,1.0,8.569105913451029,17.33830496392958,-44.45038822460735,-4.834507421769839,1.0,757.2610680025549,1.0,0.04779738979978761,0.1373663336300494,0.3692500292103357,0.0,66.22917497171107,7.442844046985821
1.5,1.5,1.0,18.748343092273597,3.053425957998483,-11.487529523463088,4.860642891249691,-1.0949033025144184,-0.010431881498827431,22.198808827029843,4.982446325076141,1.0,0.0,143.93002947285999,-8.697392732386696,757.9105096430545,112.81624681057393,-6.11120618703091,0.13125238936351036,1.0,755.974856666826,0.0,1.0,117.8882049124975,7886.969933679568,1.0,1.0,4.755084606084577,17.367297608402932,-44.248307499382086,6.898491916091603,1.0,756.9685640781802,1.0,0.0018454599627177777,0.1452473516919702,0.3692481424071836,0.0,66.22917497171107,7.442844046985821
1.53,1.53,1.0,19.367145760937223,2.7768626782594117,-9.635786385213134,5.149524766537648,-1.6679099348854807,-0.08131726952987485,21.809302614268926,5.413514696608673,1.0,0.0,143.93002947285999,-8.697392732386696,757.9105096430545,112.81624681057393,-6.11120618703091,0.13125238936351036,1.0,755.974856666826,0.0,1.0,117.66855954313792,7974.506721832422,1.0,1.0,4.755084606084577,17.367297608402932,-44.248307499382086,6.898491916091603,1.0,756.9685640781802,1.0,0.0018454599627177777,0.1452473516919702,0.3692481424071836,0.0,66.22917497171107,7.442844046985821
1.56,1.56,1.0,20.244465429112076,2.631136277437131,-6.567131698448754,5.4265281728130725,-2.244665841879858,-0.0836040548229859,21.445010547111654,5.873050518258722,1.0,0.0,143.93002947285999,-8.697392732386696,757.9105096430545,112.81624681057393,-6.11120618703091,0.13125238936351036,1.0,755.7601126901451,0.0,1.0,118.80159504649103,7897.7168182461655,1.0,1.0,-3.5247956784726813,19.01423856000465,-40.10720078310154,18.201286735334712,1.0,756.5332177982538,1.0,0.010427371479345911,0.1561453413534215,0.3692546266095976,0.0,66.22917497171107,7.442844046985821
1.5899999999999999,1.5899999999999999,1.0,20.757589170788656,2.923243742628679,-1.618313244553438,5.694931296615213,-2.819079548414965,-0.055379231880279316,21.02479012783617,6.354724135065393,1.0,0.0,143.93002947285999,-8.697392732386696,757.9105096430545,112.81624681057393,-6.11120618703091,0.13125238936351036,1.0,755.7601126901451,0.0,1.0,119.67378379245773,8091.298930982859,1.0,1.0,-3.5247956784726813,19.01423856000465,-40.10720078310154,18.201286735334712,1.0,756.5332177982538,1.0,0.010427371479345911,0.1561453413534215,0.3692546266095976,0.0,66.22917497171107,7.442844046985821
1.6199999999999999,1.6199999999999999,1.0,19.714386402220942,3.7739598236974365,4.956459292536076,5.966839689735702,-3.364224054006161,0.02466689018326974,20.675257983530063,6.84994801615532,1.0,0.0,143.93002947285999,-8.697392732386696,757.9105096430545,112.81624681057393,-6.11120618703091,0.13125238936351036,1.0,756.548042092699,0.0,1.0,119.29444174204767,8190.247934783874,1.0,1.0,-11.845524655698636,23.442769927037837,-32.11354083930241,26.945528223509413,1.0,756.8311470107673,1.0,0.031756019474002806,0.16619755954897028,0.369269553365692,0.0,66.22917497171107,7.442844046985821
1.65,1.65,1.0,18.6820450132523,4.747425019588601,12.428782553367151,6.238000472853795,-3.6850498774873057,0.12646896808337107,22.93537629847578,7.246256750818414,1.0,0.0,143.93002947285999,-8.697392732386696,757.9105096430545,112.81624681057393,-6.11120618703091,0.13125238936351036,1.0,756.548042092699,0.0,1.0,120.76452349220318,8184.082178766411,1.0,1.0,-11.845524655698636,23.442769927037837,-32.11354083930241,26.945528223509413,1.0,756.8311470107673,1.0,0.031756019474002806,0.16619755954897028,0.369269553365692,0.0,66.22917497171107,7.442844046985821
1.68,1.68,1.0,16.27347795542746,6.543997842243209,16.236297010199376,6.525432507405009,-3.788204362690321,0.21779894261475646,23.901199407738442,7.548456668856761,1.0,0.0,171.37978486997298,-6.087228881176555,757.8104755148748,116.47519188907505,-5.919869708140607,-1.323758766855564,1.0,755.4200882160258,0.0,1.0,120.7432286113407,8228.606253696738,1.0,1.0,-17.19715959800004,29.818932161287734,-21.149290558427573,31.1608665063745,1.0,756.7217012612889,1.0,0.022122849290009378,0.15485387719122154,0.3693186836194916,0.0,66.22917497171107,7.442844046985821
1.71,1.71,1.0,14.201705569320954,8.810327626836258,19.549578819019665,6.823856843826949,-3.9365223035319556,0.27216159197617934,25.71957126335776,7.882594877538451,1.0,0.0,171.37978486997298,-6.087228881176555,757.8104755148748,116.47519188907505,-5.919869708140607,-1.323758766855564,1.0,755.4200882160258,0.0,1.0,121.36190720637934,8381.98858354712,1.0,1.0,-17.19715959800004,29.818932161287734,-21.149290558427573,31.1608665063745,1.0,756.7217012612889,1.0,0.022122849290009378,0.15485387719122154,0.3693186836194916,0.0,66.22917497171107,7.442844046985821
1.74,1.74,1.0,13.892640193002512,11.12580959112954,19.533860611724496,7.155731785459853,-4.156465117976961,0.284106127839966,26.42651700448965,8.280182120839848,1.0,0.0,171.37978486997298,-6.087228881176555,757.8104755148748,116.47519188907505,-5.919869708140607,-1.323758766855564,1.0,757.3832652133614,0.0,1.0,121.404389969249,8358.967889346626,1.0,1.0,-23.158586009961184,36.96791353626455,-8.772666046477807,29.276594830351353,1.0,756.5938719212315,1.0,0.030319675528148626,0.14024514801782775,0.36944245978047685,0.0,66.22917497171107,7.442844046985821
1.77,1.77,1.0,14.146086853776156,13.502680835539609,18.537855942405532,7.483159175446372,-4.469481966865307,0.26236134150594415,26.945987938140387,8.720250785999117,1.0,0.0,171.37978486997298,-6.087228881176555,757.8104755148748,116.47519188907505,-5.919869708140607,-1.323758766855564,1.0,757.3832652133614,0.0,1.0,120.7535819329561,8284.559385004888,1.0,1.0,-23.158586009961184,36.96791353626455,-8.772666046477807,29.276594830351353,1.0,756.5938719212315,1.0,0.030319675528148626,0.14024514801782775,0.36944245978047685,0.0,66.22917497171107,7.442844046985821
1.7999999999999998,1.7999999999999998,1.0,14.52156105624599,16.428599833875854,17.856557283304337,7.797973917026076,-4.819090850630082,0.24658437967329544,28.27775213880755,9.17021470269614,1.0,0.0,171.37978486997298,-6.087228881176555,757.8104755148748,116.47519188907505,-5.919869708140607,-1.323758766855564,1.0,756.5358330689917,0.0,1.0,121.19073543091115,8294.047467979748,1.0,1.0,-18.961389963978277,43.85202081020461,1.9101031291476689,19.441363089494743,1.0,756.3515135695175,1.0,0.07311500241569621,0.12988323287845355,0.3696654700407447,0.0,66.22917497171107,7.442844046985821
1.8299999999999998,1.8299999999999998,1.0,15.114397432735203,17.291522250093053,17.472727247698298,8.110387570616274,-5.139569888104824,0.22487589334997768,28.85719925690285,9.60438099763492,1.0,0.0,171.37978486997298,-6.087228881176555,757.8104755148748,116.47519188907505,-5.919869708140607,-1.323758766855564,1.0,756.5358330689917,0.0,1.0,121.8143325824745,8190.144770353928,1.0,1.0,-18.961389963978277,43.85202081020461,1.9101031291476689,19.441363089494743,1.0,756.3515135695175,1.0,0.07311500241569621,0.12988323287845355,0.3696654700407447,0.0,66.22917497171107,7.442844046985821
1.8599999999999999,1.8599999999999999,1.0,15.895555915243472,17.691350066632783,17.197229838710072,8.382172097457023,-5.4537188515585795,0.2903138183230912,29.349570340299696,10.004406054151431,1.0,0.0,171.37978486997298,-6.087228881176555,757.8104755148748,116.47519188907505,-5.919869708140607,-1.323758766855564,1.0,755.7800901286669,0.0,1.0,121.31123277155856,8313.762791345005,1.0,1.0,0.0717870054341564,47.48942708749513,6.818721017362442,2.3671289751165414,1.0,755.8123666596499,1.0,0.10684986478805766,0.11244663804011701,0.3699988938846409,0.0,66.22917497171107,7.442844046985821
1.89,1.89,1.0,16.58042462057871,17.87947886688989,17.856766165629,8.593612231444897,-5.710848418682528,0.4936910306518724,30.22334103047192,10.329941513839959,1.0,0.0,193.56859031724431,-9.817426533180246,755.8098837093873,115.65477903034119,-7.114139822870035,-8.273864798060751,1.0,755.7800901286669,0.0,1.0,121.23433940749572,8268.302985313121,1.0,1.0,0.0717870054341564,47.48942708749513,6.818721017362442,2.3671289751165414,1.0,755.8123666596499,1.0,0.10684986478805766,0.11244663804011701,0.3699988938846409,0.0,66.22917497171107,7.442844046985821
1.92,1.92,1.0,18.615253997122654,15.58491465217225,15.822561474121116,8.85506801249258,-5.902640066239801,0.7948516469025031,28.978797381796678,10.67169988324411,1.0,0.0,193.56859031724431,-9.817426533180246,755.8098837093873,115.65477903034119,-7.114139822870035,-8.273864798060751,1.0,754.9414557178427,0.0,1.0,121.3051843097109,8306.923607876348,1.0,1.0,30.62176838675649,45.18368576800119,1.1405038532330931,-16.361828153938315,1.0,755.2105096336063,1.0,0.115860110233936,0.09548988808026648,0.37043893678021744,1.0,-54.52160541794866,-50.7813273574261
1.95,1.95,1.0,21.315683211121904,11.74110942954315,0.630626804902284,9.07468059677623,-5.964225193638051,1.2173927039509245,24.34357598136462,10.927207103810506,1.0,0.0,193.56859031724431,-9.817426533180246,755.8098837093873,115.65477903034119,-7.114139822870035,-8.273864798060751,1.0,754.9414557178427,0.0,1.0,120.04552257091737,8124.487397513927,1.0,1.0,30.62176838675649,45.18368576800119,1.1405038532330931,-16.361828153938315,1.0,755.2105096336063,1.0,0.115860110233936,0.09548988808026648,0.37043893678021744,1.0,-54.52160541794866,-50.7813273574261
1.98,1.98,1.0,20.086062346184523,13.469873871849558,-17.934147009431772,9.073923110995063,-6.539831885565608,1.711572657846711,30.108487701215708,11.315253540190755,1.0,0.0,193.56859031724431,-9.817426533180246,755.8098837093873,115.65477903034119,-7.114139822870035,-8.273864798060751,1.0,755.5059070097245,0.0,1.0,119.82183063184775,8234.224860342072,1.0,1.0,51.62771841558504,35.827727336440574,-14.909475822794446,-28.329663942779536,1.0,754.7515470871847,1.0,0.1393712586435295,0.07839637101024588,0.37096450424041283,1.0,-9.145627792058333,-35.95871433073362
2.01,2.01,1.0,19.723986580928777,14.049003868767766,-17.623323811667056,9.074716749005828,-7.118305609002027,2.2874693818193927,29.949819674251483,11.758115282246463,1.0,0.0,193.56859031724431,-9.817426533180246,755.8098837093873,115.65477903034119,-7.114139822870035,-8.273864798060751,1.0,755.5059070097245,0.0,1.0,120.03284990470117,8203.800441125444,1.0,1.0,51.62771841558504,35.827727336440574,-14.909475822794446,-28.329663942779536,1.0,754.7515470871847,1.0,0.1393712586435295,0.07839637101024588,0.37096450424041283,1.0,-9.145627792058333,-35.95871433073362
2.04,2.04,1.0,18.885369245930423,14.718848755382792,-14.064698458127236,9.075758081488635,-7.689417816632075,2.8662379381162397,27.769001115578767,12.235679426592618,1.0,0.0,193.56859031724431,-9.817426533180246,755.8098837093873,115.65477903034119,-7.114139822870035,-8.273864798060751,1.0,753.4510748072345,0.0,1.0,120.33677505634766,8273.206987206659,1.0,1.0,58.90825665143798,19.135814095709662,-34.76115907590669,-27.096908637239387,1.0,753.9055835053441,1.0,0.10916614393298678,0.06543170766628213,0.37159159939384945,1.0,24.63462198903324,-9.277188253793227
2.07,2.07,1.0,18.84826272739353,14.143326586663216,-14.22477023492598,9.083499136011067,-8.26872325176088,3.434888837464674,27.52516635761359,12.754614933186506,1.0,0.0,193.56859031724431,-9.817426533180246,755.8098837093873,115.65477903034119,-7.114139822870035,-8.273864798060751,1.0,753.4510748072345,0.0,1.0,119.68466655506863,8263.855310281495,1.0,1.0,58.90825665143798,19.135814095709662,-34.76115907590669,-27.096908637239387,1.0,753.9055835053441,1.0,0.10916614393298678,0.06543170766628213,0.37159159939384945,1.0,24.63462198903324,-9.277188253793227
2.1,2.1,1.0,18.488082948694796,14.074850226505037,-14.466673443040314,9.08290844781829,-8.692506972056202,4.018118125659894,27.371431466474966,13.198642983369584,1.0,0.0,219.5032180543998,-11.883493380750643,755.1699975161567,115.06950968230805,-3.067010610660538,-13.77653823931924,1.0,754.5656666421021,0.0,1.0,119.14887705041073,8171.381206744537,1.0,1.0,48.750300224417124,0.18911553094816458,-47.14481610279629,-9.078726706403492,1.0,753.1811963756104,1.0,0.11972855971566719,0.09285722584032519,0.3722787757908017,1.0,57.21767741808856,20.334469540608318
2.13,2.13,1.0,18.289560118196594,13.943026561131752,-14.193996000254419,9.072581167561147,-8.620419506774546,4.584887330754669,27.02564562516114,13.328336480989627,1.0,0.0,219.5032180543998,-11.883493380750643,755.1699975161567,115.06950968230805,-3.067010610660538,-13.77653823931924,1.0,754.5656666421021,0.0,1.0,119.06179894146872,8162.045329593826,1.0,1.0,48.750300224417124,0.18911553094816458,-47.14481610279629,-9.078726706403492,1.0,753.1811963756104,1.0,0.11972855971566719,0.09285722584032519,0.3722787757908017,1.0,57.21767741808856,20.334469540608318
2.16,2.16,1.0,18.071386461895013,13.82983101444462,-14.116269579946886,9.074319407611902,-8.124478349660595,5.171883861763159,26.778877896524914,13.232490462684337,1.0,0.0,219.5032180543998,-11.883493380750643,755.1699975161567,115.06950968230805,-3.067010610660538,-13.77653823931924,1.0,752.6661154698902,0.0,1.0,118.95840318662312,8043.006541143875,1.0,1.0,17.762315636604466,-10.951311077089596,-42.62955900306067,19.104359669461356,1.0,752.0045478167252,1.0,0.10608901682040209,0.09084706041135886,0.3729658006644685,0.0,57.21767741808856,20.334469540608318
2.19,2.19,1.0,17.76291805658009,13.938358785333953,-13.77120318863486,9.077700817730081,-7.556532860313414,5.742104383482862,26.44702517819617,13.133072898450953,1.0,0.0,219.5032180543998,-11.883493380750643,755.1699975161567,115.06950968230805,-3.067010610660538,-13.77653823931924,1.0,752.6661154698902,0.0,1.0,119.29992781629943,8150.846528898486,1.0,1.0,17.762315636604466,-10.951311077089596,-42.62955900306067,19.104359669461356,1.0,752.0045478167252,1.0,0.10608901682040209,0.09084706041135886,0.3729658006644685,0.0,57.21767741808856,20.334469540608318
2.2199999999999998,2.2199999999999998,1.0,17.73859368506032,14.176891874726323,-14.152458641555338,9.075334432928777,-6.983961932557576,6.327127349389218,26.75694404733615,13.08319379357751,1.0,0.0,219.5032180543998,-11.883493380750643,755.1699975161567,115.06950968230805,-3.067010610660538,-13.77653823931924,1.0,751.2136174689456,0.0,1.0,119.77755840034938,8048.446137147346,1.0,1.0,-19.649185008338584,-9.292300928842906,-21.67632538195103,41.77409158819348,1.0,751.6298905999764,1.0,0.0712624255946368,0.09111825224985806,0.37361122760687204,0.0,57.21767741808856,20.334469540608318
2.25,2.25,1.0,17.703495505688718,14.041676336516252,-14.514705222255868,9.073242491074259,-6.407099546021961,6.8925130338437715,26.856267334616753,13.07216087019191,1.0,0.0,219.5032180543998,-11.883493380750643,755.1699975161567,115.06950968230805,-3.067010610660538,-13.77653823931924,1.0,751.2136174689456,0.0,1.0,118.86066738778115,7970.247645901405,1.0,1.0,-19.649185008338584,-9.292300928842906,-21.67632538195103,41.77409158819348,1.0,751.6298905999764,1.0,0.0712624255946368,0.09111825224985806,0.37361122760687204,0.0,57.21767741808856,20.334469540608318
2.28,2.28,1.0,17.719782346116894,13.997513371957412,-14.876651168065735,9.070325193095874,-5.843672759172261,7.360164052785874,27.04137232035745,13.061061415854494,1.0,0.0,219.5032180543998,-11.883493380750643,755.1699975161567,115.06950968230805,-3.067010610660538,-13.77653823931924,1.0,750.6562275806689,0.0,1.0,119.59199851384234,7930.546881448029,1.0,1.0,-47.06208625970723,4.075615933717387,4.660216216089318,47.58111051968218,1.0,750.7568409768625,1.0,0.0831586249957808,0.10363321023311453,0.37421453781763514,0.0,57.21767741808856,20.334469540608318
2.31,2.31,1.0,17.625750805958464,13.994305708617755,-15.363550194359929,9.069295557343853,-5.6210174709760725,7.678259490607568,27.249703820676913,13.14547937964152,1.0,0.0,242.24588247139926,-9.703298053478349,749.4433773818508,114.4702257492076,-2.8369748713193057,-11.798953275074885,1.0,750.6562275806689,0.0,1.0,118.9136656533499,8007.370868412253,1.0,1.0,-47.06208625970723,4.075615933717387,4.660216216089318,47.58111051968218,1.0,750.7568409768625,1.0,0.0831586249957808,0.10363321023311453,0.37421453781763514,0.0,57.21767741808856,20.334469540608318
2.34,2.34,1.0,17.62194167940915,14.093379993434134,-15.607770394296754,9.069429211332851,-5.717898856022063,7.948168821626943,27.436448109638995,13.346246707001885,1.0,0.0,242.24588247139926,-9.703298053478349,749.4433773818508,114.4702257492076,-2.8369748713193057,-11.798953275074885,1.0,750.8095015884481,0.0,1.0,118.38770583904284,8025.239283781021,1.0,1.0,-53.046125397588526,25.02766959805422,21.0146118245846,35.1184443416788,1.0,749.7942088337436,1.0,0.06641452161300024,0.09460646221341489,0.3748142417665773,0.0,57.21767741808856,20.334469540608318
2.37,2.37,1.0,17.607920584184512,13.69212552861509,-15.971608687314996,9.059203550143337,-6.106805648800445,8.209812633917089,27.43365547736972,13.66613579909022,1.0,0.0,242.24588247139926,-9.703298053478349,749.4433773818508,114.4702257492076,-2.8369748713193057,-11.798953275074885,1.0,750.8095015884481,0.0,1.0,118.73822645659808,7824.216631234997,1.0,1.0,-53.046125397588526,25.02766959805422,21.0146118245846,35.1184443416788,1.0,749.7942088337436,1.0,0.06641452161300024,0.09460646221341489,0.3748142417665773,0.0,57.21767741808856,20.334469540608318
2.4,2.4,1.0,17.7264927839604,13.59587467415793,-16.061604269598575,8.976297482865158,-6.690446405220633,8.568108575339025,27.514568618977044,14.097818063828857,1.0,0.0,242.24588247139926,-9.703298053478349,749.4433773818508,114.4702257492076,-2.8369748713193057,-11.798953275074885,1.0,749.2012570201999,0.0,1.0,118.2932854786762,8105.20134678223,1.0,1.0,-32.41917218340712,43.865891296124026,15.996111635766884,10.742076628156093,1.0,749.9650481577956,1.0,0.06910960830233422,0.08813868855579571,0.3754682646316112,1.0,-79.37302018731785,-46.92234214375748
2.4299999999999997,2.4299999999999997,1.0,17.70287329294725,14.141775209871959,-16.223468720296804,8.908639924209725,-7.262049449631392,9.04620199706712,27.86722925285438,14.626516949699823,1.0,0.0,242.24588247139926,-9.703298053478349,749.4433773818508,114.4702257492076,-2.8369748713193057,-11.798953275074885,1.0,749.2012570201999,0.0,1.0,118.07838597123897,7995.836063638102,1.0,1.0,-32.41917218340712,43.865891296124026,15.996111635766884,10.742076628156093,1.0,749.9650481577956,1.0,0.06910960830233422,0.08813868855579571,0.3754682646316112,1.0,-79.37302018731785,-46.92234214375748
2.46,2.46,1.0,17.626533657951725,14.128598415607293,-15.620658543288272,8.859083072270705,-7.841410468349592,9.0805460103759,27.46483124489227,14.91399969361303,1.0,0.0,242.24588247139926,-9.703298053478349,749.4433773818508,114.4702257492076,-2.8369748713193057,-11.798953275074885,1.0,747.8312026083162,0.0,1.0,118.02482505281687,7905.315948312181,1.0,1.0,26.232507544076,45.36350190386797,-9.8336994953656,-12.25323638844313,1.0,748.6706640013253,1.0,0.0612598683745616,0.11940190353068293,0.3762210760564295,1.0,-1.3086699691980592,-48.516608172200236
2.4899999999999998,2.4899999999999998,1.0,17.919196015090957,14.077022302616339,-15.038156472831249,8.847186108631965,-8.412466132712613,9.07656095450725,27.302129822359387,15.212700195418718,1.0,0.0,242.24588247139926,-9.703298053478349,749.4433773818508,114.4702257492076,-2.8369748713193057,-11.798953275074885,1.0,747.8312026083162,0.0,1.0,118.39641168599377,7968.567130100707,1.0,1.0,26.232507544076,45.36350190386797,-9.8336994953656,-12.25323638844313,1.0,748.6706640013253,1.0,0.0612598683745616,0.11940190353068293,0.3762210760564295,1.0,-1.3086699691980592,-48.516608172200236
2.52,2.52,1.0,18.128775029693934,14.05789784793795,-14.585634204189931,8.85295265776337,-8.65879143905212,9.072464776719261,27.18488000927626,15.351190737868299,1.0,0.0,267.02416644559895,-11.08127355131591,746.7871899267994,113.34059584750516,-4.44387213978926,-17.41688125714883,1.0,748.0363351416087,0.0,1.0,118.66558239153801,7934.937751533542,1.0,1.0,47.08286282026153,23.664715378187804,-37.94001328848743,-17.483939783720142,1.0,747.971695431435,1.0,0.08781987580338278,0.10638674780845687,0.37707132586752135,1.0,40.58680370145423,-10.023373377996833
2.55,2.55,1.0,18.437963280667127,13.804130026345138,-14.394464084455194,8.871799999100055,-8.523150022358257,9.069485938968395,27.160874286409545,15.284256498920803,1.0,0.0,267.02416644559895,-11.08127355131591,746.7871899267994,113.34059584750516,-4.44387213978926,-17.41688125714883,1.0,748.0363351416087,0.0,1.0,117.58195498889069,7894.336560586667,1.0,1.0,47.08286282026153,23.664715378187804,-37.94001328848743,-17.483939783720142,1.0,747.971695431435,1.0,0.08781987580338278,0.10638674780845687,0.37707132586752135,1.0,40.58680370145423,-10.023373377996833
2.58,2.58,1.0,18.963117820833304,14.309599310011686,-14.339618703955551,8.914687349908762,-8.061299991065953,9.071061011554523,27.74867806715708,15.057900118141566,1.0,0.0,267.02416644559895,-11.08127355131591,746.7871899267994,113.34059584750516,-4.44387213978926,-17.41688125714883,1.0,745.8852247735257,0.0,1.0,117.12931521796351,7825.4864713522265,1.0,1.0,39.25117274540701,-5.2051370368828005,-47.77475356031188,1.684387302298367,1.0,746.5361879287567,1.0,0.10770691849176724,0.09054831125098842,0.377965766394845,1.0,73.01704157512746,30.526541508444726
2.61,2.61,1.0,19.283237283193607,14.560061210574352,-14.515846184405733,8.979973554504664,-7.487908558559243,9.075190672276001,28.187735152454984,14.800938664798029,1.0,0.0,267.02416644559895,-11.08127355131591,746.7871899267994,113.34059584750516,-4.44387213978926,-17.41688125714883,1.0,745.8852247735257,0.0,1.0,116.90507076551616,7881.153871353822,1.0,1.0,39.25117274540701,-5.2051370368828005,-47.77475356031188,1.684387302298367,1.0,746.5361879287567,1.0,0.10770691849176724,0.09054831125098842,0.377965766394845,1.0,73.01704157512746,30.526541508444726
2.6399999999999997,2.6399999999999997,1.0,19.611408633526768,14.496284646815505,-14.639408146601863,9.074532700565356,-6.908203526185602,9.08043472536069,28.44401321957681,14.578227412630433,1.0,0.0,267.02416644559895,-11.08127355131591,746.7871899267994,113.34059584750516,-4.44387213978926,-17.41688125714883,1.0,745.4039184790512,0.0,1.0,116.66688218994535,7845.797352324139,1.0,1.0,-2.9153221618429552,-20.681954249839794,-31.260017582260158,30.07037626448575,1.0,745.1195583492388,1.0,0.08527928259185494,0.06884603468311407,0.37883896604844525,0.0,73.01704157512746,30.526541508444726
2.67,2.67,1.0,19.622066884883747,14.253871573418868,-15.394154220819377,9.070640362305102,-6.340617091840017,9.073649786351604,28.72591770232486,14.311221545800018,1.0,0.0,267.02416644559895,-11.08127355131591,746.7871899267994,113.34059584750516,-4.44387213978926,-17.41688125714883,1.0,745.4039184790512,0.0,1.0,116.28738325020022,7843.839707087746,1.0,1.0,-2.9153221618429552,-20.681954249839794,-31.260017582260158,30.07037626448575,1.0,745.1195583492388,1.0,0.08527928259185494,0.06884603468311407,0.37883896604844525,0.0,73.01704157512746,30.526541508444726
2.6999999999999997,2.6999999999999997,1.0,19.658194214606258,12.099978364692376,-15.987759742240772,9.070242291381827,-5.763653483355267,9.07869371802646,28.07957509972003,14.068108484309391,1.0,0.0,267.02416644559895,-11.08127355131591,746.7871899267994,113.34059584750516,-4.44387213978926,-17.41688125714883,1.0,744.6167326663447,0.0,1.0,116.38521769728372,7694.516768204931,1.0,1.0,-51.51119662897926,-15.162755945737931,0.5303440706593396,45.499553580795855,1.0,744.3231436556259,1.0,0.08453356578545994,0.04636471034724864,0.37966189163941766,0.0,73.01704157512746,30.526541508444726
2.73,2.73,1.0,19.413694067954818,9.608778674264245,-16.448671022723854,9.070983245158898,-5.2525608820555165,9.0823233134932,27.198877245006546,13.869417061451262,1.0,0.0,292.1181945332871,-12.603058892126558,746.679077378342,112.1442629310898,-2.77365169324122,-15.753246139095223,1.0,744.6167326663447,0.0,1.0,115.73623137140859,7722.697970799165,1.0,1.0,-51.51119662897926,-15.162755945737931,0.5303440706593396,45.499553580795855,1.0,744.3231436556259,1.0,0.08453356578545994,0.04636471034724864,0.37966189163941766,0.0,73.01704157512746,30.526541508444726
2.76,2.76,1.0,19.00916241535481,7.436980514523675,-16.697475043132133,9.06741082960097,-5.122149672671736,9.081032430345466,26.37162504895675,13.81736249879123,1.0,0.0,292.1181945332871,-12.603058892126558,746.679077378342,112.1442629310898,-2.77365169324122,-15.753246139095223,1.0,743.778236677745,0.0,1.0,116.51829074789471,7792.045524933739,1.0,1.0,-61.37964844893787,6.406581369759058,26.971676217856903,39.15434682872565,1.0,743.2916665376948,1.0,0.04671368089072674,0.06386386791526896,0.38045661102080575,0.0,73.01704157512746,30.526541508444726
2.79,2.79,1.0,18.420040879955682,6.1400617448773405,-16.677181649932383,8.984564354902881,-5.339476146381542,9.08273764161509,25.595442016792482,13.846606993468852,1.0,0.0,292.1181945332871,-12.603058892126558,746.679077378342,112.1442629310898,-2.77365169324122,-15.753246139095223,1.0,743.778236677745,0.0,1.0,116.27104945707616,7608.410401537967,1.0,1.0,-61.37964844893787,6.406581369759058,26.971676217856903,39.15434682872565,1.0,743.2916665376948,1.0,0.04671368089072674,0.06386386791526896,0.38045661102080575,0.0,73.01704157512746,30.526541508444726
2.82,2.82,1.0,17.685925116958842,5.185309687290538,-16.399713955043207,8.805624956171943,-5.866549357263814,9.080531464103377,24.67042767369515,13.943151863927396,1.0,0.0,292.1181945332871,-12.603058892126558,746.679077378342,112.1442629310898,-2.77365169324122,-15.753246139095223,1.0,742.5963585161766,0.0,1.0,115.74945872809724,7593.335231864864,1.0,1.0,-52.15634604390905,32.635165057150516,31.3612307340799,15.849158665621136,1.0,742.5134202854164,1.0,0.019177188429495676,0.09789237307186534,0.3812709922276629,0.0,73.01704157512746,30.526541508444726
2.85,2.85,1.0,17.158386111208014,5.627523968570757,-15.776061945047063,8.566745706639683,-6.447656675680366,9.080640162588837,23.978393825527526,14.050602633769715,1.0,0.0,292.1181945332871,-12.603058892126558,746.679077378342,112.1442629310898,-2.77365169324122,-15.753246139095223,1.0,742.5963585161766,0.0,1.0,116.05598658810489,7822.069046069446,1.0,1.0,-52.15634604390905,32.635165057150516,31.3612307340799,15.849158665621136,1.0,742.5134202854164,1.0,0.019177188429495676,0.09789237307186534,0.3812709922276629,0.0,73.01704157512746,30.526541508444726
2.88,2.88,1.0,17.468725089345323,7.530432371400636,-17.947778569976776,8.353601746896212,-7.02823942715765,9.081896830882155,26.153136017393383,14.200692294321009,1.0,0.0,292.1181945332871,-12.603058892126558,746.679077378342,112.1442629310898,-2.77365169324122,-15.753246139095223,1.0,742.6882090996512,0.0,1.0,116.03590156705368,7679.180645698752,1.0,1.0,-9.50535741483614,45.34799376977677,10.349522014985371,-11.731734328446525,1.0,741.3359009558322,1.0,0.033500100650005006,0.12644933997574212,0.38215559507975383,1.0,-29.33742524807967,-42.08844818047166
2.9099999999999997,2.9099999999999997,1.0,17.96441355115968,10.32379395456173,-19.942530575765,8.216804809105103,-7.601204079153918,9.079134190805473,28.75770160528579,14.41266326459242,1.0,0.0,292.1181945332871,-12.603058892126558,746.679077378342,112.1442629310898,-2.77365169324122,-15.753246139095223,1.0,742.6882090996512,0.0,1.0,114.85331079644025,7659.847541190026,1.0,1.0,-9.50535741483614,45.34799376977677,10.349522014985371,-11.731734328446525,1.0,741.3359009558322,1.0,0.033500100650005006,0.12644933997574212,0.38215559507975383,1.0,-29.33742524807967,-42.08844818047166
2.94,2.94,1.0,18.342813323186824,12.948388827560509,-20.791465801744273,8.179697911070383,-8.176967542912605,9.070834083295823,30.600729142033128,14.698649158371547,1.0,0.0,313.63625969658244,-13.13676543541801,739.4326065842845,111.3413856326521,-5.4707592518814545,-20.445184058290224,1.0,740.3997784892236,0.0,1.0,116.43349887429203,7724.115143829756,1.0,1.0,31.850000551812194,32.181851751721084,-22.051137469438473,-28.08783855347119,1.0,740.5150363273503,1.0,0.05942502613976697,0.11890374229661353,0.38314405944099794,1.0,18.774912532951003,-17.361156354582437
2.9699999999999998,2.9699999999999998,1.0,18.959141297232406,13.390854337603209,-19.913814486241403,8.210835680671373,-8.75594496257632,9.07297415661208,30.58306763573216,15.046702456325853,1.0,0.0,313.63625969658244,-13.13676543541801,739.4326065842845,111.3413856326521,-5.4707592518814545,-20.445184058290224,1.0,740.3997784892236,0.0,1.0,116.42674780344085,7810.486885627842,1.0,1.0,31.850000551812194,32.181851751721084,-22.051137469438473,-28.08783855347119,1.0,740.5150363273503,1.0,0.05942502613976697,0.11890374229661353,0.38314405944099794,1.0,18.774912532951003,-17.361156354582437
3.0,3.0,1.0,19.690171002178356,13.768817363624814,-18.256871260805845,8.231396304367365,-9.003109425700753,9.070330630621475,30.176091760225013,15.2014065862171,1.0,0.0,313.63625969658244,-13.13676543541801,739.4326065842845,111.3413856326521,-5.4707592518814545,-20.445184058290224,1.0,740.7015982760769,0.0,1.0,116.16430755985606,7823.125631105823,1.0,1.0,37.14967363222395,-0.11699744818112581,-43.73734961432454,-19.997354148657628,1.0,739.280734575343,1.0,0.12459100676221747,0.06837670501562282,0.3842181713022509,1.0,47.66893938669109,24.52643672019308
3.03,3.03,1.0,20.10220867571751,15.913488274057881,-12.58069968687291,8.249226587268952,-8.889670791859414,9.074477187712786,28.55891992533951,15.14668684254293,1.0,0.0,313.63625969658244,-13.13676543541801,739.4326065842845,111.3413856326521,-5.4707592518814545,-20.445184058290224,1.0,740.7015982760769,0.0,1.0,116.4945102725294,7817.259857850719,1.0,1.0,37.14967363222395,-0.11699744818112581,-43.73734961432454,-19.997354148657628,1.0,739.280734575343,1.0,0.12459100676221747,0.06837670501562282,0.3842181713022509,1.0,47.66893938669109,24.52643672019308
3.06,3.06,1.0,21.098967581245958,16.098034026942717,-13.167666989573593,8.288713167650082,-8.446415102080566,9.072166119059746,29.62601199073847,14.911367883063113,1.0,0.0,313.63625969658244,-13.13676543541801,739.4326065842845,111.3413856326521,-5.4707592518814545,-20.445184058290224,1.0,736.6556033222697,0.0,1.0,116.41244708414176,7652.34656251953,1.0,1.0,15.109045084032333,-26.840719554299252,-38.82560150365498,8.963711055896603,1.0,737.9988602439695,1.0,0.1343256221493556,0.04720577058871582,0.38530313517693804,0.0,47.66893938669109,24.52643672019308
3.09,3.09,1.0,21.85730265232143,15.755726743335577,-14.087431195362642,8.334708075644569,-7.867593161196575,9.068931612762933,30.40461021177403,14.615467883488808,1.0,0.0,313.63625969658244,-13.13676543541801,739.4326065842845,111.3413856326521,-5.4707592518814545,-20.445184058290224,1.0,736.6556033222697,0.0,1.0,115.48444773811433,7623.089438598139,1.0,1.0,15.109045084032333,-26.840719554299252,-38.82560150365498,8.963711055896603,1.0,737.9988602439695,1.0,0.1343256221493556,0.04720577058871582,0.38530313517693804,0.0,47.66893938669109,24.52643672019308
