time_s,x_m,y_m,altitude_m,vx_mps,vy_mps,vz_mps,speed_mps,mass_kg,roll_deg,pitch_deg,yaw_deg,p_dps,q_dps,r_dps,alpha_deg,beta_deg,qbar_pa,mach,airspeed_mps,load_factor_g,density_kgpm3,pressure_pa,temperature_k,wind_x_mps,wind_y_mps,wind_z_mps,thrust_n,mass_flow_kgps,propulsion_throttle_actual,propulsion_health,energy_j_per_kg,target_distance_m,guidance_mode,pitch_command_deg,heading_command_deg,roll_command_deg,elevator_command_deg,aileron_command_deg,rudder_command_deg,elevator_deg,aileron_deg,rudder_deg,throttle,elevator_saturated,aileron_saturated,rudder_saturated,elevator_failed,aileron_failed,rudder_failed,elevator_raw_rad,aileron_raw_rad,rudder_raw_rad,elevator_effective_rad,aileron_effective_rad,rudder_effective_rad,sensor_time_s,imu_valid,imu_ax_mps2,imu_ay_mps2,imu_az_mps2,gyro_p_rps,gyro_q_rps,gyro_r_rps,imu_accel_norm_mps2,imu_gyro_norm_rps,gps_valid,gps_latency_s,gps_x_m,gps_y_m,gps_z_m,gps_vx_mps,gps_vy_mps,gps_vz_mps,baro_valid,baro_alt_m,baro_bias_m,pitot_valid,pitot_airspeed_mps,pitot_qbar_pa,pitot_compressibility_factor,mag_valid,mag_heading_deg,mag_x_ut,mag_y_ut,mag_z_ut,radar_valid,radar_agl_m,optical_flow_valid,optical_flow_x_radps,optical_flow_y_radps,optical_flow_quality,horizon_valid,horizon_roll_deg,horizon_pitch_deg
0.0,0.0,0.0,20.0,85.0,0.0,8.0,85.37564055396598,18.01840612980101,0.0,6.000000000000002,0.0,0.0,0.0,0.0,0.5847293023782836,0.08812639075768053,4448.930224551213,0.2507468518283886,85.30839607150315,1.744808519279769,1.2226496753673843,101084.96761777384,288.02,0.07244880006198942,-0.1312124234412952,-0.05085528216073648,326.8,0.17539118863220368,0.86,nominal,3840.633,nan,pitch_program,13.0,0.0,0.0,-20.05352282957881,-0.0,0.0,-2.6999999999999997,0.0,0.0,0.86,0.0,0.0,0.0,0.0,0.0,0.0,-0.047123889803846894,0.0,0.0,-0.047123889803846894,0.0,0.0,0.0,1.0,17.097838403945094,-0.02743500852196578,0.13075901426363526,-0.0011846461623943778,0.0013181441023463838,0.0014804783948871505,17.098360409317717,0.0023092653988560762,1.0,0.0,1.69062741851169,-1.0004827618806238,20.718048150427723,85.13084268154867,0.27725161253670577,8.076939739570042,1.0,19.911179626100555,0.0,1.0,85.57889544196739,4452.178335021759,1.0,1.0,0.536223259439391,19.56634421878517,0.01051648236020856,-43.84999618812795,1.0,20.107562645592367,1.0,-0.004597107947264304,4.260987275395636,0.95,1.0,0.45149697114415227,6.28521300696935
0.03,2.565300013656036,-1.5995854320670036e-05,20.23292297419501,85.51000045520121,-0.0005331951440223345,7.764099139833623,85.86175757335727,18.013144394142046,-0.0008833951418279084,6.2686836314267,0.0018025132953637885,-0.023025932541746057,-8.956137920558614,0.059670861872501944,1.0423932244968555,0.08549222371719434,4499.657174343166,0.2521757983502875,85.79432278713517,1.7727564416992345,1.2226223232650353,101082.17487985633,288.01848600066774,0.07244880006198942,-0.1312124234412952,-0.05085528216073648,332.605,0.1785066900092231,0.86,nominal,3884.5379008778764,nan,pitch_program,12.985,0.0,0.0,-1.4032366943329506,-0.0017815135360431317,-0.005563757705042223,-1.9219420165997703,0.0,0.0,0.86,0.0,0.0,0.0,0.0,0.0,0.0,-0.033544216222085504,0.0,0.0,-0.033544216222085504,0.0,0.0,0.03,1.0,17.4043094632217,0.040012058678840626,0.6560304088416762,-0.0007235416777549694,-0.1575869996684574,-0.00156599149559325,17.41671509653164,0.15759644128732767,1.0,0.0,1.69062741851169,-1.0004827618806238,20.718048150427723,85.13084268154867,0.27725161253670577,8.076939739570042,1.0,19.911179626100555,0.0,1.0,86.22560736944003,4410.101108969521,1.0,1.0,0.536223259439391,19.56634421878517,0.01051648236020856,-43.84999618812795,1.0,20.107562645592367,1.0,-0.004597107947264304,4.260987275395636,0.95,1.0,0.45149697114415227,6.28521300696935
0.06,5.146085009160741,-4.7264183060539695e-05,20.45926111051653,86.02616651682348,-0.001042277624662322,7.544604544050697,86.35636852249343,18.00778919344177,-0.00265197195853002,6.648225416033783,0.00537846460378699,-0.0455447269923663,-12.651442732121877,0.11805223450038575,1.5982916447606428,0.08114945858842824,4551.570854659456,0.2536297390472695,86.2887567622293,1.8012766796809763,1.2225957448674551,101079.46115375591,288.0170148027816,0.07244880006198942,-0.1312124234412952,-0.05085528216073648,338.40999999999997,0.18162219138624247,0.86,nominal,3929.348005165794,nan,pitch_program,12.97,0.0,0.0,-0.2622684165337994,-0.0038758182132989714,-0.011794825289387103,-0.9261378565601878,0.0,0.0,0.86,0.0,0.0,0.0,0.0,0.0,0.0,-0.01616415492433824,0.0,0.0,-0.01616415492433824,0.0,0.0,0.06,1.0,17.576765021770942,0.008530776740212156,1.0755507244134488,-0.001290589929624253,-0.22241406598543556,0.0011727106793497733,17.60964368649998,0.22242090194241548,1.0,0.0,1.69062741851169,-1.0004827618806238,20.718048150427723,85.13084268154867,0.27725161253670577,8.076939739570042,1.0,19.738790992262714,0.0,1.0,86.80981230959617,4552.0623243888795,1.0,1.0,-1.0627934521438478,18.972550700084273,0.025772638849571882,-44.02232142129763,1.0,20.439282132429497,1.0,-0.0015261262287948238,4.2263395478619366,0.9488518472237086,1.0,0.3041266443508961,7.0841935489975
0.09,7.742507771410416,-9.224079782151671e-05,20.67963823916306,86.54742540832251,-0.0014992204920325671,7.345904288217775,86.85861590463244,18.002340527700184,-0.005290636767429582,6.956242007347255,0.010653285092678004,-0.06712995595289462,-10.267256515731706,0.1738786655426542,2.067260905703073,0.07520772739762002,4604.595733279024,0.2551061629532768,86.79084316364376,1.8309251129684563,1.2225698668828233,101076.81895502596,288.0155823514454,0.07244880006198942,-0.1312124234412952,-0.05085528216073648,344.215,0.18473769276326188,0.86,nominal,3975.007552772322,nan,pitch_program,12.955,0.0,0.0,-0.6810216576403001,-0.006249497550102874,-0.01854056770925704,-0.7790681372082552,0.0,0.0,0.86,0.0,0.0,0.0,0.0,0.0,0.0,-0.013597304091662998,0.0,0.0,-0.013597304091662998,0.0,0.0,0.09,1.0,17.825428377146512,-0.026197841261737027,1.5463967625001835,-0.0009473696551342885,-0.17935018091124644,0.0012266252859605272,17.892398556446757,0.17935687751450308,1.0,0.0,1.69062741851169,-1.0004827618806238,20.718048150427723,85.13084268154867,0.27725161253670577,8.076939739570042,1.0,19.738790992262714,0.0,1.0,86.70377207591861,4682.640522618621,1.0,1.0,-1.0627934521438478,18.972550700084273,0.025772638849571882,-44.02232142129763,1.0,20.439282132429497,1.0,-0.0015261262287948238,4.2263395478619366,0.9488518472237086,1.0,0.3041266443508961,7.0841935489975
0.12,10.354741561556338,-0.0001484900217066759,20.894528263703688,87.07445967153075,-0.001874974129505307,7.163000818020858,87.3685876692735,17.996798396917285,-0.008749707484146578,7.136180644696805,0.017509034219469085,-0.08726920293897274,-5.997987253076024,0.22606442189709625,2.396279633363593,0.06780139867010987,4658.754713094996,0.25660531924325164,87.30066634160985,1.8610282850138173,1.2225446336299022,101074.24259746533,288.0141855662859,0.07244880006198942,-0.1312124234412952,-0.05085528216073648,350.02,0.1878531941402813,0.86,nominal,4021.540381259015,nan,pitch_program,12.94,0.0,0.0,-1.6426545953705654,-0.00882751548065329,-0.0256357920436067,-1.2972200121056412,0.0,0.0,0.86,0.0,0.0,0.0,0.0,0.0,0.0,-0.02264076033400414,0.0,0.0,-0.02264076033400414,0.0,0.0,0.12,1.0,18.179854311165684,0.023680011730269245,1.785240163024957,0.002109458361829417,-0.10448329963834758,0.006571919961977127,18.267313594446296,0.10471103022071576,1.0,0.0,1.69062741851169,-1.0004827618806238,20.718048150427723,85.13084268154867,0.27725161253670577,8.076939739570042,1.0,20.914562605189847,0.0,1.0,87.69481019596643,4630.62848741866,1.0,1.0,-0.794247561867224,18.691780873111334,-0.0048836471130196575,-44.26708364068188,1.0,20.95767721446231,1.0,0.006375881215232047,4.162244716583472,0.9477636793407408,1.0,-0.23240569665128008,6.945649077239229
0.15,12.98299639773427,-0.0002127247767445086,21.104214520746645,87.6084945392644,-0.0021411585012610897,6.989541901431934,87.88687055534946,17.991162801093076,-0.012950583492941654,7.231874960985693,0.0257998308632365,-0.10546854379939896,-3.1898631520065988,0.2735863871672967,2.6335459067559883,0.05908848821290439,4714.124670795521,0.2581289204101678,87.8188086661958,1.8914839957533125,1.2225200118084125,101071.72868012637,288.0128226056151,0.07244880006198942,-0.1312124234412952,-0.05085528216073648,355.825,0.1909686955173007,0.86,nominal,4069.0126533362563,nan,pitch_program,12.925,0.0,0.0,-2.286117662110875,-0.011534164237186775,-0.03294472001267478,-1.8905586021087815,0.0,0.0,0.86,0.0,0.0,0.0,0.0,0.0,0.0,-0.03299647230869965,0.0,0.0,-0.03299647230869965,0.0,0.0,0.15,1.0,18.404030134523392,-0.027896151873229254,1.9088162261213135,-0.000484928649250502,-0.056181010197995825,0.002076292175257719,18.502775001951424,0.056221455440598575,1.0,0.0,1.69062741851169,-1.0004827618806238,20.718048150427723,85.13084268154867,0.27725161253670577,8.076939739570042,1.0,20.914562605189847,0.0,1.0,88.38445542581758,4749.177557155633,1.0,1.0,-0.794247561867224,18.691780873111334,-0.0048836471130196575,-44.26708364068188,1.0,20.95767721446231,1.0,0.006375881215232047,4.162244716583472,0.9477636793407408,1.0,-0.23240569665128008,6.945649077239229
0.18,15.627503762725802,-0.0002808535751514698,21.30888954910479,88.15024549971773,-0.002270959946898708,6.8225009452715675,88.41386942084367,17.985433740227556,-0.01779941572562008,7.302297523576233,0.03535773975428683,-0.12132687733756363,-2.3475037720423915,0.3154078926779288,2.8401190762293824,0.049255218607720024,4770.764837836095,0.25967815083090295,88.34567291721807,1.9223948415918808,1.2224959787822913,101069.27489097006,288.0114922179308,0.07244880006198942,-0.1312124234412952,-0.05085528216073648,361.63,0.19408419689432013,0.86,nominal,4117.474974679726,nan,pitch_program,12.91,0.0,0.0,-2.452243596032356,-0.014311182558424422,-0.04033800773955548,-2.2275695984629262,0.0,0.0,0.86,0.0,0.0,0.0,0.0,0.0,0.0,-0.03887842381050608,0.0,0.0,-0.03887842381050608,0.0,0.0,0.18,1.0,18.649305061114994,-0.05486106744451713,2.036870956760417,-0.004017211215687875,-0.03967685336930561,0.0043703636033204625,18.76028870496786,0.04011845905896754,1.0,0.0,1.69062741851169,-1.0004827618806238,20.718048150427723,85.13084268154867,0.27725161253670577,8.076939739570042,1.0,21.70377533901636,0.0,1.0,88.26799106807574,4816.460931712981,1.0,1.0,1.5556657611245854,18.550311586485392,-0.016201263830367532,-44.237044632539906,1.0,21.28190618709088,1.0,0.014344829273718104,4.1478135043965985,0.946727776127238,1.0,-0.1333129759419238,7.855273349082041
0.21,18.28849788242318,-0.00034803690380158064,21.508747012739928,88.69980398991254,-0.0022394442883370276,6.661915454504528,88.94962816328679,17.979611214320727,-0.02319235926984208,7.37230639333291,0.04598593587333987,-0.13452042263540676,-2.3337548273574678,0.3505374974330138,3.0408953281648254,0.038515940376707095,4828.6967485286905,0.26125313987815824,88.88130294353425,1.9536998552232694,1.2224725117853863,101066.8789047389,288.01019314441714,0.07244880006198942,-0.1312124234412952,-0.05085528216073648,367.435,0.19719969827133954,0.86,nominal,4166.946929085977,nan,pitch_program,12.895,0.0,0.0,-2.411399685414862,-0.017105564984799017,-0.047655949384255,-2.3378676506340876,0.0,0.0,0.86,0.0,0.0,0.0,0.0,0.0,0.0,-0.04080348797942933,0.0,0.0,-0.04080348797942933,0.0,0.0,0.21,1.0,19.035066119215482,0.04442301365835202,2.2825376656897767,0.0010677407655856931,-0.041305874975510436,0.004961620711393842,19.171481261559844,0.04161649982781739,1.0,0.0,17.174590143342822,0.7328688025218763,20.308812756754442,88.8114279847526,-0.10955303956020106,6.884161889120718,1.0,21.70377533901636,0.0,1.0,88.3734304421102,4818.732854162128,1.0,1.0,1.5556657611245854,18.550311586485392,-0.016201263830367532,-44.237044632539906,1.0,21.28190618709088,1.0,0.014344829273718104,4.1478135043965985,0.946727776127238,1.0,-0.1333129759419238,7.855273349082041
0.24,20.966209557668492,-0.0004087585587998338,21.704004136632033,89.25705584151042,-0.0020240551666084374,6.5085707964035215,89.49404178716651,17.973695223372587,-0.02901313989841858,7.436116736682337,0.057454445946850875,-0.14476169415032172,-2.127184153649439,0.37812706961841,3.2296421796620205,0.027107045220863546,4887.926094361478,0.26285358073987974,89.425594173325,1.9852178338515627,1.2224495852870592,101064.53811398393,288.00892397311185,0.07244880006198942,-0.1312124234412952,-0.05085528216073648,373.24,0.20031519964835895,0.86,nominal,4217.435329868055,nan,pitch_program,12.88,0.0,0.0,-2.4221866098242426,-0.019855900012084624,-0.05471356082706585,-2.3884590261481806,0.0,0.0,0.86,0.0,0.0,0.0,0.0,0.0,0.0,-0.04168647405526309,0.0,0.0,-0.04168647405526309,0.0,0.0,0.24,1.0,19.364458151147506,-0.0523256763768843,2.488199697045222,-0.0036087431728276213,-0.03971268540329679,0.0060629049313176905,19.523732102145,0.04033459092931089,1.0,0.0,17.174590143342822,0.7328688025218763,20.308812756754442,88.8114279847526,-0.10955303956020106,6.884161889120718,1.0,22.095462638768925,0.0,1.0,89.34537146719963,4923.8793901953595,1.0,1.0,2.0555324684959246,18.38853099076737,0.027320028797943572,-44.28173706134154,1.0,21.54670550951164,1.0,-0.002941591000728495,4.109090072207987,0.9457399896584199,1.0,-0.08743499565956754,8.119443208555905
0.27,23.660870019143292,-0.000456921575323078,21.894878482067526,89.82201538249336,-0.001605433884108142,6.362478181183048,90.04707423651432,17.967685767383138,-0.035131598847139095,7.481705198145396,0.06950741775088265,-0.15179334727518776,-1.5198382180149381,0.39751540844756955,3.394400595957673,0.015279576553880058,4948.466090777544,0.264479367756299,89.97851046676685,2.016788793195143,1.2224271737192132,101062.24990749525,288.0076832898665,0.07244880006198942,-0.1312124234412952,-0.05085528216073648,379.045,0.20343070102537836,0.86,nominal,4268.953199344329,nan,pitch_program,12.865,0.0,0.0,-2.5433360640056417,-0.02249349117768883,-0.06133437359943919,-2.481385248862657,0.0,-0.036800624159663516,0.86,0.0,0.0,0.0,0.0,0.0,0.0,-0.043308342603072245,0.0,-0.0006422920583750997,-0.043308342603072245,0.0,-0.0006422920583750997,0.27,1.0,19.57879501817557,-0.022740364795528344,2.6797368064418574,-0.0013419285351652247,-0.027912322146877624,0.011161050359178967,19.76134410508877,0.030090987769508245,1.0,0.0,17.174590143342822,0.7328688025218763,20.308812756754442,88.8114279847526,-0.10955303956020106,6.884161889120718,1.0,22.095462638768925,0.0,1.0,89.96120320799139,5015.327556159798,1.0,1.0,2.0555324684959246,18.38853099076737,0.027320028797943572,-44.28173706134154,1.0,21.54670550951164,1.0,-0.002941591000728495,4.109090072207987,0.9457399896584199,1.0,-0.08743499565956754,8.119443208555905
0.3,26.372715939250334,-0.0004888641156353419,22.08156425215589,90.39486400356802,-0.0010647513437421288,6.222859002945506,90.60880428262914,17.961582846352375,-0.04148601836309466,7.505958131779231,0.08248085651464936,-0.1554143554638962,-0.808717624606519,0.42821376778950004,3.5326292637977956,0.0026339650834016474,5010.34277577252,0.26613073085024175,90.54012987367665,2.0483677345267304,1.2224052542582473,101060.01195433368,288.00646983236095,0.07244880006198942,-0.1312124234412952,-0.05085528216073648,384.84999999999997,0.20654620240239774,0.86,nominal,4321.523878837301,nan,pitch_program,12.850000000000001,0.0,0.0,-2.702356911535317,-0.02511080562035157,-0.06923779643955948,-2.613968246466253,0.0,-0.056262927527601085,0.86,0.0,0.0,0.0,0.0,0.0,0.0,-0.045622352443418744,0.0,-0.0009819733321675917,-0.045622352443418744,0.0,-0.0009819733321675917,0.3,1.0,19.965376362490677,0.01581638183034708,2.7126813817694435,-0.0018684879224602816,-0.014762272564212241,0.007203730393888011,20.14882487225581,0.016532080025341615,1.0,0.0,17.174590143342822,0.7328688025218763,20.308812756754442,88.8114279847526,-0.10955303956020106,6.884161889120718,1.0,20.47733107493995,0.0,1.0,90.6208261314916,5056.277052225306,1.0,1.0,-0.8492639690902132,18.325040826529374,-0.02499478844550116,-44.38597834503457,1.0,22.16520499736618,1.0,0.006976205600829996,4.080041465340347,0.9447960893696102,1.0,0.0007457499166642998,8.132695749256644
0.32999999999999996,29.101990601832714,-0.0004989586762890124,22.264228652873037,90.97582208607939,-0.0003364853551223487,6.088813357238227,91.17934992338164,17.9553864602803,-0.047966771590265175,7.514026412207719,0.09641666170496867,-0.15531186906925398,-0.2693021093468153,0.460332087533032,3.6501173961106965,-0.010841118989305721,5073.587073937002,0.2678080156351947,91.11056982748934,2.079991452665433,1.2223838072520525,101057.82224741767,288.0052825137563,0.07244880006198942,-0.1312124234412952,-0.05085528216073648,390.655,0.20966170377941715,0.86,nominal,4375.174424143935,nan,pitch_program,12.835,0.0,0.0,-2.827503368692608,-0.027589625435224183,-0.07765714509022494,-2.742089319802066,0.0,-0.0690994580651754,0.86,0.0,0.0,0.0,0.0,0.0,0.0,-0.0478584870143178,0.0,-0.0012060130545810612,-0.0478584870143178,0.0,-0.0012060130545810612,0.32999999999999996,1.0,20.20175598540026,0.037331295122165806,2.9126069702338064,0.0032738362865268435,-0.0029348057980423817,0.007837389893460535,20.41067411631241,0.008986421392596743,1.0,0.0,17.174590143342822,0.7328688025218763,20.308812756754442,88.8114279847526,-0.10955303956020106,6.884161889120718,1.0,20.47733107493995,0.0,1.0,90.88857295656939,5062.247768278058,1.0,1.0,-0.8492639690902132,18.325040826529374,-0.02499478844550116,-44.38597834503457,1.0,22.16520499736618,1.0,0.006976205600829996,4.080041465340347,0.9447960893696102,1.0,0.0007457499166642998,8.132695749256644
0.36,31.848941995599343,-0.00048039312864627334,22.443021677737764,91.56504645888762,0.0006188515880913018,5.959767495490908,91.75879555661973,17.94909660916692,-0.05443858206985908,7.512205223517861,0.11122902534534561,-0.15116824486701547,0.06026881532978987,0.4895606864011384,3.753578529904447,-0.02504634312939885,5138.226780002236,0.2695114694473036,91.6899143418732,2.1116906874571657,1.2223628150709105,101055.67898619424,288.00412035909466,0.07244880006198942,-0.1312124234412952,-0.05085528216073648,396.46,0.21277720515643656,0.86,nominal,4429.9291395367545,nan,pitch_program,12.82,0.0,0.0,-2.9057201538777266,-0.02983985452377688,-0.08621582701942755,-2.8402678202474627,0.0,-0.07936927943772669,0.86,0.0,0.0,0.0,0.0,0.0,0.0,-0.04957202510176069,0.0,-0.0013852552511237643,-0.04957202510176069,0.0,-0.0013852552511237643,0.36,1.0,20.49217821175059,-0.022453603404895904,3.0179597692280007,-0.00035848531462184374,0.002053315267791894,0.006655004567450478,20.71323135570909,0.006973786711861322,1.0,0.0,17.174590143342822,0.7328688025218763,20.308812756754442,88.8114279847526,-0.10955303956020106,6.884161889120718,1.0,22.928997685199572,0.0,1.0,91.37676677203723,5143.684525595247,1.0,1.0,0.3807586154227731,18.387914392685595,0.027796899606141574,-44.36687679059765,1.0,22.352578905670583,1.0,-0.0030697911905807913,4.083167780631698,0.9438924458056556,1.0,0.2395718455225829,7.821597439608957
0.39,34.613820694759106,-0.00042551358047643767,22.61808545924243,92.16262330532538,0.0018293182723278555,5.83545938348881,92.34718037970654,17.942713293012226,-0.060749544853322734,7.503643799568105,0.12676751228755287,-0.1426884176568036,0.2848644724862783,0.5137956908741753,3.8463755589030533,-0.039828194983138006,5204.285139442026,0.2712412072859984,92.27820241453527,2.1434536157125645,1.2223422610093806,101053.5804645182,288.0029824445149,0.07244880006198942,-0.1312124234412952,-0.05085528216073648,402.265,0.21589270653345596,0.86,nominal,4485.808509809909,nan,pitch_program,12.805,0.0,0.0,-2.961463992175365,-0.031780612004425064,-0.09467832033996548,-2.9129855234042044,0.0,-0.08855470397906998,0.86,0.0,0.0,0.0,0.0,0.0,0.0,-0.0508411884463337,0.0,-0.0015455711525636947,-0.0508411884463337,0.0,-0.0015455711525636947,0.39,1.0,20.746869759174594,0.02363784044461224,3.1324605805199006,-0.00027087662452909963,0.0030227281171183486,0.009993516937626165,20.982027376785236,0.010444167759968008,1.0,0.0,17.174590143342822,0.7328688025218763,20.308812756754442,88.8114279847526,-0.10955303956020106,6.884161889120718,1.0,22.928997685199572,0.0,1.0,92.9620913106198,5182.341084073896,1.0,1.0,0.3807586154227731,18.387914392685595,0.027796899606141574,-44.36687679059765,1.0,22.352578905670583,1.0,-0.0030697911905807913,4.083167780631698,0.9438924458056556,1.0,0.2395718455225829,7.821597439608957
0.42,37.396879048035444,-0.00032600813876519543,22.789557083314715,92.76861177587789,0.003316848057041407,5.715720802409531,92.94452542305075,17.936236511816222,-0.06673515183489236,7.48881451540256,0.142843305847559,-0.1296114596985069,0.49371811296318924,0.5318296380818625,3.9291320939960546,-0.05500242146764915,5271.783746440298,0.2729972908963364,92.87545492918487,2.153376339862341,1.222322128955748,101051.52503690062,288.0018678789584,0.07244880006198942,-0.1312124234412952,-0.05085528216073648,404.1773684210526,0.21691906078826353,0.86,nominal,4542.831613029151,nan,pitch_program,12.79,0.0,0.0,-3.016781271063985,-0.033333314778143185,-0.10286297128270323,-2.9752629720000727,0.0,-0.09713966436124993,0.86,0.0,0.0,0.0,0.0,0.0,0.0,-0.05192813497407313,0.0,-0.0016954069773860057,-0.05192813497407313,0.0,-0.0016954069773860057,0.42,1.0,20.844125427443583,0.07553030685504666,3.2810990979985126,-0.0036308630002042947,0.008563798437586548,0.010271519720424251,21.1009213294856,0.013857341995235833,1.0,0.0,36.45616512668635,-2.1794710575865057,23.153562502225025,92.48258787539145,0.011688002506427568,5.677575716110486,1.0,22.30463217226367,0.0,1.0,92.92208281366692,5288.729161586997,1.0,1.0,-0.015893991128539606,18.399326181226336,0.01940160947674387,-44.26855451961112,1.0,22.590744899247802,1.0,-0.0012898738785497455,4.054454809517718,0.9430261072917132,1.0,0.025124321397322638,7.688286454659809
0.44999999999999996,40.19817766780443,-0.00017352236176600597,22.957541817411233,93.37662065896613,0.005082859233306316,5.599491136550575,93.54436173555426,17.929728939992575,-0.07222116857765597,7.467745641234056,0.15924254355709083,-0.1117216766605343,0.7016380661252655,0.5428429084603593,4.002332507026667,-0.07036813057958445,5340.00299035792,0.2747607043726025,93.47520247280262,2.152396036265919,1.2223024065351105,101049.51143940496,288.0007759781868,0.07244880006198942,-0.1312124234412952,-0.05085528216073648,404.14342105263154,0.21690084148196515,0.86,nominal,4600.41038371983,nan,pitch_program,12.775,0.0,0.0,-3.075360776571586,-0.03442077024015606,-0.11061316885271726,-3.035321654742981,0.0,-0.10522376705613033,0.86,0.0,0.0,0.0,0.0,0.0,0.0,-0.052976356732347574,0.0,-0.0018365011864810152,-0.052976356732347574,0.0,-0.0018365011864810152,0.44999999999999996,1.0,20.847072729189012,0.005203757565814858,3.3660482382620156,-0.0016632386688307692,0.012500845042044505,0.010184185989571002,21.117072458025422,0.016209723437026213,1.0,0.0,36.45616512668635,-2.1794710575865057,23.153562502225025,92.48258787539145,0.011688002506427568,5.677575716110486,1.0,22.30463217226367,0.0,1.0,92.87648191054936,5273.448196395077,1.0,1.0,-0.015893991128539606,18.399326181226336,0.01940160947674387,-44.26855451961112,1.0,22.590744899247802,1.0,-0.0012898738785497455,4.054454809517718,0.9430261072917132,1.0,0.025124321397322638,7.688286454659809
0.48,43.01768238789384,4.032152436927238e-05,23.12212471821421,93.98349066964715,0.007128129537842612,5.486096693432527,94.14347468726432,17.923221914748115,-0.07702655881094721,7.44118344725938,0.17573355282953046,-0.08886253979450782,0.8846958346161149,0.5462071353771143,4.067074770084882,-0.08570977766473331,5408.578664578681,0.2765219976620224,94.0742300543544,2.151449104518324,1.2222830837463199,101047.53865047536,287.99970618933156,0.07244880006198942,-0.1312124234412952,-0.05085528216073648,404.1094736842105,0.2168826221756668,0.86,nominal,4658.247497463663,nan,pitch_program,12.76,0.0,0.0,-3.1308045601803993,-0.03496827930598232,-0.1177841169148741,-3.092611398005432,0.0,-0.1127599769713766,0.86,0.0,0.0,0.0,0.0,0.0,0.0,-0.05397625137989958,0.0,-0.0019680328626235054,-0.05397625137989958,0.0,-0.0019680328626235054,0.48,1.0,20.83053574649574,0.001928124221978909,3.4298636166060494,-0.0007398279802970396,0.020084324172631195,0.008193104012444944,21.111020525597947,0.021703787141199794,1.0,0.0,36.45616512668635,-2.1794710575865057,23.153562502225025,92.48258787539145,0.011688002506427568,5.677575716110486,1.0,24.467451031985732,0.0,1.0,94.40372586999221,5487.549222498944,1.0,1.0,0.9468342686002013,18.42308279273763,0.07863714935029244,-44.368608242083916,1.0,23.3026628074194,1.0,0.011696427072059794,4.062355345431228,0.9421946882044645,1.0,-0.4446346914199053,7.589849471708399
0.51,45.85536092794591,0.0003240108677267776,23.283384107166547,94.5892846684023,0.009456311445250174,5.375312965077967,94.74189597519361,17.916715436082846,-0.08096641303527163,7.4103480221324425,0.19207076545640475,-0.06094692321952984,1.0271020189673212,0.5414231450974322,4.124774264481971,-0.1007986571732028,5477.512840721907,0.2782812633581252,94.67256916395105,2.1505372151292197,1.222264151379752,101045.60572939213,287.9986580033034,0.07244880006198942,-0.1312124234412952,-0.05085528216073648,404.0755263157895,0.21686440286936848,0.86,nominal,4716.345425241749,nan,pitch_program,12.745,0.0,0.0,-3.1784834490405656,-0.03490466826954833,-0.12423562183007533,-3.144134628626512,0.0,-0.11964536388659583,0.86,0.0,0.0,0.0,0.0,0.0,0.0,-0.05487550139550179,0.0,-0.0020882055345678168,-0.05487550139550179,0.0,-0.0020882055345678168,0.51,1.0,20.785411875736923,0.07644695114069465,3.5802258733829615,-0.00011513758279113964,0.017394324012195442,0.009458984174187567,21.091638349943445,0.019800205708823855,1.0,0.0,36.45616512668635,-2.1794710575865057,23.153562502225025,92.48258787539145,0.011688002506427568,5.677575716110486,1.0,24.467451031985732,0.0,1.0,95.14918675821006,5501.743930866329,1.0,1.0,0.9468342686002013,18.42308279273763,0.07863714935029244,-44.368608242083916,1.0,23.3026628074194,1.0,0.011696427072059794,4.062355345431228,0.9421946882044645,1.0,-0.4446346914199053,7.589849471708399
0.54,48.71118248785534,0.0006860097169223973,23.441393257237056,95.19405199698112,0.012066628306520659,5.26697166901698,95.33964900171225,17.910209503996764,-0.08385475724069658,7.376302595863018,0.20799746634215716,-0.02796317023226493,1.1340891520511418,0.5281080682055591,4.176649834702135,-0.11539758394070301,5546.806723547576,0.2800385697632385,95.27024303066239,2.1496598887481655,1.2222456008192044,101043.71179604402,287.9976309438279,0.07244880006198942,-0.1312124234412952,-0.05085528216073648,404.0415789473684,0.2168461835630701,0.86,nominal,4774.705875070929,nan,pitch_program,12.73,0.0,0.0,-3.2191111157145627,-0.034163072043284275,-0.12983013822571968,-3.1891205208793423,0.0,-0.12575622849007015,0.86,0.0,0.0,0.0,0.0,0.0,0.0,-0.05566065333226109,0.0,-0.0021948602420420213,-0.05566065333226109,0.0,-0.0021948602420420213,0.54,1.0,20.697095124805063,0.011051120050288677,3.637292932937352,0.0024823152550622106,0.02051666004478197,0.013241131938122309,21.01427535301848,0.0245443028709603,1.0,0.0,36.45616512668635,-2.1794710575865057,23.153562502225025,92.48258787539145,0.011688002506427568,5.677575716110486,1.0,22.78176995002255,0.0,1.0,95.38980066671331,5546.5572458644765,1.0,1.0,0.6055065102471042,18.479053386747243,-0.06353041859289858,-44.355391786887516,1.0,23.781774033082865,1.0,0.013929475796875049,4.066342085210858,0.9413965168569074,1.0,0.023281377967499465,7.754546404043467
0.57,51.585117414031245,0.001134619302038706,23.59622167143672,95.79783087253033,0.014953652837210289,5.160947139988808,95.93674999120731,17.903704118489873,-0.0855073921710252,7.339710936742071,0.2232489131974013,0.010019961918932686,1.2189754979259655,0.50599737056975,4.223490735919786,-0.12926426779124883,5616.460749792399,0.2817939641458249,95.86726772955106,2.1488119216857173,1.2222274238917434,101041.85601559676,287.9966245591356,0.07244880006198942,-0.1312124234412952,-0.05085528216073648,404.0076315789474,0.21682796425677175,0.86,nominal,4833.329886691903,nan,pitch_program,12.715,0.0,0.0,-3.2556462253560996,-0.0326819788104158,-0.1344350684902037,-3.2290359435653966,0.0,-0.13096353249015028,0.86,0.0,0.0,0.0,0.0,0.0,0.0,-0.05635730888045798,0.0,-0.0022857448419956903,-0.05635730888045798,0.0,-0.0022857448419956903,0.57,1.0,20.758899734743025,-0.004987337139658269,3.7051206610042793,0.00142091146171885,0.021922412740917843,0.008410513346196186,21.0869595291319,0.023523348071899652,1.0,0.0,36.45616512668635,-2.1794710575865057,23.153562502225025,92.48258787539145,0.011688002506427568,5.677575716110486,1.0,22.78176995002255,0.0,1.0,96.00916471796413,5691.484898096051,1.0,1.0,0.6055065102471042,18.479053386747243,-0.06353041859289858,-44.355391786887516,1.0,23.781774033082865,1.0,0.013929475796875049,4.066342085210858,0.9413965168569074,1.0,0.023281377967499465,7.754546404043467
0.6,54.47713702365056,0.0016778322071797746,23.74793564419551,96.40065365397733,0.01810709683803562,5.057132425293026,96.53321159656917,17.89719927956217,-0.08574493145867013,7.300995854636768,0.2375562525233782,0.05284861455224897,1.2897944301194377,0.4749522256457971,4.265830540700045,-0.1421548681219261,5686.4749851934375,0.28354748329849094,96.46365577312791,2.147987326150626,1.2222096128017563,101040.03759175849,287.9956384183127,0.07244880006198942,-0.1312124234412952,-0.05085528216073648,403.9736842105263,0.21680974495047337,0.86,nominal,4892.2181636591495,nan,pitch_program,12.7,0.0,0.0,-3.28986126535881,-0.030406624823282193,-0.1379265309291064,-3.2655311366414446,0.0,-0.13514133155352395,0.86,0.0,0.0,0.0,0.0,0.0,0.0,-0.05699427016078605,0.0,-0.0023586611911382963,-0.05699427016078605,0.0,-0.0023586611911382963,0.6,1.0,20.70040778643487,0.046470574222881596,3.8560497939694844,-0.002819915243898066,0.018968255374736006,0.0122354561766649,21.056546774163472,0.022747593758352933,1.0,0.0,36.45616512668635,-2.1794710575865057,23.153562502225025,92.48258787539145,0.011688002506427568,5.677575716110486,1.0,23.948700382208173,0.0,1.0,96.77366969947283,5605.140683673937,1.0,1.0,0.3437483882551342,18.4707139529253,0.03511514019931165,-44.28327334510657,1.0,23.88637559785794,1.0,0.017166600729055577,4.060926802526275,0.9406301608895112,1.0,-0.3471767112608689,7.121718245914748
0.63,57.387213506610465,0.0023231819740111765,23.89659852235488,97.00254943199674,0.021511658894380066,4.955429271978901,97.12904477203523,17.890694987213656,-0.08439604823799912,7.260546847812694,0.2506508537010547,0.10027948805997558,1.347655945181354,0.43496878022688495,4.30416134983652,-0.15382776749896124,5756.849332773896,0.2852991590248317,97.0594179778518,2.1471827286495966,1.222192160100271,101038.2557636464,287.99467210960466,0.07244880006198942,-0.1312124234412952,-0.05085528216073648,403.9397368421053,0.21679152564417503,0.86,nominal,4951.371247063264,nan,pitch_program,12.685,0.0,0.0,-3.3218167537278522,-0.027290478182158472,-0.14019229502825245,-3.299302506893289,0.0,-0.13817190963836104,0.86,0.0,0.0,0.0,0.0,0.0,0.0,-0.05758369176459081,0.0,-0.002411554756957488,-0.05758369176459081,0.0,-0.002411554756957488,0.63,1.0,20.747158241937807,0.038506663034484134,3.897194266672273,0.0024481532258257338,0.0246653894385524,0.00839143449236954,21.11004929011984,0.026168512820034358,1.0,0.0,57.003333741575176,-1.123469748952719,24.300096448186416,97.12668731773248,0.11013867558163581,5.002718598623227,1.0,23.948700382208173,0.0,1.0,97.5432244658536,5801.576150887022,1.0,1.0,0.3437483882551342,18.4707139529253,0.03511514019931165,-44.28327334510657,1.0,23.88637559785794,1.0,0.017166600729055577,4.060926802526275,0.9406301608895112,1.0,-0.3471767112608689,7.121718245914748
0.6599999999999999,60.315319818932686,0.003077590355746585,24.042271050159147,97.60354374407409,0.025146946057846942,4.855750926808922,97.72425850746316,17.88419124144433,-0.08130083081225226,7.2187728266524,0.2622687185063009,0.15197667189265326,1.3919104707960877,0.38618789553478144,4.338985255641979,-0.1640475911486259,5827.583494911727,0.2870490173628577,97.65456319967967,2.1463971815733665,1.222175058644418,101036.50980164688,287.99372523817397,0.07244880006198942,-0.1312124234412952,-0.05085528216073648,403.9057894736842,0.21677330633787664,0.86,nominal,5010.789487810786,nan,pitch_program,12.67,0.0,0.0,-3.3511227280169034,-0.023296595074713065,-0.14113383458662454,-3.3303946395674577,0.0,-0.13994906460731915,0.86,0.0,0.0,0.0,0.0,0.0,0.0,-0.058126351851221954,0.0,-0.002442571962483984,-0.058126351851221954,0.0,-0.002442571962483984,0.6599999999999999,1.0,20.68625294192529,-0.00016393657399005335,4.007169565412535,0.002589674684863531,0.022739002243314887,0.007598353440752406,21.070796585088008,0.02411438601759324,1.0,0.0,57.003333741575176,-1.123469748952719,24.300096448186416,97.12668731773248,0.11013867558163581,5.002718598623227,1.0,23.81564209336515,0.0,1.0,97.8545622412047,5791.68491947146,1.0,1.0,0.3860305031573671,18.61212871512168,-0.05853692587479474,-44.20914607167349,1.0,24.24079639488365,1.0,0.01682475652477805,4.066426135221522,0.9398943223746021,1.0,-0.03645100662050725,6.986819282295838
0.69,63.261429554792,0.003947214483073465,24.185011828793584,98.2036578619773,0.028987470910896,4.758025954481279,98.31885917121538,17.877688042254196,-0.07631415962156039,7.176048037510074,0.2721549785220242,0.20751016398076097,1.4237086619981099,0.32890390477883524,4.370758460927491,-0.17258944756240663,5898.676887278898,0.28879707666018756,98.24909767884694,2.1456302509455982,1.2221583015434534,101034.79900190367,287.99279742311285,0.07244880006198942,-0.1312124234412952,-0.05085528216073648,403.8718421052631,0.21675508703157828,0.86,nominal,5070.47298061548,nan,pitch_program,12.655,0.0,0.0,-3.3778590476311217,-0.018398837216388162,-0.14066845102117223,-3.358873284405656,0.0,-0.140380696455631,0.86,0.0,0.0,0.0,0.0,0.0,0.0,-0.0586233979701546,0.0,-0.0024501053593934947,-0.0586233979701546,0.0,-0.0024501053593934947,0.69,1.0,20.65127312387868,0.03930103777323299,4.041680822017401,0.0037550094790443377,0.021866150357138018,0.0022372199575455844,21.04309411839588,0.022298739443455545,1.0,0.0,57.003333741575176,-1.123469748952719,24.300096448186416,97.12668731773248,0.11013867558163581,5.002718598623227,1.0,23.81564209336515,0.0,1.0,98.25083739186667,5857.587326217897,1.0,1.0,0.3860305031573671,18.61212871512168,-0.05853692587479474,-44.20914607167349,1.0,24.24079639488365,1.0,0.01682475652477805,4.066426135221522,0.9398943223746021,1.0,-0.03645100662050725,6.986819282295838
0.72,66.22551682709704,0.004937296320377073,24.324877741604134,98.80290907683434,0.03300272791012025,4.6621970936849335,98.9128505956916,17.871185389643248,-0.06930906291554936,7.132669963027845,0.280068612130063,0.2663561195650587,1.4456021089421758,0.2635713013137763,4.3998503502765045,-0.17924332208195806,5970.128639341148,0.29054334782413305,98.84302512457175,2.1448809777932225,1.222141882108808,101033.1226812174,287.99188829467954,0.07244880006198942,-0.1312124234412952,-0.05085528216073648,403.8378947368421,0.21673686772527995,0.86,nominal,5130.421568787506,nan,pitch_program,12.64,0.0,0.0,-3.402499211862416,-0.012583010843776785,-0.13873184004938433,-3.385048840879712,0.0,-0.139391382611883,0.86,0.0,0.0,0.0,0.0,0.0,0.0,-0.0590802476141686,0.0,-0.0024328385754845312,-0.0590802476141686,0.0,-0.0024328385754845312,0.72,1.0,20.56986333869041,0.05914106676698838,4.106639874482702,0.008545487190011594,0.02308673206417611,0.008834733001212944,20.9758734382354,0.02615482853930476,1.0,0.0,57.003333741575176,-1.123469748952719,24.300096448186416,97.12668731773248,0.11013867558163581,5.002718598623227,1.0,25.015553962552787,0.0,1.0,98.55240800996994,5934.640825521344,1.0,1.0,0.5642242375466227,18.707007914594435,-0.03925912241287938,-44.19127155847702,1.0,24.93337029152127,1.0,0.002005134736984736,4.05288991360127,0.9391878056459897,1.0,-0.5284213591575819,7.720439452669456
0.75,69.20755617577237,0.006052017061339849,24.461924261928772,99.40131162251082,0.03715735803209253,4.568217344154667,99.50623469234577,17.86468328361149,-0.060180013986689644,7.088869733031301,0.2857873759710047,0.3278987785991409,1.4597930598572382,0.19080901142435786,4.426556639064581,-0.18381854937210623,6041.937659485958,0.29228783612384407,99.43634732788281,2.144148186902253,1.222125793817933,101031.48017335367,287.9909974922974,0.07244880006198942,-0.1312124234412952,-0.05085528216073648,403.80394736842106,0.21671864841898159,0.86,nominal,5190.634900887342,nan,pitch_program,12.625,0.0,0.0,-3.425466981439859,-0.005847923347253888,-0.13528073481697023,-3.4092997252158,0.0,-0.13692499393493532,0.86,0.0,0.0,0.0,0.0,0.0,0.0,-0.059503505392353655,0.0,-0.0023897919724378876,-0.059503505392353655,0.0,-0.0023897919724378876,0.75,1.0,20.582318747324706,0.023967845457488604,4.224805073829194,0.007273743470420079,0.025736854103986878,0.002156494889035095,21.011458716280096,0.026831762399250246,1.0,0.0,57.003333741575176,-1.123469748952719,24.300096448186416,97.12668731773248,0.11013867558163581,5.002718598623227,1.0,25.015553962552787,0.0,1.0,99.52241223152865,6056.790853079205,1.0,1.0,0.5642242375466227,18.707007914594435,-0.03925912241287938,-44.19127155847702,1.0,24.93337029152127,1.0,0.002005134736984736,4.05288991360127,0.9391878056459897,1.0,-0.5284213591575819,7.720439452669456
0.78,72.20752249802607,0.007294359350965927,24.59620567565909,99.99887740845658,0.041411409654202605,4.476047124343919,100.09901196173578,17.85818172415892,-0.04884610907779926,7.044842115358556,0.28911281655335874,0.3914341783632394,1.4674820082162614,0.11140220603964188,4.451131374066362,-0.18614829828079982,6114.102690142155,0.2940305426860829,100.02906467029645,2.1434310849215112,1.2221100302881416,101029.87082637179,287.9901246631082,0.07244880006198942,-0.1312124234412952,-0.05085528216073648,403.77,0.21670042911268322,0.86,nominal,5251.112478247064,nan,pitch_program,12.61,0.0,0.0,-3.4469564393691647,0.0017937033376084397,-0.13029522450536865,-3.431893753707819,0.0,-0.13294713227719532,0.86,0.0,0.0,0.0,0.0,0.0,0.0,-0.05989784558082879,0.0,-0.0023203651893214847,-0.05989784558082879,0.0,-0.0023203651893214847,0.78,1.0,20.551987019221652,0.09464355260596213,4.264033820328452,0.00698863860267998,0.026135089781511012,0.0016653934620435358,20.98988118740099,0.027104566456409657,1.0,0.0,57.003333741575176,-1.123469748952719,24.300096448186416,97.12668731773248,0.11013867558163581,5.002718598623227,1.0,25.315398091685122,0.0,1.0,99.55286120931615,6097.395972856584,1.0,1.0,0.37763412568731264,18.67237877688102,-0.06609357779288494,-44.24940679803437,1.0,24.654094561548032,1.0,0.02442775628846889,4.049560089767727,0.9385094858108523,1.0,-0.22408036656463806,7.1330198588449845
0.8099999999999999,75.22539098752748,0.008665980326658851,24.727775277674308,100.59561631671389,0.04572069918976417,4.38565340050733,100.69118168077695,17.851680711285542,-0.03525404955119837,7.00076060832356,0.2898752269898016,0.4561758398968612,1.4693647435837685,0.026301410896321254,4.473802809266579,-0.18609399706296967,6186.622325593403,0.29577146504583096,100.62117631096415,2.1427293576319366,1.222094585253536,101028.29400026854,287.9892694606951,0.07244880006198942,-0.1312124234412952,-0.05085528216073648,403.73605263157896,0.21668220980638486,0.86,nominal,5311.8536715624205,nan,pitch_program,12.595,0.0,0.0,-3.467047704962541,0.010314515201422042,-0.12378068983290179,-3.4529861244606526,0.0,-0.12744726681061921,0.86,0.0,0.0,0.0,0.0,0.0,0.0,-0.060265976897517094,0.0,-0.0022243744285129975,-0.060265976897517094,0.0,-0.0022243744285129975,0.8099999999999999,1.0,20.577781115838896,0.08458168456238624,4.3463746398803345,0.006521654309074532,0.027228056194738712,-0.0006784734135379378,21.03195669030664,0.02800641614423019,1.0,0.0,57.003333741575176,-1.123469748952719,24.300096448186416,97.12668731773248,0.11013867558163581,5.002718598623227,1.0,25.315398091685122,0.0,1.0,99.89828014823917,6135.70372970551,1.0,1.0,0.37763412568731264,18.67237877688102,-0.06609357779288494,-44.24940679803437,1.0,24.654094561548032,1.0,0.02442775628846889,4.049560089767727,0.9385094858108523,1.0,-0.22408036656463806,7.1330198588449845
0.84,78.26113707732554,0.010167098498088358,24.85668556111577,101.19153632660226,0.050037272380983586,4.297009448048733,101.28274195569209,17.84518024499135,-0.019380853048118592,6.956776023221942,0.28793846184960786,0.5212625548850158,1.466183308017045,-0.06338150376648435,4.494772350201322,-0.18354961137828016,6259.495014061631,0.2975105973035444,101.2126802400003,2.1420428899798636,1.2220794525427678,101026.7490647071,287.9884315438527,0.07244880006198942,-0.1312124234412952,-0.05085528216073648,403.7021052631579,0.2166639905000865,0.86,nominal,5372.857724489571,nan,pitch_program,12.58,0.0,0.0,-3.4858453242274936,0.019672028938294943,-0.11576944693634807,-3.4727016443207575,0.0,-0.12044057488605651,0.86,0.0,0.0,0.0,0.0,0.0,0.0,-0.060610077632818254,0.0,-0.0021020845847564804,-0.060610077632818254,0.0,-0.0021020845847564804,0.84,1.0,20.625399972161773,0.08500703160015305,4.471384876738692,0.009730047843311067,0.024765453709906037,0.0013574263755332836,21.104682725002046,0.026642900271096885,1.0,0.0,76.19615231534235,-0.11726721320418376,26.742174866204248,100.77577727789313,-0.09689625481266055,4.212049249693775,1.0,26.077876139579736,0.0,1.0,101.23368682462974,6248.6359198020755,1.0,1.0,-1.3801992267836642,18.79431720779111,-0.06536223085089879,-44.20599934302418,1.0,24.520692310110434,1.0,0.010951930916554265,4.060985134232504,0.9378582860972106,1.0,0.8188261892743046,7.622539747286358
0.87,81.31473638860753,0.01179639749297986,24.982988386287634,101.78664370939956,0.05430996649638341,4.210094172395443,101.87368983273919,17.83868032527635,-0.001236222247312944,6.91301346081513,0.2832045315437094,0.5857683121504135,1.4587803275967304,-0.15638078281350903,4.514212086969049,-0.17844567729343577,6332.719067213582,0.29924793045187015,101.8035733894747,2.141371557901854,1.2220646260591967,101025.23539699093,287.9876105754891,0.07244880006198942,-0.1312124234412952,-0.05085528216073648,403.66815789473685,0.21664577119378817,0.86,nominal,5434.123763126961,nan,pitch_program,12.565,0.0,0.0,-3.5034933619752984,0.029808373548101987,-0.10632208909930597,-3.491176674913482,0.0,-0.11196948341400619,0.86,0.0,0.0,0.0,0.0,0.0,0.0,-0.06093252774606798,0.0,-0.001954236147331589,-0.06093252774606798,0.0,-0.001954236147331589,0.87,1.0,20.400745365401843,0.008026735881398385,4.556618693734188,0.011510413726913605,0.027678389029175295,-0.004120396598804686,20.903426748084666,0.030258230476128866,1.0,0.0,76.19615231534235,-0.11726721320418376,26.742174866204248,100.77577727789313,-0.09689625481266055,4.212049249693775,1.0,26.077876139579736,0.0,1.0,101.54150151699902,6294.131595207496,1.0,1.0,-1.3801992267836642,18.79431720779111,-0.06536223085089879,-44.20599934302418,1.0,24.520692310110434,1.0,0.010951930916554265,4.060985134232504,0.9378582860972106,1.0,0.8188261892743046,7.622539747286358
0.8999999999999999,84.38616468733753,0.013550949667281906,25.106735118728597,102.38094329099995,0.05848507247673491,4.124891081365405,102.46402147140125,17.832180952140536,0.01913550130633454,6.869575284093934,0.2756178726829186,0.6487143617987357,1.4479000805614786,-0.25128784416432237,4.532268449285408,-0.1707529902072455,6406.2926779805775,0.3009834528857151,102.39385180680891,2.140715242777723,1.2220500997646637,101023.75238040659,287.9868062217282,0.07244880006198942,-0.1312124234412952,-0.05085528216073648,403.6342105263158,0.2166275518874898,0.86,nominal,5495.650811997969,nan,pitch_program,12.55,0.0,0.0,-3.5201237817218645,0.04065029804665702,-0.0955284162313469,-3.5085449389985115,0.0,-0.10210484310441062,0.86,0.0,0.0,0.0,0.0,0.0,0.0,-0.061235661139707624,0.0,-0.0017820656944041936,-0.061235661139707624,0.0,-0.0017820656944041936,0.8999999999999999,1.0,20.45756094593908,0.04425225413561056,4.6141734404853425,0.011897570562603385,0.02965921518878421,-0.0037855516426929916,20.97151293201538,0.03217998806939229,1.0,0.0,76.19615231534235,-0.11726721320418376,26.742174866204248,100.77577727789313,-0.09689625481266055,4.212049249693775,1.0,24.826788229904327,0.0,1.0,102.34648736781118,6360.166053669726,1.0,1.0,0.7466369139831344,18.812463058655645,-0.17484836486628955,-44.11509156665101,1.0,25.0415300082739,1.0,0.03384302995528113,4.067261997859707,0.9372331622031785,1.0,0.28318326786162684,6.617551185288779
0.9299999999999999,87.47539784766661,0.01542616247456725,25.22797674128876,102.9744386776362,0.06250709357617812,4.0413874186721195,103.05373229717983,17.82568212558391,0.041653872701012874,6.826546834985448,0.26516917513335797,0.7090833923242109,1.434098081895576,-0.34656601278408217,4.549068433043289,-0.16048585092372972,6480.213936608353,0.30271715085290524,102.9835108079841,2.140073916270196,1.2220358676663248,101022.2994028792,287.9860181511816,0.07244880006198942,-0.1312124234412952,-0.05085528216073648,403.6002631578947,0.21660933258119142,0.86,nominal,5557.4378082993635,nan,pitch_program,12.535000000000002,0.0,0.0,-3.5358303883490407,0.05210947443648018,-0.08350786009055226,-3.524916208608829,0.0,-0.09094665329609561,0.86,0.0,0.0,0.0,0.0,0.0,0.0,-0.061521393697139354,0.0,-0.0015873185436866217,-0.061521393697139354,0.0,-0.0015873185436866217,0.9299999999999999,1.0,20.415414143098296,0.024548938160297955,4.708397019729493,0.016956635198550146,0.023703841367742527,-0.00811940911423259,20.951342195190747,0.030254328239246942,1.0,0.0,76.19615231534235,-0.11726721320418376,26.742174866204248,100.77577727789313,-0.09689625481266055,4.212049249693775,1.0,24.826788229904327,0.0,1.0,103.06930998599108,6450.674188691127,1.0,1.0,0.7466369139831344,18.812463058655645,-0.17484836486628955,-44.11509156665101,1.0,25.0415300082739,1.0,0.03384302995528113,4.067261997859707,0.9372331622031785,1.0,0.28318326786162684,6.617551185288779
0.96,90.58241181983206,0.017415750305336392,25.34676394993126,103.56713240551476,0.06631959435897139,3.959573621416575,103.64281709917691,17.819183845606474,0.06620144081548657,6.784000181917002,0.25189864956114494,0.7658357532054366,1.4178078203198983,-0.44056901456307246,4.564723597052983,-0.14770476792182402,6554.480840430044,0.30444900874332614,103.57254507581379,2.139447652467568,1.2220219238053878,101020.87585582215,287.9852460343254,0.07244880006198942,-0.1312124234412952,-0.05085528216073648,403.56631578947366,0.21659111327489305,0.86,nominal,5619.483610816313,nan,pitch_program,12.520000000000001,0.0,0.0,-3.5506831469579447,0.06408311780951147,-0.07040936462311982,-3.5403763716182985,0.03844987068570688,-0.07862428009231014,0.86,0.0,0.0,0.0,0.0,0.0,0.0,-0.06179122444454963,0.0006710768404316348,-0.001372252559621043,-0.06179122444454963,0.0006710768404316348,-0.001372252559621043,0.96,1.0,20.43906897826462,0.005425824497085445,4.676339776717667,0.01294669655629144,0.023836166770259758,-0.00868321024853512,20.967205914120804,0.028481185688812,1.0,0.0,76.19615231534235,-0.11726721320418376,26.742174866204248,100.77577727789313,-0.09689625481266055,4.212049249693775,1.0,26.011611853641824,0.0,1.0,104.08124144421653,6513.338750579647,1.0,1.0,2.114756766560265,18.974601874487757,-0.12594608299299792,-44.11131357506663,1.0,24.987565768410093,1.0,0.005110623583555428,4.0715134417690075,0.9366330901251718,1.0,0.28063539131399245,6.517256791495962
0.99,93.7071826013418,0.019511734255959423,25.463147237662042,104.15902605032478,0.06986613168743432,3.879442924359477,104.23127009891013,17.812686112208226,0.09363050598130135,6.741995342951291,0.23589899623435706,0.8514967821235208,1.3994213348765117,-0.5315632777180523,4.5793290595977565,-0.1325992851338541,6629.091300433396,0.3061790092939481,104.16094872960996,2.1388372559396482,1.2220082622472508,101019.48113312988,287.98448954295515,0.07244880006198942,-0.1312124234412952,-0.05085528216073648,403.53236842105264,0.21657289396859472,0.86,nominal,5681.787006074197,nan,pitch_program,12.505,0.0,0.0,-3.5647485420501184,0.07848578570318454,-0.056411836213627053,-3.5549996738773904,0.062471419696193464,-0.03144971203692406,0.86,0.0,0.0,0.0,0.0,0.0,0.0,-0.06204644921648511,0.0010903319620938117,-0.0005489010238484172,-0.06204644921648511,0.0010903319620938117,-0.0005489010238484172,0.99,1.0,20.423508429692703,0.0370307464867459,4.8142593826543205,0.017085446923364528,0.025207723257845836,-0.008154806397686967,20.983282899903664,0.031525270431813975,1.0,0.0,76.19615231534235,-0.11726721320418376,26.742174866204248,100.77577727789313,-0.09689625481266055,4.212049249693775,1.0,26.011611853641824,0.0,1.0,104.51495571079593,6580.9427819191615,1.0,1.0,2.114756766560265,18.974601874487757,-0.12594608299299792,-44.11131357506663,1.0,24.987565768410093,1.0,0.005110623583555428,4.0715134417690075,0.9366330901251718,1.0,0.28063539131399245,6.517256791495962
1.02,96.84968619670516,0.021708019705438335,25.577176969790877,104.75011984544533,0.07320951498263034,3.8009910709611097,104.81908461911775,17.80618892538917,0.1244796752047383,6.70058026797584,0.21656583907554253,0.9528807359121718,1.379281926799793,-0.6426360102707133,4.5929693632475255,-0.11457211917537188,6704.043115920308,0.3079071330539912,104.74871514315798,2.1382414182262277,1.221994877072659,101018.11463027477,287.9837483496963,0.07244880006198942,-0.1312124234412952,-0.05085528216073648,403.49842105263156,0.21655467466229633,0.86,nominal,5744.346672725683,nan,pitch_program,12.49,0.0,0.0,-3.5780999359569297,0.09498316836068611,-0.03940256665486356,-3.568859831125114,0.08197846889488905,-0.012579884814769625,0.86,0.0,0.0,0.0,0.0,0.0,0.0,-0.06228835459530204,0.0014307941979595713,-0.00021956040953936693,-0.06228835459530204,0.0014307941979595713,-0.00021956040953936693,1.02,1.0,20.376172468327816,0.0840948553358478,4.869695453742004,0.01630029604643362,0.024905639223007814,-0.010816140706975811,20.950164920972103,0.03166985026963506,1.0,0.0,76.19615231534235,-0.11726721320418376,26.742174866204248,100.77577727789313,-0.09689625481266055,4.212049249693775,1.0,26.30034982494132,0.0,1.0,104.6670227202393,6742.056611000078,1.0,1.0,0.7348253172960283,18.993457579933235,-0.18751060251553747,-44.092731287187426,1.0,25.417887634313484,1.0,0.004159127789360418,4.087950305632976,0.9360570575755228,1.0,-0.07098295535137782,6.576466446248714
1.05,100.00989862721929,0.02399329780708,25.688903432630475,105.34041435047077,0.07617593672138888,3.7242154279866058,105.40625445796022,17.7996922851493,0.15905500891055174,6.659795481043812,0.1940068069286432,1.0650367641804768,1.357640880537693,-0.750224178203036,4.605720996925846,-0.09384866655145681,6779.3340910254365,0.30963336110695483,105.33583787069144,2.137660786935261,1.2219817623719702,101016.77574372131,287.9830221276879,0.07244880006198942,-0.1312124234412952,-0.05085528216073648,403.46447368421053,0.216536455355998,0.86,nominal,5807.161324275734,nan,pitch_program,12.475,0.0,0.0,-3.590776138988182,0.11329480929507824,-0.021325439851626556,-3.582009615842954,0.10076827313500256,-0.005031953925907849,0.86,0.0,0.0,0.0,0.0,0.0,0.0,-0.06251786163455679,0.001758738147754743,-8.782416381574677e-05,-0.06251786163455679,0.001758738147754743,-8.782416381574677e-05,1.05,1.0,20.297032333244655,0.02983384965354413,4.9826825723036565,0.017667290259100972,0.025997047957633957,-0.011544749018504158,20.89970184504321,0.033485233723405554,1.0,0.0,97.9684069038348,-0.8539513937738787,26.54707582266748,105.41099754201223,0.17917232872416974,3.9244203511012965,1.0,26.30034982494132,0.0,1.0,104.81076207043458,6809.5302996157325,1.0,1.0,0.7348253172960283,18.993457579933235,-0.18751060251553747,-44.092731287187426,1.0,25.417887634313484,1.0,0.004159127789360418,4.087950305632976,0.9360570575755228,1.0,-0.07098295535137782,6.576466446248714
1.08,103.18779590079156,0.02635282665531206,25.79837688599349,105.92990911907552,0.07865096160773535,3.6491151121005845,105.99277273970486,17.79319619148862,0.19757608257051812,6.619673988040543,0.16867316889956377,1.1863948872976806,1.3347662671109892,-0.8429489215151736,4.617651383704806,-0.07095674210582671,6854.96193514374,0.31135767279481164,105.92230987261523,2.137095838794666,1.2219689122389872,101015.46387029621,287.98231055024104,0.07244880006198942,-0.1312124234412952,-0.05085528216073648,403.43052631578945,0.21651823604969964,0.86,nominal,5870.229589214389,nan,pitch_program,12.46,0.0,0.0,-3.6028209212709568,0.13335341833296635,-0.00328636286033538,-3.594496399099756,0.12031936025378083,-0.0020127815703631395,0.86,0.0,0.0,0.0,0.0,0.0,0.0,-0.06273579711537088,0.0020999689903216756,-3.5129665526298705e-05,-0.06273579711537088,0.0020999689903216756,-3.5129665526298705e-05,1.08,1.0,20.342265905081195,0.10567146734583613,5.030161179650074,0.020317483849779643,0.020905992499847433,-0.015862295733274755,20.95522536517559,0.03318844826622059,1.0,0.0,97.9684069038348,-0.8539513937738787,26.54707582266748,105.41099754201223,0.17917232872416974,3.9244203511012965,1.0,25.309931311431868,0.0,1.0,106.41400531622419,6821.643167838855,1.0,1.0,0.009182615028969533,19.08326895773986,-0.20245059192037712,-44.0592994216574,1.0,25.812336977066476,1.0,0.00986024617753989,4.098702429873507,0.9355040577850162,1.0,0.0815140712356416,6.339190067478998
1.1099999999999999,106.38335398835503,0.028769377543511897,25.905647607207072,106.5186029187822,0.08055169627332794,3.5756907071193904,106.57863210033214,17.786700644407127,0.24024106218438102,6.580241500814305,0.14119840273755022,1.316904324256598,1.3109309015438009,-0.9147716567723271,4.628818561130679,-0.04658634304604904,6930.924280195807,0.31308004615595647,106.50812366444681,2.1365469102839056,1.22195632076578,101014.17840665932,287.9816132905531,0.07244880006198942,-0.1312124234412952,-0.05085528216073648,403.3965789473684,0.21650001674340127,0.86,nominal,5933.5500292961915,nan,pitch_program,12.445,0.0,0.0,-3.614280254408543,0.15519267112093157,0.013962713948949091,-3.6063667122850283,0.14124334677407127,-0.0008051126281452558,0.86,0.0,0.0,0.0,0.0,0.0,0.0,-0.06294297316369678,0.002465161447743655,-1.4051866210519482e-05,-0.06294297316369678,0.002465161447743655,-1.4051866210519482e-05,1.1099999999999999,1.0,20.293370919134105,0.07173832960401373,5.157167519816928,0.023648987499197336,0.021359177827357433,-0.016780713354374588,20.938539263209048,0.03601501669969841,1.0,0.0,97.9684069038348,-0.8539513937738787,26.54707582266748,105.41099754201223,0.17917232872416974,3.9244203511012965,1.0,25.309931311431868,0.0,1.0,106.70583050220465,6950.980092694574,1.0,1.0,0.009182615028969533,19.08326895773986,-0.20245059192037712,-44.0592994216574,1.0,25.812336977066476,1.0,0.00986024617753989,4.098702429873507,0.9355040577850162,1.0,0.0815140712356416,6.339190067478998
1.14,109.59654880505076,0.03122387247412778,26.01076592527581,107.10649388985773,0.08181649768719608,3.5039439356245574,107.1638248217253,17.780205643904825,0.28726157844228734,6.5415178668951395,0.11231860407400575,1.457358165011275,1.2863718594717182,-0.9622874173375888,4.639272198496317,-0.021518912524127513,7007.218694783574,0.31480045827867087,107.09327143702555,2.1360142484634967,1.2219439820386684,101012.91874889335,287.9809300214857,0.07244880006198942,-0.1312124234412952,-0.05085528216073648,403.3626315789474,0.21648179743710294,0.86,nominal,5997.1211528718195,nan,pitch_program,12.43,0.0,0.0,-3.625191467790871,0.17890907955131627,0.0298389827250753,-3.617661565588534,0.16384278644041828,-0.0003220450512581024,0.86,0.0,0.0,0.0,0.0,0.0,0.0,-0.0631401055423727,0.002859596079027219,-5.620746484207793e-06,-0.0631401055423727,0.002859596079027219,-5.620746484207793e-06,1.14,1.0,20.307955110963057,0.011252385330173639,5.165810946186674,0.02899329566084811,0.020097265767530313,-0.013941070858052065,20.95468372791172,0.0379323706255927,1.0,0.0,97.9684069038348,-0.8539513937738787,26.54707582266748,105.41099754201223,0.17917232872416974,3.9244203511012965,1.0,25.757149268281456,0.0,1.0,106.84102380799149,7012.256952475293,1.0,1.0,0.12621908440800597,19.11814112646407,-0.23883207886058136,-44.07645326125743,1.0,25.885438293984453,1.0,0.011679088059575935,4.102769230164734,0.9349730851868104,1.0,1.232021579550647,6.959348292573919
1.17,112.82735619521392,0.0336959170204662,26.113782247146506,107.69357967210537,0.08240148487794734,3.433877395689883,107.74834294115826,17.77371118998171,0.33888715049029206,6.50351856580511,0.08282451000555212,1.6091743833752357,1.2612873829364204,-0.9836796214176707,4.649054714812949,0.00341643893839637,7083.842696776032,0.3165188856077798,107.67774516080561,2.135498032511338,1.2219318901351242,101011.68429218732,287.9802604153935,0.07244880006198942,-0.1312124234412952,-0.05085528216073648,403.3286842105263,0.21646357813080455,0.86,nominal,6060.941425956704,nan,pitch_program,12.415,0.0,0.0,-3.635581858352372,0.20465312275161932,0.04386462331353415,-3.628413741246837,0.1883289882271389,-0.00012881802050324095,0.86,0.0,0.0,0.0,0.0,0.0,0.0,-0.06332776640936288,0.0032869609215132123,-2.2482985936831173e-06,-0.06332776640936288,0.0032869609215132123,-2.2482985936831173e-06,1.17,1.0,20.349265580998942,0.04959225407564558,5.248482406618936,0.031016487368223968,0.021467502663621862,-0.017410648579311853,21.01527151026798,0.04154523851451695,1.0,0.0,97.9684069038348,-0.8539513937738787,26.54707582266748,105.41099754201223,0.17917232872416974,3.9244203511012965,1.0,25.757149268281456,0.0,1.0,108.03888199523917,7140.597870509485,1.0,1.0,0.12621908440800597,19.11814112646407,-0.23883207886058136,-44.07645326125743,1.0,25.885438293984453,1.0,0.011679088059575935,4.102769230164734,0.9349730851868104,1.0,1.232021579550647,6.959348292573919
1.2,116.07575192071833,0.03616430107701182,26.214747077972504,108.27985751681372,0.08227946855152078,3.3654943608665917,108.33217835004267,17.767217282637787,0.3954268049233685,6.466255551133828,0.05352527013852615,1.7743522872116555,1.2358568350438455,-0.9783321672578933,4.6582017896226775,0.02737653962345004,7160.793765342152,0.31823530422893354,108.2615366825426,2.1349983594142183,1.2219200391213918,101010.4744305932,287.97960414399313,0.07244880006198942,-0.1312124234412952,-0.05085528216073648,403.2947368421053,0.21644535882450622,0.86,nominal,6125.009282464925,nan,pitch_program,12.4,0.0,0.0,-3.645473673081318,0.23263213911162461,0.05565069285389386,-3.6386497003475258,0.21491087875783035,-5.152720820129638e-05,0.86,0.0,0.0,0.0,0.0,0.0,0.0,-0.06350641759776939,0.0037509024326784807,-8.99319437473247e-07,-0.06350641759776939,0.0037509024326784807,-8.99319437473247e-07,1.2,1.0,20.2477384940198,-0.019706216656145113,5.386780405107372,0.03336504915411723,0.020628708541986625,-0.014578391142673336,20.95205731163493,0.041848531748147,1.0,0.0,97.9684069038348,-0.8539513937738787,26.54707582266748,105.41099754201223,0.17917232872416974,3.9244203511012965,1.0,26.62276369673584,0.0,1.0,108.39003292789133,7275.106895102752,1.0,1.0,0.4956654655234414,19.09882018102173,-0.31600071182809575,-43.939356472104734,1.0,26.124579579541443,1.0,-0.013625421036646695,4.127923076516893,0.9344631323050687,1.0,0.16215429225249972,6.384651089282398
