time_s,sensor_time_s,imu_valid,imu_ax_mps2,imu_ay_mps2,imu_az_mps2,gyro_p_rps,gyro_q_rps,gyro_r_rps,imu_accel_norm_mps2,imu_gyro_norm_rps,gps_valid,gps_latency_s,gps_x_m,gps_y_m,gps_z_m,gps_vx_mps,gps_vy_mps,gps_vz_mps,baro_valid,baro_alt_m,baro_bias_m,pitot_valid,pitot_airspeed_mps,pitot_qbar_pa,pitot_compressibility_factor,mag_valid,mag_heading_deg,mag_x_ut,mag_y_ut,mag_z_ut,radar_valid,radar_agl_m,optical_flow_valid,optical_flow_x_radps,optical_flow_y_radps,optical_flow_quality,horizon_valid,horizon_roll_deg,horizon_pitch_deg
0.0,0.0,1.0,17.097838403945094,-0.02743500852196578,0.13075901426363526,-0.0011846461623943778,0.0013181441023463838,0.0014804783948871505,17.098360409317717,0.0023092653988560762,1.0,0.0,1.69062741851169,-1.0004827618806238,20.718048150427723,85.13084268154867,0.27725161253670577,8.076939739570042,1.0,19.911179626100555,0.0,1.0,85.57889544196739,4452.178335021759,1.0,1.0,0.536223259439391,19.56634421878517,0.01051648236020856,-43.84999618812795,1.0,20.107562645592367,1.0,-0.004597107947264304,4.260987275395636,0.95,1.0,0.45149697114415227,6.28521300696935
0.03,0.03,1.0,17.4043094632217,0.040012058678840626,0.6560304088416762,-0.0007235416777549694,-0.1575869996684574,-0.00156599149559325,17.41671509653164,0.15759644128732767,1.0,0.0,1.69062741851169,-1.0004827618806238,20.718048150427723,85.13084268154867,0.27725161253670577,8.076939739570042,1.0,19.911179626100555,0.0,1.0,86.22560736944003,4410.101108969521,1.0,1.0,0.536223259439391,19.56634421878517,0.01051648236020856,-43.84999618812795,1.0,20.107562645592367,1.0,-0.004597107947264304,4.260987275395636,0.95,1.0,0.45149697114415227,6.28521300696935
0.06,0.06,1.0,17.576765021770942,0.008530776740212156,1.0755507244134488,-0.001290589929624253,-0.22241406598543556,0.0011727106793497733,17.60964368649998,0.22242090194241548,1.0,0.0,1.69062741851169,-1.0004827618806238,20.718048150427723,85.13084268154867,0.27725161253670577,8.076939739570042,1.0,19.738790992262714,0.0,1.0,86.80981230959617,4552.0623243888795,1.0,1.0,-1.0627934521438478,18.972550700084273,0.025772638849571882,-44.02232142129763,1.0,20.439282132429497,1.0,-0.0015261262287948238,4.2263395478619366,0.9488518472237086,1.0,0.3041266443508961,7.0841935489975
0.09,0.09,1.0,17.825428377146512,-0.026197841261737027,1.5463967625001835,-0.0009473696551342885,-0.17935018091124644,0.0012266252859605272,17.892398556446757,0.17935687751450308,1.0,0.0,1.69062741851169,-1.0004827618806238,20.718048150427723,85.13084268154867,0.27725161253670577,8.076939739570042,1.0,19.738790992262714,0.0,1.0,86.70377207591861,4682.640522618621,1.0,1.0,-1.0627934521438478,18.972550700084273,0.025772638849571882,-44.02232142129763,1.0,20.439282132429497,1.0,-0.0015261262287948238,4.2263395478619366,0.9488518472237086,1.0,0.3041266443508961,7.0841935489975
0.12,0.12,1.0,18.179854311165684,0.023680011730269245,1.785240163024957,0.002109458361829417,-0.10448329963834758,0.006571919961977127,18.267313594446296,0.10471103022071576,1.0,0.0,1.69062741851169,-1.0004827618806238,20.718048150427723,85.13084268154867,0.27725161253670577,8.076939739570042,1.0,20.914562605189847,0.0,1.0,87.69481019596643,4630.62848741866,1.0,1.0,-0.794247561867224,18.691780873111334,-0.0048836471130196575,-44.26708364068188,1.0,20.95767721446231,1.0,0.006375881215232047,4.162244716583472,0.9477636793407408,1.0,-0.23240569665128008,6.945649077239229
0.15,0.15,1.0,18.404030134523392,-0.027896151873229254,1.9088162261213135,-0.000484928649250502,-0.056181010197995825,0.002076292175257719,18.502775001951424,0.056221455440598575,1.0,0.0,1.69062741851169,-1.0004827618806238,20.718048150427723,85.13084268154867,0.27725161253670577,8.076939739570042,1.0,20.914562605189847,0.0,1.0,88.38445542581758,4749.177557155633,1.0,1.0,-0.794247561867224,18.691780873111334,-0.0048836471130196575,-44.26708364068188,1.0,20.95767721446231,1.0,0.006375881215232047,4.162244716583472,0.9477636793407408,1.0,-0.23240569665128008,6.945649077239229
0.18,0.18,1.0,18.649305061114994,-0.05486106744451713,2.036870956760417,-0.004017211215687875,-0.03967685336930561,0.0043703636033204625,18.76028870496786,0.04011845905896754,1.0,0.0,1.69062741851169,-1.0004827618806238,20.718048150427723,85.13084268154867,0.27725161253670577,8.076939739570042,1.0,21.70377533901636,0.0,1.0,88.26799106807574,4816.460931712981,1.0,1.0,1.5556657611245854,18.550311586485392,-0.016201263830367532,-44.237044632539906,1.0,21.28190618709088,1.0,0.014344829273718104,4.1478135043965985,0.946727776127238,1.0,-0.1333129759419238,7.855273349082041
0.21,0.21,1.0,19.035066119215482,0.04442301365835202,2.2825376656897767,0.0010677407655856931,-0.041305874975510436,0.004961620711393842,19.171481261559844,0.04161649982781739,1.0,0.0,17.174590143342822,0.7328688025218763,20.308812756754442,88.8114279847526,-0.10955303956020106,6.884161889120718,1.0,21.70377533901636,0.0,1.0,88.3734304421102,4818.732854162128,1.0,1.0,1.5556657611245854,18.550311586485392,-0.016201263830367532,-44.237044632539906,1.0,21.28190618709088,1.0,0.014344829273718104,4.1478135043965985,0.946727776127238,1.0,-0.1333129759419238,7.855273349082041
0.24,0.24,1.0,19.364458151147506,-0.0523256763768843,2.488199697045222,-0.0036087431728276213,-0.03971268540329679,0.0060629049313176905,19.523732102145,0.04033459092931089,1.0,0.0,17.174590143342822,0.7328688025218763,20.308812756754442,88.8114279847526,-0.10955303956020106,6.884161889120718,1.0,22.095462638768925,0.0,1.0,89.34537146719963,4923.8793901953595,1.0,1.0,2.0555324684959246,18.38853099076737,0.027320028797943572,-44.28173706134154,1.0,21.54670550951164,1.0,-0.002941591000728495,4.109090072207987,0.9457399896584199,1.0,-0.08743499565956754,8.119443208555905
0.27,0.27,1.0,19.57879501817557,-0.022740364795528344,2.6797368064418574,-0.0013419285351652247,-0.027912322146877624,0.011161050359178967,19.76134410508877,0.030090987769508245,1.0,0.0,17.174590143342822,0.7328688025218763,20.308812756754442,88.8114279847526,-0.10955303956020106,6.884161889120718,1.0,22.095462638768925,0.0,1.0,89.96120320799139,5015.327556159798,1.0,1.0,2.0555324684959246,18.38853099076737,0.027320028797943572,-44.28173706134154,1.0,21.54670550951164,1.0,-0.002941591000728495,4.109090072207987,0.9457399896584199,1.0,-0.08743499565956754,8.119443208555905
0.3,0.3,1.0,19.965376362490677,0.01581638183034708,2.7126813817694435,-0.0018684879224602816,-0.014762272564212241,0.007203730393888011,20.14882487225581,0.016532080025341615,1.0,0.0,17.174590143342822,0.7328688025218763,20.308812756754442,88.8114279847526,-0.10955303956020106,6.884161889120718,1.0,20.47733107493995,0.0,1.0,90.6208261314916,5056.277052225306,1.0,1.0,-0.8492639690902132,18.325040826529374,-0.02499478844550116,-44.38597834503457,1.0,22.16520499736618,1.0,0.006976205600829996,4.080041465340347,0.9447960893696102,1.0,0.0007457499166642998,8.132695749256644
0.32999999999999996,0.32999999999999996,1.0,20.20175598540026,0.037331295122165806,2.9126069702338064,0.0032738362865268435,-0.0029348057980423817,0.007837389893460535,20.41067411631241,0.008986421392596743,1.0,0.0,17.174590143342822,0.7328688025218763,20.308812756754442,88.8114279847526,-0.10955303956020106,6.884161889120718,1.0,20.47733107493995,0.0,1.0,90.88857295656939,5062.247768278058,1.0,1.0,-0.8492639690902132,18.325040826529374,-0.02499478844550116,-44.38597834503457,1.0,22.16520499736618,1.0,0.006976205600829996,4.080041465340347,0.9447960893696102,1.0,0.0007457499166642998,8.132695749256644
0.36,0.36,1.0,20.49217821175059,-0.022453603404895904,3.0179597692280007,-0.00035848531462184374,0.002053315267791894,0.006655004567450478,20.71323135570909,0.006973786711861322,1.0,0.0,17.174590143342822,0.7328688025218763,20.308812756754442,88.8114279847526,-0.10955303956020106,6.884161889120718,1.0,22.928997685199572,0.0,1.0,91.37676677203723,5143.684525595247,1.0,1.0,0.3807586154227731,18.387914392685595,0.027796899606141574,-44.36687679059765,1.0,22.352578905670583,1.0,-0.0030697911905807913,4.083167780631698,0.9438924458056556,1.0,0.2395718455225829,7.821597439608957
0.39,0.39,1.0,20.746869759174594,0.02363784044461224,3.1324605805199006,-0.00027087662452909963,0.0030227281171183486,0.009993516937626165,20.982027376785236,0.010444167759968008,1.0,0.0,17.174590143342822,0.7328688025218763,20.308812756754442,88.8114279847526,-0.10955303956020106,6.884161889120718,1.0,22.928997685199572,0.0,1.0,92.9620913106198,5182.341084073896,1.0,1.0,0.3807586154227731,18.387914392685595,0.027796899606141574,-44.36687679059765,1.0,22.352578905670583,1.0,-0.0030697911905807913,4.083167780631698,0.9438924458056556,1.0,0.2395718455225829,7.821597439608957
0.42,0.42,1.0,20.844125427443583,0.07553030685504666,3.2810990979985126,-0.0036308630002042947,0.008563798437586548,0.010271519720424251,21.1009213294856,0.013857341995235833,1.0,0.0,36.45616512668635,-2.1794710575865057,23.153562502225025,92.48258787539145,0.011688002506427568,5.677575716110486,1.0,22.30463217226367,0.0,1.0,92.92208281366692,5288.729161586997,1.0,1.0,-0.015893991128539606,18.399326181226336,0.01940160947674387,-44.26855451961112,1.0,22.590744899247802,1.0,-0.0012898738785497455,4.054454809517718,0.9430261072917132,1.0,0.025124321397322638,7.688286454659809
0.44999999999999996,0.44999999999999996,1.0,20.847072729189012,0.005203757565814858,3.3660482382620156,-0.0016632386688307692,0.012500845042044505,0.010184185989571002,21.117072458025422,0.016209723437026213,1.0,0.0,36.45616512668635,-2.1794710575865057,23.153562502225025,92.48258787539145,0.011688002506427568,5.677575716110486,1.0,22.30463217226367,0.0,1.0,92.87648191054936,5273.448196395077,1.0,1.0,-0.015893991128539606,18.399326181226336,0.01940160947674387,-44.26855451961112,1.0,22.590744899247802,1.0,-0.0012898738785497455,4.054454809517718,0.9430261072917132,1.0,0.025124321397322638,7.688286454659809
0.48,0.48,1.0,20.83053574649574,0.001928124221978909,3.4298636166060494,-0.0007398279802970396,0.020084324172631195,0.008193104012444944,21.111020525597947,0.021703787141199794,1.0,0.0,36.45616512668635,-2.1794710575865057,23.153562502225025,92.48258787539145,0.011688002506427568,5.677575716110486,1.0,24.467451031985732,0.0,1.0,94.40372586999221,5487.549222498944,1.0,1.0,0.9468342686002013,18.42308279273763,0.07863714935029244,-44.368608242083916,1.0,23.3026628074194,1.0,0.011696427072059794,4.062355345431228,0.9421946882044645,1.0,-0.4446346914199053,7.589849471708399
0.51,0.51,1.0,20.785411875736923,0.07644695114069465,3.5802258733829615,-0.00011513758279113964,0.017394324012195442,0.009458984174187567,21.091638349943445,0.019800205708823855,1.0,0.0,36.45616512668635,-2.1794710575865057,23.153562502225025,92.48258787539145,0.011688002506427568,5.677575716110486,1.0,24.467451031985732,0.0,1.0,95.14918675821006,5501.743930866329,1.0,1.0,0.9468342686002013,18.42308279273763,0.07863714935029244,-44.368608242083916,1.0,23.3026628074194,1.0,0.011696427072059794,4.062355345431228,0.9421946882044645,1.0,-0.4446346914199053,7.589849471708399
0.54,0.54,1.0,20.697095124805063,0.011051120050288677,3.637292932937352,0.0024823152550622106,0.02051666004478197,0.013241131938122309,21.01427535301848,0.0245443028709603,1.0,0.0,36.45616512668635,-2.1794710575865057,23.153562502225025,92.48258787539145,0.011688002506427568,5.677575716110486,1.0,22.78176995002255,0.0,1.0,95.38980066671331,5546.5572458644765,1.0,1.0,0.6055065102471042,18.479053386747243,-0.06353041859289858,-44.355391786887516,1.0,23.781774033082865,1.0,0.013929475796875049,4.066342085210858,0.9413965168569074,1.0,0.023281377967499465,7.754546404043467
0.57,0.57,1.0,20.758899734743025,-0.004987337139658269,3.7051206610042793,0.00142091146171885,0.021922412740917843,0.008410513346196186,21.0869595291319,0.023523348071899652,1.0,0.0,36.45616512668635,-2.1794710575865057,23.153562502225025,92.48258787539145,0.011688002506427568,5.677575716110486,1.0,22.78176995002255,0.0,1.0,96.00916471796413,5691.484898096051,1.0,1.0,0.6055065102471042,18.479053386747243,-0.06353041859289858,-44.355391786887516,1.0,23.781774033082865,1.0,0.013929475796875049,4.066342085210858,0.9413965168569074,1.0,0.023281377967499465,7.754546404043467
0.6,0.6,1.0,20.70040778643487,0.046470574222881596,3.8560497939694844,-0.002819915243898066,0.018968255374736006,0.0122354561766649,21.056546774163472,0.022747593758352933,1.0,0.0,36.45616512668635,-2.1794710575865057,23.153562502225025,92.48258787539145,0.011688002506427568,5.677575716110486,1.0,23.948700382208173,0.0,1.0,96.77366969947283,5605.140683673937,1.0,1.0,0.3437483882551342,18.4707139529253,0.03511514019931165,-44.28327334510657,1.0,23.88637559785794,1.0,0.017166600729055577,4.060926802526275,0.9406301608895112,1.0,-0.3471767112608689,7.121718245914748
0.63,0.63,1.0,20.747158241937807,0.038506663034484134,3.897194266672273,0.0024481532258257338,0.0246653894385524,0.00839143449236954,21.11004929011984,0.026168512820034358,1.0,0.0,57.003333741575176,-1.123469748952719,24.300096448186416,97.12668731773248,0.11013867558163581,5.002718598623227,1.0,23.948700382208173,0.0,1.0,97.5432244658536,5801.576150887022,1.0,1.0,0.3437483882551342,18.4707139529253,0.03511514019931165,-44.28327334510657,1.0,23.88637559785794,1.0,0.017166600729055577,4.060926802526275,0.9406301608895112,1.0,-0.3471767112608689,7.121718245914748
0.6599999999999999,0.6599999999999999,1.0,20.68625294192529,-0.00016393657399005335,4.007169565412535,0.002589674684863531,0.022739002243314887,0.007598353440752406,21.070796585088008,0.02411438601759324,1.0,0.0,57.003333741575176,-1.123469748952719,24.300096448186416,97.12668731773248,0.11013867558163581,5.002718598623227,1.0,23.81564209336515,0.0,1.0,97.8545622412047,5791.68491947146,1.0,1.0,0.3860305031573671,18.61212871512168,-0.05853692587479474,-44.20914607167349,1.0,24.24079639488365,1.0,0.01682475652477805,4.066426135221522,0.9398943223746021,1.0,-0.03645100662050725,6.986819282295838
0.69,0.69,1.0,20.65127312387868,0.03930103777323299,4.041680822017401,0.0037550094790443377,0.021866150357138018,0.0022372199575455844,21.04309411839588,0.022298739443455545,1.0,0.0,57.003333741575176,-1.123469748952719,24.300096448186416,97.12668731773248,0.11013867558163581,5.002718598623227,1.0,23.81564209336515,0.0,1.0,98.25083739186667,5857.587326217897,1.0,1.0,0.3860305031573671,18.61212871512168,-0.05853692587479474,-44.20914607167349,1.0,24.24079639488365,1.0,0.01682475652477805,4.066426135221522,0.9398943223746021,1.0,-0.03645100662050725,6.986819282295838
0.72,0.72,1.0,20.56986333869041,0.05914106676698838,4.106639874482702,0.008545487190011594,0.02308673206417611,0.008834733001212944,20.9758734382354,0.02615482853930476,1.0,0.0,57.003333741575176,-1.123469748952719,24.300096448186416,97.12668731773248,0.11013867558163581,5.002718598623227,1.0,25.015553962552787,0.0,1.0,98.55240800996994,5934.640825521344,1.0,1.0,0.5642242375466227,18.707007914594435,-0.03925912241287938,-44.19127155847702,1.0,24.93337029152127,1.0,0.002005134736984736,4.05288991360127,0.9391878056459897,1.0,-0.5284213591575819,7.720439452669456
0.75,0.75,1.0,20.582318747324706,0.023967845457488604,4.224805073829194,0.007273743470420079,0.025736854103986878,0.002156494889035095,21.011458716280096,0.026831762399250246,1.0,0.0,57.003333741575176,-1.123469748952719,24.300096448186416,97.12668731773248,0.11013867558163581,5.002718598623227,1.0,25.015553962552787,0.0,1.0,99.52241223152865,6056.790853079205,1.0,1.0,0.5642242375466227,18.707007914594435,-0.03925912241287938,-44.19127155847702,1.0,24.93337029152127,1.0,0.002005134736984736,4.05288991360127,0.9391878056459897,1.0,-0.5284213591575819,7.720439452669456
0.78,0.78,1.0,20.551987019221652,0.09464355260596213,4.264033820328452,0.00698863860267998,0.026135089781511012,0.0016653934620435358,20.98988118740099,0.027104566456409657,1.0,0.0,57.003333741575176,-1.123469748952719,24.300096448186416,97.12668731773248,0.11013867558163581,5.002718598623227,1.0,25.315398091685122,0.0,1.0,99.55286120931615,6097.395972856584,1.0,1.0,0.37763412568731264,18.67237877688102,-0.06609357779288494,-44.24940679803437,1.0,24.654094561548032,1.0,0.02442775628846889,4.049560089767727,0.9385094858108523,1.0,-0.22408036656463806,7.1330198588449845
0.8099999999999999,0.8099999999999999,1.0,20.577781115838896,0.08458168456238624,4.3463746398803345,0.006521654309074532,0.027228056194738712,-0.0006784734135379378,21.03195669030664,0.02800641614423019,1.0,0.0,57.003333741575176,-1.123469748952719,24.300096448186416,97.12668731773248,0.11013867558163581,5.002718598623227,1.0,25.315398091685122,0.0,1.0,99.89828014823917,6135.70372970551,1.0,1.0,0.37763412568731264,18.67237877688102,-0.06609357779288494,-44.24940679803437,1.0,24.654094561548032,1.0,0.02442775628846889,4.049560089767727,0.9385094858108523,1.0,-0.22408036656463806,7.1330198588449845
0.84,0.84,1.0,20.625399972161773,0.08500703160015305,4.471384876738692,0.009730047843311067,0.024765453709906037,0.0013574263755332836,21.104682725002046,0.026642900271096885,1.0,0.0,76.19615231534235,-0.11726721320418376,26.742174866204248,100.77577727789313,-0.09689625481266055,4.212049249693775,1.0,26.077876139579736,0.0,1.0,101.23368682462974,6248.6359198020755,1.0,1.0,-1.3801992267836642,18.79431720779111,-0.06536223085089879,-44.20599934302418,1.0,24.520692310110434,1.0,0.010951930916554265,4.060985134232504,0.9378582860972106,1.0,0.8188261892743046,7.622539747286358
0.87,0.87,1.0,20.400745365401843,0.008026735881398385,4.556618693734188,0.011510413726913605,0.027678389029175295,-0.004120396598804686,20.903426748084666,0.030258230476128866,1.0,0.0,76.19615231534235,-0.11726721320418376,26.742174866204248,100.77577727789313,-0.09689625481266055,4.212049249693775,1.0,26.077876139579736,0.0,1.0,101.54150151699902,6294.131595207496,1.0,1.0,-1.3801992267836642,18.79431720779111,-0.06536223085089879,-44.20599934302418,1.0,24.520692310110434,1.0,0.010951930916554265,4.060985134232504,0.9378582860972106,1.0,0.8188261892743046,7.622539747286358
0.8999999999999999,0.8999999999999999,1.0,20.45756094593908,0.04425225413561056,4.6141734404853425,0.011897570562603385,0.02965921518878421,-0.0037855516426929916,20.97151293201538,0.03217998806939229,1.0,0.0,76.19615231534235,-0.11726721320418376,26.742174866204248,100.77577727789313,-0.09689625481266055,4.212049249693775,1.0,24.826788229904327,0.0,1.0,102.34648736781118,6360.166053669726,1.0,1.0,0.7466369139831344,18.812463058655645,-0.17484836486628955,-44.11509156665101,1.0,25.0415300082739,1.0,0.03384302995528113,4.067261997859707,0.9372331622031785,1.0,0.28318326786162684,6.617551185288779
0.9299999999999999,0.9299999999999999,1.0,20.415414143098296,0.024548938160297955,4.708397019729493,0.016956635198550146,0.023703841367742527,-0.00811940911423259,20.951342195190747,0.030254328239246942,1.0,0.0,76.19615231534235,-0.11726721320418376,26.742174866204248,100.77577727789313,-0.09689625481266055,4.212049249693775,1.0,24.826788229904327,0.0,1.0,103.06930998599108,6450.674188691127,1.0,1.0,0.7466369139831344,18.812463058655645,-0.17484836486628955,-44.11509156665101,1.0,25.0415300082739,1.0,0.03384302995528113,4.067261997859707,0.9372331622031785,1.0,0.28318326786162684,6.617551185288779
0.96,0.96,1.0,20.43906897826462,0.005425824497085445,4.676339776717667,0.01294669655629144,0.023836166770259758,-0.00868321024853512,20.967205914120804,0.028481185688812,1.0,0.0,76.19615231534235,-0.11726721320418376,26.742174866204248,100.77577727789313,-0.09689625481266055,4.212049249693775,1.0,26.011611853641824,0.0,1.0,104.08124144421653,6513.338750579647,1.0,1.0,2.114756766560265,18.974601874487757,-0.12594608299299792,-44.11131357506663,1.0,24.987565768410093,1.0,0.005110623583555428,4.0715134417690075,0.9366330901251718,1.0,0.28063539131399245,6.517256791495962
0.99,0.99,1.0,20.423508429692703,0.0370307464867459,4.8142593826543205,0.017085446923364528,0.025207723257845836,-0.008154806397686967,20.983282899903664,0.031525270431813975,1.0,0.0,76.19615231534235,-0.11726721320418376,26.742174866204248,100.77577727789313,-0.09689625481266055,4.212049249693775,1.0,26.011611853641824,0.0,1.0,104.51495571079593,6580.9427819191615,1.0,1.0,2.114756766560265,18.974601874487757,-0.12594608299299792,-44.11131357506663,1.0,24.987565768410093,1.0,0.005110623583555428,4.0715134417690075,0.9366330901251718,1.0,0.28063539131399245,6.517256791495962
1.02,1.02,1.0,20.376172468327816,0.0840948553358478,4.869695453742004,0.01630029604643362,0.024905639223007814,-0.010816140706975811,20.950164920972103,0.03166985026963506,1.0,0.0,76.19615231534235,-0.11726721320418376,26.742174866204248,100.77577727789313,-0.09689625481266055,4.212049249693775,1.0,26.30034982494132,0.0,1.0,104.6670227202393,6742.056611000078,1.0,1.0,0.7348253172960283,18.993457579933235,-0.18751060251553747,-44.092731287187426,1.0,25.417887634313484,1.0,0.004159127789360418,4.087950305632976,0.9360570575755228,1.0,-0.07098295535137782,6.576466446248714
1.05,1.05,1.0,20.297032333244655,0.02983384965354413,4.9826825723036565,0.017667290259100972,0.025997047957633957,-0.011544749018504158,20.89970184504321,0.033485233723405554,1.0,0.0,97.9684069038348,-0.8539513937738787,26.54707582266748,105.41099754201223,0.17917232872416974,3.9244203511012965,1.0,26.30034982494132,0.0,1.0,104.81076207043458,6809.5302996157325,1.0,1.0,0.7348253172960283,18.993457579933235,-0.18751060251553747,-44.092731287187426,1.0,25.417887634313484,1.0,0.004159127789360418,4.087950305632976,0.9360570575755228,1.0,-0.07098295535137782,6.576466446248714
1.08,1.08,1.0,20.342265905081195,0.10567146734583613,5.030161179650074,0.020317483849779643,0.020905992499847433,-0.015862295733274755,20.95522536517559,0.03318844826622059,1.0,0.0,97.9684069038348,-0.8539513937738787,26.54707582266748,105.41099754201223,0.17917232872416974,3.9244203511012965,1.0,25.309931311431868,0.0,1.0,106.41400531622419,6821.643167838855,1.0,1.0,0.009182615028969533,19.08326895773986,-0.20245059192037712,-44.0592994216574,1.0,25.812336977066476,1.0,0.00986024617753989,4.098702429873507,0.9355040577850162,1.0,0.0815140712356416,6.339190067478998
1.1099999999999999,1.1099999999999999,1.0,20.293370919134105,0.07173832960401373,5.157167519816928,0.023648987499197336,0.021359177827357433,-0.016780713354374588,20.938539263209048,0.03601501669969841,1.0,0.0,97.9684069038348,-0.8539513937738787,26.54707582266748,105.41099754201223,0.17917232872416974,3.9244203511012965,1.0,25.309931311431868,0.0,1.0,106.70583050220465,6950.980092694574,1.0,1.0,0.009182615028969533,19.08326895773986,-0.20245059192037712,-44.0592994216574,1.0,25.812336977066476,1.0,0.00986024617753989,4.098702429873507,0.9355040577850162,1.0,0.0815140712356416,6.339190067478998
1.14,1.14,1.0,20.307955110963057,0.011252385330173639,5.165810946186674,0.02899329566084811,0.020097265767530313,-0.013941070858052065,20.95468372791172,0.0379323706255927,1.0,0.0,97.9684069038348,-0.8539513937738787,26.54707582266748,105.41099754201223,0.17917232872416974,3.9244203511012965,1.0,25.757149268281456,0.0,1.0,106.84102380799149,7012.256952475293,1.0,1.0,0.12621908440800597,19.11814112646407,-0.23883207886058136,-44.07645326125743,1.0,25.885438293984453,1.0,0.011679088059575935,4.102769230164734,0.9349730851868104,1.0,1.232021579550647,6.959348292573919
1.17,1.17,1.0,20.349265580998942,0.04959225407564558,5.248482406618936,0.031016487368223968,0.021467502663621862,-0.017410648579311853,21.01527151026798,0.04154523851451695,1.0,0.0,97.9684069038348,-0.8539513937738787,26.54707582266748,105.41099754201223,0.17917232872416974,3.9244203511012965,1.0,25.757149268281456,0.0,1.0,108.03888199523917,7140.597870509485,1.0,1.0,0.12621908440800597,19.11814112646407,-0.23883207886058136,-44.07645326125743,1.0,25.885438293984453,1.0,0.011679088059575935,4.102769230164734,0.9349730851868104,1.0,1.232021579550647,6.959348292573919
1.2,1.2,1.0,20.2477384940198,-0.019706216656145113,5.386780405107372,0.03336504915411723,0.020628708541986625,-0.014578391142673336,20.95205731163493,0.041848531748147,1.0,0.0,97.9684069038348,-0.8539513937738787,26.54707582266748,105.41099754201223,0.17917232872416974,3.9244203511012965,1.0,26.62276369673584,0.0,1.0,108.39003292789133,7275.106895102752,1.0,1.0,0.4956654655234414,19.09882018102173,-0.31600071182809575,-43.939356472104734,1.0,26.124579579541443,1.0,-0.013625421036646695,4.127923076516893,0.9344631323050687,1.0,0.16215429225249972,6.384651089282398
1.23,1.23,1.0,20.197122522355198,0.002970359231301829,5.434462841712766,0.033800998667522446,0.022098163511056985,-0.01677932004356192,20.91547640824895,0.04373078918345224,1.0,0.0,97.9684069038348,-0.8539513937738787,26.54707582266748,105.41099754201223,0.17917232872416974,3.9244203511012965,1.0,26.62276369673584,0.0,1.0,108.81887011583197,7223.187115025329,1.0,1.0,0.4956654655234414,19.09882018102173,-0.31600071182809575,-43.939356472104734,1.0,26.124579579541443,1.0,-0.013625421036646695,4.127923076516893,0.9344631323050687,1.0,0.16215429225249972,6.384651089282398
1.26,1.26,1.0,20.21849257862322,-0.01454755238958522,5.490167002709706,0.035378909385605124,0.020418046370089867,-0.017798407378324888,20.95064646975757,0.04455723456511645,1.0,0.0,121.63402411605226,1.5551761568467364,25.099385984995564,109.49287124783191,0.01010247350329449,2.9342604540304005,1.0,26.226929997029945,0.0,1.0,110.06635020595597,7402.610865221188,1.0,1.0,-1.4730865934930037,19.310429627503417,-0.4653351553679213,-43.96401741383824,1.0,26.49910390674544,1.0,0.004070718718304325,4.130688406834474,0.9339731877600439,1.0,0.8504141504575818,6.075040443790405
1.29,1.29,1.0,20.195462477311004,0.028326445331864642,5.536367691278289,0.03676409402117718,0.02162878561149585,-0.01654338694109513,20.94060348397371,0.045750263690046665,1.0,0.0,121.63402411605226,1.5551761568467364,25.099385984995564,109.49287124783191,0.01010247350329449,2.9342604540304005,1.0,26.226929997029945,0.0,1.0,110.62707174132528,7398.4690185033105,1.0,1.0,-1.4730865934930037,19.310429627503417,-0.4653351553679213,-43.96401741383824,1.0,26.49910390674544,1.0,0.004070718718304325,4.130688406834474,0.9339731877600439,1.0,0.8504141504575818,6.075040443790405
1.3199999999999998,1.3199999999999998,1.0,20.147801091114502,-0.017697961802067258,5.612213082729407,0.04761844332400492,0.01965409369821161,-0.01698864765267636,20.91485447501191,0.05424401988022584,1.0,0.0,121.63402411605226,1.5551761568467364,25.099385984995564,109.49287124783191,0.01010247350329449,2.9342604540304005,1.0,27.004991854038337,0.0,1.0,110.80573949985323,7515.669242095291,1.0,1.0,-0.3016626932040184,19.295685584748252,-0.5154045577630635,-43.92004285478408,1.0,26.425083102383923,1.0,0.014042714243935887,4.146155557784324,0.9335022350602449,1.0,0.12183776927285225,6.253597408544151
1.3499999999999999,1.3499999999999999,1.0,20.17047082734181,0.005048287827921841,5.742372675139383,0.04982273432120172,0.01971733681562337,-0.011560463908928101,20.971951812409937,0.05481534960329468,1.0,0.0,121.63402411605226,1.5551761568467364,25.099385984995564,109.49287124783191,0.01010247350329449,2.9342604540304005,1.0,27.004991854038337,0.0,1.0,111.0773884055188,7477.462322476722,1.0,1.0,-0.3016626932040184,19.295685584748252,-0.5154045577630635,-43.92004285478408,1.0,26.425083102383923,1.0,0.014042714243935887,4.146155557784324,0.9335022350602449,1.0,0.12183776927285225,6.253597408544151
1.38,1.38,1.0,20.113882591433644,-0.017462515917165158,5.807275521885394,0.056074805833990965,0.020617764341582624,-0.012087819109997285,20.9354490476925,0.06095565130979111,1.0,0.0,121.63402411605226,1.5551761568467364,25.099385984995564,109.49287124783191,0.01010247350329449,2.9342604540304005,1.0,27.24247470863838,0.0,1.0,111.85372875117503,7653.093139513187,1.0,1.0,0.5066989541628074,19.29556326458751,-0.6680981267035715,-43.964460813120475,1.0,27.048109198754364,1.0,-0.010099340492785647,4.157462614306376,0.9330492527038434,1.0,0.3213590597783546,6.351122984256009
1.41,1.41,1.0,20.044928274037897,-0.02517320009962286,5.757522617633557,0.059485885828869434,0.017088307615626828,-0.009602916616912876,20.85542734862772,0.06263223513146374,1.0,0.0,121.63402411605226,1.5551761568467364,25.099385984995564,109.49287124783191,0.01010247350329449,2.9342604540304005,1.0,27.24247470863838,0.0,1.0,112.18225804739981,7778.9454034417995,1.0,1.0,0.5066989541628074,19.29556326458751,-0.6680981267035715,-43.964460813120475,1.0,27.048109198754364,1.0,-0.010099340492785647,4.157462614306376,0.9330492527038434,1.0,0.3213590597783546,6.351122984256009
1.44,1.44,1.0,20.06002867049988,0.02533809978266771,5.879521332388965,0.07056121505991186,0.01689736552459278,-0.013053294009298472,20.903926984626466,0.0737210588427487,1.0,0.0,121.63402411605226,1.5551761568467364,25.099385984995564,109.49287124783191,0.01010247350329449,2.9342604540304005,1.0,28.276164307173293,0.0,1.0,112.78087632692363,7808.56105486088,1.0,1.0,0.16430285537117853,19.34007694661638,-0.8102232295451164,-43.974601689349846,1.0,27.06006580180471,1.0,-0.007745737422547605,4.161059173690895,0.9326132142116075,1.0,0.7740873560850015,6.298622460472804
1.47,1.47,1.0,19.984129405442793,-0.0058515542851690985,5.938174252851323,0.08295888889948085,0.016606510803164116,-0.007671078952019754,20.847718719116422,0.08495174454229962,1.0,0.0,144.97040374206242,-1.1685130680560825,29.46030308105611,113.65397489629555,0.21861871940099348,2.8304366020408565,1.0,28.276164307173293,0.0,1.0,113.25047446117456,7907.497797300965,1.0,1.0,0.16430285537117853,19.34007694661638,-0.8102232295451164,-43.974601689349846,1.0,27.06006580180471,1.0,-0.007745737422547605,4.161059173690895,0.9326132142116075,1.0,0.7740873560850015,6.298622460472804
1.5,1.5,1.0,19.991884783102908,-0.1044883924749741,6.013855314497596,0.08862698522218496,0.020070990645188445,-0.006039809215200736,20.877088655958104,0.09107176549517779,1.0,0.0,144.97040374206242,-1.1685130680560825,29.46030308105611,113.65397489629555,0.21861871940099348,2.8304366020408565,1.0,26.808855540905526,0.0,1.0,113.69593204886024,7947.3507398170495,1.0,1.0,1.5137399233641404,19.41445282647292,-0.9877762867688558,-43.92296224265866,1.0,27.336771522786833,1.0,0.006978244660081873,4.186111700086286,0.9321930891022479,1.0,1.864512656017038,6.96032433129686
1.53,1.53,1.0,20.014318264071964,-0.023537722825500516,6.099965583625739,0.0995421406458934,0.015856564493178526,-0.008398109954975558,20.923266229759133,0.10114641196161638,1.0,0.0,144.97040374206242,-1.1685130680560825,29.46030308105611,113.65397489629555,0.21861871940099348,2.8304366020408565,1.0,26.808855540905526,0.0,1.0,113.90771049369194,8073.440150059047,1.0,1.0,1.5137399233641404,19.41445282647292,-0.9877762867688558,-43.92296224265866,1.0,27.336771522786833,1.0,0.006978244660081873,4.186111700086286,0.9321930891022479,1.0,1.864512656017038,6.96032433129686
1.56,1.56,1.0,19.90930925637497,-0.011829040907927323,6.232099182004643,0.11006400002486101,0.01263615235138823,-0.005318482065093227,20.861922135952142,0.1109145738809685,1.0,0.0,144.97040374206242,-1.1685130680560825,29.46030308105611,113.65397489629555,0.21861871940099348,2.8304366020408565,1.0,27.96906758551123,0.0,1.0,114.67819656731491,8120.963578064602,1.0,1.0,0.5662994524542967,19.514239539479895,-1.1893833949544454,-43.88374903473834,1.0,27.042882337996666,1.0,-0.0007415018385879949,4.213407177614449,0.9317878444658038,1.0,2.687657012310096,5.835665847909762
1.5899999999999999,1.5899999999999999,1.0,19.96706192105567,-0.010674477788339083,6.25384988842655,0.1252283691035239,0.01451708705161514,-0.0030976629792616238,20.923534933914016,0.12610505842639969,1.0,0.0,144.97040374206242,-1.1685130680560825,29.46030308105611,113.65397489629555,0.21861871940099348,2.8304366020408565,1.0,27.96906758551123,0.0,1.0,115.68574878249174,8205.034126763901,1.0,1.0,0.5662994524542967,19.514239539479895,-1.1893833949544454,-43.88374903473834,1.0,27.042882337996666,1.0,-0.0007415018385879949,4.213407177614449,0.9317878444658038,1.0,2.687657012310096,5.835665847909762
1.6199999999999999,1.6199999999999999,1.0,19.808634812971704,-0.1294068824885771,6.24819917641639,0.14450600534508967,0.015920479675813184,-0.0025762715950828803,20.771103780085458,0.14540317888283838,1.0,0.0,144.97040374206242,-1.1685130680560825,29.46030308105611,113.65397489629555,0.21861871940099348,2.8304366020408565,1.0,27.805305046385705,0.0,1.0,116.10851935923343,8157.704227977235,1.0,1.0,-2.2809976120187527,19.53689233968377,-1.6443649435427026,-43.856397735262625,1.0,27.81626474195139,1.0,0.0016947466901061003,4.220302248937173,0.9313964474092661,1.0,1.7168067164220726,6.206773958472267
1.65,1.65,1.0,19.86747021603159,-0.02606251394699013,6.454484608440102,0.16760403193754259,0.017557762718463155,-0.00039366825214331427,20.88964871892598,0.16852163519290747,1.0,0.0,144.97040374206242,-1.1685130680560825,29.46030308105611,113.65397489629555,0.21861871940099348,2.8304366020408565,1.0,27.805305046385705,0.0,1.0,117.60599848914285,8389.69925210408,1.0,1.0,-2.2809976120187527,19.53689233968377,-1.6443649435427026,-43.856397735262625,1.0,27.81626474195139,1.0,0.0016947466901061003,4.220302248937173,0.9313964474092661,1.0,1.7168067164220726,6.206773958472267
1.68,1.68,1.0,19.844983618677077,-0.015250611890551505,6.497222570614883,0.18593869608901864,0.015899245489656932,-0.0013255216578194856,20.88151116511523,0.18662192185831267,1.0,0.0,171.2498556461692,-0.596855488933667,28.378354750605197,117.59443339020523,0.08845608674637526,2.7786697578662327,1.0,27.864317758090696,0.0,1.0,117.93545442460204,8498.356191582092,1.0,1.0,1.248284168247406,19.5425238146309,-2.056407800236132,-43.78349491153138,1.0,27.56852766173874,1.0,-0.0028664652833078636,4.248834026206328,0.9310178685223456,1.0,2.353958181113591,5.791843557762835
1.71,1.71,1.0,19.822241422711908,0.011463069742002101,6.552300492688567,0.20886352280531978,0.011206102058701308,-0.0014450386974955045,20.877117333787503,0.20916891742999394,1.0,0.0,171.2498556461692,-0.596855488933667,28.378354750605197,117.59443339020523,0.08845608674637526,2.7786697578662327,1.0,27.864317758090696,0.0,1.0,117.29931305766605,8343.73284482851,1.0,1.0,1.248284168247406,19.5425238146309,-2.056407800236132,-43.78349491153138,1.0,27.56852766173874,1.0,-0.0028664652833078636,4.248834026206328,0.9310178685223456,1.0,2.353958181113591,5.791843557762835
1.74,1.74,1.0,19.82210642913683,-0.007723736450822687,6.616515445468549,0.24413775182219677,0.01683926862220494,-0.007278069514520223,20.897230428558142,0.244826005825332,1.0,0.0,171.2498556461692,-0.596855488933667,28.378354750605197,117.59443339020523,0.08845608674637526,2.7786697578662327,1.0,26.99834302161351,0.0,1.0,118.66360776895344,8663.55776396308,1.0,1.0,-0.23988612016636074,19.53917076220427,-2.6690875743126607,-43.69606744339967,1.0,27.720336054743203,1.0,0.011577461458445796,4.261457743769734,0.930651086684665,1.0,4.095600574183185,6.357856773817034
1.77,1.77,1.0,19.80887297388064,0.04927019178640101,6.680892180981042,0.275213341430909,0.012168048771692285,-0.010268009227366082,20.905219357400465,0.2756734965969156,1.0,0.0,171.2498556461692,-0.596855488933667,28.378354750605197,117.59443339020523,0.08845608674637526,2.7786697578662327,1.0,26.99834302161351,0.0,1.0,118.85195718911208,8650.541539193713,1.0,1.0,-0.23988612016636074,19.53917076220427,-2.6690875743126607,-43.69606744339967,1.0,27.720336054743203,1.0,0.011577461458445796,4.261457743769734,0.930651086684665,1.0,4.095600574183185,6.357856773817034
1.7999999999999998,1.7999999999999998,1.0,19.792691781382967,0.09143100631273052,6.739772943208159,0.3150265556488578,0.010899249291952334,-0.010962381437283375,20.90893461914645,0.3154056090273087,1.0,0.0,171.2498556461692,-0.596855488933667,28.378354750605197,117.59443339020523,0.08845608674637526,2.7786697578662327,1.0,28.175886590652546,0.0,1.0,118.6609415945312,8794.951393294892,1.0,1.0,0.5926367285112452,19.720930288702508,-3.434395671514446,-43.67762942068023,1.0,27.857127105284476,1.0,0.016657403980362563,4.285498441182117,0.9302950955381037,1.0,4.496833674979181,5.751485587195592
1.8299999999999998,1.8299999999999998,1.0,19.68193372024568,0.12011311389444397,6.810102263343383,0.36365382911098804,0.009131347916171597,-0.015336842075887048,20.827156190067527,0.364091619879819,1.0,0.0,171.2498556461692,-0.596855488933667,28.378354750605197,117.59443339020523,0.08845608674637526,2.7786697578662327,1.0,28.175886590652546,0.0,1.0,120.25384060293437,8955.690045310263,1.0,1.0,0.5926367285112452,19.720930288702508,-3.434395671514446,-43.67762942068023,1.0,27.857127105284476,1.0,0.016657403980362563,4.285498441182117,0.9302950955381037,1.0,4.496833674979181,5.751485587195592
1.8599999999999999,1.8599999999999999,1.0,19.685424834425547,0.0680944558262034,6.860037686524439,0.4198968631956587,0.007465060568893565,-0.023817620842971544,20.846599358822722,0.42063806522171826,1.0,0.0,171.2498556461692,-0.596855488933667,28.378354750605197,117.59443339020523,0.08845608674637526,2.7786697578662327,1.0,26.965235301117016,0.0,1.0,121.05131501433935,8934.156760315715,1.0,1.0,2.269938617391586,19.741194608782173,-4.454351380947267,-43.567261438431,1.0,27.86447979068114,1.0,0.02281709972978328,4.317312601032909,0.9299489119322409,1.0,6.238004634457354,6.10797517687604
1.89,1.89,1.0,19.69695492187327,0.11999437113721123,6.947987416136775,0.48447369496376985,0.009583341992950174,-0.029231391557319818,20.886813088123503,0.48544935452421717,1.0,0.0,195.61048629040755,0.4549648056834955,28.97633186288315,121.3130093859082,-0.2862928171578646,2.316041414539095,1.0,26.965235301117016,0.0,1.0,121.43788602887523,9073.270199758508,1.0,1.0,2.269938617391586,19.741194608782173,-4.454351380947267,-43.567261438431,1.0,27.86447979068114,1.0,0.02281709972978328,4.317312601032909,0.9299489119322409,1.0,6.238004634457354,6.10797517687604
1.92,1.92,1.0,19.68122391335033,0.16907424099457186,7.042940137725364,0.5514902742961173,0.008114053965812877,-0.040578693799173685,20.904118412647392,0.5530406774419165,1.0,0.0,195.61048629040755,0.4549648056834955,28.97633186288315,121.3130093859082,-0.2862928171578646,2.316041414539095,1.0,28.921539175194905,0.0,1.0,122.02907819754655,9127.925213396627,1.0,1.0,-0.9476392441188891,19.610953110773607,-5.742616345193258,-43.373006487365146,1.0,27.822504843219043,1.0,0.033861888358696406,4.323592231258673,0.9296115865591464,1.0,7.659065420405078,5.554262049548205
1.95,1.95,1.0,19.742930160407056,0.09700801645465341,7.117508464312223,0.6316741517812149,0.005603110873111041,-0.05094074319406771,20.986939477053895,0.6337496257964478,1.0,0.0,195.61048629040755,0.4549648056834955,28.97633186288315,121.3130093859082,-0.2862928171578646,2.316041414539095,1.0,28.921539175194905,0.0,1.0,122.70249136579386,9127.77889046799,1.0,1.0,-0.9476392441188891,19.610953110773607,-5.742616345193258,-43.373006487365146,1.0,27.822504843219043,1.0,0.033861888358696406,4.323592231258673,0.9296115865591464,1.0,7.659065420405078,5.554262049548205
1.98,1.98,1.0,19.606732749442536,0.1764759459628274,7.186373992325348,0.7256689065035177,0.0007342557691530057,-0.06310943860904683,20.882985515130162,0.7284083348226423,1.0,0.0,195.61048629040755,0.4549648056834955,28.97633186288315,121.3130093859082,-0.2862928171578646,2.316041414539095,1.0,28.00481171159414,0.0,1.0,123.28060825757156,9444.018181777472,1.0,1.0,-0.646219794653721,19.783681764168932,-7.375200527057199,-43.22314171356856,1.0,28.090328918369725,1.0,0.030232103710653123,4.34052252039442,0.9292822169833505,1.0,10.005851937189208,6.131646546375532
2.01,2.01,1.0,19.628946761337232,0.19199425137020534,7.174508490648946,0.8399300087053347,3.053426846813935e-05,-0.07749905327379167,20.899903943185105,0.8434977911734086,1.0,0.0,195.61048629040755,0.4549648056834955,28.97633186288315,121.3130093859082,-0.2862928171578646,2.316041414539095,1.0,28.00481171159414,0.0,1.0,123.72873915615723,9255.978758454918,1.0,1.0,-0.646219794653721,19.783681764168932,-7.375200527057199,-43.22314171356856,1.0,28.090328918369725,1.0,0.030232103710653123,4.34052252039442,0.9292822169833505,1.0,10.005851937189208,6.131646546375532
2.04,2.04,1.0,19.597220951944568,0.26070600899096485,7.325139004502207,0.9635533970659129,-0.005927130472897806,-0.0968532129451693,20.923113967517807,0.9684269847183659,1.0,0.0,195.61048629040755,0.4549648056834955,28.97633186288315,121.3130093859082,-0.2862928171578646,2.316041414539095,1.0,28.442709279237803,0.0,1.0,123.88907748891707,9385.923296042902,1.0,1.0,0.3010036894440072,19.688822090204525,-9.675049490995669,-42.67179614170904,1.0,28.342492039906592,1.0,0.0213390471161963,4.370117491737938,0.9289599638212421,1.0,13.151514647789075,5.173857760504212
2.07,2.07,1.0,19.436149511610974,0.29711504865158755,7.378213977989416,1.1149687062008142,-0.010712541184702225,-0.11522978620618962,20.791590287778114,1.120958463982888,1.0,0.0,195.61048629040755,0.4549648056834955,28.97633186288315,121.3130093859082,-0.2862928171578646,2.316041414539095,1.0,28.442709279237803,0.0,1.0,124.69567376751638,9383.435877966534,1.0,1.0,0.3010036894440072,19.688822090204525,-9.675049490995669,-42.67179614170904,1.0,28.342492039906592,1.0,0.0213390471161963,4.370117491737938,0.9289599638212421,1.0,13.151514647789075,5.173857760504212
2.1,2.1,1.0,19.56623252173739,0.31018542499612245,7.475107472865398,1.2788555557628052,-0.019202039464843147,-0.13565553136201555,20.947813771930043,1.2861736562432435,1.0,0.0,223.15215245851462,-0.6904166146348163,27.377855420178303,125.36155487034591,-0.22358238058511246,2.296993006607638,1.0,28.307899746965504,0.0,1.0,125.56698449850883,9931.575198459119,1.0,1.0,-0.8290361499254234,19.828571710951852,-12.639746985560649,-41.9296045521763,1.0,28.90061345084174,1.0,0.03720862246835367,4.397282904500093,0.9286440734338434,1.0,17.686173402158786,5.687457462177549
2.13,2.13,1.0,19.411295442784557,0.3136554604989172,7.697395849879567,1.4757691959046362,-0.03221337491867655,-0.1615427964713834,20.884124913070035,1.484933835629205,1.0,0.0,223.15215245851462,-0.6904166146348163,27.377855420178303,125.36155487034591,-0.22358238058511246,2.296993006607638,1.0,28.307899746965504,0.0,1.0,126.06798709824287,9767.261108529769,1.0,1.0,-0.8290361499254234,19.828571710951852,-12.639746985560649,-41.9296045521763,1.0,28.90061345084174,1.0,0.03720862246835367,4.397282904500093,0.9286440734338434,1.0,17.686173402158786,5.687457462177549
2.16,2.16,1.0,19.260604686681717,0.27506506649607965,7.818784373772404,1.7037881139394475,-0.044723362694701896,-0.18937085463885667,20.788937990454915,1.7148630956897735,1.0,0.0,223.15215245851462,-0.6904166146348163,27.377855420178303,125.36155487034591,-0.22358238058511246,2.296993006607638,1.0,28.120041947435485,0.0,1.0,125.65110195831609,9593.249744059181,1.0,1.0,-1.6323906778237434,19.8697393513691,-16.272117918186527,-40.48400614642223,1.0,28.296684690245755,1.0,0.01281799420668708,4.418964208683257,0.9283339195765834,1.0,23.49777927403911,5.421225392998979
2.19,2.19,1.0,19.386378028585643,0.3615194787391894,8.080969525077098,1.9650844142686401,-0.060849756560077815,-0.22269666878042652,21.006294720058577,1.9785988108661252,1.0,0.0,223.15215245851462,-0.6904166146348163,27.377855420178303,125.36155487034591,-0.22358238058511246,2.296993006607638,1.0,28.120041947435485,0.0,1.0,126.64607987330174,10004.924178645424,1.0,1.0,-1.6323906778237434,19.8697393513691,-16.272117918186527,-40.48400614642223,1.0,28.296684690245755,1.0,0.01281799420668708,4.418964208683257,0.9283339195765834,1.0,23.49777927403911,5.421225392998979
2.2199999999999998,2.2199999999999998,1.0,19.255716257378914,0.3850153972300275,8.410586673125595,2.2584060874218643,-0.08474062464061619,-0.25344359287182566,21.015918100976428,2.274161973988747,1.0,0.0,223.15215245851462,-0.6904166146348163,27.377855420178303,125.36155487034591,-0.22358238058511246,2.296993006607638,1.0,27.462569447677403,0.0,1.0,126.73671314170554,9899.4744622958,1.0,1.0,-3.084467564378147,19.97598154638657,-21.02451682745238,-38.33217534413858,1.0,28.9342392775554,1.0,-0.003581727771561521,4.425129198641693,0.9280291048487856,1.0,30.430861693169437,5.079227879438154
2.25,2.25,1.0,19.24692611272815,0.5364320666716325,8.73023283111757,2.5650267646750704,-0.11876568321023714,-0.29559869990556664,21.141165753961946,2.584733290379051,1.0,0.0,223.15215245851462,-0.6904166146348163,27.377855420178303,125.36155487034591,-0.22358238058511246,2.296993006607638,1.0,27.462569447677403,0.0,1.0,128.4110548716112,9906.49666952314,1.0,1.0,-3.084467564378147,19.97598154638657,-21.02451682745238,-38.33217534413858,1.0,28.9342392775554,1.0,-0.003581727771561521,4.425129198641693,0.9280291048487856,1.0,30.430861693169437,5.079227879438154
2.28,2.28,1.0,19.103244993712742,0.5237437721464455,9.174435775407177,2.8750880599668975,-0.15912342353511663,-0.33933711452306037,21.19855062559099,2.8994139569531274,1.0,0.0,223.15215245851462,-0.6904166146348163,27.377855420178303,125.36155487034591,-0.22358238058511246,2.296993006607638,1.0,28.405408311508324,0.0,1.0,128.55247420562344,10270.411253361928,1.0,1.0,-5.384808366761236,20.112437902644345,-26.524130594389714,-34.58852606375077,1.0,29.075974849942046,1.0,-0.009998825939557998,4.435804569298471,0.9277297284836671,1.0,39.47185850011014,5.300741183634026
2.31,2.31,1.0,18.978990586901734,0.6176433692805018,9.777758192233872,3.194186184652837,-0.21119946202664447,-0.39020700368830535,21.358560866666963,3.2248553612084367,1.0,0.0,248.8282346014839,0.5547431889818261,27.492354198280236,129.19458699399328,-1.2153109140448686,2.170771453398522,1.0,28.405408311508324,0.0,1.0,129.21961186932137,10224.190441346029,1.0,1.0,-5.384808366761236,20.112437902644345,-26.524130594389714,-34.58852606375077,1.0,29.075974849942046,1.0,-0.009998825939557998,4.435804569298471,0.9277297284836671,1.0,39.47185850011014,5.300741183634026
2.34,2.34,1.0,18.91049498596251,0.6903502303110969,10.595720074228293,3.5137595889912316,-0.2891350578129423,-0.4426462937990492,21.687616004208675,3.5533141251933182,1.0,0.0,248.8282346014839,0.5547431889818261,27.492354198280236,129.19458699399328,-1.2153109140448686,2.170771453398522,1.0,29.687239133474385,0.0,1.0,129.9458086329715,10236.681760227333,1.0,1.0,-5.390093279116911,20.356517325556414,-32.481492274623776,-28.847905609974102,1.0,29.105923959472914,1.0,0.00822936277812706,4.44274385111018,0.9274369713462247,1.0,51.32971852096877,4.983267792759711
2.37,2.37,1.0,18.652818007452968,0.8637222795562369,11.619731647949067,3.825235312064009,-0.38683352297958146,-0.5076516299875998,21.992994324686958,3.8781149473154217,1.0,0.0,248.8282346014839,0.5547431889818261,27.492354198280236,129.19458699399328,-1.2153109140448686,2.170771453398522,1.0,29.687239133474385,0.0,1.0,129.9790397129808,10377.092521781156,1.0,1.0,-5.390093279116911,20.356517325556414,-32.481492274623776,-28.847905609974102,1.0,29.105923959472914,1.0,0.00822936277812706,4.44274385111018,0.9274369713462247,1.0,51.32971852096877,4.983267792759711
2.4,2.4,1.0,18.37734347402421,1.1225404686860043,13.059199579445552,4.144795035277311,-0.5221724925774848,-0.5735181528544355,22.572761105409523,4.216741996864118,1.0,0.0,248.8282346014839,0.5547431889818261,27.492354198280236,129.19458699399328,-1.2153109140448686,2.170771453398522,1.0,28.86395101554003,0.0,1.0,131.05029512091448,10519.137695833933,1.0,1.0,-9.14374154055061,20.882268137598206,-37.71089489153207,-21.05858078747567,1.0,28.982830889686525,1.0,-0.020545417237820128,4.457532966016607,0.9271544498598271,1.0,64.68507441760882,3.9015418671817548
2.4299999999999997,2.4299999999999997,1.0,18.080479986409156,1.3918580288604467,14.861067488745576,4.458365729135919,-0.7020992884113149,-0.6470571832482888,23.44551880885761,4.559457356299601,1.0,0.0,248.8282346014839,0.5547431889818261,27.492354198280236,129.19458699399328,-1.2153109140448686,2.170771453398522,1.0,28.86395101554003,0.0,1.0,130.8526668780051,10576.941496488054,1.0,1.0,-9.14374154055061,20.882268137598206,-37.71089489153207,-21.05858078747567,1.0,28.982830889686525,1.0,-0.020545417237820128,4.457532966016607,0.9271544498598271,1.0,64.68507441760882,3.9015418671817548
2.46,2.46,1.0,17.542627180398696,1.7456601096841056,17.256752128676204,4.77861738720813,-0.9685697850982421,-0.7347302156655452,24.669547860461005,4.930835634225202,1.0,0.0,248.8282346014839,0.5547431889818261,27.492354198280236,129.19458699399328,-1.2153109140448686,2.170771453398522,1.0,29.805267277915412,0.0,1.0,131.47342486430176,10631.177351715462,1.0,1.0,-10.885336374811896,21.76199963859483,-41.35258464936061,-11.060514630424679,1.0,29.162854616107573,1.0,0.00034397884594457133,4.437817561426445,0.9268916485634451,0.0,64.68507441760882,3.9015418671817548
2.4899999999999998,2.4899999999999998,1.0,16.169775114108745,2.4544223895550505,18.969277175495996,5.09723715059108,-1.3826017644400699,-0.8267863607350882,25.046342908057316,5.345745027093627,1.0,0.0,248.8282346014839,0.5547431889818261,27.492354198280236,129.19458699399328,-1.2153109140448686,2.170771453398522,1.0,29.805267277915412,0.0,1.0,132.27366218383463,10797.58645832217,1.0,1.0,-10.885336374811896,21.76199963859483,-41.35258464936061,-11.060514630424679,1.0,29.162854616107573,1.0,0.00034397884594457133,4.437817561426445,0.9268916485634451,0.0,64.68507441760882,3.9015418671817548
2.52,2.52,1.0,14.004634232888051,3.3792773732068633,22.009799484816693,5.424495060508759,-1.9559928066853227,-0.9346009313429287,26.305523543998984,5.8416207872606485,1.0,0.0,274.36937078852384,-1.3979798185400483,27.55047749663809,132.6054209741785,-4.0075745365683,1.1503701340365642,1.0,30.65208843509713,0.0,1.0,132.01172521463883,10844.687592326121,1.0,1.0,-17.75265239578323,23.37580402907333,-41.95254708091642,-0.20207273217075564,1.0,29.384313375325927,1.0,0.09689836923071325,4.360753143248089,0.926672469287191,0.0,64.68507441760882,3.9015418671817548
2.55,2.55,1.0,11.571977142961138,4.417369155582763,25.765579242905766,5.7663211856262375,-2.533237023688787,-1.028988204127984,28.58826470732992,6.381736954640495,1.0,0.0,274.36937078852384,-1.3979798185400483,27.55047749663809,132.6054209741785,-4.0075745365683,1.1503701340365642,1.0,30.65208843509713,0.0,1.0,132.238425941892,10638.219627476445,1.0,1.0,-17.75265239578323,23.37580402907333,-41.95254708091642,-0.20207273217075564,1.0,29.384313375325927,1.0,0.09689836923071325,4.360753143248089,0.926672469287191,0.0,64.68507441760882,3.9015418671817548
2.58,2.58,1.0,10.916101378712598,5.9573521617467815,25.390538151766044,6.119685666162098,-3.112583064464938,-1.1043526308958893,28.2724378454651,6.954014719512065,1.0,0.0,274.36937078852384,-1.3979798185400483,27.55047749663809,132.6054209741785,-4.0075745365683,1.1503701340365642,1.0,29.67119994495337,0.0,1.0,133.47580960718912,10563.658456621908,1.0,1.0,-24.209388015656565,26.851324651785703,-38.47825161210394,10.013179519192082,1.0,29.83915802005226,1.0,0.37260573259516905,4.158377686757467,0.9265484585688422,0.0,64.68507441760882,3.9015418671817548
2.61,2.61,1.0,10.921830743656518,8.02030559630986,23.916857052341662,6.501851014871745,-3.6863082248121604,-1.1579228848496428,27.488683851967615,7.563314111893346,1.0,0.0,274.36937078852384,-1.3979798185400483,27.55047749663809,132.6054209741785,-4.0075745365683,1.1503701340365642,1.0,29.67119994495337,0.0,1.0,133.12586709530765,10593.301704110037,1.0,1.0,-24.209388015656565,26.851324651785703,-38.47825161210394,10.013179519192082,1.0,29.83915802005226,1.0,0.37260573259516905,4.158377686757467,0.9265484585688422,0.0,64.68507441760882,3.9015418671817548
2.6399999999999997,2.6399999999999997,1.0,10.849765866155813,11.186753335163063,22.574945499923338,6.919099652323765,-4.259464302156148,-1.2072630681305487,27.431533567350744,8.214283916191441,1.0,0.0,274.36937078852384,-1.3979798185400483,27.55047749663809,132.6054209741785,-4.0075745365683,1.1503701340365642,1.0,29.50153890710431,0.0,1.0,132.799782166933,10841.69292584443,1.0,1.0,-32.06215031657411,32.63954885480635,-30.796308648992643,16.954462027324553,1.0,29.4862819672333,1.0,0.9155951234037575,3.720450816717554,0.9265878291347099,0.0,64.68507441760882,3.9015418671817548
2.67,2.67,1.0,11.427386059639254,15.184246669436078,22.39000887360268,7.376489109360652,-4.833437248739743,-1.2624835564710113,29.36765221181845,8.90890408234261,1.0,0.0,274.36937078852384,-1.3979798185400483,27.55047749663809,132.6054209741785,-4.0075745365683,1.1503701340365642,1.0,29.50153890710431,0.0,1.0,132.39564698436587,10824.672133503494,1.0,1.0,-32.06215031657411,32.63954885480635,-30.796308648992643,16.954462027324553,1.0,29.4862819672333,1.0,0.9155951234037575,3.720450816717554,0.9265878291347099,0.0,64.68507441760882,3.9015418671817548
2.6999999999999997,2.6999999999999997,1.0,12.711577730250735,19.87014896588428,22.811931824924503,7.907326457774582,-5.409845449925364,-1.3607502769586992,32.814497739621764,9.676976842906223,1.0,0.0,274.36937078852384,-1.3979798185400483,27.55047749663809,132.6054209741785,-4.0075745365683,1.1503701340365642,1.0,28.996321195346237,0.0,1.0,132.33406919762157,10514.038010184597,1.0,1.0,-34.23572189159898,40.03149198810663,-19.75996164177064,17.358243114392938,1.0,29.64536578371377,1.0,1.8322723768617275,3.07038048640125,0.9268377009577827,0.0,64.68507441760882,3.9015418671817548
2.73,2.73,1.0,14.08663716692565,23.9742924502667,22.464942221123593,8.479271315835566,-5.985434482174244,-1.5059275600625492,35.747358981635934,10.487673040484635,1.0,0.0,304.25978931087013,-1.6684768944748467,29.290318000327225,131.9305755615895,-9.59239268619016,-2.7923033464664004,1.0,28.996321195346237,0.0,1.0,131.6346533261829,10483.180277597976,1.0,1.0,-34.23572189159898,40.03149198810663,-19.75996164177064,17.358243114392938,1.0,29.64536578371377,1.0,1.8322723768617275,3.07038048640125,0.9268377009577827,0.0,64.68507441760882,3.9015418671817548
2.76,2.76,1.0,15.253941074993747,25.169916082931866,21.58041361841527,9.054589671429358,-6.548271359299603,-1.625751025321007,36.49550172121349,11.291966981412537,1.0,0.0,304.25978931087013,-1.6684768944748467,29.290318000327225,131.9305755615895,-9.59239268619016,-2.7923033464664004,1.0,29.274373928261564,0.0,1.0,131.35827579269414,10483.623890405775,1.0,1.0,-28.394809612910567,46.46211448569924,-8.731694710489991,8.404457229510397,1.0,29.33871758792129,1.0,2.9269605643918992,2.3394685808940667,0.9273653032941145,0.0,64.68507441760882,3.9015418671817548
2.79,2.79,1.0,16.330166244963763,26.05213629355215,20.002484443594504,9.072867028520042,-7.0553968557372855,-1.50313414585042,36.68088765232122,11.591158404990209,1.0,0.0,304.25978931087013,-1.6684768944748467,29.290318000327225,131.9305755615895,-9.59239268619016,-2.7923033464664004,1.0,29.274373928261564,0.0,1.0,130.72985700209887,10313.86959215766,1.0,1.0,-28.394809612910567,46.46211448569924,-8.731694710489991,8.404457229510397,1.0,29.33871758792129,1.0,2.9269605643918992,2.3394685808940667,0.9273653032941145,0.0,64.68507441760882,3.9015418671817548
2.82,2.82,1.0,17.099485445199385,26.619818666742425,17.912916738482142,9.075645409635804,-7.459415673522447,-1.23726524971946,36.35766403965783,11.812749345093172,1.0,0.0,304.25978931087013,-1.6684768944748467,29.290318000327225,131.9305755615895,-9.59239268619016,-2.7923033464664004,1.0,28.653379235040372,0.0,1.0,130.26553110638278,10256.211290975647,1.0,1.0,23.247062494313454,46.898787044896395,-4.737460132899865,-8.877818995529532,1.0,28.42137724074229,1.0,3.875228669651587,1.8346516087596785,0.9282322579626172,0.0,64.68507441760882,3.9015418671817548
2.85,2.85,1.0,18.226020333920687,25.096199930908924,20.57516342498803,9.077421818361605,-7.761971320943182,-0.8238832322150779,37.220215181398515,11.971907501978826,1.0,0.0,304.25978931087013,-1.6684768944748467,29.290318000327225,131.9305755615895,-9.59239268619016,-2.7923033464664004,1.0,28.653379235040372,0.0,1.0,129.59058405871212,10298.937532308051,1.0,1.0,23.247062494313454,46.898787044896395,-4.737460132899865,-8.877818995529532,1.0,28.42137724074229,1.0,3.875228669651587,1.8346516087596785,0.9282322579626172,0.0,64.68507441760882,3.9015418671817548
2.88,2.88,1.0,22.032581519199592,15.511117951595775,-0.18336542277034978,9.074971595840504,-7.508973768851145,-0.3011035541206793,26.945557173433247,11.782633825970771,1.0,0.0,304.25978931087013,-1.6684768944748467,29.290318000327225,131.9305755615895,-9.59239268619016,-2.7923033464664004,1.0,28.102212690098092,0.0,1.0,129.17796986930128,10115.010749348641,1.0,1.0,56.7733963655626,39.3427814541699,-12.66676229353883,-24.50696047467019,1.0,27.844990258367925,1.0,4.250497629848403,1.672871635270765,0.9294030178642452,1.0,-19.615143875121184,-47.36753428244354
2.9099999999999997,2.9099999999999997,1.0,20.17357310012225,19.184055962772394,-25.00003501966035,9.074803177880145,-8.08510698923932,0.2364978193843002,37.41661136170676,12.156353851516647,1.0,0.0,304.25978931087013,-1.6684768944748467,29.290318000327225,131.9305755615895,-9.59239268619016,-2.7923033464664004,1.0,28.102212690098092,0.0,1.0,129.66316362547155,10144.118925075903,1.0,1.0,56.7733963655626,39.3427814541699,-12.66676229353883,-24.50696047467019,1.0,27.844990258367925,1.0,4.250497629848403,1.672871635270765,0.9294030178642452,1.0,-19.615143875121184,-47.36753428244354
2.94,2.94,1.0,19.170671968234664,19.6293812749274,-18.324671602514346,9.077695791873559,-8.66055634911227,0.8139514035474861,32.994254989166286,12.572681259512017,1.0,0.0,332.81196233025435,-5.569065594575465,27.331263340566327,127.93144511617935,-8.01183220285997,-10.248893375716635,1.0,27.662030859529885,0.0,1.0,128.90001260081934,10148.691557017468,1.0,1.0,62.02783582639927,24.556284698713583,-28.66512136297631,-29.44173760730506,1.0,27.647468160971904,1.0,4.035680056745495,1.9600454112888783,0.9308631647842406,1.0,13.40181134946783,-19.262986696604937
2.9699999999999998,2.9699999999999998,1.0,18.47738255391752,18.770454594714746,-17.571013460961726,9.07362511683049,-9.074539325116325,1.3920911651893244,31.662030032538368,12.907976391985613,1.0,0.0,332.81196233025435,-5.569065594575465,27.331263340566327,127.93144511617935,-8.01183220285997,-10.248893375716635,1.0,27.662030859529885,0.0,1.0,128.7825716419281,9982.04819889468,1.0,1.0,62.02783582639927,24.556284698713583,-28.66512136297631,-29.44173760730506,1.0,27.647468160971904,1.0,4.035680056745495,1.9600454112888783,0.9308631647842406,1.0,13.40181134946783,-19.262986696604937
3.0,3.0,1.0,17.93780842697679,18.403668852063014,-17.637801898918177,9.07547082193279,-9.076833758282694,1.9637917294081275,31.169729774330662,12.984974380865967,1.0,0.0,332.81196233025435,-5.569065594575465,27.331263340566327,127.93144511617935,-8.01183220285997,-10.248893375716635,1.0,27.354638308543826,0.0,1.0,127.5885497719427,9910.485977116658,1.0,1.0,52.642909270645674,7.2357990736800915,-43.912171899065996,-18.066528984435298,1.0,26.97722695833028,1.0,3.4131520071752637,2.5976114867456985,0.9325876779940913,1.0,44.31655012125405,10.391247851676644
3.03,3.03,1.0,17.25250638183076,18.120664968268887,-17.449904325737933,9.074204342567128,-9.076047307121053,2.539872724465157,30.50420686273888,13.08307198742885,1.0,0.0,332.81196233025435,-5.569065594575465,27.331263340566327,127.93144511617935,-8.01183220285997,-10.248893375716635,1.0,27.354638308543826,0.0,1.0,126.19784161653907,9851.786347355743,1.0,1.0,52.642909270645674,7.2357990736800915,-43.912171899065996,-18.066528984435298,1.0,26.97722695833028,1.0,3.4131520071752637,2.5976114867456985,0.9325876779940913,1.0,44.31655012125405,10.391247851676644
3.06,3.06,1.0,17.02013556106753,17.596217654843347,-18.029632184221793,9.074785179564039,-9.074873917507789,3.1173214018992224,30.40361042659346,13.206920738636892,1.0,0.0,332.81196233025435,-5.569065594575465,27.331263340566327,127.93144511617935,-8.01183220285997,-10.248893375716635,1.0,25.99232343453678,0.0,1.0,126.61362345386713,9825.08385576534,1.0,1.0,26.12380150556659,-4.046165302594796,-47.385558397009696,6.739901331411487,1.0,26.22391008590142,1.0,2.83370858229776,3.3419261602709014,0.9343716516619348,0.0,44.31655012125405,10.391247851676644
