time_s,x_m,y_m,altitude_m,vx_mps,vy_mps,vz_mps,speed_mps,mass_kg,roll_deg,pitch_deg,yaw_deg,p_dps,q_dps,r_dps,alpha_deg,beta_deg,qbar_pa,mach,airspeed_mps,load_factor_g,density_kgpm3,pressure_pa,temperature_k,wind_x_mps,wind_y_mps,wind_z_mps,thrust_n,mass_flow_kgps,propulsion_throttle_actual,propulsion_health,energy_j_per_kg,target_distance_m,guidance_mode,pitch_command_deg,heading_command_deg,roll_command_deg,elevator_command_deg,aileron_command_deg,rudder_command_deg,elevator_deg,aileron_deg,rudder_deg,throttle,elevator_saturated,aileron_saturated,rudder_saturated,elevator_failed,aileron_failed,rudder_failed,elevator_raw_rad,aileron_raw_rad,rudder_raw_rad,elevator_effective_rad,aileron_effective_rad,rudder_effective_rad,sensor_time_s,imu_valid,imu_ax_mps2,imu_ay_mps2,imu_az_mps2,gyro_p_rps,gyro_q_rps,gyro_r_rps,imu_accel_norm_mps2,imu_gyro_norm_rps,gps_valid,gps_latency_s,gps_x_m,gps_y_m,gps_z_m,gps_vx_mps,gps_vy_mps,gps_vz_mps,baro_valid,baro_alt_m,baro_bias_m,pitot_valid,pitot_airspeed_mps,pitot_qbar_pa,pitot_compressibility_factor,mag_valid,mag_heading_deg,mag_x_ut,mag_y_ut,mag_z_ut,radar_valid,radar_agl_m,optical_flow_valid,optical_flow_x_radps,optical_flow_y_radps,optical_flow_quality,horizon_valid,horizon_roll_deg,horizon_pitch_deg
0.0,0.0,0.0,20.0,85.0,0.0,8.0,85.37564055396598,18.0,0.0,6.000000000000002,0.0,0.0,0.0,0.0,0.623294571949261,-0.6710715042735446,4456.558066714115,0.25096171677176965,85.38149682454623,1.7460465049919478,1.2226496753673843,101084.96761777384,288.02,0.0,1.0,0.0,326.8,0.17539118863220368,0.86,nominal,3840.633,nan,pitch_program,13.0,0.0,0.0,-20.05352282957881,-0.0,-0.5704107786325128,-2.6999999999999997,0.0,-0.3422464671795077,0.86,0.0,0.0,0.0,0.0,0.0,0.0,-0.047123889803846894,0.0,-0.00597332770560112,-0.047123889803846894,0.0,-0.00597332770560112,0.0,1.0,17.089396860779395,0.06553239557522014,0.17664861184329914,0.0016677683591043149,0.0011681274632859406,0.0012765720485123657,17.09043546233251,0.00240324973008537,1.0,0.0,-1.885154541229685,1.8645638091475825,21.162662438547994,85.32748210022089,0.18147237523479218,7.846341299741817,1.0,20.771163472887363,0.0,1.0,85.63285453025436,4466.1318643579025,1.0,1.0,-0.8198733225718878,19.523475325297145,-0.00615746722134172,-43.81279554351524,1.0,20.39618647858491,1.0,-0.0077448575321814855,4.273240466216326,0.95,1.0,0.17459483210835952,5.697481511065039
0.03,2.5653074896002197,9.796055061467139e-05,20.232950907584534,85.51024965334067,0.003265351687155713,7.765030252817809,85.86209001221869,17.994738264341034,0.006199197183806406,6.265618543476623,-0.008705022830564126,0.1756402380193581,-8.853982910340157,-0.288028571306414,1.0768620520272147,-0.6565383938860415,4507.375667487685,0.2523919911485425,85.86787507888482,1.774327853792258,1.222622319984851,101082.17454493979,288.0184858191007,0.0,1.0,0.0,332.605,0.1785066900092231,0.86,nominal,3884.5667186510364,nan,pitch_program,12.985,0.0,0.0,-0.545099091187746,-0.14949992167541062,-0.6761690933161028,-1.4070594547126476,-0.08969995300524637,-0.5426000428614648,0.86,0.0,0.0,0.0,0.0,0.0,0.0,-0.024557820256051743,-0.0015655595188257315,-0.009470157269394914,-0.024557820256051743,-0.0015655595188257315,-0.009470157269394914,0.03,1.0,17.396165526460457,0.06757984646874438,0.688729522798126,0.005037679378191136,-0.15521041419076997,-0.0033274992892283442,17.40992505484253,0.15532779254952295,1.0,0.0,-1.885154541229685,1.8645638091475825,21.162662438547994,85.32748210022089,0.18147237523479218,7.846341299741817,1.0,20.771163472887363,0.0,1.0,85.45419534257276,4494.372304733525,1.0,1.0,-0.8198733225718878,19.523475325297145,-0.00615746722134172,-43.81279554351524,1.0,20.39618647858491,1.0,-0.0077448575321814855,4.273240466216326,0.95,1.0,0.17459483210835952,5.697481511065039
0.06,5.146102579769902,0.00027610814216295074,20.45939307894457,86.02650300565607,0.0059382530516093116,7.548072378667819,86.357006961095,17.98938306364076,0.016649942063512377,6.577175471344131,-0.02293834725294604,0.29529611191863187,-10.385350351495866,-0.4693985448551966,1.5626515932980705,-0.6371102441497456,4559.377823330194,0.25384716389166767,86.3627279257233,1.8035059531836128,1.2225957293708172,101079.45957151141,288.01701394498684,0.0,1.0,0.0,338.40999999999997,0.18162219138624247,0.86,nominal,3929.4044327769366,nan,pitch_program,12.97,0.0,0.0,0.16989370774028928,-0.24463881466563775,-0.7283284507387925,-0.46088755724088554,-0.1826632700014812,-0.6540370875878614,0.86,0.0,0.0,0.0,0.0,0.0,0.0,-0.008044005355327285,-0.003188075483985234,-0.011415100608562719,-0.008044005355327285,-0.003188075483985234,-0.011415100608562719,0.06,1.0,17.703930346980588,0.03184645329025582,1.2236991748263872,0.0017077501955758117,-0.18272751610842736,-0.008539441303636984,17.746199694520463,0.1829349163272674,1.0,0.0,-1.885154541229685,1.8645638091475825,21.162662438547994,85.32748210022089,0.18147237523479218,7.846341299741817,1.0,20.52602944054735,0.0,1.0,85.9437612553216,4526.437742021438,1.0,1.0,0.05371547149049399,19.051598086644784,-0.03004936916644496,-44.01671683502232,1.0,20.444379321174548,1.0,-0.001758182056800901,4.219131281798723,0.9488515173026386,1.0,-0.1424209605827985,6.398187846412091
0.09,7.742554139905254,0.0005201044381725277,20.67988061284214,86.54838533784505,0.0081332098669859,7.349584463252365,86.8598840807406,17.983934397899173,0.02934509090724927,6.769879649857861,-0.040621725325839846,0.35467092978103515,-6.423713172005797,-0.5828746314223799,1.9157597730088365,-0.6147461999691746,4612.525665825006,0.25532574121268387,86.86554665746345,1.8332624385470124,1.2225698384221046,101076.81604913168,288.0155807760165,0.0,1.0,0.0,344.215,0.18473769276326188,0.86,nominal,3975.120082471776,nan,pitch_program,12.955,0.0,0.0,-1.10410632039906,-0.28315478424405327,-0.7467901180092764,-0.8468188151357902,-0.24295817854702445,-0.7096889058407104,0.86,0.0,0.0,0.0,0.0,0.0,0.0,-0.01477977649195673,-0.004240420160293829,-0.012386408071796412,-0.01477977649195673,-0.004240420160293829,-0.012386408071796412,0.09,1.0,17.97786184043587,0.061666861167879436,1.414373269754274,0.0065913224927435675,-0.11380595037187666,-0.007628221209357884,18.03351798462413,0.11425160668922034,1.0,0.0,-1.885154541229685,1.8645638091475825,21.162662438547994,85.32748210022089,0.18147237523479218,7.846341299741817,1.0,20.52602944054735,0.0,1.0,87.23604425936728,4644.533123613504,1.0,1.0,0.05371547149049399,19.051598086644784,-0.03004936916644496,-44.01671683502232,1.0,20.444379321174548,1.0,-0.001758182056800901,4.219131281798723,0.9488515173026386,1.0,-0.1424209605827985,6.398187846412091
0.12,10.35487044074192,0.0008175413809410598,20.89472196264792,87.07721002788887,0.00991456475895107,7.161378326859369,87.37119630679251,17.978392267116273,0.04284273871807954,6.867826473798528,-0.0604413926634685,0.3714814693808023,-3.265307534658784,-0.6539258001208856,2.1659174478331664,-0.5906260491585215,4666.884408262433,0.2568291173766741,87.37680536017872,1.8633151072105039,1.2225446108851712,101074.24027519567,288.0141843072428,0.0,1.0,0.0,350.02,0.1878531941402813,0.86,nominal,4021.7701971750384,nan,pitch_program,12.94,0.0,0.0,-2.1499845882849624,-0.2826588537998925,-0.7443345851226659,-1.6287182790252934,-0.2667785836987453,-0.7304763134098837,0.86,0.0,0.0,0.0,0.0,0.0,0.0,-0.02842649655640707,-0.004656164659350377,-0.012749216776832478,-0.02842649655640707,-0.004656164659350377,-0.012749216776832478,0.12,1.0,18.243689560239595,0.05276726424112105,1.52898577422068,0.008264771514953586,-0.05631402469526402,-0.01425083117857277,18.30772489012056,0.05867420229413754,1.0,0.0,-1.885154541229685,1.8645638091475825,21.162662438547994,85.32748210022089,0.18147237523479218,7.846341299741817,1.0,20.83529713840989,0.0,1.0,87.26911174730816,4713.2084538465415,1.0,1.0,-1.955563222021589,18.84080756623359,-0.013479523257548311,-44.08142023417463,1.0,20.159613978771397,1.0,-0.01859281559420806,4.181135436993956,0.9477631950933803,1.0,0.326199973366236,7.4745663730630545
0.15,12.983286268207522,0.0011571508306977801,21.1040931168828,87.61386091552009,0.011320314991890679,6.97903847449597,87.89138598692209,17.972756671292064,0.05639871799213723,6.952704609032803,-0.0816176514096996,0.36693877397427443,-2.8298775224020343,-0.6982973371416327,2.3978369006560847,-0.5654861289504771,4722.517285720348,0.2583585914406079,87.89694585178795,1.8939023914276332,1.2225200260638116,101071.73013561618,288.0128233947402,0.0,1.0,0.0,355.825,0.1909686955173007,0.86,nominal,4069.4083201157414,nan,pitch_program,12.925,0.0,0.0,-2.2500849502339237,-0.2630781218356978,-0.7286025896627554,-2.001538281750472,-0.2645583065809168,-0.7293520791616066,0.86,0.0,0.0,0.0,0.0,0.0,0.0,-0.034933433121255665,-0.00461741351333758,-0.01272959518763636,-0.034933433121255665,-0.00461741351333758,-0.01272959518763636,0.15,1.0,18.54291860961098,0.02654845808250677,1.6895649723399804,0.006271245558661606,-0.04952382009720538,-0.013816504949708744,18.619752017119936,0.05179607211847943,1.0,0.0,-1.885154541229685,1.8645638091475825,21.162662438547994,85.32748210022089,0.18147237523479218,7.846341299741817,1.0,20.83529713840989,0.0,1.0,87.54516324823261,4740.352304834459,1.0,1.0,-1.955563222021589,18.84080756623359,-0.013479523257548311,-44.08142023417463,1.0,20.159613978771397,1.0,-0.01859281559420806,4.181135436993956,0.9477631950933803,1.0,0.326199973366236,7.4745663730630545
0.18,15.628033976982017,0.0015283079980358395,21.308199019722043,88.15825695914985,0.012371905577935313,6.803530094641355,88.4203960909938,17.967027610426545,0.06978866222835607,7.050232593672552,-0.10366020892263361,0.3567690156494293,-3.251734718552321,-0.7256928228257055,2.636659184667093,-0.5398072132981115,4779.434960542223,0.2599139953924683,88.42591080151266,1.9249672181525985,1.2224960598639272,101069.28316944401,288.01149670637176,0.0,1.0,0.0,361.63,0.19408419689432013,0.86,nominal,4118.045272360873,nan,pitch_program,12.91,0.0,0.0,-2.0429840079522457,-0.23882815645728672,-0.7044910221845796,-2.026405717471536,-0.24912021650673877,-0.7144354449753904,0.86,0.0,0.0,0.0,0.0,0.0,0.0,-0.03536745175111629,-0.004347968011323718,-0.01246925080777134,-0.03536745175111629,-0.004347968011323718,-0.01246925080777134,0.18,1.0,18.748294195865647,0.011432739414633894,1.9093727810164252,0.0063665419998548654,-0.05932225655584494,-0.013552723153191068,18.84527448404895,0.061182834886759255,1.0,0.0,-1.885154541229685,1.8645638091475825,21.162662438547994,85.32748210022089,0.18147237523479218,7.846341299741817,1.0,20.082306210552403,0.0,1.0,88.03632097353042,4843.744546613035,1.0,1.0,-0.6465553085785619,18.72988809543389,0.019245888107240868,-44.22123717536482,1.0,21.361832841079245,1.0,-0.000859232003881146,4.138836753073905,0.9467295024506949,1.0,-0.4342712989596038,6.692490631174833
0.21,18.289337537336213,0.0019206890884714916,21.507294008449605,88.71011867847314,0.013079369681188405,6.636499624252076,88.95801512107495,17.961205084519715,0.08304933078445002,7.138942982965808,-0.12622521788955768,0.34912381543149557,-2.9580064800560857,-0.7424636990289188,2.8599068289305483,-0.513897179928522,4837.631425522249,0.26149470775315287,88.96348855312519,1.956227572310152,1.222472682393969,101066.89632387873,288.01020258894505,0.0,1.0,0.0,367.435,0.19719969827133954,0.86,nominal,4167.678731928661,nan,pitch_program,12.895,0.0,0.0,-2.0912126092285557,-0.2172703883144108,-0.6753857142670794,-2.0652898525257477,-0.230010319591342,-0.6910056065504038,0.86,0.0,0.0,0.0,0.0,0.0,0.0,-0.036046107934602424,-0.004014437390433336,-0.012060322984045042,-0.036046107934602424,-0.004014437390433336,-0.012060322984045042,0.21,1.0,19.039125335928592,0.11686949398583635,2.109319580318736,0.004908889714976492,-0.049916947070154656,-0.011922782376558024,19.155969856098086,0.05155532506576974,1.0,0.0,18.158496751299044,-0.8487949822292363,22.52851954078043,88.79107977552718,-0.09388702480928704,6.696077125900986,1.0,20.082306210552403,0.0,1.0,88.81663013829531,4834.15236655689,1.0,1.0,-0.6465553085785619,18.72988809543389,0.019245888107240868,-44.22123717536482,1.0,21.361832841079245,1.0,-0.000859232003881146,4.138836753073905,0.9467295024506949,1.0,-0.4342712989596038,6.692490631174833
0.24,20.967422670513976,0.0023240584760624264,21.70162273346501,89.26950443925881,0.013445646253031157,6.477624167180149,89.50421341181368,17.955289093571576,0.09629159694038456,7.2022548298246205,-0.14908720316403443,0.3462846191740415,-2.111575872944604,-0.7528023092434647,3.051290416018711,-0.48794344104117043,4897.120300602291,0.26310064169289593,89.50964935231833,1.9875051037831102,1.2224498649022044,101064.5666625705,288.0089394522325,0.0,1.0,0.0,373.24,0.20031519964835895,0.86,nominal,4218.322327812879,nan,pitch_program,12.88,0.0,0.0,-2.3470622030878308,-0.20035330736844034,-0.6434203158776325,-2.2343532628629976,-0.212216112257601,-0.662454432146741,0.86,0.0,0.0,0.0,0.0,0.0,0.0,-0.03899682108963765,-0.003703869884677034,-0.011562010985389998,-0.03899682108963765,-0.003703869884677034,-0.011562010985389998,0.24,1.0,19.33996225715255,-0.005416200840297147,2.311187003107593,0.006445280532149319,-0.03680997996100412,-0.011981502829464861,19.477570557095927,0.03924375970673685,1.0,0.0,18.158496751299044,-0.8487949822292363,22.52851954078043,88.79107977552718,-0.09388702480928704,6.696077125900986,1.0,22.18547341193642,0.0,1.0,89.46261339331531,4891.715342093226,1.0,1.0,-1.136494738330208,18.642200330459584,-0.022973418028282816,-44.29557302154044,1.0,21.59793128930787,1.0,0.0045999202920458775,4.12616989464864,0.9457459431663375,1.0,-0.4966231857430645,7.158989775507588
0.27,23.66252319742631,0.002728135722608149,21.89139018751564,89.8366842304112,0.013469241551524087,6.3255818016876635,90.05910836814299,17.949279637582126,0.10961185138553872,7.245073911002106,-0.17212720981530605,0.34743783235709297,-1.4286694985011539,-0.759338683536268,3.216647743496948,-0.4620569117264266,4957.931609390344,0.26473214268337897,90.06451055538925,2.018860221383893,1.2224275832955322,101062.29172488241,288.0077059637811,0.0,1.0,0.0,379.045,0.20343070102537836,0.86,nominal,4270.002701614861,nan,pitch_program,12.865,0.0,0.0,-2.557119158070774,-0.18716764496702123,-0.6097844821236125,-2.4280127999876635,-0.19718703188325312,-0.6308524621328638,0.86,0.0,0.0,0.0,0.0,0.0,0.0,-0.04237681764035126,-0.003441562948597802,-0.011010452558531324,-0.04237681764035126,-0.003441562948597802,-0.011010452558531324,0.27,1.0,19.55234998635274,0.02319512571964449,2.454707328297501,0.007971192138250104,-0.022822977321293472,-0.015343519014750418,19.705849793152353,0.02863305386557962,1.0,0.0,18.158496751299044,-0.8487949822292363,22.52851954078043,88.79107977552718,-0.09388702480928704,6.696077125900986,1.0,22.18547341193642,0.0,1.0,90.13407437667536,4962.400455547655,1.0,1.0,-1.136494738330208,18.642200330459584,-0.022973418028282816,-44.29557302154044,1.0,21.59793128930787,1.0,0.0045999202920458775,4.12616989464864,0.9457459431663375,1.0,-0.4966231857430645,7.158989775507588
0.3,26.374878668369842,0.0031224968419274798,22.07677730627595,90.4118490314511,0.013145370643977684,6.179570625343648,90.62278803479997,17.943176716551363,0.12306581119556369,7.2778344086046936,-0.19528963298085716,0.3508764122969349,-1.0935695018097291,-0.763669585979167,3.3669938324592064,-0.4363027084750419,5020.092728598429,0.26638946994319285,90.62816019570846,2.0503787230092447,1.2224058163073648,101060.06933882042,288.0065009475092,0.0,1.0,0.0,384.84999999999997,0.20654620240239774,0.86,nominal,4322.744083770733,nan,pitch_program,12.850000000000001,0.0,0.0,-2.651048108228056,-0.176021192911167,-0.5751934130522672,-2.561833984931899,-0.18448752850000147,-0.5974570326845059,0.86,0.0,0.0,0.0,0.0,0.0,0.0,-0.04471243792654844,-0.003219914801191901,-0.010427592359540003,-0.04471243792654844,-0.003219914801191901,-0.010427592359540003,0.3,1.0,19.933141597459617,0.026150895562060836,2.59611547740256,0.005475574642790604,-0.021343501792444583,-0.012208863216541027,20.101508236590675,0.025190937407588966,1.0,0.0,18.158496751299044,-0.8487949822292363,22.52851954078043,88.79107977552718,-0.09388702480928704,6.696077125900986,1.0,22.083139625230356,0.0,1.0,90.40437754092562,5034.242994878186,1.0,1.0,-0.2273898552453193,18.476886866376645,-0.019333210432992624,-44.29386417727122,1.0,21.913766686787532,1.0,-0.009772768426492724,4.091582313088138,0.9448080567343101,1.0,0.6156934101998371,7.872210160905358
0.32999999999999996,29.104730462213947,0.003496501332517165,22.257960798512496,90.99505979480347,0.012466816352989496,6.039449741218192,91.19526312072392,17.93698033047929,0.13667117671381177,7.303649905202272,-0.2185398441030978,0.35516042704820094,-0.8622568130698526,-0.7667886600161377,3.505591708426172,-0.4107169331671056,5083.622939843468,0.2680726554538811,91.20060900029868,2.082028700054362,1.2223845431690652,101057.89738328279,288.00532325480964,0.0,1.0,0.0,390.655,0.20966170377941715,0.86,nominal,4376.564039093767,nan,pitch_program,12.835,0.0,0.0,-2.7125165174393686,-0.16553954109399005,-0.5401622099269975,-2.6522435044363806,-0.1731187360563946,-0.5630801390300009,0.86,0.0,0.0,0.0,0.0,0.0,0.0,-0.04629038171704768,-0.0030214919410751096,-0.009827602378660944,-0.04629038171704768,-0.0030214919410751096,-0.009827602378660944,0.32999999999999996,1.0,20.172543322687886,-0.006886373230971694,2.788471978503723,0.005365206029012173,-0.014556336872710487,-0.01240623856320862,20.364359246064097,0.019864217431674075,1.0,0.0,18.158496751299044,-0.8487949822292363,22.52851954078043,88.79107977552718,-0.09388702480928704,6.696077125900986,1.0,22.083139625230356,0.0,1.0,90.89488256302776,5073.737715961556,1.0,1.0,-0.2273898552453193,18.476886866376645,-0.019333210432992624,-44.29386417727122,1.0,21.913766686787532,1.0,-0.009772768426492724,4.091582313088138,0.9448080567343101,1.0,0.6156934101998371,7.872210160905358
0.36,31.852321219618076,0.003839249468427397,22.43511460390051,91.5863585801377,0.01142493786367441,5.905126846267149,91.77653148582851,17.930690479365907,0.15042231214904642,7.3206745729504545,-0.24185213115392137,0.35946868054909187,-0.569418173824517,-0.7693324610823077,3.630713042156128,-0.3853160947851537,5148.540397506695,0.2697816934668037,91.78185486082499,2.1137316387563656,1.2223637434386947,101055.77377057241,288.00417175507465,0.0,1.0,0.0,396.46,0.21277720515643656,0.86,nominal,4431.479182414977,nan,pitch_program,12.82,0.0,0.0,-2.8004230697594297,-0.15496530823604435,-0.505035543332376,-2.74115124363021,-0.16222667936418445,-0.5282533816114259,0.86,0.0,0.0,0.0,0.0,0.0,0.0,-0.04784211449648441,-0.00283138968948216,-0.009219760793913451,-0.04784211449648441,-0.00283138968948216,-0.009219760793913451,0.36,1.0,20.561841744422413,0.08543213624983803,2.876042274408147,0.004562264659209243,-0.010450724818650519,-0.013180110259285628,20.762183260359667,0.017428345145272795,1.0,0.0,18.158496751299044,-0.8487949822292363,22.52851954078043,88.79107977552718,-0.09388702480928704,6.696077125900986,1.0,22.99814587908216,0.0,1.0,91.39698400524819,5126.04884043233,1.0,1.0,0.0051835635369995095,18.558772710098822,0.04280608420162824,-44.330733752152916,1.0,22.233177032059903,1.0,-0.00858585558688252,4.086970274543723,0.9439122134902487,1.0,0.025193656839197068,7.106738184995742
0.39,34.61789608896712,0.004139560695196199,22.608403074990182,92.18582897830159,0.01001037422562673,5.776282369655789,92.36662060851992,17.924307163211214,0.1643066719445298,7.328394954000228,-0.2652148974387105,0.3635285387740677,-0.25946649324455745,-0.7716944528635011,3.7421038929195913,-0.36010447768974474,5214.866880867193,0.2715166652795602,92.3719252905871,2.145458004119473,1.222343397801416,101053.69652811332,288.00304538001257,0.0,1.0,0.0,402.265,0.21589270653345596,0.86,nominal,4487.508997334481,nan,pitch_program,12.805,0.0,0.0,-2.8995165099438194,-0.1440532283368419,-0.46998430458566176,-2.8361704034183757,-0.15132260874777892,-0.4932919353959674,0.86,0.0,0.0,0.0,0.0,0.0,0.0,-0.04950051168726649,-0.0026410777553559158,-0.00860956844619479,-0.04950051168726649,-0.0026410777553559158,-0.00860956844619479,0.39,1.0,20.83079368574388,0.002634007657153374,3.0274977042753615,0.002144559621268774,-0.004417077280343517,-0.011328295176082115,21.049648806225154,0.012346658627586196,1.0,0.0,18.158496751299044,-0.8487949822292363,22.52851954078043,88.79107977552718,-0.09388702480928704,6.696077125900986,1.0,22.99814587908216,0.0,1.0,91.54904712897027,5181.918934881977,1.0,1.0,0.0051835635369995095,18.558772710098822,0.04280608420162824,-44.330733752152916,1.0,22.233177032059903,1.0,-0.00858585558688252,4.086970274543723,0.9439122134902487,1.0,0.025193656839197068,7.106738184995742
0.42,37.40170310811571,0.004385957398648471,22.777979289597678,92.7935673049529,0.008213223448409095,5.652540486916518,92.96557112497128,17.91783038201521,0.17831548717250703,7.328643308501096,-0.28863002239543123,0.3674007143111705,-0.010593041952906283,-0.7741000853306019,3.8418868720414006,-0.3350800206397521,5282.626032276167,0.273277690843448,92.97086096269733,2.155317283472426,1.222323488267506,101051.66381866319,288.0019431346176,0.0,1.0,0.0,404.1773684210526,0.21691906078826353,0.86,nominal,4544.67437789638,nan,pitch_program,12.79,0.0,0.0,-2.981408478474958,-0.1328566328433738,-0.43507565053956304,-2.9233132484523248,-0.14024302320513585,-0.4583621644821248,0.86,0.0,0.0,0.0,0.0,0.0,0.0,-0.0510214412526641,-0.0024477025078804317,-0.007999928936780887,-0.0510214412526641,-0.0024477025078804317,-0.007999928936780887,0.42,1.0,20.873077217026697,0.012067188362474293,3.176830417186982,0.006368001046126911,0.001016067585823903,-0.012505583115570365,21.113449496104572,0.014070303469466252,1.0,0.0,38.98874250256396,0.8605557429567626,23.10652923186188,92.81383457631998,-0.006085558468785866,5.6409033827146065,1.0,23.176918685633176,0.0,1.0,93.1605622829006,5284.72507517306,1.0,1.0,0.7264829010018943,18.49006481965682,0.0013167121970354793,-44.25520230054854,1.0,22.711950571843083,1.0,-0.003343157600343736,4.062579019567127,0.9430550517760058,1.0,0.5815433495350639,6.957726310206212
0.44999999999999996,40.20379861002329,0.004567625376109159,22.943963515285084,93.40318339691936,0.0060555992486895915,5.532807522913547,93.566910093443,17.911322810191564,0.19244683085326075,7.323235846871126,-0.31210452601979705,0.37126746229168667,0.1777367155120591,-0.7766750454747884,3.932367065077501,-0.3102609197069471,5351.096909786418,0.27504574409301136,93.57218899457223,2.1542968536613922,1.2223040007006054,101049.6741984351,288.0008642371506,0.0,1.0,0.0,404.14342105263154,0.21690084148196515,0.86,nominal,4602.386752024393,nan,pitch_program,12.775,0.0,0.0,-3.0452724923163976,-0.12153697404035378,-0.4003691908720954,-2.9964887947707686,-0.1290193937062666,-0.42356638031610716,0.86,0.0,0.0,0.0,0.0,0.0,0.0,-0.052298595467866554,-0.002251813219101202,-0.00739262793727057,-0.052298595467866554,-0.002251813219101202,-0.00739262793727057,0.44999999999999996,1.0,20.90103785115679,0.0727933677910017,3.303797709251167,0.009753222920590717,0.0051596756279452755,-0.012906031031619775,21.16066542983789,0.016979789365992773,1.0,0.0,38.98874250256396,0.8605557429567626,23.10652923186188,92.81383457631998,-0.006085558468785866,5.6409033827146065,1.0,23.176918685633176,0.0,1.0,93.1526747026189,5387.7758223750425,1.0,1.0,0.7264829010018943,18.49006481965682,0.0013167121970354793,-44.25520230054854,1.0,22.711950571843083,1.0,-0.003343157600343736,4.062579019567127,0.9430550517760058,1.0,0.5815433495350639,6.957726310206212
0.48,43.024143565362714,0.004674111251991681,23.106458117325314,94.01149851131413,0.0035495291960840687,5.416486734674272,94.16740515427234,17.904815784947104,0.20670438353942558,7.312850157204127,-0.33564536671830014,0.37529973182368787,0.3434765387391005,-0.7795040240531927,4.014536430070995,-0.2856470726983275,5419.912699823919,0.27681132390796465,94.1726770057562,2.1533409237149863,1.2222849230671866,101047.72643836588,287.99980802223735,0.0,1.0,0.0,404.1094736842105,0.2168826221756668,0.86,nominal,4660.347044240708,nan,pitch_program,12.76,0.0,0.0,-3.1040159844002315,-0.11024478617263105,-0.365907281196351,-3.0610051085484464,-0.11775462918608527,-0.3889709208442535,0.86,0.0,0.0,0.0,0.0,0.0,0.0,-0.053424617564536814,-0.0020552059887621985,-0.006788823263246465,-0.053424617564536814,-0.0020552059887621985,-0.006788823263246465,0.48,1.0,20.853449496647254,0.048121998575106004,3.3982837176879808,0.005624260132884614,0.0062320450673318565,-0.010741476036824025,21.128582627849596,0.013632681145441469,1.0,0.0,38.98874250256396,0.8605557429567626,23.10652923186188,92.81383457631998,-0.006085558468785866,5.6409033827146065,1.0,24.502049370936998,0.0,1.0,94.02475470659734,5362.768007776586,1.0,1.0,-0.677205893940337,18.47816729407218,-0.03664544414634671,-44.269527810980854,1.0,23.25869979488577,1.0,-0.015042748247475517,4.080461995012086,0.9422338547066867,1.0,0.8434505746302136,7.662090274902109
0.51,45.86270050133387,0.004694866289365583,23.265560022128717,94.61856453237176,0.0006918345791300847,5.303396826780089,94.76707641658857,17.898309306281835,0.22109505855067005,7.297765913868252,-0.35926010149505233,0.3795969320740508,0.49988981290732676,-0.7826398902864504,4.088852233538736,-0.2612247548754006,5489.073879316133,0.27857448935726625,94.77234506372827,2.1524318436837837,1.2222662439731546,101045.81937470398,287.99877385985616,0.0,1.0,0.0,404.0755263157895,0.21686440286936848,0.86,nominal,4718.5565904647765,nan,pitch_program,12.745,0.0,0.0,-3.1621274424443286,-0.09906276373583596,-0.3317001782527878,-3.1216785088859758,-0.10653950991593568,-0.3546084752893741,0.86,0.0,0.0,0.0,0.0,0.0,0.0,-0.05448356816880734,-0.0018594652314942246,-0.00618908544927653,-0.05448356816880734,-0.0018594652314942246,-0.00618908544927653,0.51,1.0,20.79911740571245,0.10167411976375204,3.5740166264545703,0.007331368341777316,0.00966815969213038,-0.015586478646970723,21.104199044962925,0.01975248314029969,1.0,0.0,38.98874250256396,0.8605557429567626,23.10652923186188,92.81383457631998,-0.006085558468785866,5.6409033827146065,1.0,24.502049370936998,0.0,1.0,93.78195318173347,5484.6325401955255,1.0,1.0,-0.677205893940337,18.47816729407218,-0.03664544414634671,-44.269527810980854,1.0,23.25869979488577,1.0,-0.015042748247475517,4.080461995012086,0.9422338547066867,1.0,0.8434505746302136,7.662090274902109
0.54,48.719433532260965,0.004619241127384934,23.421360395592824,95.22443436423661,-0.0025208387326883215,5.1933457821368645,95.36594647334171,17.891803374195753,0.23562711962154742,7.278552629805858,-0.38295841179845064,0.38419007850111275,0.6373147283843156,-0.7861078477241253,4.15606330796643,-0.23697994737746958,5558.5812775572185,0.28033530681000995,95.37121572274172,2.1515639769536246,1.2222479527015404,101043.9519128556,287.9977611574286,0.0,1.0,0.0,404.0415789473684,0.2168461835630701,0.86,nominal,4777.016957301578,nan,pitch_program,12.73,0.0,0.0,-3.215908914209781,-0.08800824432331995,-0.2977352308724858,-3.178216752080259,-0.09542075056036624,-0.3204845286392411,0.86,0.0,0.0,0.0,0.0,0.0,0.0,-0.05547034666584086,-0.001665406272002615,-0.00559351022645682,-0.05547034666584086,-0.001665406272002615,-0.00559351022645682,0.54,1.0,20.810050391556025,0.018658580818268312,3.659494844019473,0.009290132919923628,0.01265600426500242,-0.014506542594894927,21.129374054977216,0.021375705641758565,1.0,0.0,38.98874250256396,0.8605557429567626,23.10652923186188,92.81383457631998,-0.006085558468785866,5.6409033827146065,1.0,23.598456402739235,0.0,1.0,95.02557053452232,5542.3643988535,1.0,1.0,0.21811963984623464,18.517769626604505,-0.030771136509580105,-44.214788828771056,1.0,23.61523094755062,1.0,-0.028702453145470486,4.049781914724352,0.9414465990110179,1.0,0.24204368181457311,7.158393169969007
0.57,51.59430820894366,0.004436479939341245,23.57394527069591,95.82915588942323,-0.006092039601456319,5.08616250343618,95.96403599580255,17.885297988688862,0.25030903899921064,7.2559226626405335,-0.4067513085209591,0.38907264876914016,0.7509892968595785,-0.789917326314897,4.217043972271458,-0.21289874603813352,5628.435568186058,0.28209383698826096,95.96930961866346,2.1507364436773337,1.2222300391387606,101042.1230198542,287.99676935574047,0.0,1.0,0.0,404.0076315789474,0.21682796425677175,0.86,nominal,4835.729532690713,nan,pitch_program,12.715,0.0,0.0,-3.2632969582634734,-0.0770639064309256,-0.26399355234734934,-3.2292648757901876,-0.08440664408270185,-0.28658994286410605,0.86,0.0,0.0,0.0,0.0,0.0,0.0,-0.056361304501544494,-0.0014731738498021361,-0.005001938106081079,-0.056361304501544494,-0.0014731738498021361,-0.005001938106081079,0.57,1.0,20.784161590878135,0.04018078025917694,3.7198665567900773,0.010196950646871102,0.01579597836276144,-0.01859926555869155,21.114459375772835,0.02644661441951091,1.0,0.0,38.98874250256396,0.8605557429567626,23.10652923186188,92.81383457631998,-0.006085558468785866,5.6409033827146065,1.0,23.598456402739235,0.0,1.0,96.35653772220655,5659.643664864706,1.0,1.0,0.21811963984623464,18.517769626604505,-0.030771136509580105,-44.214788828771056,1.0,23.61523094755062,1.0,-0.028702453145470486,4.049781914724352,0.9414465990110179,1.0,0.24204368181457311,7.158393169969007
0.6,54.4872912938967,0.004135714382185089,23.723396493316667,96.43276949843491,-0.01002551857187188,4.9817074206919365,96.5613615400833,17.878793149761158,0.26514897583589514,7.230416244730871,-0.43064965268756955,0.3942272219953647,0.8466506204185923,-0.7940709789887234,4.272473272980035,-0.18896750709054952,5698.63700272955,0.28385012852215047,96.56664327557328,2.1499450148761725,1.2222124936635141,101040.33171301556,287.99579792279343,0.0,1.0,0.0,403.9736842105263,0.21680974495047337,0.86,nominal,4894.695317458522,nan,pitch_program,12.7,0.0,0.0,-3.305998857771672,-0.0662038985471375,-0.23045876161111928,-3.275305264979078,-0.07348499676136323,-0.252911234112314,0.86,0.0,0.0,0.0,0.0,0.0,0.0,-0.057164860881790236,-0.0012825551443031583,-0.004414133750542077,-0.057164860881790236,-0.0012825551443031583,-0.004414133750542077,0.6,1.0,20.774864885219245,0.06261492818398375,3.870630334111275,0.004691714206782084,0.019316381183320578,-0.01335698092560362,21.132456336443465,0.02394877248763287,1.0,0.0,38.98874250256396,0.8605557429567626,23.10652923186188,92.81383457631998,-0.006085558468785866,5.6409033827146065,1.0,23.92599154726156,0.0,1.0,96.62038314613609,5726.313203896308,1.0,1.0,-2.5190625842607215,18.586791901651733,-0.07641869897297486,-44.299898348428044,1.0,23.301079200588113,1.0,-0.02276583960877912,4.054158612352851,0.9406915087667084,1.0,0.23394974820848505,7.175527405565979
0.63,57.398350613999945,0.003705958451610429,23.86979225810262,97.035310670108,-0.014325197685822,4.879858826198415,97.15793711385237,17.872288857412645,0.2801547819532815,7.202408766428327,-0.45466392738026706,0.3996398250483846,0.9297930480096974,-0.7985687064322671,4.322851142845065,-0.16517287762541719,5769.18558125767,0.285604222554796,97.16323067197109,2.149183659428415,1.2221953070838283,101038.57705350887,287.9948463503223,0.0,1.0,0.0,403.9397368421053,0.21679152564417503,0.86,nominal,4953.915070357568,nan,pitch_program,12.685,0.0,0.0,-3.345729013060733,-0.05540644979784053,-0.19711436149900405,-3.3175595138280713,-0.029393998704545298,-0.21943311054432804,0.86,0.0,0.0,0.0,0.0,0.0,0.0,-0.05790233664716219,-0.0005130220577212633,-0.0038298302668912107,-0.05790233664716219,-0.0005130220577212633,-0.0038298302668912107,0.63,1.0,20.743223664466008,0.07090744621516609,3.975327514802063,0.00797259293296822,0.01424297838409552,-0.012125720011196944,21.120832954927078,0.020333660691438937,1.0,0.0,57.720450987417166,-1.4368188053712052,24.340089061976595,97.2461937854662,0.09673297335401994,4.84621499053439,1.0,23.92599154726156,0.0,1.0,97.38115390218795,5769.546435783116,1.0,1.0,-2.5190625842607215,18.586791901651733,-0.07641869897297486,-44.299898348428044,1.0,23.301079200588113,1.0,-0.02276583960877912,4.054158612352851,0.9406915087667084,1.0,0.23394974820848505,7.175527405565979
0.6599999999999999,60.327454974279874,0.0031361039621342662,24.0132073640952,97.63681200933095,-0.018995149649205418,4.7805035330860655,97.75377554954586,17.86578511164332,0.29609846229074066,7.1722535847571125,-0.4788045405919053,0.43077849698588844,1.0011452782559755,-0.8034088884850112,4.368645318438777,-0.14156023681592658,5840.081206958739,0.287356156778011,97.75908461360657,2.148448530562532,1.2221784706070031,101036.8581432869,287.99391415213336,0.0,1.0,0.0,403.9057894736842,0.21677330633787664,0.86,nominal,5013.3894370926,nan,pitch_program,12.67,0.0,0.0,-3.3825473137428257,-0.06729087925447974,-0.16399177654084401,-3.3565521937769236,-0.05213212703450597,-0.18616831014223761,0.86,0.0,0.0,0.0,0.0,0.0,0.0,-0.05858288729644604,-0.0009098772628200766,-0.0032492499748559994,-0.05858288729644604,-0.0009098772628200766,-0.0032492499748559994,0.6599999999999999,1.0,20.64174778598556,0.039209518816809265,4.000238021150471,0.00863266988299036,0.013817833542493442,-0.011639587226398157,21.025822059374125,0.020023373939415823,1.0,0.0,57.720450987417166,-1.4368188053712052,24.340089061976595,97.2461937854662,0.09673297335401994,4.84621499053439,1.0,23.954204721231733,0.0,1.0,98.42162363968377,5696.449394360675,1.0,1.0,-2.1491401637011927,18.679845768771912,-0.021453339465662767,-44.227992972189625,1.0,24.053878507761553,1.0,-0.026198706969608604,4.0488827355000145,0.939966981589762,1.0,0.23955173490859047,7.6262082126263415
0.69,63.27457406311273,0.002414879301015249,24.15371353614944,98.23730296109521,-0.02404082203730057,4.6835390684745395,98.34888819522597,17.859281912453184,0.31221311246195066,7.140311088930587,-0.503083369531808,0.4363361966215045,1.0604722242568758,-0.8086308843579301,4.41032569261278,-0.1180586535464106,5911.3236459904265,0.2891059645606518,98.35421643671984,2.1477378444786934,1.2221619758018343,101035.17412122786,287.993000862015,0.0,1.0,0.0,403.8718421052631,0.21675508703157828,0.86,nominal,5073.118919467809,nan,pitch_program,12.655,0.0,0.0,-3.416170903979787,-0.05545814717138718,-0.13103900334669932,-3.392323419898642,-0.020852850813802386,-0.15309072606491464,0.86,0.0,0.0,0.0,0.0,0.0,0.0,-0.059207212969745425,-0.0003639509051280306,-0.0026719372241014627,-0.059207212969745425,-0.0003639509051280306,-0.0026719372241014627,0.69,1.0,20.67587597190842,0.05108874120171951,4.174440367035551,0.007372079158434476,0.01921524628285592,-0.012022128023679884,21.093136552991677,0.02383494919329138,1.0,0.0,57.720450987417166,-1.4368188053712052,24.340089061976595,97.2461937854662,0.09673297335401994,4.84621499053439,1.0,23.954204721231733,0.0,1.0,97.60120380987642,5920.326831040958,1.0,1.0,-2.1491401637011927,18.679845768771912,-0.021453339465662767,-44.227992972189625,1.0,24.053878507761553,1.0,-0.026198706969608604,4.0488827355000145,0.939966981589762,1.0,0.23955173490859047,7.6262082126263415
0.72,66.23967834195531,0.001530877209809845,24.291379829402192,98.83680929475267,-0.029466736373513474,4.588876441758456,98.94328439491781,17.852779259842237,0.3289916813227014,7.106897804837496,-0.527511661540253,0.45830697865707215,1.109237594791703,-0.8142105261836791,4.4483043426374556,-0.09469283181378386,5982.912456179432,0.29085367335246165,98.94863546470125,2.14704976043103,1.2221458145510986,101033.52415828338,287.99210603110885,0.0,1.0,0.0,403.8378947368421,0.21673686772527995,0.86,nominal,5133.103823430801,nan,pitch_program,12.64,0.0,0.0,-3.4469353103308147,-0.058024997969372376,-0.09825918163855007,-3.4250905541579457,-0.04315613910714438,-0.1201917994090959,0.86,0.0,0.0,0.0,0.0,0.0,0.0,-0.05977910734901331,-0.0007532167198683553,-0.0020977426335852985,-0.05977910734901331,-0.0007532167198683553,-0.0020977426335852985,0.72,1.0,20.61257385441282,0.006189485359022622,4.267659292932673,0.010507768950775986,0.01948282534922257,-0.016353570674902288,21.04973052212086,0.027521500063227393,1.0,0.0,57.720450987417166,-1.4368188053712052,24.340089061976595,97.2461937854662,0.09673297335401994,4.84621499053439,1.0,23.548189214945257,0.0,1.0,98.8286402597616,5965.410770575193,1.0,1.0,-0.24001709468664092,18.62543747693078,-0.037183689409258494,-44.196349253813665,1.0,24.869068203481874,1.0,-0.028441596586072787,4.066257764059021,0.9392715504264946,1.0,-0.11553914641116353,6.759019677338718
0.75,69.22273894958869,0.0004725260413269276,24.426272962919928,99.43535358777925,-0.03527837228276391,4.496437783924514,99.53697172626329,17.84627715381048,0.34565932640600466,7.072274761789398,-0.552101220239641,0.4544258072406145,1.149292746296456,-0.8201658377044868,4.482931314057131,-0.07138962828187619,6054.847010751045,0.2925993054397728,99.54234926492093,2.146382123253598,1.2221299790123494,101031.90745347484,287.991229225741,0.0,1.0,0.0,403.80394736842106,0.21671864841898159,0.86,nominal,5193.3442799692875,nan,pitch_program,12.625,0.0,0.0,-3.47534268935591,-0.0369202247385185,-0.065590391228514,-3.4552418352767242,-0.01726245564285775,-0.08743095450074675,0.86,0.0,0.0,0.0,0.0,0.0,0.0,-0.060305346478230396,-0.0003012866879473421,-0.001525958024199386,-0.060305346478230396,-0.0003012866879473421,-0.001525958024199386,0.75,1.0,20.563468329001797,0.02275308946970811,4.2698728373415324,0.009121554633317248,0.023802016532255704,-0.012962437118970662,21.002108500529353,0.028596564933460692,1.0,0.0,57.720450987417166,-1.4368188053712052,24.340089061976595,97.2461937854662,0.09673297335401994,4.84621499053439,1.0,23.548189214945257,0.0,1.0,99.9629597126369,6038.324014260193,1.0,1.0,-0.24001709468664092,18.62543747693078,-0.037183689409258494,-44.196349253813665,1.0,24.869068203481874,1.0,-0.028441596586072787,4.066257764059021,0.9392715504264946,1.0,-0.11553914641116353,6.759019677338718
0.78,72.22372762541194,-0.0007718781772821683,24.55845757106998,100.03295586077489,-0.041480140620303196,4.406153605001674,100.12995639885534,17.83977559435791,0.3625917304525945,7.036671582437697,-0.576862843537194,0.46304520735519566,1.1816872383174206,-0.8264585260365137,4.514515978326137,-0.04816512030816682,6127.12653803536,0.294342879056462,100.13536402649123,2.145733317648202,1.2221144615883803,101030.32323087702,287.990370025788,0.0,1.0,0.0,403.77,0.21670042911268322,0.86,nominal,5253.840282157669,nan,pitch_program,12.61,0.0,0.0,-3.501631718575659,-0.02703398683602474,-0.03302245696341141,-3.483075765256085,-0.006904982257143101,-0.034972381800298706,0.86,0.0,0.0,0.0,0.0,0.0,0.0,-0.0607911402001398,-0.00012051467517893685,-0.0006103832096797544,-0.0607911402001398,-0.00012051467517893685,-0.0006103832096797544,0.78,1.0,20.56770418701133,-0.05660724043832098,4.383702558912354,0.00886535882740407,0.01988747676723975,-0.014678287984614567,21.02975292363389,0.026259445109625076,1.0,0.0,57.720450987417166,-1.4368188053712052,24.340089061976595,97.2461937854662,0.09673297335401994,4.84621499053439,1.0,23.507534653924917,0.0,1.0,100.17645806944701,6214.490919988106,1.0,1.0,-0.5536626365528736,18.752457392058155,-0.01755014030027219,-44.226442791793396,1.0,24.36575942338795,1.0,-0.0077030214553848245,4.066890896975436,0.9386038560723251,1.0,-0.0015281673015561223,6.516773494326579
0.8099999999999999,75.24261665785748,-0.0022122481152825517,24.68799644292238,100.62963441485141,-0.04801233126667944,4.317962395080037,100.72224395284255,17.83327458148453,0.37984188453124673,7.000297063946419,-0.6022120599709319,0.47175815771391255,1.2070250625755756,-0.8464803440926534,4.543343949710877,-0.024570012586373785,6199.750125303123,0.29608440859877605,100.72768463316557,2.145101958950368,1.22209925489909,101028.77073674492,287.98952802312095,0.0,1.0,0.0,403.73605263157896,0.21668220980638486,0.86,nominal,5314.591753764948,nan,pitch_program,12.595,0.0,0.0,-3.5259198792814725,-0.0165990702555711,-0.005658236432690924,-3.5087822336713175,-0.0027619929028572404,-0.013988952720119482,0.86,0.0,0.0,0.0,0.0,0.0,0.0,-0.061239802713045535,-4.820587007157474e-05,-0.0002441532838719018,-0.061239802713045535,-4.820587007157474e-05,-0.0002441532838719018,0.8099999999999999,1.0,20.60314697801572,-0.013385237877937446,4.541448455286614,0.009360896313068023,0.020515063745908144,-0.012005773771030112,21.097739183010496,0.025546679316964853,1.0,0.0,57.720450987417166,-1.4368188053712052,24.340089061976595,97.2461937854662,0.09673297335401994,4.84621499053439,1.0,23.507534653924917,0.0,1.0,99.9080561719015,6151.035498077158,1.0,1.0,-0.5536626365528736,18.752457392058155,-0.01755014030027219,-44.226442791793396,1.0,24.36575942338795,1.0,-0.0077030214553848245,4.066890896975436,0.9386038560723251,1.0,-0.0015281673015561223,6.516773494326579
0.84,78.27937876836823,-0.0038619724747545594,24.81495071405497,101.22540368369164,-0.05499081198240026,4.231809037753001,101.31383707395422,17.82677411519034,0.39722494411405884,6.96334291661932,-0.6279123600092241,0.47530249521297563,1.2260104767855522,-0.8586577643610982,4.5696736911365905,-0.0008878307392620981,6272.716738628678,0.29782390521212176,101.31931486282222,2.144487519526119,1.22208435175895,101027.24923721237,287.98870282035864,0.0,1.0,0.0,403.7021052631579,0.2166639905000865,0.86,nominal,5375.598327743858,nan,pitch_program,12.58,0.0,0.0,-3.5483129777541014,-0.001448195917627044,0.025369560431954742,-3.532500680120988,-0.0011047971611428961,-0.005595581088047793,0.86,0.0,0.0,0.0,0.0,0.0,0.0,-0.06165376769705024,-1.9282348028629898e-05,-9.766131354876071e-05,-0.06165376769705024,-1.9282348028629898e-05,-9.766131354876071e-05,0.84,1.0,20.490885330257907,0.051304207134283686,4.529635422198764,0.009561715151427674,0.025194540798151754,-0.015045107391719843,20.985628672915333,0.030863352687210733,1.0,0.0,77.87340189261175,0.10654787297893308,24.91985189059858,101.23437903055031,-0.03794779300653665,4.179590328750036,1.0,25.96126613155621,0.0,1.0,101.07794330299214,6290.964588521732,1.0,1.0,-0.8803891518122335,18.689174531603236,-0.000751729192218685,-44.16135924811625,1.0,24.643314788277774,1.0,-0.0559483794936393,4.072822356791842,0.9379626232148626,1.0,0.9568673538146498,7.402595999256395
0.87,81.33398706433076,-0.005735970802582302,24.939380086596575,101.82027653208414,-0.06246661092759141,4.147645751386831,101.90473777222805,17.82027419547534,0.4144578764603272,6.925973943123511,-0.6534561590136678,0.4714805433407885,1.239614432459306,-0.8540150847262425,4.593728555190201,0.022373074939038267,6346.025189965178,0.2995613761118942,101.91025715622749,2.143889132312532,1.2220697451511373,101025.75801565086,287.9878940294371,0.0,1.0,0.0,403.66815789473685,0.21664577119378817,0.86,nominal,5436.859561939503,nan,pitch_program,12.565,0.0,0.0,-3.5690402988524585,0.019949766686085328,0.06316139329517201,-3.5544244513598704,-0.00044191886445715855,0.03565860354188409,0.86,0.0,0.0,0.0,0.0,0.0,0.0,-0.062036409689622776,-7.71293921145196e-06,0.0006223600384691891,-0.062036409689622776,-7.71293921145196e-06,0.0006223600384691891,0.87,1.0,20.454468006985497,-0.0059362218079659435,4.645745316088934,0.007466096792929828,0.021239876908307403,-0.013481573449933974,20.975420048940258,0.026241718600111003,1.0,0.0,77.87340189261175,0.10654787297893308,24.91985189059858,101.23437903055031,-0.03794779300653665,4.179590328750036,1.0,25.96126613155621,0.0,1.0,101.6715199035059,6284.690575961853,1.0,1.0,-0.8803891518122335,18.689174531603236,-0.000751729192218685,-44.16135924811625,1.0,24.643314788277774,1.0,-0.0559483794936393,4.072822356791842,0.9379626232148626,1.0,0.9568673538146498,7.402595999256395
0.8999999999999999,84.4064150363191,-0.00784579663669989,25.06134303176858,102.41426573294481,-0.07032752780391957,4.0654315057334385,102.49494867995794,17.813774822339525,0.43131827361773173,6.88832767252254,-0.6790326619363416,0.45948492873413627,1.2485947926751495,-0.8556014808319179,4.615704140718355,0.04548784107594545,6419.67417693454,0.3012968256336909,102.50051297414478,2.1433058383073673,1.2220554282037532,101024.29637024054,287.98710127029346,0.0,1.0,0.0,403.6342105263158,0.2166275518874898,0.86,nominal,5498.375072096099,nan,pitch_program,12.55,0.0,0.0,-3.588328059016923,0.048613148635393746,0.09818043916760372,-3.574766615954102,-0.00017676754578286344,0.07317170491731585,0.86,0.0,0.0,0.0,0.0,0.0,0.0,-0.062391447438774734,-3.0851756845807842e-06,0.0012770871701048869,-0.062391447438774734,-3.0851756845807842e-06,0.0012770871701048869,0.8999999999999999,1.0,20.485346395898297,-0.016128480065482145,4.677109628250269,0.00846694622219449,0.021743109956427323,-0.011106784016692711,21.01249703301547,0.025842071513334283,1.0,0.0,77.87340189261175,0.10654787297893308,24.91985189059858,101.23437903055031,-0.03794779300653665,4.179590328750036,1.0,25.04743087286841,0.0,1.0,101.96985330241493,6553.841733721881,1.0,1.0,-2.696747050527383,18.909503265448382,-0.08322506199259407,-44.0893117650376,1.0,25.201606542541874,1.0,-0.042669704464306395,4.075315730141841,0.9373466424205785,1.0,0.619392911441704,6.6690780431515755
0.9299999999999999,87.4966364760804,-0.010203402025279673,25.180896904325145,103.00738132537649,-0.07858684628599279,3.9851290852188255,103.0844703979692,17.8072759957829,0.4475621308030563,6.850532555782509,-0.7047594459464074,0.4388916648440765,1.2532702980703494,-0.8610407806529438,4.635782231178895,0.06859065624163291,6493.662303527862,0.3030302558004133,103.09008299018076,2.1427372590075575,1.2220413941763586,101022.8636125953,287.98632417012186,0.0,1.0,0.0,403.6002631578947,0.21660933258119142,0.86,nominal,5560.144261241693,nan,pitch_program,12.535000000000002,0.0,0.0,-3.606211939889412,0.08462254912677696,0.1316352154327295,-3.5936338103152883,0.050702822457753025,0.10824981122656403,0.86,0.0,0.0,0.0,0.0,0.0,0.0,-0.06272074210099114,0.0008849311919419138,0.0018893156205658638,-0.06272074210099114,0.0008849311919419138,0.0018893156205658638,0.9299999999999999,1.0,20.42774760259815,-0.04266462785253604,4.741788781954288,0.006867928159886899,0.023016607382906645,-0.01650291551707092,20.970914458806792,0.029142389627342166,1.0,0.0,77.87340189261175,0.10654787297893308,24.91985189059858,101.23437903055031,-0.03794779300653665,4.179590328750036,1.0,25.04743087286841,0.0,1.0,102.97613089632185,6455.959458985775,1.0,1.0,-2.696747050527383,18.909503265448382,-0.08322506199259407,-44.0893117650376,1.0,25.201606542541874,1.0,-0.042669704464306395,4.075315730141841,0.9373466424205785,1.0,0.619392911441704,6.6690780431515755
0.96,90.60462543233227,-0.012821067693929513,25.29809808773633,103.59963187506236,-0.08725552228832802,3.906706113706235,103.67330269087348,17.800777715805463,0.4642481934578303,6.812702905191886,-0.7307037593647124,0.453331235812132,1.2541160802736901,-0.8686768296020544,4.654127892325709,0.09166126695310611,6567.98806794513,0.3047616661080885,103.67896701779998,2.142183118806831,1.2220276364429197,101021.45906602108,287.9855623624297,0.0,1.0,0.0,403.56631578947366,0.21659111327489305,0.86,nominal,5622.166439028838,nan,pitch_program,12.520000000000001,0.0,0.0,-3.6227932827856186,0.08891261966595088,0.16426044270203083,-3.611129493797487,0.07362870078267174,0.1418561901118441,0.86,0.0,0.0,0.0,0.0,0.0,0.0,-0.0630260993826423,0.0012850632526233477,0.0024758575817867027,-0.0630260993826423,0.0012850632526233477,0.0024758575817867027,0.96,1.0,20.400549623943263,0.028174400716497586,4.890029869294455,0.01372285417598911,0.021488866780081432,-0.01689583786065625,20.978455874501805,0.03058688377787339,1.0,0.0,77.87340189261175,0.10654787297893308,24.91985189059858,101.23437903055031,-0.03794779300653665,4.179590328750036,1.0,25.015672173187657,0.0,1.0,103.1800766865304,6582.391868554474,1.0,1.0,-0.4096402247229066,18.93670443675554,-0.033948504370230476,-44.140207136597674,1.0,25.44724596667455,1.0,-0.03759253009325157,4.072747888165759,0.9367547547806592,1.0,0.1789569263440761,6.59539336679569
0.99,93.73035616968072,-0.01571140389163866,25.413002124824008,104.19102457828157,-0.09634453992363824,3.8301345695892266,104.26144453134923,17.794279982407215,0.4817158623488826,6.774936271848625,-0.7569028869856468,0.4789464755934361,1.2516864323082617,-0.8775347916281508,4.670885905467699,0.11470673684216061,6642.649868041276,0.30649105372477176,104.26716407787956,2.141643065511154,1.222014148476454,101020.08206394776,287.9848154861886,0.0,1.0,0.0,403.53236842105264,0.21657289396859472,0.86,nominal,5684.440825169211,nan,pitch_program,12.505,0.0,0.0,-3.638212527170244,0.08376654565993864,0.19650192020504934,-3.6273793138211414,0.07971140770903187,0.17464362816776724,0.86,0.0,0.0,0.0,0.0,0.0,0.0,-0.06330971224491157,0.0013912265159221964,0.00304810632915625,-0.06330971224491157,0.0013912265159221964,0.00304810632915625,0.99,1.0,20.47366802911793,0.008528580113532198,4.958258511225075,0.006953134252003449,0.022171976253278027,-0.011722401149397717,21.065504569493235,0.026026088749747035,1.0,0.0,77.87340189261175,0.10654787297893308,24.91985189059858,101.23437903055031,-0.03794779300653665,4.179590328750036,1.0,25.015672173187657,0.0,1.0,103.58004870417987,6598.867551598194,1.0,1.0,-0.4096402247229066,18.93670443675554,-0.033948504370230476,-44.140207136597674,1.0,25.44724596667455,1.0,-0.03759253009325157,4.072747888165759,0.9367547547806592,1.0,0.1789569263440761,6.59539336679569
1.02,96.87380313366087,-0.018887327185002935,25.525663825549806,104.78156546600505,-0.10586410977880913,3.755390024193221,104.84889423809032,17.787782795588157,0.49986108816387764,6.737317652506042,-0.7833774914547006,0.501021937761986,1.2464013418687514,-0.8870677244425023,4.6861847968347545,0.13775389921059583,6717.646015125295,0.3082184138738834,104.85467252902852,2.1411168139669425,1.2220009238363647,101018.73194863558,287.9840831851339,0.0,1.0,0.0,403.49842105263156,0.21655467466229633,0.86,nominal,5746.966562629954,nan,pitch_program,12.49,0.0,0.0,-3.6525686043610186,0.08260136592388381,0.22862980337828342,-3.6424928881450676,0.08144538263794304,0.20703533329407695,0.86,0.0,0.0,0.0,0.0,0.0,0.0,-0.06357349387860896,0.0014214900875787308,0.00361344823394548,-0.06357349387860896,0.0014214900875787308,0.00361344823394548,1.02,1.0,20.356550612724433,-0.02303424294564473,5.05083016810292,0.007475753708409939,0.022669596432612356,-0.014508087017109487,20.973806731534886,0.027933529759454616,1.0,0.0,77.87340189261175,0.10654787297893308,24.91985189059858,101.23437903055031,-0.03794779300653665,4.179590328750036,1.0,25.35507441049686,0.0,1.0,105.02632373466882,6838.709524861194,1.0,1.0,-0.5762149407644948,18.940868331443383,-0.08433932521387177,-44.08542330640524,1.0,25.584554161331745,1.0,-0.04504691323854409,4.1209264265626855,0.9361858404361255,1.0,0.26484271787933045,6.392108477295599
1.05,100.03494091986741,-0.02236202611923412,25.636137361857386,105.37125954021813,-0.11582329780770612,3.682451210252719,105.43564956429213,17.781286155348287,0.5184601669876944,6.699922708411674,-0.8101397227404438,0.515602390792511,1.238576071846905,-0.8969902033130451,4.700140453588243,0.16083171389006798,6792.974742519269,0.30994374008488074,105.4414901527849,2.1406042035542496,1.2219879561572917,101017.4080700367,287.9833651071479,0.0,1.0,0.0,403.46447368421053,0.216536455355998,0.86,nominal,5809.742725981768,nan,pitch_program,12.475,0.0,0.0,-3.6659283320246394,0.08881501840824903,0.2607992954537822,-3.6565541544728104,0.08586716410012664,0.2392937105899001,0.86,0.0,0.0,0.0,0.0,0.0,0.0,-0.06381890927302789,0.0014986647328974836,0.004176463129108179,-0.06381890927302789,0.0014986647328974836,0.004176463129108179,1.05,1.0,20.389144900674253,-0.00017264016879091348,5.094211877963627,0.00803701130019853,0.02313798617647932,-0.015871618659010087,21.0159040840046,0.02918678183355445,1.0,0.0,100.9621087803198,-0.5366833395792645,25.097954359040244,105.48204149386056,-0.21995609746628805,3.66904860383245,1.0,25.35507441049686,0.0,1.0,105.08363829964834,6695.1932402981965,1.0,1.0,-0.5762149407644948,18.940868331443383,-0.08433932521387177,-44.08542330640524,1.0,25.584554161331745,1.0,-0.04504691323854409,4.1209264265626855,0.9361858404361255,1.0,0.26484271787933045,6.392108477295599
1.08,103.21374424570978,-0.026148930594024365,25.74447635501004,105.96011086141202,-0.12623014915967493,3.6112997717550974,106.0217077482473,17.774790061687607,0.5373579083937848,6.662817783024317,-0.8371979293929743,0.5249859480244267,1.2285247042253917,-0.9071724623749199,4.712856752526174,0.1839605397668405,6868.634210202468,0.3116670243465871,106.02761420570152,2.140105112672916,1.221975239138846,101016.10978474656,287.9826609036924,0.0,1.0,0.0,403.43052631578945,0.21651823604969964,0.86,nominal,5872.768325974239,nan,pitch_program,12.46,0.0,0.0,-3.6783634402514247,0.10012770942314358,0.29308912662333747,-3.669639725939979,0.0944234912939368,0.2715709602099625,0.86,0.0,0.0,0.0,0.0,0.0,0.0,-0.064047295579635,0.0016480008143073981,0.004739807408466357,-0.064047295579635,0.0016480008143073981,0.004739807408466357,1.08,1.0,20.301158059522862,-0.050013167313400754,5.238208527672707,0.009222843033357905,0.021591666454007407,-0.014249807756608779,20.96612382997911,0.027464848715756197,1.0,0.0,100.9621087803198,-0.5366833395792645,25.097954359040244,105.48204149386056,-0.21995609746628805,3.66904860383245,1.0,26.162290273308255,0.0,1.0,105.84372852383157,6860.195780427733,1.0,1.0,-0.11075279705111474,19.02729372336413,-0.08926960571544447,-44.016804424214705,1.0,25.689117935440816,1.0,-0.056593754946518054,4.114127736431916,0.9356388091124749,1.0,-0.2708883572629032,6.734874555451605
1.1099999999999999,106.41018792501252,-0.030261693250224788,25.850733952737738,106.54812264342488,-0.1370920885400141,3.5419199242566117,106.60706557179452,17.768294514606115,0.5565094541473887,6.626060251515911,-0.8645593394116103,0.5328541005857625,1.2165476755323907,-0.9175756877329742,4.724426473803913,0.20715102597677337,6944.622511043719,0.3133882572910562,106.61304148182798,2.139619425353721,1.2219627665365458,101014.83645507817,287.9819702293072,0.0,1.0,0.0,403.3965789473684,0.21650001674340127,0.86,nominal,5936.042315032063,nan,pitch_program,12.445,0.0,0.0,-3.689946369884469,0.11310469073196826,0.3255297677309627,-3.6818237123066724,0.10563221095675568,0.30394624472256265,0.86,0.0,0.0,0.0,0.0,0.0,0.0,-0.0642599462577519,0.001843629877356616,0.0053048627194811565,-0.0642599462577519,0.001843629877356616,0.0053048627194811565,1.1099999999999999,1.0,20.335745384531357,-0.08249584195009767,5.288602467937893,0.008346526617131337,0.02190690168594533,-0.01319037281613947,21.012345465756702,0.02689912234770695,1.0,0.0,100.9621087803198,-0.5366833395792645,25.097954359040244,105.48204149386056,-0.21995609746628805,3.66904860383245,1.0,26.162290273308255,0.0,1.0,107.1329311873722,6987.133756776345,1.0,1.0,-0.11075279705111474,19.02729372336413,-0.08926960571544447,-44.016804424214705,1.0,25.689117935440816,1.0,-0.056593754946518054,4.114127736431916,0.9356388091124749,1.0,-0.2708883572629032,6.734874555451605
1.14,109.62424684540433,-0.0347141836116106,25.954962895888897,107.13529734639353,-0.14841634537952705,3.4742981050386166,107.19171942008585,17.761799514103814,0.5759421917742986,6.589699965449288,-0.8922315088974176,0.5416132199499645,1.202895427857932,-0.9282108865160833,4.734933080054695,0.2304083317306135,7020.937677497497,0.3151074283815748,107.19776837660925,2.1391470597552993,1.2219505321539719,101013.58744826108,287.9812927411767,0.0,1.0,0.0,403.3626315789474,0.21648179743710294,0.86,nominal,5999.563593000174,nan,pitch_program,12.43,0.0,0.0,-3.7007367066536596,0.1255611851794798,0.3581256229357823,-3.6931715089148645,0.11758959549039015,0.33645387165049445,0.86,0.0,0.0,0.0,0.0,0.0,0.0,-0.0644580026714115,0.002052325607395584,0.0058722278413835365,-0.0644580026714115,0.002052325607395584,0.0058722278413835365,1.14,1.0,20.284632308453766,-0.02996220757332963,5.310046126204992,0.010665975359228098,0.01759685070425418,-0.01425220072887989,20.96816147127529,0.025030729327923235,1.0,0.0,100.9621087803198,-0.5366833395792645,25.097954359040244,105.48204149386056,-0.21995609746628805,3.66904860383245,1.0,26.67396378293944,0.0,1.0,106.97406662943105,6958.667030142394,1.0,1.0,-1.6521071442775528,19.096174263840958,-0.0036701559515679855,-44.08664523615491,1.0,26.00934678294851,1.0,-0.051321753320086434,4.123624179227615,0.9351125927602777,1.0,0.37321634984318147,6.884498040291045
1.17,112.85589594790716,-0.039520491294220195,26.057215577360534,107.7216367500941,-0.16021025608698644,3.4084227157212346,107.77566532782076,17.7553050601807,0.5957042203789296,6.553780284633204,-0.9202229715652969,0.5519494868616237,1.1877830114837686,-0.9391114933986953,4.744451869021131,0.2537368058582362,7097.577686631713,0.31682452605711986,107.78179093597674,2.138687967747415,1.2219385298358545,101012.36213573493,287.98062809874716,0.0,1.0,0.0,403.3286842105263,0.21646357813080455,0.86,nominal,6063.3310115689355,nan,pitch_program,12.415,0.0,0.0,-3.710785507681371,0.13691716747790222,0.39087128636786556,-3.7037399081747684,0.12918613868289738,0.3691043204809171,0.86,0.0,0.0,0.0,0.0,0.0,0.0,-0.06464245603516215,0.00225472346795457,0.006442085675728343,-0.06464245603516215,0.00225472346795457,0.006442085675728343,1.17,1.0,20.194923756529874,-0.06679613604719875,5.338048074225121,0.008769863793654594,0.022961418841256395,-0.017481087768410872,20.888613273709293,0.030161659366317067,1.0,0.0,100.9621087803198,-0.5366833395792645,25.097954359040244,105.48204149386056,-0.21995609746628805,3.66904860383245,1.0,26.67396378293944,0.0,1.0,107.8493195743237,7017.725768313231,1.0,1.0,-1.6521071442775528,19.096174263840958,-0.0036701559515679855,-44.08664523615491,1.0,26.00934678294851,1.0,-0.051321753320086434,4.123624179227615,0.9351125927602777,1.0,0.37321634984318147,6.884498040291045
1.2,116.10511020846178,-0.044694933756436295,26.157544094486088,108.30714201848737,-0.1724814154072034,3.344283904185134,108.35889902026157,17.748811152836776,0.6158333135845446,6.518338572595378,-0.9485433771601857,0.5635141259768449,1.1714087444477137,-0.9503156846180573,4.75305053297621,0.2771426110804839,7174.540464484761,0.31853953785709654,108.36510489873599,2.1382421112866394,1.221926753461893,101011.15989251852,287.9799759633858,0.0,1.0,0.0,403.2947368421053,0.21644535882450622,0.86,nominal,6127.343378235814,nan,pitch_program,12.4,0.0,0.0,-3.720141363423025,0.14753399992296937,0.4237615428689488,-3.713580781323722,0.14019485542694057,0.4018986539137361,0.86,0.0,0.0,0.0,0.0,0.0,0.0,-0.0648142116728825,0.0024468618215575536,0.007014454770127889,-0.0648142116728825,0.0024468618215575536,0.007014454770127889,1.2,1.0,20.16785934421943,0.016123237636807376,5.535750764196612,0.009710413140487423,0.019992279824575063,-0.017603700663007194,20.91380756845377,0.028352665711989446,1.0,0.0,100.9621087803198,-0.5366833395792645,25.097954359040244,105.48204149386056,-0.21995609746628805,3.66904860383245,1.0,26.845496989180294,0.0,1.0,107.76660385136798,7202.919647020677,1.0,1.0,1.1148830968680699,19.13121162200602,0.009501327352903433,-44.022489008132254,1.0,26.40242480749381,1.0,-0.058317194042178916,4.12953312868985,0.9346061397637848,1.0,0.498129060266598,6.119864141705164
