time_s,sensor_time_s,imu_valid,imu_ax_mps2,imu_ay_mps2,imu_az_mps2,gyro_p_rps,gyro_q_rps,gyro_r_rps,imu_accel_norm_mps2,imu_gyro_norm_rps,gps_valid,gps_latency_s,gps_x_m,gps_y_m,gps_z_m,gps_vx_mps,gps_vy_mps,gps_vz_mps,baro_valid,baro_alt_m,baro_bias_m,pitot_valid,pitot_airspeed_mps,pitot_qbar_pa,pitot_compressibility_factor,mag_valid,mag_heading_deg,mag_x_ut,mag_y_ut,mag_z_ut,radar_valid,radar_agl_m,optical_flow_valid,optical_flow_x_radps,optical_flow_y_radps,optical_flow_quality,horizon_valid,horizon_roll_deg,horizon_pitch_deg
0.0,0.0,1.0,17.089396860779395,0.06553239557522014,0.17664861184329914,0.0016677683591043149,0.0011681274632859406,0.0012765720485123657,17.09043546233251,0.00240324973008537,1.0,0.0,-1.885154541229685,1.8645638091475825,21.162662438547994,85.32748210022089,0.18147237523479218,7.846341299741817,1.0,20.771163472887363,0.0,1.0,85.63285453025436,4466.1318643579025,1.0,1.0,-0.8198733225718878,19.523475325297145,-0.00615746722134172,-43.81279554351524,1.0,20.39618647858491,1.0,-0.0077448575321814855,4.273240466216326,0.95,1.0,0.17459483210835952,5.697481511065039
0.03,0.03,1.0,17.396165526460457,0.06757984646874438,0.688729522798126,0.005037679378191136,-0.15521041419076997,-0.0033274992892283442,17.40992505484253,0.15532779254952295,1.0,0.0,-1.885154541229685,1.8645638091475825,21.162662438547994,85.32748210022089,0.18147237523479218,7.846341299741817,1.0,20.771163472887363,0.0,1.0,85.45419534257276,4494.372304733525,1.0,1.0,-0.8198733225718878,19.523475325297145,-0.00615746722134172,-43.81279554351524,1.0,20.39618647858491,1.0,-0.0077448575321814855,4.273240466216326,0.95,1.0,0.17459483210835952,5.697481511065039
0.06,0.06,1.0,17.703930346980588,0.03184645329025582,1.2236991748263872,0.0017077501955758117,-0.18272751610842736,-0.008539441303636984,17.746199694520463,0.1829349163272674,1.0,0.0,-1.885154541229685,1.8645638091475825,21.162662438547994,85.32748210022089,0.18147237523479218,7.846341299741817,1.0,20.52602944054735,0.0,1.0,85.9437612553216,4526.437742021438,1.0,1.0,0.05371547149049399,19.051598086644784,-0.03004936916644496,-44.01671683502232,1.0,20.444379321174548,1.0,-0.001758182056800901,4.219131281798723,0.9488515173026386,1.0,-0.1424209605827985,6.398187846412091
0.09,0.09,1.0,17.97786184043587,0.061666861167879436,1.414373269754274,0.0065913224927435675,-0.11380595037187666,-0.007628221209357884,18.03351798462413,0.11425160668922034,1.0,0.0,-1.885154541229685,1.8645638091475825,21.162662438547994,85.32748210022089,0.18147237523479218,7.846341299741817,1.0,20.52602944054735,0.0,1.0,87.23604425936728,4644.533123613504,1.0,1.0,0.05371547149049399,19.051598086644784,-0.03004936916644496,-44.01671683502232,1.0,20.444379321174548,1.0,-0.001758182056800901,4.219131281798723,0.9488515173026386,1.0,-0.1424209605827985,6.398187846412091
0.12,0.12,1.0,18.243689560239595,0.05276726424112105,1.52898577422068,0.008264771514953586,-0.05631402469526402,-0.01425083117857277,18.30772489012056,0.05867420229413754,1.0,0.0,-1.885154541229685,1.8645638091475825,21.162662438547994,85.32748210022089,0.18147237523479218,7.846341299741817,1.0,20.83529713840989,0.0,1.0,87.26911174730816,4713.2084538465415,1.0,1.0,-1.955563222021589,18.84080756623359,-0.013479523257548311,-44.08142023417463,1.0,20.159613978771397,1.0,-0.01859281559420806,4.181135436993956,0.9477631950933803,1.0,0.326199973366236,7.4745663730630545
0.15,0.15,1.0,18.54291860961098,0.02654845808250677,1.6895649723399804,0.006271245558661606,-0.04952382009720538,-0.013816504949708744,18.619752017119936,0.05179607211847943,1.0,0.0,-1.885154541229685,1.8645638091475825,21.162662438547994,85.32748210022089,0.18147237523479218,7.846341299741817,1.0,20.83529713840989,0.0,1.0,87.54516324823261,4740.352304834459,1.0,1.0,-1.955563222021589,18.84080756623359,-0.013479523257548311,-44.08142023417463,1.0,20.159613978771397,1.0,-0.01859281559420806,4.181135436993956,0.9477631950933803,1.0,0.326199973366236,7.4745663730630545
0.18,0.18,1.0,18.748294195865647,0.011432739414633894,1.9093727810164252,0.0063665419998548654,-0.05932225655584494,-0.013552723153191068,18.84527448404895,0.061182834886759255,1.0,0.0,-1.885154541229685,1.8645638091475825,21.162662438547994,85.32748210022089,0.18147237523479218,7.846341299741817,1.0,20.082306210552403,0.0,1.0,88.03632097353042,4843.744546613035,1.0,1.0,-0.6465553085785619,18.72988809543389,0.019245888107240868,-44.22123717536482,1.0,21.361832841079245,1.0,-0.000859232003881146,4.138836753073905,0.9467295024506949,1.0,-0.4342712989596038,6.692490631174833
0.21,0.21,1.0,19.039125335928592,0.11686949398583635,2.109319580318736,0.004908889714976492,-0.049916947070154656,-0.011922782376558024,19.155969856098086,0.05155532506576974,1.0,0.0,18.158496751299044,-0.8487949822292363,22.52851954078043,88.79107977552718,-0.09388702480928704,6.696077125900986,1.0,20.082306210552403,0.0,1.0,88.81663013829531,4834.15236655689,1.0,1.0,-0.6465553085785619,18.72988809543389,0.019245888107240868,-44.22123717536482,1.0,21.361832841079245,1.0,-0.000859232003881146,4.138836753073905,0.9467295024506949,1.0,-0.4342712989596038,6.692490631174833
0.24,0.24,1.0,19.33996225715255,-0.005416200840297147,2.311187003107593,0.006445280532149319,-0.03680997996100412,-0.011981502829464861,19.477570557095927,0.03924375970673685,1.0,0.0,18.158496751299044,-0.8487949822292363,22.52851954078043,88.79107977552718,-0.09388702480928704,6.696077125900986,1.0,22.18547341193642,0.0,1.0,89.46261339331531,4891.715342093226,1.0,1.0,-1.136494738330208,18.642200330459584,-0.022973418028282816,-44.29557302154044,1.0,21.59793128930787,1.0,0.0045999202920458775,4.12616989464864,0.9457459431663375,1.0,-0.4966231857430645,7.158989775507588
0.27,0.27,1.0,19.55234998635274,0.02319512571964449,2.454707328297501,0.007971192138250104,-0.022822977321293472,-0.015343519014750418,19.705849793152353,0.02863305386557962,1.0,0.0,18.158496751299044,-0.8487949822292363,22.52851954078043,88.79107977552718,-0.09388702480928704,6.696077125900986,1.0,22.18547341193642,0.0,1.0,90.13407437667536,4962.400455547655,1.0,1.0,-1.136494738330208,18.642200330459584,-0.022973418028282816,-44.29557302154044,1.0,21.59793128930787,1.0,0.0045999202920458775,4.12616989464864,0.9457459431663375,1.0,-0.4966231857430645,7.158989775507588
0.3,0.3,1.0,19.933141597459617,0.026150895562060836,2.59611547740256,0.005475574642790604,-0.021343501792444583,-0.012208863216541027,20.101508236590675,0.025190937407588966,1.0,0.0,18.158496751299044,-0.8487949822292363,22.52851954078043,88.79107977552718,-0.09388702480928704,6.696077125900986,1.0,22.083139625230356,0.0,1.0,90.40437754092562,5034.242994878186,1.0,1.0,-0.2273898552453193,18.476886866376645,-0.019333210432992624,-44.29386417727122,1.0,21.913766686787532,1.0,-0.009772768426492724,4.091582313088138,0.9448080567343101,1.0,0.6156934101998371,7.872210160905358
0.32999999999999996,0.32999999999999996,1.0,20.172543322687886,-0.006886373230971694,2.788471978503723,0.005365206029012173,-0.014556336872710487,-0.01240623856320862,20.364359246064097,0.019864217431674075,1.0,0.0,18.158496751299044,-0.8487949822292363,22.52851954078043,88.79107977552718,-0.09388702480928704,6.696077125900986,1.0,22.083139625230356,0.0,1.0,90.89488256302776,5073.737715961556,1.0,1.0,-0.2273898552453193,18.476886866376645,-0.019333210432992624,-44.29386417727122,1.0,21.913766686787532,1.0,-0.009772768426492724,4.091582313088138,0.9448080567343101,1.0,0.6156934101998371,7.872210160905358
0.36,0.36,1.0,20.561841744422413,0.08543213624983803,2.876042274408147,0.004562264659209243,-0.010450724818650519,-0.013180110259285628,20.762183260359667,0.017428345145272795,1.0,0.0,18.158496751299044,-0.8487949822292363,22.52851954078043,88.79107977552718,-0.09388702480928704,6.696077125900986,1.0,22.99814587908216,0.0,1.0,91.39698400524819,5126.04884043233,1.0,1.0,0.0051835635369995095,18.558772710098822,0.04280608420162824,-44.330733752152916,1.0,22.233177032059903,1.0,-0.00858585558688252,4.086970274543723,0.9439122134902487,1.0,0.025193656839197068,7.106738184995742
0.39,0.39,1.0,20.83079368574388,0.002634007657153374,3.0274977042753615,0.002144559621268774,-0.004417077280343517,-0.011328295176082115,21.049648806225154,0.012346658627586196,1.0,0.0,18.158496751299044,-0.8487949822292363,22.52851954078043,88.79107977552718,-0.09388702480928704,6.696077125900986,1.0,22.99814587908216,0.0,1.0,91.54904712897027,5181.918934881977,1.0,1.0,0.0051835635369995095,18.558772710098822,0.04280608420162824,-44.330733752152916,1.0,22.233177032059903,1.0,-0.00858585558688252,4.086970274543723,0.9439122134902487,1.0,0.025193656839197068,7.106738184995742
0.42,0.42,1.0,20.873077217026697,0.012067188362474293,3.176830417186982,0.006368001046126911,0.001016067585823903,-0.012505583115570365,21.113449496104572,0.014070303469466252,1.0,0.0,38.98874250256396,0.8605557429567626,23.10652923186188,92.81383457631998,-0.006085558468785866,5.6409033827146065,1.0,23.176918685633176,0.0,1.0,93.1605622829006,5284.72507517306,1.0,1.0,0.7264829010018943,18.49006481965682,0.0013167121970354793,-44.25520230054854,1.0,22.711950571843083,1.0,-0.003343157600343736,4.062579019567127,0.9430550517760058,1.0,0.5815433495350639,6.957726310206212
0.44999999999999996,0.44999999999999996,1.0,20.90103785115679,0.0727933677910017,3.303797709251167,0.009753222920590717,0.0051596756279452755,-0.012906031031619775,21.16066542983789,0.016979789365992773,1.0,0.0,38.98874250256396,0.8605557429567626,23.10652923186188,92.81383457631998,-0.006085558468785866,5.6409033827146065,1.0,23.176918685633176,0.0,1.0,93.1526747026189,5387.7758223750425,1.0,1.0,0.7264829010018943,18.49006481965682,0.0013167121970354793,-44.25520230054854,1.0,22.711950571843083,1.0,-0.003343157600343736,4.062579019567127,0.9430550517760058,1.0,0.5815433495350639,6.957726310206212
0.48,0.48,1.0,20.853449496647254,0.048121998575106004,3.3982837176879808,0.005624260132884614,0.0062320450673318565,-0.010741476036824025,21.128582627849596,0.013632681145441469,1.0,0.0,38.98874250256396,0.8605557429567626,23.10652923186188,92.81383457631998,-0.006085558468785866,5.6409033827146065,1.0,24.502049370936998,0.0,1.0,94.02475470659734,5362.768007776586,1.0,1.0,-0.677205893940337,18.47816729407218,-0.03664544414634671,-44.269527810980854,1.0,23.25869979488577,1.0,-0.015042748247475517,4.080461995012086,0.9422338547066867,1.0,0.8434505746302136,7.662090274902109
0.51,0.51,1.0,20.79911740571245,0.10167411976375204,3.5740166264545703,0.007331368341777316,0.00966815969213038,-0.015586478646970723,21.104199044962925,0.01975248314029969,1.0,0.0,38.98874250256396,0.8605557429567626,23.10652923186188,92.81383457631998,-0.006085558468785866,5.6409033827146065,1.0,24.502049370936998,0.0,1.0,93.78195318173347,5484.6325401955255,1.0,1.0,-0.677205893940337,18.47816729407218,-0.03664544414634671,-44.269527810980854,1.0,23.25869979488577,1.0,-0.015042748247475517,4.080461995012086,0.9422338547066867,1.0,0.8434505746302136,7.662090274902109
0.54,0.54,1.0,20.810050391556025,0.018658580818268312,3.659494844019473,0.009290132919923628,0.01265600426500242,-0.014506542594894927,21.129374054977216,0.021375705641758565,1.0,0.0,38.98874250256396,0.8605557429567626,23.10652923186188,92.81383457631998,-0.006085558468785866,5.6409033827146065,1.0,23.598456402739235,0.0,1.0,95.02557053452232,5542.3643988535,1.0,1.0,0.21811963984623464,18.517769626604505,-0.030771136509580105,-44.214788828771056,1.0,23.61523094755062,1.0,-0.028702453145470486,4.049781914724352,0.9414465990110179,1.0,0.24204368181457311,7.158393169969007
0.57,0.57,1.0,20.784161590878135,0.04018078025917694,3.7198665567900773,0.010196950646871102,0.01579597836276144,-0.01859926555869155,21.114459375772835,0.02644661441951091,1.0,0.0,38.98874250256396,0.8605557429567626,23.10652923186188,92.81383457631998,-0.006085558468785866,5.6409033827146065,1.0,23.598456402739235,0.0,1.0,96.35653772220655,5659.643664864706,1.0,1.0,0.21811963984623464,18.517769626604505,-0.030771136509580105,-44.214788828771056,1.0,23.61523094755062,1.0,-0.028702453145470486,4.049781914724352,0.9414465990110179,1.0,0.24204368181457311,7.158393169969007
0.6,0.6,1.0,20.774864885219245,0.06261492818398375,3.870630334111275,0.004691714206782084,0.019316381183320578,-0.01335698092560362,21.132456336443465,0.02394877248763287,1.0,0.0,38.98874250256396,0.8605557429567626,23.10652923186188,92.81383457631998,-0.006085558468785866,5.6409033827146065,1.0,23.92599154726156,0.0,1.0,96.62038314613609,5726.313203896308,1.0,1.0,-2.5190625842607215,18.586791901651733,-0.07641869897297486,-44.299898348428044,1.0,23.301079200588113,1.0,-0.02276583960877912,4.054158612352851,0.9406915087667084,1.0,0.23394974820848505,7.175527405565979
0.63,0.63,1.0,20.743223664466008,0.07090744621516609,3.975327514802063,0.00797259293296822,0.01424297838409552,-0.012125720011196944,21.120832954927078,0.020333660691438937,1.0,0.0,57.720450987417166,-1.4368188053712052,24.340089061976595,97.2461937854662,0.09673297335401994,4.84621499053439,1.0,23.92599154726156,0.0,1.0,97.38115390218795,5769.546435783116,1.0,1.0,-2.5190625842607215,18.586791901651733,-0.07641869897297486,-44.299898348428044,1.0,23.301079200588113,1.0,-0.02276583960877912,4.054158612352851,0.9406915087667084,1.0,0.23394974820848505,7.175527405565979
0.6599999999999999,0.6599999999999999,1.0,20.64174778598556,0.039209518816809265,4.000238021150471,0.00863266988299036,0.013817833542493442,-0.011639587226398157,21.025822059374125,0.020023373939415823,1.0,0.0,57.720450987417166,-1.4368188053712052,24.340089061976595,97.2461937854662,0.09673297335401994,4.84621499053439,1.0,23.954204721231733,0.0,1.0,98.42162363968377,5696.449394360675,1.0,1.0,-2.1491401637011927,18.679845768771912,-0.021453339465662767,-44.227992972189625,1.0,24.053878507761553,1.0,-0.026198706969608604,4.0488827355000145,0.939966981589762,1.0,0.23955173490859047,7.6262082126263415
0.69,0.69,1.0,20.67587597190842,0.05108874120171951,4.174440367035551,0.007372079158434476,0.01921524628285592,-0.012022128023679884,21.093136552991677,0.02383494919329138,1.0,0.0,57.720450987417166,-1.4368188053712052,24.340089061976595,97.2461937854662,0.09673297335401994,4.84621499053439,1.0,23.954204721231733,0.0,1.0,97.60120380987642,5920.326831040958,1.0,1.0,-2.1491401637011927,18.679845768771912,-0.021453339465662767,-44.227992972189625,1.0,24.053878507761553,1.0,-0.026198706969608604,4.0488827355000145,0.939966981589762,1.0,0.23955173490859047,7.6262082126263415
0.72,0.72,1.0,20.61257385441282,0.006189485359022622,4.267659292932673,0.010507768950775986,0.01948282534922257,-0.016353570674902288,21.04973052212086,0.027521500063227393,1.0,0.0,57.720450987417166,-1.4368188053712052,24.340089061976595,97.2461937854662,0.09673297335401994,4.84621499053439,1.0,23.548189214945257,0.0,1.0,98.8286402597616,5965.410770575193,1.0,1.0,-0.24001709468664092,18.62543747693078,-0.037183689409258494,-44.196349253813665,1.0,24.869068203481874,1.0,-0.028441596586072787,4.066257764059021,0.9392715504264946,1.0,-0.11553914641116353,6.759019677338718
0.75,0.75,1.0,20.563468329001797,0.02275308946970811,4.2698728373415324,0.009121554633317248,0.023802016532255704,-0.012962437118970662,21.002108500529353,0.028596564933460692,1.0,0.0,57.720450987417166,-1.4368188053712052,24.340089061976595,97.2461937854662,0.09673297335401994,4.84621499053439,1.0,23.548189214945257,0.0,1.0,99.9629597126369,6038.324014260193,1.0,1.0,-0.24001709468664092,18.62543747693078,-0.037183689409258494,-44.196349253813665,1.0,24.869068203481874,1.0,-0.028441596586072787,4.066257764059021,0.9392715504264946,1.0,-0.11553914641116353,6.759019677338718
0.78,0.78,1.0,20.56770418701133,-0.05660724043832098,4.383702558912354,0.00886535882740407,0.01988747676723975,-0.014678287984614567,21.02975292363389,0.026259445109625076,1.0,0.0,57.720450987417166,-1.4368188053712052,24.340089061976595,97.2461937854662,0.09673297335401994,4.84621499053439,1.0,23.507534653924917,0.0,1.0,100.17645806944701,6214.490919988106,1.0,1.0,-0.5536626365528736,18.752457392058155,-0.01755014030027219,-44.226442791793396,1.0,24.36575942338795,1.0,-0.0077030214553848245,4.066890896975436,0.9386038560723251,1.0,-0.0015281673015561223,6.516773494326579
0.8099999999999999,0.8099999999999999,1.0,20.60314697801572,-0.013385237877937446,4.541448455286614,0.009360896313068023,0.020515063745908144,-0.012005773771030112,21.097739183010496,0.025546679316964853,1.0,0.0,57.720450987417166,-1.4368188053712052,24.340089061976595,97.2461937854662,0.09673297335401994,4.84621499053439,1.0,23.507534653924917,0.0,1.0,99.9080561719015,6151.035498077158,1.0,1.0,-0.5536626365528736,18.752457392058155,-0.01755014030027219,-44.226442791793396,1.0,24.36575942338795,1.0,-0.0077030214553848245,4.066890896975436,0.9386038560723251,1.0,-0.0015281673015561223,6.516773494326579
0.84,0.84,1.0,20.490885330257907,0.051304207134283686,4.529635422198764,0.009561715151427674,0.025194540798151754,-0.015045107391719843,20.985628672915333,0.030863352687210733,1.0,0.0,77.87340189261175,0.10654787297893308,24.91985189059858,101.23437903055031,-0.03794779300653665,4.179590328750036,1.0,25.96126613155621,0.0,1.0,101.07794330299214,6290.964588521732,1.0,1.0,-0.8803891518122335,18.689174531603236,-0.000751729192218685,-44.16135924811625,1.0,24.643314788277774,1.0,-0.0559483794936393,4.072822356791842,0.9379626232148626,1.0,0.9568673538146498,7.402595999256395
0.87,0.87,1.0,20.454468006985497,-0.0059362218079659435,4.645745316088934,0.007466096792929828,0.021239876908307403,-0.013481573449933974,20.975420048940258,0.026241718600111003,1.0,0.0,77.87340189261175,0.10654787297893308,24.91985189059858,101.23437903055031,-0.03794779300653665,4.179590328750036,1.0,25.96126613155621,0.0,1.0,101.6715199035059,6284.690575961853,1.0,1.0,-0.8803891518122335,18.689174531603236,-0.000751729192218685,-44.16135924811625,1.0,24.643314788277774,1.0,-0.0559483794936393,4.072822356791842,0.9379626232148626,1.0,0.9568673538146498,7.402595999256395
0.8999999999999999,0.8999999999999999,1.0,20.485346395898297,-0.016128480065482145,4.677109628250269,0.00846694622219449,0.021743109956427323,-0.011106784016692711,21.01249703301547,0.025842071513334283,1.0,0.0,77.87340189261175,0.10654787297893308,24.91985189059858,101.23437903055031,-0.03794779300653665,4.179590328750036,1.0,25.04743087286841,0.0,1.0,101.96985330241493,6553.841733721881,1.0,1.0,-2.696747050527383,18.909503265448382,-0.08322506199259407,-44.0893117650376,1.0,25.201606542541874,1.0,-0.042669704464306395,4.075315730141841,0.9373466424205785,1.0,0.619392911441704,6.6690780431515755
0.9299999999999999,0.9299999999999999,1.0,20.42774760259815,-0.04266462785253604,4.741788781954288,0.006867928159886899,0.023016607382906645,-0.01650291551707092,20.970914458806792,0.029142389627342166,1.0,0.0,77.87340189261175,0.10654787297893308,24.91985189059858,101.23437903055031,-0.03794779300653665,4.179590328750036,1.0,25.04743087286841,0.0,1.0,102.97613089632185,6455.959458985775,1.0,1.0,-2.696747050527383,18.909503265448382,-0.08322506199259407,-44.0893117650376,1.0,25.201606542541874,1.0,-0.042669704464306395,4.075315730141841,0.9373466424205785,1.0,0.619392911441704,6.6690780431515755
0.96,0.96,1.0,20.400549623943263,0.028174400716497586,4.890029869294455,0.01372285417598911,0.021488866780081432,-0.01689583786065625,20.978455874501805,0.03058688377787339,1.0,0.0,77.87340189261175,0.10654787297893308,24.91985189059858,101.23437903055031,-0.03794779300653665,4.179590328750036,1.0,25.015672173187657,0.0,1.0,103.1800766865304,6582.391868554474,1.0,1.0,-0.4096402247229066,18.93670443675554,-0.033948504370230476,-44.140207136597674,1.0,25.44724596667455,1.0,-0.03759253009325157,4.072747888165759,0.9367547547806592,1.0,0.1789569263440761,6.59539336679569
0.99,0.99,1.0,20.47366802911793,0.008528580113532198,4.958258511225075,0.006953134252003449,0.022171976253278027,-0.011722401149397717,21.065504569493235,0.026026088749747035,1.0,0.0,77.87340189261175,0.10654787297893308,24.91985189059858,101.23437903055031,-0.03794779300653665,4.179590328750036,1.0,25.015672173187657,0.0,1.0,103.58004870417987,6598.867551598194,1.0,1.0,-0.4096402247229066,18.93670443675554,-0.033948504370230476,-44.140207136597674,1.0,25.44724596667455,1.0,-0.03759253009325157,4.072747888165759,0.9367547547806592,1.0,0.1789569263440761,6.59539336679569
1.02,1.02,1.0,20.356550612724433,-0.02303424294564473,5.05083016810292,0.007475753708409939,0.022669596432612356,-0.014508087017109487,20.973806731534886,0.027933529759454616,1.0,0.0,77.87340189261175,0.10654787297893308,24.91985189059858,101.23437903055031,-0.03794779300653665,4.179590328750036,1.0,25.35507441049686,0.0,1.0,105.02632373466882,6838.709524861194,1.0,1.0,-0.5762149407644948,18.940868331443383,-0.08433932521387177,-44.08542330640524,1.0,25.584554161331745,1.0,-0.04504691323854409,4.1209264265626855,0.9361858404361255,1.0,0.26484271787933045,6.392108477295599
1.05,1.05,1.0,20.389144900674253,-0.00017264016879091348,5.094211877963627,0.00803701130019853,0.02313798617647932,-0.015871618659010087,21.0159040840046,0.02918678183355445,1.0,0.0,100.9621087803198,-0.5366833395792645,25.097954359040244,105.48204149386056,-0.21995609746628805,3.66904860383245,1.0,25.35507441049686,0.0,1.0,105.08363829964834,6695.1932402981965,1.0,1.0,-0.5762149407644948,18.940868331443383,-0.08433932521387177,-44.08542330640524,1.0,25.584554161331745,1.0,-0.04504691323854409,4.1209264265626855,0.9361858404361255,1.0,0.26484271787933045,6.392108477295599
1.08,1.08,1.0,20.301158059522862,-0.050013167313400754,5.238208527672707,0.009222843033357905,0.021591666454007407,-0.014249807756608779,20.96612382997911,0.027464848715756197,1.0,0.0,100.9621087803198,-0.5366833395792645,25.097954359040244,105.48204149386056,-0.21995609746628805,3.66904860383245,1.0,26.162290273308255,0.0,1.0,105.84372852383157,6860.195780427733,1.0,1.0,-0.11075279705111474,19.02729372336413,-0.08926960571544447,-44.016804424214705,1.0,25.689117935440816,1.0,-0.056593754946518054,4.114127736431916,0.9356388091124749,1.0,-0.2708883572629032,6.734874555451605
1.1099999999999999,1.1099999999999999,1.0,20.335745384531357,-0.08249584195009767,5.288602467937893,0.008346526617131337,0.02190690168594533,-0.01319037281613947,21.012345465756702,0.02689912234770695,1.0,0.0,100.9621087803198,-0.5366833395792645,25.097954359040244,105.48204149386056,-0.21995609746628805,3.66904860383245,1.0,26.162290273308255,0.0,1.0,107.1329311873722,6987.133756776345,1.0,1.0,-0.11075279705111474,19.02729372336413,-0.08926960571544447,-44.016804424214705,1.0,25.689117935440816,1.0,-0.056593754946518054,4.114127736431916,0.9356388091124749,1.0,-0.2708883572629032,6.734874555451605
1.14,1.14,1.0,20.284632308453766,-0.02996220757332963,5.310046126204992,0.010665975359228098,0.01759685070425418,-0.01425220072887989,20.96816147127529,0.025030729327923235,1.0,0.0,100.9621087803198,-0.5366833395792645,25.097954359040244,105.48204149386056,-0.21995609746628805,3.66904860383245,1.0,26.67396378293944,0.0,1.0,106.97406662943105,6958.667030142394,1.0,1.0,-1.6521071442775528,19.096174263840958,-0.0036701559515679855,-44.08664523615491,1.0,26.00934678294851,1.0,-0.051321753320086434,4.123624179227615,0.9351125927602777,1.0,0.37321634984318147,6.884498040291045
1.17,1.17,1.0,20.194923756529874,-0.06679613604719875,5.338048074225121,0.008769863793654594,0.022961418841256395,-0.017481087768410872,20.888613273709293,0.030161659366317067,1.0,0.0,100.9621087803198,-0.5366833395792645,25.097954359040244,105.48204149386056,-0.21995609746628805,3.66904860383245,1.0,26.67396378293944,0.0,1.0,107.8493195743237,7017.725768313231,1.0,1.0,-1.6521071442775528,19.096174263840958,-0.0036701559515679855,-44.08664523615491,1.0,26.00934678294851,1.0,-0.051321753320086434,4.123624179227615,0.9351125927602777,1.0,0.37321634984318147,6.884498040291045
1.2,1.2,1.0,20.16785934421943,0.016123237636807376,5.535750764196612,0.009710413140487423,0.019992279824575063,-0.017603700663007194,20.91380756845377,0.028352665711989446,1.0,0.0,100.9621087803198,-0.5366833395792645,25.097954359040244,105.48204149386056,-0.21995609746628805,3.66904860383245,1.0,26.845496989180294,0.0,1.0,107.76660385136798,7202.919647020677,1.0,1.0,1.1148830968680699,19.13121162200602,0.009501327352903433,-44.022489008132254,1.0,26.40242480749381,1.0,-0.058317194042178916,4.12953312868985,0.9346061397637848,1.0,0.498129060266598,6.119864141705164
1.23,1.23,1.0,20.216025313607712,-0.05168185435698776,5.53394514808032,0.010307343438552809,0.02098338998352461,-0.0142117888818536,20.959840156748793,0.0273590739460117,1.0,0.0,100.9621087803198,-0.5366833395792645,25.097954359040244,105.48204149386056,-0.21995609746628805,3.66904860383245,1.0,26.845496989180294,0.0,1.0,109.28344941527286,7294.2225368381,1.0,1.0,1.1148830968680699,19.13121162200602,0.009501327352903433,-44.022489008132254,1.0,26.40242480749381,1.0,-0.058317194042178916,4.12953312868985,0.9346061397637848,1.0,0.498129060266598,6.119864141705164
1.26,1.26,1.0,20.206284392267,-0.04475970296517486,5.598362899964727,0.008838289245745336,0.020420387702456175,-0.017160763221686807,20.967536801729572,0.028099811121444922,1.0,0.0,120.34703243430795,-1.0448858882550258,28.26912291346088,109.52130235325644,-0.3021363464505076,3.1853976276827676,1.0,25.626805309113095,0.0,1.0,110.12905700710003,7439.878826229689,1.0,1.0,-0.04330444003521928,19.229180322470736,-0.06018041138616739,-43.94482014652759,1.0,26.726374923952065,1.0,-0.0607661399329541,4.141271586053701,0.93411841046174,1.0,0.4953307526986161,6.319394678433082
1.29,1.29,1.0,20.195464106249748,-0.10680061463306645,5.681674354543092,0.007098693386383727,0.018338606042212154,-0.017577740081771327,20.979742617801122,0.02637561119192612,1.0,0.0,120.34703243430795,-1.0448858882550258,28.26912291346088,109.52130235325644,-0.3021363464505076,3.1853976276827676,1.0,25.626805309113095,0.0,1.0,110.02653296391284,7336.7087578615565,1.0,1.0,-0.04330444003521928,19.229180322470736,-0.06018041138616739,-43.94482014652759,1.0,26.726374923952065,1.0,-0.0607661399329541,4.141271586053701,0.93411841046174,1.0,0.4953307526986161,6.319394678433082
1.3199999999999998,1.3199999999999998,1.0,20.075937659499846,-0.026379833084410845,5.750587708815021,0.010116500239909856,0.021345583682217634,-0.017203392405617763,20.88332415590229,0.029222153070920676,1.0,0.0,120.34703243430795,-1.0448858882550258,28.26912291346088,109.52130235325644,-0.3021363464505076,3.1853976276827676,1.0,26.38735937925602,0.0,1.0,111.2197091085493,7374.742858081997,1.0,1.0,0.6273920597350708,19.19538139884487,-0.12202720983621851,-43.91121146733681,1.0,26.5377973741441,1.0,-0.05156523174535383,4.148006571863875,0.9336483737070518,1.0,-0.02157831106086158,6.499917397613505
1.3499999999999999,1.3499999999999999,1.0,20.118989361185907,-0.15014242264981034,5.836844768042797,0.00825654335729906,0.020425710110223386,-0.017542727644629726,20.94910576871527,0.028162518263314045,1.0,0.0,120.34703243430795,-1.0448858882550258,28.26912291346088,109.52130235325644,-0.3021363464505076,3.1853976276827676,1.0,26.38735937925602,0.0,1.0,110.50378822808993,7545.808560274689,1.0,1.0,0.6273920597350708,19.19538139884487,-0.12202720983621851,-43.91121146733681,1.0,26.5377973741441,1.0,-0.05156523174535383,4.148006571863875,0.9336483737070518,1.0,-0.02157831106086158,6.499917397613505
1.38,1.38,1.0,20.04790401965469,-0.05567002329866635,5.887889722266847,0.011819421482824378,0.01855426656535834,-0.015714542252881897,20.89470746658963,0.027035280101834255,1.0,0.0,120.34703243430795,-1.0448858882550258,28.26912291346088,109.52130235325644,-0.3021363464505076,3.1853976276827676,1.0,26.56398405018585,0.0,1.0,111.80852034323003,7754.796902572953,1.0,1.0,-1.1175008570719773,19.256830593268546,-0.1342195184559194,-43.955741237149525,1.0,26.899995003844975,1.0,-0.06900256634698529,4.177793033500441,0.9331950042743851,1.0,0.6797041780803276,6.8960855933014
1.41,1.41,1.0,20.114022516991607,-0.1532062057214749,5.893731183494368,0.007621523822215051,0.014623010616597612,-0.018782693438891898,20.96028246991941,0.024994192079063303,1.0,0.0,120.34703243430795,-1.0448858882550258,28.26912291346088,109.52130235325644,-0.3021363464505076,3.1853976276827676,1.0,26.56398405018585,0.0,1.0,112.43875121224076,7651.670425911732,1.0,1.0,-1.1175008570719773,19.256830593268546,-0.1342195184559194,-43.955741237149525,1.0,26.899995003844975,1.0,-0.06900256634698529,4.177793033500441,0.9331950042743851,1.0,0.6797041780803276,6.8960855933014
1.44,1.44,1.0,20.120129031445664,-0.05439696350739655,5.976267925036248,0.01138558719099526,0.017181120856475277,-0.01666605821436251,20.989004968875456,0.026506225796463088,1.0,0.0,120.34703243430795,-1.0448858882550258,28.26912291346088,109.52130235325644,-0.3021363464505076,3.1853976276827676,1.0,27.21087881485672,0.0,1.0,113.366989699244,7686.221681202695,1.0,1.0,0.24239738273741385,19.31869581799935,-0.06753868014000516,-43.916851110155314,1.0,26.705473188358038,1.0,-0.06514509407333173,4.197483010467979,0.9327572809448256,1.0,0.4899200601211811,5.872078057985724
1.47,1.47,1.0,19.98197259827651,-0.10210992868180785,6.101567812588139,0.012271951244488918,0.017563299170313386,-0.018982339224982766,20.893031975455845,0.02862515445452414,1.0,0.0,145.78876930469474,-1.3493125902172645,26.7747726071188,113.81389746996625,-0.4274667216217508,3.2069831818811143,1.0,27.21087881485672,0.0,1.0,113.38231472993729,7936.930028209414,1.0,1.0,0.24239738273741385,19.31869581799935,-0.06753868014000516,-43.916851110155314,1.0,26.705473188358038,1.0,-0.06514509407333173,4.197483010467979,0.9327572809448256,1.0,0.4899200601211811,5.872078057985724
1.5,1.5,1.0,20.01478556213457,-0.1514595598168032,6.1242583689385315,0.0128075302711007,0.017487927605472776,-0.01745725998266902,20.931343044964983,0.027831930757349816,1.0,0.0,145.78876930469474,-1.3493125902172645,26.7747726071188,113.81389746996625,-0.4274667216217508,3.2069831818811143,1.0,26.96834132179091,0.0,1.0,114.40531249479272,8056.205085692985,1.0,1.0,-2.454381305338613,19.410082108779125,-0.08824999053890117,-43.86588247605698,1.0,27.058914571767588,1.0,-0.0742158044536803,4.197279210243662,0.9323341851338676,1.0,1.189198421420697,6.275100864771609
1.53,1.53,1.0,19.981012302038042,-0.10261808810876971,6.264686516652347,0.01630500491247624,0.014318584036627864,-0.018328919665142517,20.940336201649878,0.028404653317741738,1.0,0.0,145.78876930469474,-1.3493125902172645,26.7747726071188,113.81389746996625,-0.4274667216217508,3.2069831818811143,1.0,26.96834132179091,0.0,1.0,114.84335163321414,7948.408100280288,1.0,1.0,-2.454381305338613,19.410082108779125,-0.08824999053890117,-43.86588247605698,1.0,27.058914571767588,1.0,-0.0742158044536803,4.197279210243662,0.9323341851338676,1.0,1.189198421420697,6.275100864771609
1.56,1.56,1.0,19.976710895675904,-0.04202852955403551,6.26292004051768,0.014755339690107982,0.017070110777686553,-0.021149993193138077,20.93549407204499,0.030926217735163696,1.0,0.0,145.78876930469474,-1.3493125902172645,26.7747726071188,113.81389746996625,-0.4274667216217508,3.2069831818811143,1.0,27.198762873945228,0.0,1.0,115.14676696985664,8030.01194792871,1.0,1.0,-0.5287575923742522,19.379800073803153,-0.2133466687523891,-43.86608560553004,1.0,27.320772951899635,1.0,-0.07664358015876459,4.215681685514533,0.9319246999550301,1.0,0.7613316427150967,5.275537621949017
1.5899999999999999,1.5899999999999999,1.0,19.881873165445278,-0.1379241846757799,6.362190718631415,0.013899972413116145,0.012916908730147836,-0.018255598179641563,20.875473033869465,0.026331020282641757,1.0,0.0,145.78876930469474,-1.3493125902172645,26.7747726071188,113.81389746996625,-0.4274667216217508,3.2069831818811143,1.0,27.198762873945228,0.0,1.0,115.82470792222252,8163.1180775169105,1.0,1.0,-0.5287575923742522,19.379800073803153,-0.2133466687523891,-43.86608560553004,1.0,27.320772951899635,1.0,-0.07664358015876459,4.215681685514533,0.9319246999550301,1.0,0.7613316427150967,5.275537621949017
1.6199999999999999,1.6199999999999999,1.0,19.952632735498046,-0.15757187185583102,6.443020549314194,0.013208727360027223,0.01287927418088616,-0.020927972042190907,20.96771078995877,0.02789849809033986,1.0,0.0,145.78876930469474,-1.3493125902172645,26.7747726071188,113.81389746996625,-0.4274667216217508,3.2069831818811143,1.0,27.913137973928162,0.0,1.0,116.88575249676427,8337.153479853927,1.0,1.0,-1.1189933718584124,19.43404866599003,-0.05856621849623321,-43.936592906500486,1.0,27.199382998085447,1.0,-0.08076590170043174,4.231261717886718,0.9315278096308729,1.0,1.2028500873747558,5.545617089793965
1.65,1.65,1.0,19.810150743261516,-0.15391300141037204,6.452269098790986,0.01344208166244077,0.018514899925725407,-0.021207654161061074,20.8350075163404,0.031197045912947016,1.0,0.0,145.78876930469474,-1.3493125902172645,26.7747726071188,113.81389746996625,-0.4274667216217508,3.2069831818811143,1.0,27.913137973928162,0.0,1.0,117.4372074903899,8276.944149275776,1.0,1.0,-1.1189933718584124,19.43404866599003,-0.05856621849623321,-43.936592906500486,1.0,27.199382998085447,1.0,-0.08076590170043174,4.231261717886718,0.9315278096308729,1.0,1.2028500873747558,5.545617089793965
1.68,1.68,1.0,19.91141024915712,-0.1270663937276413,6.654754652378792,0.01482275093468947,0.014057878961363499,-0.018446313059140636,20.994431725150633,0.02752461392354135,1.0,0.0,169.37750122804954,-0.08557392301476494,25.723882459141464,117.38523661981206,-0.5610090743262768,2.5528919850602803,1.0,28.13891805728063,0.0,1.0,118.03653043463771,8430.719957768855,1.0,1.0,-1.2449832447354976,19.47818100655924,-0.2132089532764527,-43.84822869967027,1.0,27.72146081069043,1.0,-0.0916674470758847,4.243447110529653,0.9311424991795088,1.0,1.1059828669421188,5.839367120521153
1.71,1.71,1.0,19.71728225572029,-0.15778460916158366,6.63628840315354,0.015209924824733285,0.011619498551124622,-0.020077618581626624,20.804721562771768,0.027739238051231754,1.0,0.0,169.37750122804954,-0.08557392301476494,25.723882459141464,117.38523661981206,-0.5610090743262768,2.5528919850602803,1.0,28.13891805728063,0.0,1.0,118.17333618441728,8650.488724327246,1.0,1.0,-1.2449832447354976,19.47818100655924,-0.2132089532764527,-43.84822869967027,1.0,27.72146081069043,1.0,-0.0916674470758847,4.243447110529653,0.9311424991795088,1.0,1.1059828669421188,5.839367120521153
1.74,1.74,1.0,19.74680178766683,-0.07802719926412396,6.644192058177468,0.016008909887987206,0.016361054559041535,-0.02263299795823529,20.83476798985713,0.03219040072231334,1.0,0.0,169.37750122804954,-0.08557392301476494,25.723882459141464,117.38523661981206,-0.5610090743262768,2.5528919850602803,1.0,27.66257232504026,0.0,1.0,118.70726938548327,8518.667995999704,1.0,1.0,-1.1709824341878687,19.4892616430052,-0.15547715752967076,-43.823019120372045,1.0,28.023272946841264,1.0,-0.0860590459734768,4.2761069843684645,0.9307677543181831,1.0,0.9823323907171047,5.960976488067749
1.77,1.77,1.0,19.756089061010478,-0.1399355684212993,6.8332980156536545,0.012743831215256823,0.01136313887417952,-0.02397049674099255,20.904941968841324,0.029429761689942012,1.0,0.0,169.37750122804954,-0.08557392301476494,25.723882459141464,117.38523661981206,-0.5610090743262768,2.5528919850602803,1.0,27.66257232504026,0.0,1.0,119.59115799907455,8763.170724441632,1.0,1.0,-1.1709824341878687,19.4892616430052,-0.15547715752967076,-43.823019120372045,1.0,28.023272946841264,1.0,-0.0860590459734768,4.2761069843684645,0.9307677543181831,1.0,0.9823323907171047,5.960976488067749
1.7999999999999998,1.7999999999999998,1.0,19.75307515932951,-0.1769212551279792,6.862251528937082,0.014833924627049171,0.010244117189795145,-0.020810439386470533,20.911857292623147,0.02753291928396254,1.0,0.0,169.37750122804954,-0.08557392301476494,25.723882459141464,117.38523661981206,-0.5610090743262768,2.5528919850602803,1.0,28.16994403020334,0.0,1.0,119.70561791141947,8593.406131116528,1.0,1.0,-3.8572176779613643,19.507332695626776,-0.16819396145661536,-43.80484388693847,1.0,27.855160738394765,1.0,-0.11902710322307271,4.29301284199966,0.9304025615364161,1.0,0.8807562764152517,5.838613755972923
1.8299999999999998,1.8299999999999998,1.0,19.701023232040846,-0.12966221363750813,6.943866747659952,0.015975420327390893,0.01442204879897598,-0.021692666306631476,20.889337330042718,0.03055783561850746,1.0,0.0,169.37750122804954,-0.08557392301476494,25.723882459141464,117.38523661981206,-0.5610090743262768,2.5528919850602803,1.0,28.16994403020334,0.0,1.0,120.06567810214226,8915.618532046572,1.0,1.0,-3.8572176779613643,19.507332695626776,-0.16819396145661536,-43.80484388693847,1.0,27.855160738394765,1.0,-0.11902710322307271,4.29301284199966,0.9304025615364161,1.0,0.8807562764152517,5.838613755972923
1.8599999999999999,1.8599999999999999,1.0,19.707734849995106,-0.18501812942886026,6.971442159232785,0.01427332973719225,0.009424944422887193,-0.022178481908470445,20.905263700930856,0.02800790208004662,1.0,0.0,169.37750122804954,-0.08557392301476494,25.723882459141464,117.38523661981206,-0.5610090743262768,2.5528919850602803,1.0,28.246010031873514,0.0,1.0,120.87098534628886,8965.456925003735,1.0,1.0,-2.0642244793817603,19.581531545072036,-0.17927750491323183,-43.79787012968512,1.0,27.865026289331663,1.0,-0.09527101839814651,4.30619258642336,0.9300459082999488,1.0,1.2491052224360923,6.310190355273578
1.89,1.89,1.0,19.655495742837424,-0.18495029558446957,7.068400640719147,0.01503746923067709,0.012031456224169134,-0.023003410423220634,20.888633443245055,0.030000638507151713,1.0,0.0,195.90037094529475,0.2780097866855607,28.347094872611162,121.70272640643886,-0.6292261144306687,2.1212351766927857,1.0,28.246010031873514,0.0,1.0,121.70029314211777,8941.441836307715,1.0,1.0,-2.0642244793817603,19.581531545072036,-0.17927750491323183,-43.79787012968512,1.0,27.865026289331663,1.0,-0.09527101839814651,4.30619258642336,0.9300459082999488,1.0,1.2491052224360923,6.310190355273578
1.92,1.92,1.0,19.689616047660586,-0.18449820953521573,7.109460720944981,0.017111146369284833,0.007589900799017996,-0.022539630446330845,20.934647153374105,0.0292990249815107,1.0,0.0,195.90037094529475,0.2780097866855607,28.347094872611162,121.70272640643886,-0.6292261144306687,2.1212351766927857,1.0,27.253715149937054,0.0,1.0,122.271687130633,9096.908988433153,1.0,1.0,-1.7319487269866476,19.593630383908266,-0.15152546012319518,-43.886283035195774,1.0,27.896270783481466,1.0,-0.11846363620318247,4.339761987548652,0.9296967833538585,1.0,1.2931336667609663,6.6424393376910436
1.95,1.95,1.0,19.65371220647507,-0.2227773090450658,7.1914918387965026,0.01782211582998488,0.013461663352158542,-0.023211908565418764,20.929299751588662,0.032212371724441635,1.0,0.0,195.90037094529475,0.2780097866855607,28.347094872611162,121.70272640643886,-0.6292261144306687,2.1212351766927857,1.0,27.253715149937054,0.0,1.0,122.43002634991765,9265.750280552616,1.0,1.0,-1.7319487269866476,19.593630383908266,-0.15152546012319518,-43.886283035195774,1.0,27.896270783481466,1.0,-0.11846363620318247,4.339761987548652,0.9296967833538585,1.0,1.2931336667609663,6.6424393376910436
1.98,1.98,1.0,19.636309547089716,-0.17774017416666651,7.234105061655922,0.015807425979422543,0.014492287242736481,-0.0237682998665234,20.927219601316256,0.032013015855521666,1.0,0.0,195.90037094529475,0.2780097866855607,28.347094872611162,121.70272640643886,-0.6292261144306687,2.1212351766927857,1.0,28.994375352764315,0.0,1.0,123.39651546570877,9365.551521493751,1.0,1.0,-1.6113267495843522,19.60641593459012,-0.2651092627088687,-43.773940692287354,1.0,28.180770773131737,1.0,-0.10818030759256582,4.355922741910527,0.929354177098971,1.0,1.8609760379862785,5.128844620944626
2.01,2.01,1.0,19.552737597656982,-0.20117538787837252,7.3482791620415355,0.018713070433550773,0.011276650366292258,-0.024150241632844377,20.888925911659765,0.03256648613927209,1.0,0.0,195.90037094529475,0.2780097866855607,28.347094872611162,121.70272640643886,-0.6292261144306687,2.1212351766927857,1.0,28.994375352764315,0.0,1.0,123.99619021839496,9389.25576829655,1.0,1.0,-1.6113267495843522,19.60641593459012,-0.2651092627088687,-43.773940692287354,1.0,28.180770773131737,1.0,-0.10818030759256582,4.355922741910527,0.929354177098971,1.0,1.8609760379862785,5.128844620944626
2.04,2.04,1.0,19.522172541983036,-0.20928028679865293,7.38142594685823,0.020259158571028855,0.008074116825890047,-0.026087278183869047,20.872097834342163,0.03400251390069244,1.0,0.0,195.90037094529475,0.2780097866855607,28.347094872611162,121.70272640643886,-0.6292261144306687,2.1212351766927857,1.0,27.31406490577505,0.0,1.0,124.31706193412552,9544.42070408177,1.0,1.0,-1.4086932939078687,19.67161161254556,-0.2327175285099557,-43.76355703979502,1.0,28.168704587350277,1.0,-0.12016470053034477,4.368797039479974,0.9290170820203424,1.0,1.6024798381999312,5.924342011752414
2.07,2.07,1.0,19.460165394567127,-0.20496305556191177,7.44508128735855,0.019403580447261686,0.007910254072500596,-0.026733005514498254,20.836729167828373,0.03396652230510304,1.0,0.0,195.90037094529475,0.2780097866855607,28.347094872611162,121.70272640643886,-0.6292261144306687,2.1212351766927857,1.0,27.31406490577505,0.0,1.0,125.43283525503303,9620.726422982823,1.0,1.0,-1.4086932939078687,19.67161161254556,-0.2327175285099557,-43.76355703979502,1.0,28.168704587350277,1.0,-0.12016470053034477,4.368797039479974,0.9290170820203424,1.0,1.6024798381999312,5.924342011752414
2.1,2.1,1.0,19.495896450386983,-0.2318963049827912,7.49231247310896,0.01722946838422625,0.008468427383849508,-0.02346452566399906,20.887280830572,0.030317533009713286,1.0,0.0,220.6905654285027,-1.3665395958852704,27.731147439562957,125.37162594798866,-0.9736462424341219,2.11775100406562,1.0,28.915678391101746,0.0,1.0,125.79752734735807,9779.049828559795,1.0,1.0,-2.1462680445415003,19.62570734271183,-0.2978608387471972,-43.8075440842722,1.0,28.35332394403504,1.0,-0.10759216965038718,4.37474230778033,0.9286844931503205,1.0,1.467967011381823,6.332510546162049
2.13,2.13,1.0,19.433907861633127,-0.282876118195566,7.584676091948524,0.017271325032537335,0.007495982413130213,-0.024178158159424132,20.863463401182145,0.0306442776501525,1.0,0.0,220.6905654285027,-1.3665395958852704,27.731147439562957,125.37162594798866,-0.9736462424341219,2.11775100406562,1.0,28.915678391101746,0.0,1.0,125.58553977397709,9739.44353098115,1.0,1.0,-2.1462680445415003,19.62570734271183,-0.2978608387471972,-43.8075440842722,1.0,28.35332394403504,1.0,-0.10759216965038718,4.37474230778033,0.9286844931503205,1.0,1.467967011381823,6.332510546162049
2.16,2.16,1.0,19.409884008560457,-0.2536984384369443,7.601459315468612,0.0189725618829326,0.010605084095935701,-0.026687194709568113,20.84682574993519,0.034418487394857665,1.0,0.0,220.6905654285027,-1.3665395958852704,27.731147439562957,125.37162594798866,-0.9736462424341219,2.11775100406562,1.0,28.94734010594557,0.0,1.0,126.13047304699023,9760.090774902044,1.0,1.0,-3.2858643423684226,19.732613824366283,-0.2813458116601039,-43.735276789077886,1.0,28.50061330455592,1.0,-0.1164542990057175,4.397054656256633,0.9283554085517024,1.0,1.9909822107866788,5.643880155720646
2.19,2.19,1.0,19.38303152707637,-0.33225716532670646,7.712255397602618,0.023709521333462436,0.009797100049060122,-0.02889614437661416,20.863633176448396,0.038640803965074716,1.0,0.0,220.6905654285027,-1.3665395958852704,27.731147439562957,125.37162594798866,-0.9736462424341219,2.11775100406562,1.0,28.94734010594557,0.0,1.0,126.530946963091,9628.166973283074,1.0,1.0,-3.2858643423684226,19.732613824366283,-0.2813458116601039,-43.735276789077886,1.0,28.50061330455592,1.0,-0.1164542990057175,4.397054656256633,0.9283554085517024,1.0,1.9909822107866788,5.643880155720646
2.2199999999999998,2.2199999999999998,1.0,19.34906022736935,-0.31084454103513626,7.744925862493259,0.02274316457829889,0.007453272199347284,-0.027926804972429234,20.843863188635996,0.03677919571552987,1.0,0.0,220.6905654285027,-1.3665395958852704,27.731147439562957,125.37162594798866,-0.9736462424341219,2.11775100406562,1.0,28.838994987328824,0.0,1.0,127.81323918205193,10026.998333215648,1.0,1.0,-1.0991150087425252,19.716246704394095,-0.33608040626177926,-43.74957302659494,1.0,28.980583724051595,1.0,-0.12013786140222862,4.413692745575751,0.9280288298089077,1.0,2.1833606211764467,5.843667767774823
2.25,2.25,1.0,19.327296342002125,-0.3254614695614286,7.851508906575752,0.02425732893391327,0.0064566499239303065,-0.026426023559491703,20.863760475278088,0.036447785343077646,1.0,0.0,220.6905654285027,-1.3665395958852704,27.731147439562957,125.37162594798866,-0.9736462424341219,2.11775100406562,1.0,28.838994987328824,0.0,1.0,128.74014411800815,10163.595738121126,1.0,1.0,-1.0991150087425252,19.716246704394095,-0.33608040626177926,-43.74957302659494,1.0,28.980583724051595,1.0,-0.12013786140222862,4.413692745575751,0.9280288298089077,1.0,2.1833606211764467,5.843667767774823
2.28,2.28,1.0,19.40546282831982,-0.28241369537111843,7.908509824681858,0.02441332596645567,0.007912752644655359,-0.02657014615489324,20.957010109357796,0.03694042238324174,1.0,0.0,220.6905654285027,-1.3665395958852704,27.731147439562957,125.37162594798866,-0.9736462424341219,2.11775100406562,1.0,29.549221623571054,0.0,1.0,129.51913297734794,10139.842889664515,1.0,1.0,-1.5479723657435107,19.750545785316504,-0.36478987011136865,-43.676273889491355,1.0,28.482620180577815,1.0,-0.1368974365609777,4.433563794950178,0.9277037625169972,1.0,1.130623622009369,5.72569606060745
2.31,2.31,1.0,19.401049282300598,-0.3025717259793483,7.961265962515212,0.024029853047930032,0.00655150723311199,-0.02988886020185621,20.97317378532686,0.038906298316554545,1.0,0.0,248.80808918704966,-0.25492090796509653,29.357438053687577,129.27853334816396,-0.7836756929454947,2.029503808299734,1.0,29.549221623571054,0.0,1.0,129.77486129640107,10216.78510368571,1.0,1.0,-1.5479723657435107,19.750545785316504,-0.36478987011136865,-43.676273889491355,1.0,28.482620180577815,1.0,-0.1368974365609777,4.433563794950178,0.9277037625169972,1.0,1.130623622009369,5.72569606060745
2.34,2.34,1.0,19.298145603465077,-0.30769097014970975,7.935463865094723,0.024805631589454383,0.008618431199027816,-0.030122068218568148,20.868269794591843,0.03996167800090715,1.0,0.0,248.80808918704966,-0.25492090796509653,29.357438053687577,129.27853334816396,-0.7836756929454947,2.029503808299734,1.0,29.126643420578446,0.0,1.0,129.92250503394968,10135.636568312188,1.0,1.0,-1.5167295866106911,19.770446196572312,-0.4297543110255845,-43.68459900015399,1.0,29.19999621443621,1.0,-0.13583022343321227,4.450640073419907,0.9273792167598732,1.0,2.1332601692209963,5.359776219069244
2.37,2.37,1.0,19.215933443948376,-0.284109102944847,8.07764466227885,0.0269147293681508,0.007962841511028494,-0.033560112586691976,20.846610261495076,0.04375032181278212,1.0,0.0,248.80808918704966,-0.25492090796509653,29.357438053687577,129.27853334816396,-0.7836756929454947,2.029503808299734,1.0,29.126643420578446,0.0,1.0,130.76971225253638,10381.477481806527,1.0,1.0,-1.5167295866106911,19.770446196572312,-0.4297543110255845,-43.68459900015399,1.0,29.19999621443621,1.0,-0.13583022343321227,4.450640073419907,0.9273792167598732,1.0,2.1332601692209963,5.359776219069244
2.4,2.4,1.0,19.24217965253614,-0.3654898864554395,8.205921551972299,0.02495615645525264,0.003358912973605015,-0.027108442605109327,20.922050787499312,0.036999455426503326,1.0,0.0,248.80808918704966,-0.25492090796509653,29.357438053687577,129.27853334816396,-0.7836756929454947,2.029503808299734,1.0,30.404541931861228,0.0,1.0,130.4852388453921,10537.730653130213,1.0,1.0,-3.7323714977492335,19.841993264239044,-0.4239673433817515,-43.768751308351824,1.0,28.999103010063834,1.0,-0.13880147660837597,4.468449160421246,0.9270542075701733,1.0,2.5047898871152654,5.978376845164351
2.4299999999999997,2.4299999999999997,1.0,19.21287758515498,-0.3115974425578292,8.159719848666718,0.02796429541346291,0.009119588774525043,-0.03384118998632921,20.876129576075275,0.044837426967642716,1.0,0.0,248.80808918704966,-0.25492090796509653,29.357438053687577,129.27853334816396,-0.7836756929454947,2.029503808299734,1.0,30.404541931861228,0.0,1.0,131.916975944826,10611.918339484884,1.0,1.0,-3.7323714977492335,19.841993264239044,-0.4239673433817515,-43.768751308351824,1.0,28.999103010063834,1.0,-0.13880147660837597,4.468449160421246,0.9270542075701733,1.0,2.5047898871152654,5.978376845164351
2.46,2.46,1.0,19.132494538315328,-0.34233222079437525,8.306725822561091,0.02750541534325393,0.002948753864635707,-0.0357824011120231,20.86075819569517,0.045228566768148036,1.0,0.0,248.80808918704966,-0.25492090796509653,29.357438053687577,129.27853334816396,-0.7836756929454947,2.029503808299734,1.0,28.75813454959508,0.0,1.0,132.07846886193624,10641.954614693424,1.0,1.0,-0.5218879745391539,19.85807919795449,-0.4881131372865444,-43.62069769181945,1.0,29.051891936603017,1.0,-0.15716376628811352,4.490998981165969,0.926727764511321,1.0,2.8817607942912176,5.505109325287837
2.4899999999999998,2.4899999999999998,1.0,19.21308528442377,-0.3467005938712155,8.368455360741011,0.026926713132822962,-0.00011518038755048334,-0.034237382203295134,20.95933902996578,0.04355754224923081,1.0,0.0,248.80808918704966,-0.25492090796509653,29.357438053687577,129.27853334816396,-0.7836756929454947,2.029503808299734,1.0,28.75813454959508,0.0,1.0,132.60432609691009,10680.893105354015,1.0,1.0,-0.5218879745391539,19.85807919795449,-0.4881131372865444,-43.62069769181945,1.0,29.051891936603017,1.0,-0.15716376628811352,4.490998981165969,0.926727764511321,1.0,2.8817607942912176,5.505109325287837
2.52,2.52,1.0,19.157628828410395,-0.37136942674176904,8.447516503280106,0.03237152171345585,0.001064429470472187,-0.03348853171369061,20.94070659389146,0.04658894916695605,1.0,0.0,273.89530262313497,-0.7086920194228598,29.47534163518969,133.27790130330433,-1.4253837107508553,2.2651639771032586,1.0,29.69418648279309,0.0,1.0,133.1112546527487,10746.301250751134,1.0,1.0,-3.338164132301063,19.846367185778416,-0.44415087741567244,-43.634440905480176,1.0,29.572870007523058,1.0,-0.14372356095823655,4.4987007004909545,0.9263988367833488,1.0,2.3556736401382,5.42537144029489
2.55,2.55,1.0,19.064333334611415,-0.4059254097333821,8.60755337169915,0.031476013417893724,-0.0004843472793120672,-0.03610255926538206,20.921366016063402,0.047899569919580984,1.0,0.0,273.89530262313497,-0.7086920194228598,29.47534163518969,133.27790130330433,-1.4253837107508553,2.2651639771032586,1.0,29.69418648279309,0.0,1.0,133.5191613240496,11130.058210746496,1.0,1.0,-3.338164132301063,19.846367185778416,-0.44415087741567244,-43.634440905480176,1.0,29.572870007523058,1.0,-0.14372356095823655,4.4987007004909545,0.9263988367833488,1.0,2.3556736401382,5.42537144029489
2.58,2.58,1.0,19.06170601420859,-0.35643184045213644,8.5689619546233,0.028945370074873106,0.002558859860230485,-0.037993456569518295,20.902219710087863,0.04783184038541201,1.0,0.0,273.89530262313497,-0.7086920194228598,29.47534163518969,133.27790130330433,-1.4253837107508553,2.2651639771032586,1.0,29.41295806565572,0.0,1.0,134.9353101308954,10847.807450016144,1.0,1.0,-3.2951217156901893,19.858194949261634,-0.4938023215540308,-43.6835163822568,1.0,29.814699768224894,1.0,-0.16647983973825642,4.526342156378188,0.9260662352449782,1.0,1.9506385068153693,6.174547190842674
2.61,2.61,1.0,19.030710001170814,-0.3585030290054433,8.643002756132233,0.03369049680848133,-0.001886406416285858,-0.03590381648550612,20.904495789494142,0.0492716159933343,1.0,0.0,273.89530262313497,-0.7086920194228598,29.47534163518969,133.27790130330433,-1.4253837107508553,2.2651639771032586,1.0,29.41295806565572,0.0,1.0,135.7144618473971,11169.057801547962,1.0,1.0,-3.2951217156901893,19.858194949261634,-0.4938023215540308,-43.6835163822568,1.0,29.814699768224894,1.0,-0.16647983973825642,4.526342156378188,0.9260662352449782,1.0,1.9506385068153693,6.174547190842674
2.6399999999999997,2.6399999999999997,1.0,18.98002986482346,-0.3498899001571603,8.76951552701018,0.036896938145620777,-0.004956570741110939,-0.039050555003530565,20.910962655752964,0.053952733796510895,1.0,0.0,273.89530262313497,-0.7086920194228598,29.47534163518969,133.27790130330433,-1.4253837107508553,2.2651639771032586,1.0,29.349715676798475,0.0,1.0,135.18687070160902,11059.967973369969,1.0,1.0,-3.551223838501548,19.937653228558354,-0.5882747720600667,-43.67917414255905,1.0,29.847170788390056,1.0,-0.16150088857945946,4.530521053087702,0.9257286662280547,1.0,2.954045997927454,6.330022392191081
2.67,2.67,1.0,19.048341638394206,-0.5050161645320045,8.855357398494366,0.038359632237304486,-0.00443422813952918,-0.04247355108095991,21.012180161860645,0.05740319073014629,1.0,0.0,273.89530262313497,-0.7086920194228598,29.47534163518969,133.27790130330433,-1.4253837107508553,2.2651639771032586,1.0,29.349715676798475,0.0,1.0,136.11792379844036,11549.563174448711,1.0,1.0,-3.551223838501548,19.937653228558354,-0.5882747720600667,-43.67917414255905,1.0,29.847170788390056,1.0,-0.16150088857945946,4.530521053087702,0.9257286662280547,1.0,2.954045997927454,6.330022392191081
2.6999999999999997,2.6999999999999997,1.0,18.85821825304072,-0.5210683061159923,8.853542212172142,0.03900366724063292,-0.004411720755658457,-0.04453160062367714,20.839604544272685,0.05936171150119083,1.0,0.0,273.89530262313497,-0.7086920194228598,29.47534163518969,133.27790130330433,-1.4253837107508553,2.2651639771032586,1.0,30.31296343806757,0.0,1.0,135.79940959028374,11365.578425700249,1.0,1.0,-1.7748090336819973,19.750109039056905,-0.5885077056203828,-43.67002202079687,1.0,29.897568494911095,1.0,-0.1923944283055627,4.558181387007435,0.9253847546994374,1.0,2.1193499486631806,5.391614184463271
2.73,2.73,1.0,18.837519937078326,-0.49780530919600835,9.023998486334214,0.03878864530398769,-0.006711487060031841,-0.04481458511643789,20.89336057667721,0.05964855490482563,1.0,0.0,302.7019951025648,-0.3133419442966847,32.39018888656713,137.07466740572752,-1.7013142759554867,2.3986651026442605,1.0,30.31296343806757,0.0,1.0,137.2474802271231,11434.176947073433,1.0,1.0,-1.7748090336819973,19.750109039056905,-0.5885077056203828,-43.67002202079687,1.0,29.897568494911095,1.0,-0.1923944283055627,4.558181387007435,0.9253847546994374,1.0,2.1193499486631806,5.391614184463271
2.76,2.76,1.0,18.851024179532438,-0.4778776565420573,9.047069309531368,0.04199101377774927,-0.006460804880050426,-0.04920697036336657,20.915041065305207,0.06501010052386051,1.0,0.0,302.7019951025648,-0.3133419442966847,32.39018888656713,137.07466740572752,-1.7013142759554867,2.3986651026442605,1.0,29.856469163211703,0.0,1.0,137.75580314911377,11598.967655764382,1.0,1.0,-4.728715567688344,19.74097225850066,-0.6430109995595239,-43.762117694496325,1.0,29.475177479673807,1.0,-0.16592555207282517,4.571712526268527,0.9250330615178466,1.0,2.8063874644673295,5.53462882572932
2.79,2.79,1.0,18.897428808634395,-0.48720459113172765,9.08272122099376,0.04746043570377132,-0.009996674842181719,-0.0490989550354008,20.97250601786337,0.06901546095376332,1.0,0.0,302.7019951025648,-0.3133419442966847,32.39018888656713,137.07466740572752,-1.7013142759554867,2.3986651026442605,1.0,29.856469163211703,0.0,1.0,138.01707850265365,11562.612200863601,1.0,1.0,-4.728715567688344,19.74097225850066,-0.6430109995595239,-43.762117694496325,1.0,29.475177479673807,1.0,-0.16592555207282517,4.571712526268527,0.9250330615178466,1.0,2.8063874644673295,5.53462882572932
2.82,2.82,1.0,18.839203195704762,-0.5245587630312871,9.246003545609124,0.04277140220005566,-0.008844562341583052,-0.04695364479286382,20.992363385534798,0.06412693574861895,1.0,0.0,302.7019951025648,-0.3133419442966847,32.39018888656713,137.07466740572752,-1.7013142759554867,2.3986651026442605,1.0,30.472005824230017,0.0,1.0,138.54651211229876,11835.15709769326,1.0,1.0,-5.280046107650917,19.755289695651737,-0.7261261295569978,-43.713282332302455,1.0,30.161658761057012,1.0,-0.1925574260845036,4.583358221668574,0.9246720975131794,1.0,2.491573212952976,5.552116098582818
2.85,2.85,1.0,18.867474147472084,-0.5146612671742558,9.336792751008886,0.04701449473531178,-0.01137630329338294,-0.048005638449238955,21.057591405494335,0.06814927963492164,1.0,0.0,302.7019951025648,-0.3133419442966847,32.39018888656713,137.07466740572752,-1.7013142759554867,2.3986651026442605,1.0,30.472005824230017,0.0,1.0,139.70401748248196,12102.62229598984,1.0,1.0,-5.280046107650917,19.755289695651737,-0.7261261295569978,-43.713282332302455,1.0,30.161658761057012,1.0,-0.1925574260845036,4.583358221668574,0.9246720975131794,1.0,2.491573212952976,5.552116098582818
2.88,2.88,1.0,18.759416385193887,-0.6259750084482981,9.414547500799388,0.04995866407240207,-0.009608785531299504,-0.05095412813663654,20.99860120267754,0.0720036113639476,1.0,0.0,302.7019951025648,-0.3133419442966847,32.39018888656713,137.07466740572752,-1.7013142759554867,2.3986651026442605,1.0,29.916202581954536,0.0,1.0,139.5414038554742,11865.781436953937,1.0,1.0,-3.3351150247233603,19.777418274820587,-0.7488376409958792,-43.7443702516246,1.0,30.378358509725906,1.0,-0.1869921805496402,4.603402265840458,0.9243003350090833,1.0,2.4188259784223947,5.7032868118032924
2.9099999999999997,2.9099999999999997,1.0,18.727825482516444,-0.6370348458796443,9.536130915650293,0.053912747398367745,-0.010879178562702587,-0.054715632959721996,21.025580932256748,0.07758054748725605,1.0,0.0,302.7019951025648,-0.3133419442966847,32.39018888656713,137.07466740572752,-1.7013142759554867,2.3986651026442605,1.0,29.916202581954536,0.0,1.0,140.54859072910793,11833.61058962131,1.0,1.0,-3.3351150247233603,19.777418274820587,-0.7488376409958792,-43.7443702516246,1.0,30.378358509725906,1.0,-0.1869921805496402,4.603402265840458,0.9243003350090833,1.0,2.4188259784223947,5.7032868118032924
2.94,2.94,1.0,18.7311178997024,-0.6237558707363802,9.662338625555662,0.05784516835059177,-0.010408980338563375,-0.0566569651399789,21.085650022556447,0.0816359116570011,1.0,0.0,335.141248438192,-3.9016459594917627,30.51628989534624,141.14791395855224,-2.1248317553865044,2.8921487512988855,1.0,32.00351232321166,0.0,1.0,141.15451848985631,12402.042021394309,1.0,1.0,-3.6239391322198884,19.673245950104178,-0.8805129192870872,-43.675909836103834,1.0,30.623974666224,1.0,-0.23144441311951863,4.606134253474731,0.9239162170374765,1.0,2.5901980360731973,5.7356634873504
2.9699999999999998,2.9699999999999998,1.0,18.6836188369258,-0.6236081615983531,9.671105747647957,0.058927800049282726,-0.008773529110776874,-0.06012851931262328,21.04748883750577,0.08464572798691264,1.0,0.0,335.141248438192,-3.9016459594917627,30.51628989534624,141.14791395855224,-2.1248317553865044,2.8921487512988855,1.0,32.00351232321166,0.0,1.0,141.16795171312157,12136.339389288618,1.0,1.0,-3.6239391322198884,19.673245950104178,-0.8805129192870872,-43.675909836103834,1.0,30.623974666224,1.0,-0.23144441311951863,4.606134253474731,0.9239162170374765,1.0,2.5901980360731973,5.7356634873504
3.0,3.0,1.0,18.63092787320016,-0.6267624562567862,9.762816711930794,0.05723285526796555,-0.014007348270763236,-0.061999388916115006,21.04321493364821,0.08553203934008606,1.0,0.0,335.141248438192,-3.9016459594917627,30.51628989534624,141.14791395855224,-2.1248317553865044,2.8921487512988855,1.0,31.318204283421483,0.0,1.0,141.69104599524485,12495.95790565134,1.0,1.0,-4.418481572635083,19.73078231374273,-0.9865413611715191,-43.71726001880803,1.0,30.55344167269854,1.0,-0.24332572996675503,4.61455485995899,0.9235181645236279,1.0,3.7538670251942756,5.422979702772587
3.03,3.03,1.0,18.623278095296698,-0.725006894788143,9.877028485253314,0.065288543856945,-0.014751564039551182,-0.06250687652409867,21.092837971945677,0.09158227019119,1.0,0.0,335.141248438192,-3.9016459594917627,30.51628989534624,141.14791395855224,-2.1248317553865044,2.8921487512988855,1.0,31.318204283421483,0.0,1.0,142.08817987911027,12335.98399066966,1.0,1.0,-4.418481572635083,19.73078231374273,-0.9865413611715191,-43.71726001880803,1.0,30.55344167269854,1.0,-0.24332572996675503,4.61455485995899,0.9235181645236279,1.0,3.7538670251942756,5.422979702772587
