time_s,x_m,y_m,altitude_m,vx_mps,vy_mps,vz_mps,speed_mps,mass_kg,roll_deg,pitch_deg,yaw_deg,p_dps,q_dps,r_dps,alpha_deg,beta_deg,qbar_pa,mach,airspeed_mps,load_factor_g,density_kgpm3,pressure_pa,temperature_k,wind_x_mps,wind_y_mps,wind_z_mps,thrust_n,mass_flow_kgps,propulsion_throttle_actual,propulsion_health,energy_j_per_kg,target_distance_m,guidance_mode,pitch_command_deg,heading_command_deg,roll_command_deg
0.0,0.0,0.0,20.0,85.0,0.0,8.0,85.37564055396598,18.0,0.0,6.000000000000002,0.0,0.0,0.0,0.0,0.623294571949261,-0.6710715042735446,4456.558066714115,0.25096171677176965,85.38149682454623,1.7460465049919478,1.2226496753673843,101084.96761777384,288.02,0.0,1.0,0.0,326.8,0.17539118863220368,0.86,nominal,3840.633,nan,pitch_program,13.0,0.0,0.0
0.03,2.5653074896002197,9.796055061467139e-05,20.232950907584534,85.51024965334067,0.003265351687155713,7.765030252817809,85.86209001221869,17.994738264341034,0.006199197183806406,6.265618543476623,-0.008705022830564126,0.1756402380193581,-8.853982910340157,-0.288028571306414,1.0768620520272147,-0.6565383938860415,4507.375667487685,0.2523919911485425,85.86787507888482,1.774327853792258,1.222622319984851,101082.17454493979,288.0184858191007,0.0,1.0,0.0,332.605,0.1785066900092231,0.86,nominal,3884.5667186510364,nan,pitch_program,12.985,0.0,0.0
0.06,5.146102579769902,0.00027610814216295074,20.45939307894457,86.02650300565607,0.0059382530516093116,7.548072378667819,86.357006961095,17.98938306364076,0.016649942063512377,6.577175471344131,-0.02293834725294604,0.29529611191863187,-10.385350351495866,-0.4693985448551966,1.5626515932980705,-0.6371102441497456,4559.377823330194,0.25384716389166767,86.3627279257233,1.8035059531836128,1.2225957293708172,101079.45957151141,288.01701394498684,0.0,1.0,0.0,338.40999999999997,0.18162219138624247,0.86,nominal,3929.4044327769366,nan,pitch_program,12.97,0.0,0.0
0.09,7.742554139905254,0.0005201044381725277,20.67988061284214,86.54838533784505,0.0081332098669859,7.349584463252365,86.8598840807406,17.983934397899173,0.02934509090724927,6.769879649857861,-0.040621725325839846,0.35467092978103515,-6.423713172005797,-0.5828746314223799,1.9157597730088365,-0.6147461999691746,4612.525665825006,0.25532574121268387,86.86554665746345,1.8332624385470124,1.2225698384221046,101076.81604913168,288.0155807760165,0.0,1.0,0.0,344.215,0.18473769276326188,0.86,nominal,3975.120082471776,nan,pitch_program,12.955,0.0,0.0
0.12,10.35487044074192,0.0008175413809410598,20.89472196264792,87.07721002788887,0.00991456475895107,7.161378326859369,87.37119630679251,17.978392267116273,0.04284273871807954,6.867826473798528,-0.0604413926634685,0.3714814693808023,-3.265307534658784,-0.6539258001208856,2.1659174478331664,-0.5906260491585215,4666.884408262433,0.2568291173766741,87.37680536017872,1.8633151072105039,1.2225446108851712,101074.24027519567,288.0141843072428,0.0,1.0,0.0,350.02,0.1878531941402813,0.86,nominal,4021.7701971750384,nan,pitch_program,12.94,0.0,0.0
0.15,12.983286268207522,0.0011571508306977801,21.1040931168828,87.61386091552009,0.011320314991890679,6.97903847449597,87.89138598692209,17.972756671292064,0.05639871799213723,6.952704609032803,-0.0816176514096996,0.36693877397427443,-2.8298775224020343,-0.6982973371416327,2.3978369006560847,-0.5654861289504771,4722.517285720348,0.2583585914406079,87.89694585178795,1.8939023914276332,1.2225200260638116,101071.73013561618,288.0128233947402,0.0,1.0,0.0,355.825,0.1909686955173007,0.86,nominal,4069.4083201157414,nan,pitch_program,12.925,0.0,0.0
0.18,15.628033976982017,0.0015283079980358395,21.308199019722043,88.15825695914985,0.012371905577935313,6.803530094641355,88.4203960909938,17.967027610426545,0.06978866222835607,7.050232593672552,-0.10366020892263361,0.3567690156494293,-3.251734718552321,-0.7256928228257055,2.636659184667093,-0.5398072132981115,4779.434960542223,0.2599139953924683,88.42591080151266,1.9249672181525985,1.2224960598639272,101069.28316944401,288.01149670637176,0.0,1.0,0.0,361.63,0.19408419689432013,0.86,nominal,4118.045272360873,nan,pitch_program,12.91,0.0,0.0
0.21,18.289337537336213,0.0019206890884714916,21.507294008449605,88.71011867847314,0.013079369681188405,6.636499624252076,88.95801512107495,17.961205084519715,0.08304933078445002,7.138942982965808,-0.12622521788955768,0.34912381543149557,-2.9580064800560857,-0.7424636990289188,2.8599068289305483,-0.513897179928522,4837.631425522249,0.26149470775315287,88.96348855312519,1.956227572310152,1.222472682393969,101066.89632387873,288.01020258894505,0.0,1.0,0.0,367.435,0.19719969827133954,0.86,nominal,4167.678731928661,nan,pitch_program,12.895,0.0,0.0
0.24,20.967422670513976,0.0023240584760624264,21.70162273346501,89.26950443925881,0.013445646253031157,6.477624167180149,89.50421341181368,17.955289093571576,0.09629159694038456,7.2022548298246205,-0.14908720316403443,0.3462846191740415,-2.111575872944604,-0.7528023092434647,3.051290416018711,-0.48794344104117043,4897.120300602291,0.26310064169289593,89.50964935231833,1.9875051037831102,1.2224498649022044,101064.5666625705,288.0089394522325,0.0,1.0,0.0,373.24,0.20031519964835895,0.86,nominal,4218.322327812879,nan,pitch_program,12.88,0.0,0.0
0.27,23.66252319742631,0.002728135722608149,21.89139018751564,89.8366842304112,0.013469241551524087,6.3255818016876635,90.05910836814299,17.949279637582126,0.10961185138553872,7.245073911002106,-0.17212720981530605,0.34743783235709297,-1.4286694985011539,-0.759338683536268,3.216647743496948,-0.4620569117264266,4957.931609390344,0.26473214268337897,90.06451055538925,2.018860221383893,1.2224275832955322,101062.29172488241,288.0077059637811,0.0,1.0,0.0,379.045,0.20343070102537836,0.86,nominal,4270.002701614861,nan,pitch_program,12.865,0.0,0.0
0.3,26.374878668369842,0.0031224968419274798,22.07677730627595,90.4118490314511,0.013145370643977684,6.179570625343648,90.62278803479997,17.943176716551363,0.12306581119556369,7.2778344086046936,-0.19528963298085716,0.3508764122969349,-1.0935695018097291,-0.763669585979167,3.3669938324592064,-0.4363027084750419,5020.092728598429,0.26638946994319285,90.62816019570846,2.0503787230092447,1.2224058163073648,101060.06933882042,288.0065009475092,0.0,1.0,0.0,384.84999999999997,0.20654620240239774,0.86,nominal,4322.744083770733,nan,pitch_program,12.850000000000001,0.0,0.0
0.32999999999999996,29.104730462213947,0.003496501332517165,22.257960798512496,90.99505979480347,0.012466816352989496,6.039449741218192,91.19526312072392,17.93698033047929,0.13667117671381177,7.303649905202272,-0.2185398441030978,0.35516042704820094,-0.8622568130698526,-0.7667886600161377,3.505591708426172,-0.4107169331671056,5083.622939843468,0.2680726554538811,91.20060900029868,2.082028700054362,1.2223845431690652,101057.89738328279,288.00532325480964,0.0,1.0,0.0,390.655,0.20966170377941715,0.86,nominal,4376.564039093767,nan,pitch_program,12.835,0.0,0.0
0.36,31.852321219618076,0.003839249468427397,22.43511460390051,91.5863585801377,0.01142493786367441,5.905126846267149,91.77653148582851,17.930690479365907,0.15042231214904642,7.3206745729504545,-0.24185213115392137,0.35946868054909187,-0.569418173824517,-0.7693324610823077,3.630713042156128,-0.3853160947851537,5148.540397506695,0.2697816934668037,91.78185486082499,2.1137316387563656,1.2223637434386947,101055.77377057241,288.00417175507465,0.0,1.0,0.0,396.46,0.21277720515643656,0.86,nominal,4431.479182414977,nan,pitch_program,12.82,0.0,0.0
0.39,34.61789608896712,0.004139560695196199,22.608403074990182,92.18582897830159,0.01001037422562673,5.776282369655789,92.36662060851992,17.924307163211214,0.1643066719445298,7.328394954000228,-0.2652148974387105,0.3635285387740677,-0.25946649324455745,-0.7716944528635011,3.7421038929195913,-0.36010447768974474,5214.866880867193,0.2715166652795602,92.3719252905871,2.145458004119473,1.222343397801416,101053.69652811332,288.00304538001257,0.0,1.0,0.0,402.265,0.21589270653345596,0.86,nominal,4487.508997334481,nan,pitch_program,12.805,0.0,0.0
0.42,37.40170310811571,0.004385957398648471,22.777979289597678,92.7935673049529,0.008213223448409095,5.652540486916518,92.96557112497128,17.91783038201521,0.17831548717250703,7.328643308501096,-0.28863002239543123,0.3674007143111705,-0.010593041952906283,-0.7741000853306019,3.8418868720414006,-0.3350800206397521,5282.626032276167,0.273277690843448,92.97086096269733,2.155317283472426,1.222323488267506,101051.66381866319,288.0019431346176,0.0,1.0,0.0,404.1773684210526,0.21691906078826353,0.86,nominal,4544.67437789638,nan,pitch_program,12.79,0.0,0.0
0.44999999999999996,40.20379861002329,0.004567625376109159,22.943963515285084,93.40318339691936,0.0060555992486895915,5.532807522913547,93.566910093443,17.911322810191564,0.19244683085326075,7.323235846871126,-0.31210452601979705,0.37126746229168667,0.1777367155120591,-0.7766750454747884,3.932367065077501,-0.3102609197069471,5351.096909786418,0.27504574409301136,93.57218899457223,2.1542968536613922,1.2223040007006054,101049.6741984351,288.0008642371506,0.0,1.0,0.0,404.14342105263154,0.21690084148196515,0.86,nominal,4602.386752024393,nan,pitch_program,12.775,0.0,0.0
0.48,43.024143565362714,0.004674111251991681,23.106458117325314,94.01149851131413,0.0035495291960840687,5.416486734674272,94.16740515427234,17.904815784947104,0.20670438353942558,7.312850157204127,-0.33564536671830014,0.37529973182368787,0.3434765387391005,-0.7795040240531927,4.014536430070995,-0.2856470726983275,5419.912699823919,0.27681132390796465,94.1726770057562,2.1533409237149863,1.2222849230671866,101047.72643836588,287.99980802223735,0.0,1.0,0.0,404.1094736842105,0.2168826221756668,0.86,nominal,4660.347044240708,nan,pitch_program,12.76,0.0,0.0
0.51,45.86270050133387,0.004694866289365583,23.265560022128717,94.61856453237176,0.0006918345791300847,5.303396826780089,94.76707641658857,17.898309306281835,0.22109505855067005,7.297765913868252,-0.35926010149505233,0.3795969320740508,0.49988981290732676,-0.7826398902864504,4.088852233538736,-0.2612247548754006,5489.073879316133,0.27857448935726625,94.77234506372827,2.1524318436837837,1.2222662439731546,101045.81937470398,287.99877385985616,0.0,1.0,0.0,404.0755263157895,0.21686440286936848,0.86,nominal,4718.5565904647765,nan,pitch_program,12.745,0.0,0.0
0.54,48.719433532260965,0.004619241127384934,23.421360395592824,95.22443436423661,-0.0025208387326883215,5.1933457821368645,95.36594647334171,17.891803374195753,0.23562711962154742,7.278552629805858,-0.38295841179845064,0.38419007850111275,0.6373147283843156,-0.7861078477241253,4.15606330796643,-0.23697994737746958,5558.5812775572185,0.28033530681000995,95.37121572274172,2.1515639769536246,1.2222479527015404,101043.9519128556,287.9977611574286,0.0,1.0,0.0,404.0415789473684,0.2168461835630701,0.86,nominal,4777.016957301578,nan,pitch_program,12.73,0.0,0.0
0.57,51.59430820894366,0.004436479939341245,23.57394527069591,95.82915588942323,-0.006092039601456319,5.08616250343618,95.96403599580255,17.885297988688862,0.25030903899921064,7.2559226626405335,-0.4067513085209591,0.38907264876914016,0.7509892968595785,-0.789917326314897,4.217043972271458,-0.21289874603813352,5628.435568186058,0.28209383698826096,95.96930961866346,2.1507364436773337,1.2222300391387606,101042.1230198542,287.99676935574047,0.0,1.0,0.0,404.0076315789474,0.21682796425677175,0.86,nominal,4835.729532690713,nan,pitch_program,12.715,0.0,0.0
0.6,54.4872912938967,0.004135714382185089,23.723396493316667,96.43276949843491,-0.01002551857187188,4.9817074206919365,96.5613615400833,17.878793149761158,0.26514897583589514,7.230416244730871,-0.43064965268756955,0.3942272219953647,0.8466506204185923,-0.7940709789887234,4.272473272980035,-0.18896750709054952,5698.63700272955,0.28385012852215047,96.56664327557328,2.1499450148761725,1.2222124936635141,101040.33171301556,287.99579792279343,0.0,1.0,0.0,403.9736842105263,0.21680974495047337,0.86,nominal,4894.695317458522,nan,pitch_program,12.7,0.0,0.0
0.63,57.398350613999945,0.003705958451610429,23.86979225810262,97.035310670108,-0.014325197685822,4.879858826198415,97.15793711385237,17.872288857412645,0.2801547819532815,7.202408766428327,-0.45466392738026706,0.3996398250483846,0.9297930480096974,-0.7985687064322671,4.322851142845065,-0.16517287762541719,5769.18558125767,0.285604222554796,97.16323067197109,2.149183659428415,1.2221953070838283,101038.57705350887,287.9948463503223,0.0,1.0,0.0,403.9397368421053,0.21679152564417503,0.86,nominal,4953.915070357568,nan,pitch_program,12.685,0.0,0.0
0.6599999999999999,60.327454974279874,0.0031361039621342662,24.0132073640952,97.63681200933095,-0.018995149649205418,4.7805035330860655,97.75377554954586,17.86578511164332,0.29609846229074066,7.1722535847571125,-0.4788045405919053,0.43077849698588844,1.0011452782559755,-0.8034088884850112,4.368645318438777,-0.14156023681592658,5840.081206958739,0.287356156778011,97.75908461360657,2.148448530562532,1.2221784706070031,101036.8581432869,287.99391415213336,0.0,1.0,0.0,403.9057894736842,0.21677330633787664,0.86,nominal,5013.3894370926,nan,pitch_program,12.67,0.0,0.0
0.69,63.27457406311273,0.002414879301015249,24.15371353614944,98.23730296109521,-0.02404082203730057,4.6835390684745395,98.34888819522597,17.859281912453184,0.31221311246195066,7.140311088930587,-0.503083369531808,0.4363361966215045,1.0604722242568758,-0.8086308843579301,4.41032569261278,-0.1180586535464106,5911.3236459904265,0.2891059645606518,98.35421643671984,2.1477378444786934,1.2221619758018343,101035.17412122786,287.993000862015,0.0,1.0,0.0,403.8718421052631,0.21675508703157828,0.86,nominal,5073.118919467809,nan,pitch_program,12.655,0.0,0.0
0.72,66.23967834195531,0.001530877209809845,24.291379829402192,98.83680929475267,-0.029466736373513474,4.588876441758456,98.94328439491781,17.852779259842237,0.3289916813227014,7.106897804837496,-0.527511661540253,0.45830697865707215,1.109237594791703,-0.8142105261836791,4.4483043426374556,-0.09469283181378386,5982.912456179432,0.29085367335246165,98.94863546470125,2.14704976043103,1.2221458145510986,101033.52415828338,287.99210603110885,0.0,1.0,0.0,403.8378947368421,0.21673686772527995,0.86,nominal,5133.103823430801,nan,pitch_program,12.64,0.0,0.0
0.75,69.22273894958869,0.0004725260413269276,24.426272962919928,99.43535358777925,-0.03527837228276391,4.496437783924514,99.53697172626329,17.84627715381048,0.34565932640600466,7.072274761789398,-0.552101220239641,0.4544258072406145,1.149292746296456,-0.8201658377044868,4.482931314057131,-0.07138962828187619,6054.847010751045,0.2925993054397728,99.54234926492093,2.146382123253598,1.2221299790123494,101031.90745347484,287.991229225741,0.0,1.0,0.0,403.80394736842106,0.21671864841898159,0.86,nominal,5193.3442799692875,nan,pitch_program,12.625,0.0,0.0
0.78,72.22372762541194,-0.0007718781772821683,24.55845757106998,100.03295586077489,-0.041480140620303196,4.406153605001674,100.12995639885534,17.83977559435791,0.3625917304525945,7.036671582437697,-0.576862843537194,0.46304520735519566,1.1816872383174206,-0.8264585260365137,4.514515978326137,-0.04816512030816682,6127.12653803536,0.294342879056462,100.13536402649123,2.145733317648202,1.2221144615883803,101030.32323087702,287.990370025788,0.0,1.0,0.0,403.77,0.21670042911268322,0.86,nominal,5253.840282157669,nan,pitch_program,12.61,0.0,0.0
0.8099999999999999,75.24261665785748,-0.0022122481152825517,24.68799644292238,100.62963441485141,-0.04801233126667944,4.317962395080037,100.72224395284255,17.83327458148453,0.37984188453124673,7.000297063946419,-0.6022120599709319,0.47175815771391255,1.2070250625755756,-0.8464803440926534,4.543343949710877,-0.024570012586373785,6199.750125303123,0.29608440859877605,100.72768463316557,2.145101958950368,1.22209925489909,101028.77073674492,287.98952802312095,0.0,1.0,0.0,403.73605263157896,0.21668220980638486,0.86,nominal,5314.591753764948,nan,pitch_program,12.595,0.0,0.0
0.84,78.27937876836823,-0.0038619724747545594,24.81495071405497,101.22540368369164,-0.05499081198240026,4.231809037753001,101.31383707395422,17.82677411519034,0.39722494411405884,6.96334291661932,-0.6279123600092241,0.47530249521297563,1.2260104767855522,-0.8586577643610982,4.5696736911365905,-0.0008878307392620981,6272.716738628678,0.29782390521212176,101.31931486282222,2.144487519526119,1.22208435175895,101027.24923721237,287.98870282035864,0.0,1.0,0.0,403.7021052631579,0.2166639905000865,0.86,nominal,5375.598327743858,nan,pitch_program,12.58,0.0,0.0
0.87,81.33398706433076,-0.005735970802582302,24.939380086596575,101.82027653208414,-0.06246661092759141,4.147645751386831,101.90473777222805,17.82027419547534,0.4144578764603272,6.925973943123511,-0.6534561590136678,0.4714805433407885,1.239614432459306,-0.8540150847262425,4.593728555190201,0.022373074939038267,6346.025189965178,0.2995613761118942,101.91025715622749,2.143889132312532,1.2220697451511373,101025.75801565086,287.9878940294371,0.0,1.0,0.0,403.66815789473685,0.21664577119378817,0.86,nominal,5436.859561939503,nan,pitch_program,12.565,0.0,0.0
0.8999999999999999,84.4064150363191,-0.00784579663669989,25.06134303176858,102.41426573294481,-0.07032752780391957,4.0654315057334385,102.49494867995794,17.813774822339525,0.43131827361773173,6.88832767252254,-0.6790326619363416,0.45948492873413627,1.2485947926751495,-0.8556014808319179,4.615704140718355,0.04548784107594545,6419.67417693454,0.3012968256336909,102.50051297414478,2.1433058383073673,1.2220554282037532,101024.29637024054,287.98710127029346,0.0,1.0,0.0,403.6342105263158,0.2166275518874898,0.86,nominal,5498.375072096099,nan,pitch_program,12.55,0.0,0.0
0.9299999999999999,87.4966364760804,-0.010203402025279673,25.180896904325145,103.00738132537649,-0.07858684628599279,3.9851290852188255,103.0844703979692,17.8072759957829,0.4475621308030563,6.850532555782509,-0.7047594459464074,0.4388916648440765,1.2532702980703494,-0.8610407806529438,4.635782231178895,0.06859065624163291,6493.662303527862,0.3030302558004133,103.09008299018076,2.1427372590075575,1.2220413941763586,101022.8636125953,287.98632417012186,0.0,1.0,0.0,403.6002631578947,0.21660933258119142,0.86,nominal,5560.144261241693,nan,pitch_program,12.535000000000002,0.0,0.0
0.96,90.60462543233227,-0.012821067693929513,25.29809808773633,103.59963187506236,-0.08725552228832802,3.906706113706235,103.67330269087348,17.800777715805463,0.4642481934578303,6.812702905191886,-0.7307037593647124,0.453331235812132,1.2541160802736901,-0.8686768296020544,4.654127892325709,0.09166126695310611,6567.98806794513,0.3047616661080885,103.67896701779998,2.142183118806831,1.2220276364429197,101021.45906602108,287.9855623624297,0.0,1.0,0.0,403.56631578947366,0.21659111327489305,0.86,nominal,5622.166439028838,nan,pitch_program,12.520000000000001,0.0,0.0
0.99,93.73035616968072,-0.01571140389163866,25.413002124824008,104.19102457828157,-0.09634453992363824,3.8301345695892266,104.26144453134923,17.794279982407215,0.4817158623488826,6.774936271848625,-0.7569028869856468,0.4789464755934361,1.2516864323082617,-0.8775347916281508,4.670885905467699,0.11470673684216061,6642.649868041276,0.30649105372477176,104.26716407787956,2.141643065511154,1.222014148476454,101020.08206394776,287.9848154861886,0.0,1.0,0.0,403.53236842105264,0.21657289396859472,0.86,nominal,5684.440825169211,nan,pitch_program,12.505,0.0,0.0
1.02,96.87380313366087,-0.018887327185002935,25.525663825549806,104.78156546600505,-0.10586410977880913,3.755390024193221,104.84889423809032,17.787782795588157,0.49986108816387764,6.737317652506042,-0.7833774914547006,0.501021937761986,1.2464013418687514,-0.8870677244425023,4.6861847968347545,0.13775389921059583,6717.646015125295,0.3082184138738834,104.85467252902852,2.1411168139669425,1.2220009238363647,101018.73194863558,287.9840831851339,0.0,1.0,0.0,403.49842105263156,0.21655467466229633,0.86,nominal,5746.966562629954,nan,pitch_program,12.49,0.0,0.0
1.05,100.03494091986741,-0.02236202611923412,25.636137361857386,105.37125954021813,-0.11582329780770612,3.682451210252719,105.43564956429213,17.781286155348287,0.5184601669876944,6.699922708411674,-0.8101397227404438,0.515602390792511,1.238576071846905,-0.8969902033130451,4.700140453588243,0.16083171389006798,6792.974742519269,0.30994374008488074,105.4414901527849,2.1406042035542496,1.2219879561572917,101017.4080700367,287.9833651071479,0.0,1.0,0.0,403.46447368421053,0.216536455355998,0.86,nominal,5809.742725981768,nan,pitch_program,12.475,0.0,0.0
1.08,103.21374424570978,-0.026148930594024365,25.74447635501004,105.96011086141202,-0.12623014915967493,3.6112997717550974,106.0217077482473,17.774790061687607,0.5373579083937848,6.662817783024317,-0.8371979293929743,0.5249859480244267,1.2285247042253917,-0.9071724623749199,4.712856752526174,0.1839605397668405,6868.634210202468,0.3116670243465871,106.02761420570152,2.140105112672916,1.221975239138846,101016.10978474656,287.9826609036924,0.0,1.0,0.0,403.43052631578945,0.21651823604969964,0.86,nominal,5872.768325974239,nan,pitch_program,12.46,0.0,0.0
1.1099999999999999,106.41018792501252,-0.030261693250224788,25.850733952737738,106.54812264342488,-0.1370920885400141,3.5419199242566117,106.60706557179452,17.768294514606115,0.5565094541473887,6.626060251515911,-0.8645593394116103,0.5328541005857625,1.2165476755323907,-0.9175756877329742,4.724426473803913,0.20715102597677337,6944.622511043719,0.3133882572910562,106.61304148182798,2.139619425353721,1.2219627665365458,101014.83645507817,287.9819702293072,0.0,1.0,0.0,403.3965789473684,0.21650001674340127,0.86,nominal,5936.042315032063,nan,pitch_program,12.445,0.0,0.0
1.14,109.62424684540433,-0.0347141836116106,25.954962895888897,107.13529734639353,-0.14841634537952705,3.4742981050386166,107.19171942008585,17.761799514103814,0.5759421917742986,6.589699965449288,-0.8922315088974176,0.5416132199499645,1.202895427857932,-0.9282108865160833,4.734933080054695,0.2304083317306135,7020.937677497497,0.3151074283815748,107.19776837660925,2.1391470597552993,1.2219505321539719,101013.58744826108,287.9812927411767,0.0,1.0,0.0,403.3626315789474,0.21648179743710294,0.86,nominal,5999.563593000174,nan,pitch_program,12.43,0.0,0.0
1.17,112.85589594790716,-0.039520491294220195,26.057215577360534,107.7216367500941,-0.16021025608698644,3.4084227157212346,107.77566532782076,17.7553050601807,0.5957042203789296,6.553780284633204,-0.9202229715652969,0.5519494868616237,1.1877830114837686,-0.9391114933986953,4.744451869021131,0.2537368058582362,7097.577686631713,0.31682452605711986,107.78179093597674,2.138687967747415,1.2219385298358545,101012.36213573493,287.98062809874716,0.0,1.0,0.0,403.3286842105263,0.21646357813080455,0.86,nominal,6063.3310115689355,nan,pitch_program,12.415,0.0,0.0
1.2,116.10511020846178,-0.044694933756436295,26.157544094486088,108.30714201848737,-0.1724814154072034,3.344283904185134,108.35889902026157,17.748811152836776,0.6158333135845446,6.518338572595378,-0.9485433771601857,0.5635141259768449,1.1714087444477137,-0.9503156846180573,4.75305053297621,0.2771426110804839,7174.540464484761,0.31853953785709654,108.36510489873599,2.1382421112866394,1.221926753461893,101011.15989251852,287.9799759633858,0.0,1.0,0.0,403.2947368421053,0.21644535882450622,0.86,nominal,6127.343378235814,nan,pitch_program,12.4,0.0,0.0
1.23,119.37186462139677,-0.050252065360352496,26.256000294732488,108.89181376449935,-0.18523772013053996,3.2818733415467114,108.94141595630802,17.74231779207204,0.6363500021510258,6.483406821663601,-0.9772033491082877,0.5757284607525073,1.1539502956977175,-0.9618566167683751,4.76078989292099,0.3006341518515325,7251.823890747592,0.32025245054907775,108.94770573998144,2.13780945648296,1.2219151969414015,101009.98009666265,287.9793359980842,0.0,1.0,0.0,403.26078947368416,0.2164271395182078,0.86,nominal,6191.599460572999,nan,pitch_program,12.385,0.0,0.0
1.26,122.65613418469309,-0.05620668626845325,26.352635815303987,109.47565210987749,-0.19848736360335847,3.2211840190499803,109.5232113691021,17.735824977886494,0.6572639952170631,6.449012362618262,-1.0062142354743127,0.5882289096784877,1.1355619285546268,-0.973758841777072,4.767724758168173,0.32422131319567216,7329.425803245142,0.3219632502479167,109.5295887115816,2.1373899769863294,1.2219038542086411,101008.82212877332,287.9787078672005,0.0,1.0,0.0,403.22684210526313,0.21640892021190947,0.86,nominal,6256.097990318658,nan,pitch_program,12.37,0.0,0.0
1.29,125.95789388680035,-0.06257385091613048,26.447502117620445,110.05865673690853,-0.2122388215892409,3.1622100772152977,110.10428030109681,17.729332710280136,0.6785826574158963,6.4151783887478455,-1.035587865794528,0.6009354586290008,1.1163805829171456,-0.986038701611365,4.773904606054923,0.347914531469093,7407.344001841054,0.32367192251835547,110.1107488770541,2.136983649570661,1.2218927192187619,101007.68537159722,287.97809123623546,0.0,1.0,0.0,403.1928947368421,0.21639070090561113,0.86,nominal,6320.837666953009,nan,pitch_program,12.355,0.0,0.0
1.3199999999999998,129.2771186948408,-0.06936887628623059,26.540650517179305,110.64082693468104,-0.2265008456700039,3.1049466519619586,110.68461763558052,17.72284098925297,0.7003158487571464,6.381924374066761,-1.0653363698975444,0.6139301583198079,1.0965292820796337,-0.9987065349085129,4.779374140227417,0.3717242192038781,7485.576252026519,0.32537845246742075,110.6911811429709,2.136590448511728,1.221881785944296,101006.56920966349,287.9774857716383,0.0,1.0,0.0,403.158947368421,0.21637248159931274,0.86,nominal,6385.817160961627,nan,pitch_program,12.34,0.0,0.0
1.3499999999999999,132.61378354407557,-0.07660735022383072,26.632132209157618,111.22216164115895,-0.24128246458667119,3.0493897326104724,111.26421812560028,17.71634981480499,0.7224767112202689,6.349266497249734,-1.0954720695057494,0.627321722216129,1.0761168723968029,-1.0117691174224475,4.784173829313485,0.3956605928031015,7564.120288303704,0.3270828248293847,111.2708802878378,2.1362103446533958,1.2218710483721387,101005.4730289751,287.9768911406405,0.0,1.0,0.0,403.125,0.2163542622930144,0.86,nominal,6451.035116879514,nan,pitch_program,12.325,0.0,0.0
1.38,135.96786332849035,-0.0843051398882149,26.721998290245985,111.80265948049227,-0.256592988812806,2.9955360362788475,111.84307641967588,17.7098591869362,0.7450803916173199,6.317218025897153,-1.1260074270336211,0.6411765094685165,1.0552393280465187,-1.025231542534783,4.788340381538554,0.41973372780598583,7642.973817261435,0.32878502404137117,111.84984098779528,2.135843304601325,1.221860500500981,101004.39621674664,287.97630701111336,0.0,1.0,0.0,403.0910526315789,0.21633604298671602,0.86,nominal,6516.490156041771,nan,pitch_program,12.31,0.0,0.0
1.41,139.33933289237376,-0.09247840033446084,26.810299777149535,112.38231879611357,-0.2724420148748642,2.943382896784981,112.42118708464102,17.703369105646598,0.7681426284478302,6.285789635840094,-1.1569550297365003,0.6555138527565993,1.0339819241584263,-1.0390983723041354,4.791907140154607,0.44395366211720555,7722.134520368547,0.33048503431050297,112.42805783944507,2.1354892884306107,1.2218501363391303,101003.33816118156,287.9757330514485,0.0,1.0,0.0,403.0571052631579,0.2163178236804177,0.86,nominal,6582.180879069512,nan,pitch_program,12.295,0.0,0.0
1.44,142.72816702279053,-0.10114358319535806,26.897087622069783,112.96113768055854,-0.2888394286965742,2.8929281640082687,112.99854462630829,17.696879570936186,0.7916790676022796,6.254989699322042,-1.1883275920186673,0.6703302820215089,1.0124202834558778,-1.0533742163751525,4.7949044424330785,0.4683304574813215,7801.600056565513,0.33218283967462087,113.00552538049268,2.1351482483460105,1.2218399499026824,101002.29825128529,287.9751689304565,0.0,1.0,0.0,403.02315789473687,0.21629960437411935,0.86,nominal,6648.105868160863,nan,pitch_program,12.28,0.0,0.0
1.47,146.13434044285577,-0.11031744546183073,26.98241272547343,113.53911400217474,-0.30579540888242246,2.844170113454942,113.57514350801057,17.690390582804962,0.815705260954217,6.22482454972349,-1.2201379652772295,0.6856222570191043,0.990621159167707,-1.0680639718157134,4.7973599519310595,0.49287421137869747,7881.368064651619,0.33387842405675244,113.58223810826658,2.1348201282921546,1.221829935214023,101001.27587671207,287.9746143172844,0.0,1.0,0.0,402.9892105263158,0.21628138506782096,0.86,nominal,6714.2636891868615,nan,pitch_program,12.265,0.0,0.0
1.5,149.55782780571954,-0.12001705839017247,27.066325946452995,114.11624542879197,-0.323320430944725,2.797107365985489,114.15097816699688,17.68390214125293,0.8402369499422916,6.195298712296591,-1.2523991499263833,0.7013956570199184,0.9686435622552163,-1.0831729008599362,4.799298952179786,0.517595046683939,7961.436165454737,0.3355717713132936,114.15819049610101,2.1345048633732318,1.2218200863005941,101000.27042763882,287.97406888134805,0.0,1.0,0.0,402.9552631578947,0.2162631657615226,0.86,nominal,6780.652893583882,nan,pitch_program,12.25,0.0,0.0
1.53,152.99860368918115,-0.13025981657450636,27.14887811093839,114.69252944872062,-0.3414252728111294,2.7517388161798944,114.72604302892623,17.677414246280083,0.8652903116949091,6.166415106840791,-1.2851243075361807,0.7176645302662797,0.9465396891165605,-1.098706641212743,4.80074460655961,0.5425031037969652,8041.801963807655,0.3372628652766284,114.73337700782913,2.134202379366289,1.2218103971939358,100999.2812946671,287.9735322922789,0.0,1.0,0.0,402.9213157894737,0.21624494645522424,0.86,nominal,6847.272020064151,nan,pitch_program,12.235,0.0,0.0
1.56,156.4566425908623,-0.1410634472151616,27.230120017987932,115.2679633893709,-0.36012102135517404,2.708063568318091,115.30033252065418,17.670926897886428,0.8908820575140547,6.138175230219798,-1.318326772357019,0.7344461735079566,0.92435558759155,-1.1146711878702231,4.801718191815085,0.5676085438897648,8122.463050347936,0.33895168979274926,115.3077921105774,2.1339125926448967,1.2218008619289338,100998.30786874605,287.9730042198831,0.0,1.0,0.0,402.8873684210526,0.21622672714892588,0.86,nominal,6914.119596161113,nan,pitch_program,12.220000000000002,0.0,0.0
1.5899999999999999,159.93191892387253,-0.15244601959992915,27.310102444373374,115.84254443367489,-0.37941907949225223,2.666080879514737,115.87384108141897,17.66444009607196,0.9170294237312011,6.110579318454053,-1.352020061868531,0.7517575467155785,0.9021318341681043,-1.1310728618887762,4.802239305352612,0.59292155990009,8203.417003147468,0.340638228754182,115.88143028596481,2.133635410204489,1.2217914745432747,100997.34954111672,287.9724843341115,0.0,1.0,0.0,402.8534210526316,0.21620850784262752,0.86,nominal,6981.194139617083,nan,pitch_program,12.205000000000002,0.0,0.0
1.6199999999999999,163.42440701290863,-0.16442595480473976,27.38887614765086,116.41626963453692,-0.39933117349368713,2.625790109249441,116.44656317257781,17.657953840836683,0.9437501339522173,6.08362648967308,-1.3862178862672137,0.7696143220993339,0.8799041696482003,-1.1479182757651056,4.802326048692807,0.6184523887892273,8284.661389184537,0.34232246612864903,116.45428603985405,2.133370729725697,1.2217822290770897,100996.40570327535,287.97197230504025,0.0,1.0,0.0,402.8194736842105,0.21619028853632916,0.86,nominal,7048.494159625939,nan,pitch_program,12.19,0.0,0.0
1.65,166.9340810907344,-0.17702203561624616,27.46649186788722,116.98913592752585,-0.4198693603835469,2.587190674545382,117.0184932860416,17.651468132180593,0.9710623819437159,6.057314871455513,-1.4209341570598675,0.7880315743605435,0.8577040172084928,-1.165214303647057,4.801995191604503,0.6442113211545866,8366.19376567185,0.3440043859839025,117.02635391080135,2.133118439808901,1.2217731195727324,100995.47574695064,287.9714678028587,0.0,1.0,0.0,402.78552631578947,0.21617206923003082,0.86,nominal,7116.018157943899,nan,pitch_program,12.175,0.0,0.0
1.68,170.4609152949932,-0.19025341667936332,27.543000328196523,117.56114014196102,-0.44104603543723925,2.5502820103100587,117.58962595150682,17.64498297010369,0.9989848432681374,6.031641714021645,-1.4561829950485532,0.8070247402466681,0.8355589509491455,-1.1829680616121103,4.8012623189312755,0.6702087077987033,8448.011681248501,0.34568397250902005,117.5976284773046,2.132878420327859,1.2217641400747221,100994.55906409783,287.9709704978667,0.0,1.0,0.0,402.75157894736844,0.21615384992373246,0.86,nominal,7183.764629876151,nan,pitch_program,12.16,0.0,0.0
1.71,174.0048836653092,-0.20413963487491996,27.618452234227348,118.13227901053294,-0.4628739398518876,2.5150635343607934,118.15995574258001,17.63849835460598,1.0275367020427668,6.006603490295949,-1.4919787380173106,0.8266101229460849,0.8134931298023869,-1.201186898893138,4.800141961423114,0.6964549646853193,8530.112677043293,0.3473612100324443,118.16810436394488,2.1326505428436966,1.221755284629792,100993.6550469033,287.9704800604775,0.0,1.0,0.0,402.71763157894736,0.2161356306174341,0.86,nominal,7251.732065147019,nan,pitch_program,12.145,0.0,0.0
1.74,177.5659601406371,-0.2187006199342192,27.69289827272676,118.7025491775964,-0.4853661686433074,2.4815346166471324,118.7294772818906,17.632014285687454,1.0567376784402465,5.982195984600972,-1.5283359483777779,0.8468049162738049,0.7915276722536119,-1.2198783975374663,4.798647712563513,0.7229605777189667,8612.49428761803,0.34903608303704914,118.73777624651834,2.132434671105061,1.2217465472870574,100992.76308780165,287.96999616122724,0.0,1.0,0.0,402.68368421052634,0.21611741131113574,0.86,nominal,7319.918948661722,nan,pitch_program,12.13,0.0,0.0
1.77,181.14411855682468,-0.2339567052980456,27.766389109294924,119.27194720625303,-0.5085361787942135,2.4496945522720175,119.2981852452743,17.62553076334812,1.0866080509663618,5.958414371289873,-1.5652694209204732,0.8676270296469814,0.7696809872413984,-1.2390503768241103,4.796792332928143,0.7497361079884802,8695.154041797598,0.3507085761724774,119.30663885624041,2.132230661624999,1.2217379220982716,100991.88257950188,287.9695184707896,0.0,1.0,0.0,402.64973684210526,0.21609919200483738,0.86,nominal,7388.323761166559,nan,pitch_program,12.115,0.0,0.0
1.7999999999999998,184.7393326443545,-0.2499286392278407,27.83897538543356,119.84046958432782,-0.5323977976598365,2.419542537954601,119.86607436510185,17.619047787587974,1.117168674679608,5.935253284256477,-1.602794190723851,0.8890949518042939,0.747969073606313,-1.258710899411662,4.794587843284284,0.7767921974352638,8778.089463393091,0.3523786742649664,119.87468698309684,2.1320383643097287,1.2217294031181691,100991.01291502193,287.96904665999466,0.0,1.0,0.0,402.6157894736842,0.216080972698539,0.86,nominal,7456.944979813626,nan,pitch_program,12.1,0.0,0.0
1.8299999999999998,188.3515760262346,-0.26663759617686056,27.910707714981374,120.4081127293366,-0.5569652316339944,2.3910776515938483,120.43313943282318,17.612565358407018,1.1484409987419113,5.912706878375439,-1.6409255412252652,0.9112277275902598,0.7264057842760098,-1.2788682775296811,4.792045607770072,0.804139574669535,8861.298071824203,0.3540463623248712,120.44191547841267,2.1318576231419364,1.2217209844048813,100990.15348773134,287.9685803998526,0.0,1.0,0.0,402.58184210526315,0.21606275339224065,0.86,nominal,7525.781078636037,nan,pitch_program,12.085,0.0,0.0
1.8599999999999999,191.98082221601047,-0.28410518842935006,27.98163668002047,120.9748729925291,-0.582253075082984,2.36429883463645,120.9993753007901,17.60608347580525,1.180447085498976,5.890768883782259,-1.6796790124401666,0.9340450081583446,0.7050030598875215,-1.2995310786760772,4.789176408314117,0.8317890607379695,8944.777382646018,0.35571162555206876,121.00831925670077,2.13168827691671,1.221712660020409,100989.30369139907,287.96811936157985,0.0,1.0,0.0,402.54789473684207,0.2160445340859423,0.86,nominal,7594.83052893885,nan,pitch_program,12.07,0.0,0.0
1.89,195.6270446158729,-0.30235347801609663,28.051812826330075,121.54074666208149,-0.6082763195582187,2.339204876986822,121.56477688341194,17.59960213978267,1.2132096314240104,5.869432653720933,-1.7190704093157565,0.9575671124252927,0.6837711378745353,-1.3207081308843955,4.785990511230147,0.859751574802118,9028.524907985042,0.3573744493394045,121.57389329684578,2.1315301600205405,1.2217044240311565,100988.46292024817,287.9676632166288,0.0,1.0,0.0,402.51394736842104,0.21602631477964393,0.86,nominal,7664.091799610193,nan,pitch_program,12.055,0.0,0.0
1.92,199.29021651483805,-0.32140498891505964,28.12128665845661,122.10572996550484,-0.6350503632987662,2.315794404217886,122.1293391576951,17.59312135033928,1.246751989292699,5.848691206665494,-1.7591158102132045,0.9818150675453932,0.6627187377210285,-1.3424085277764437,4.782497726869644,0.8880381397741965,9112.538156888513,0.35903481927433084,122.13863264267336,2.1313831032519976,1.2216962705085064,100987.63056901412,287.96721163672004,0.0,1.0,0.0,402.48,0.2160080954733456,0.86,nominal,7733.563357356813,nan,pitch_program,12.040000000000001,0.0,0.0
1.95,202.9703110869779,-0.34128271954606165,28.19010863446265,122.66981907132798,-0.6625910210333996,2.2940658668679776,122.69305716321125,17.58664110747508,1.2810981909811476,5.828537263341498,-1.7998315755179113,1.0068106291745544,0.6418532250485065,-1.3646416335686649,4.7787074631146504,0.9166598879606981,9196.81463559082,0.36069272113887085,122.7025324029504,2.1312469346821583,1.221688193529427,100986.80603300685,287.966764293876,0.0,1.0,0.0,402.44605263157894,0.2159898761670472,0.86,nominal,7803.2436668676655,nan,pitch_program,12.025,0.0,0.0
1.98,206.66730138968106,-0.3620101555687739,28.258329160411613,123.23301009010615,-0.6909145340904086,2.2740175316321376,123.25592600153468,17.58016141119007,1.3162729706981795,5.808963279183579,-1.8412343563799625,1.0325762954980031,0.6211807575276648,-1.3874170881306502,4.77462877339153,0.9456280667327167,9281.351847700342,0.3623481409080233,123.26558775085597,2.131121480551436,1.2216801871771237,100985.98870817714,287.9663208604573,0.0,1.0,0.0,402.4121052631579,0.21597165686074887,0.86,nominal,7873.131190908846,nan,pitch_program,12.01,0.0,0.0
2.01,210.38116036192505,-0.3836112829934684,28.325998584639844,123.79529907480037,-0.7200375808231503,2.2556474742744403,123.81794083518457,17.573682261484247,1.352301788774572,5.789961472716662,-1.8833411035889935,1.0591353253838311,0.6007064142167522,-1.4107448121562094,4.77027039982936,0.9749540442176837,9366.147294309478,0.3640010647467185,123.82779392295946,2.1310065662017594,1.2216722455417044,100985.17799118444,287.9658810091998,0.0,1.0,0.0,402.37815789473683,0.2159534375544505,0.86,nominal,7943.224390352692,nan,pitch_program,11.995000000000001,0.0,0.0
2.04,214.11186082254207,-0.4061106016142673,28.393167191863036,124.35668202056699,-0.7499772873599632,2.2389535741064277,124.3790968861045,17.567203658357613,1.3892108561942345,5.771523850295095,-1.926169076589114,1.0865117627351304,0.5804343100800028,-1.434635012497762,4.765640812122251,1.0046493150031008,9451.198474030407,0.3656514790054167,124.38914621773753,2.1309020170436797,1.2216643627208705,100984.37327946728,287.96544441325284,0.0,1.0,0.0,402.3442105263158,0.21593521824815215,0.86,nominal,8013.5217241435685,nan,pitch_program,11.98,0.0,0.0
2.07,217.8593754684618,-0.4295331387749068,28.45988519715984,124.91715486399113,-0.7807512386879829,2.22393350989346,124.93938943370695,17.56072560181017,1.4270271599710433,5.753642227579059,-1.9697358526405253,1.1147304643243094,0.5603676974975846,-1.4590981877031843,4.760748242588233,1.0347255058503648,9536.5028829586,0.3672993702144328,124.94963999365845,2.1308076595576586,1.2216565328206168,100983.5739713148,287.9650107462184,0.0,1.0,0.0,402.3102631578947,0.2159169989418538,0.86,nominal,8084.021649202469,nan,pitch_program,11.965,0.0,0.0
2.1,221.62367687291558,-0.45390446347734015,28.526202739871795,125.47671348179291,-0.8123774900811115,2.210584757065177,125.49881381250785,17.554248091841913,1.465778489389447,5.736308248086735,-2.0140593361351478,1.14381712825304,0.5405090561041145,-1.484145133779908,4.7556007178657875,1.0651943814242386,9622.058014565924,0.3689447250770609,125.5092706668582,2.1307233223295956,1.2216487499559499,100982.77946593972,287.9645796821908,0.0,1.0,0.0,402.27631578947364,0.2158987796355554,0.86,nominal,8154.7226202722195,nan,pitch_program,11.95,0.0,0.0
2.13,225.40473748358653,-0.47925070084382704,28.592169877455383,126.03535368903118,-0.8448745788828969,2.198904586119547,126.0573654093726,17.547771128452847,1.505493463098162,5.719513399124745,-2.0591577680737427,1.173798322075487,0.5208601721373439,-1.5097869501915657,4.750206087644137,1.0960678500458456,9707.861359524517,0.37058753046156045,126.06803370843002,2.1306488371212566,1.2216410082516054,100981.98916355186,287.96415089579654,0.0,1.0,0.0,402.2423684210526,0.21588056032925707,0.86,nominal,8225.623089704792,nan,pitch_program,11.935,0.0,0.0
2.16,229.20252962069128,-0.5055985469434907,28.657836579319053,126.59307123682488,-0.8782615366554545,2.1888900621223035,126.61503966039203,17.54129471164297,1.546201557061341,5.703249025360575,-2.1050497357118085,1.2047015110872572,0.5014222085648578,-1.536035046085868,4.7445720507773155,1.127357969475559,9793.910405462697,0.3722277733920619,126.62592464134647,2.130584039976123,1.2216333018427656,100981.20246543102,287.9637240622344,0.0,1.0,0.0,402.2084210526316,0.2158623410229587,0.86,nominal,8296.721507191902,nan,pitch_program,11.92,0.0,0.0
2.19,233.01702547497956,-0.5329752839946705,28.72325272067548,127.14986180960892,-0.9125579017059926,2.180538045214197,127.17183204740442,17.53481884141228,1.5879331333948405,5.687506340272881,-2.151754182381244,1.236555087555186,0.48219576689737503,-1.562901146746014,4.738706179098208,1.159076952729802,9880.202636653563,0.37386544103843555,127.18293903702904,2.1305287723618735,1.2216256248757889,100980.41877400158,287.9632988573156,0.0,1.0,0.0,402.1744736842105,0.21584412171666034,0.86,nominal,8368.016319439832,nan,pitch_program,11.905,0.0,0.0
2.2199999999999998,236.8481971056377,-0.5614087959547595,28.788468076436935,127.70572102193758,-0.9477837320029641,2.1738451920484847,127.72773809417667,17.52834351776078,1.6307194701265377,5.672276435687769,-2.199290417494684,1.2693884012664118,0.4631809415852953,-1.5903973002655147,4.732615939215477,1.191237173934582,9966.735533636667,0.37550052070516476,127.73907251157961,2.1304828823510227,1.2216179715089137,100979.63749290428,287.9628749575031,0.0,1.0,0.0,402.1405263157895,0.215825902410362,0.86,nominal,8439.505969789085,nan,pitch_program,11.890000000000002,0.0,0.0
2.25,240.69601643808306,-0.5909275845095925,28.85353231517964,128.26064441484544,-0.983959618494435,2.168807958090156,128.2827533622557,17.521868740688472,1.6745927919185069,5.657550289582943,-2.2476781267392187,1.303231791359398,0.44437736784940735,-1.6185358844458655,4.7263087125452845,1.2238511742184852,10053.506572773074,0.3771329998192562,128.294320721684,2.1304462258412746,1.2216103359129746,100978.85802706922,287.9624520399513,0.0,1.0,0.0,402.1065789473684,0.21580768310406362,0.86,nominal,8511.18889777932,nan,pitch_program,11.875,0.0,0.0
2.28,244.56045526163626,-0.6215607854748468,28.91849499320113,128.8146274517729,-1.02110669884181,2.165422600716385,128.83687344649883,17.51539451019535,1.7195863017843225,5.643318772321988,-2.2969373824663437,1.3381166192865068,0.42578426357065136,-1.6473296139226106,4.719791813805779,1.2569316676481224,10140.513225733534,0.37876286591721237,128.84867936019697,2.1304186678178003,1.2216027122720925,100978.07978278634,287.96202978254416,0.0,1.0,0.0,402.0726315789474,0.21578946379776529,0.86,nominal,8583.063538659655,nan,pitch_program,11.86,0.0,0.0
2.31,248.44148522705808,-0.6533381856223266,28.98340554869309,129.3676655140602,-1.0592466715826607,2.163685183065296,129.39009397028985,17.508920826281418,1.7657342138326104,5.62957265145967,-2.3470886542849283,1.3740753028382031,0.4074004659204888,-1.676791547524904,4.713072508177373,1.2904915472091183,10227.752958919526,0.38039010663108563,129.40214415141503,2.1304000836596284,1.2215950947843601,100977.30216777537,287.96160786393347,0.0,1.0,0.0,402.03868421052636,0.21577124449146692,0.86,nominal,8655.12832284431,nan,pitch_program,11.845,0.0,0.0
2.34,252.33907784393844,-0.6862902399444374,29.048313296050694,129.91975389601168,-1.0984018107370266,2.163591578586797,129.94241058044523,17.502447688946674,1.813071787069321,5.61630259524239,-2.398152819864096,1.4111413512750193,0.38922446326186777,-1.7069350958741139,4.706158027312024,1.3245438908355784,10315.223232816481,0.3820147096736311,129.95471084604236,2.130390360492764,1.2215874776625086,100976.52459125388,287.96118596357564,0.0,1.0,0.0,402.0047368421053,0.21575302518516856,0.86,nominal,8727.381675313218,nan,pitch_program,11.83,0.0,0.0
2.37,256.2532044779243,-0.720448089370604,29.113267420338357,130.47088779952935,-1.1385949808722189,2.1651374762554347,130.49381894181397,17.49597509819112,1.8616353602935765,5.6034991749129075,-2.4501511759529278,1.4493494016498318,0.3712544227858254,-1.7377740292271344,4.699055584357393,1.359101967490659,10402.92150127821,0.38363666282256204,130.50637521585173,2.1303893985929996,1.2215798551345582,100975.74646400355,287.9607637617678,0.0,1.0,0.0,401.9707894736842,0.21573480587887017,0.86,nominal,8799.822014957126,nan,pitch_program,11.815,0.0,0.0
2.4,260.1838363477737,-0.7558435789498602,29.178316971930688,131.02106232831218,-1.1798496526418747,2.1683183864109847,131.04431473157143,17.489503054014754,1.9114623881239785,5.591152865912018,-2.5031054496239022,1.4887352563893195,0.35348821439984746,-1.769322485570268,4.69177238814312,1.3941792433006417,10490.845210741478,0.38525595390391626,131.05713304804294,2.1303971128413552,1.2215722214444438,100974.9671984342,287.96034093968245,0.0,1.0,0.0,401.9368421052631,0.2157165865725718,0.86,nominal,8872.44775386636,nan,pitch_program,11.8,0.0,0.0
2.4299999999999997,264.1309445222222,-0.7925092765143329,29.24351086134661,131.57027248161594,-1.2221899188157561,2.173129647197462,131.59389363320722,17.483031556417576,1.9625914781933553,5.5792540480605295,-2.5570378097470683,1.5293359221758573,0.33592343113749396,-1.801594978969903,4.684315656665826,1.4297893877446952,10578.991799369369,0.3868725707745303,131.60698013929766,2.130245400641241,1.2215645708526235,100974.18620864583,287.9599171794012,0.0,1.0,0.0,401.9028947368421,0.21569836726627348,0.86,nominal,8945.257296562351,nan,pitch_program,11.785,0.0,0.0
2.46,268.0945003354787,-0.8304771245672139,29.308894195471627,132.11852710855,-1.2655949350960343,2.1794444708338396,132.14256284056947,17.476560605399587,2.015503538146083,5.572326183957891,-2.612388679944777,1.5844680258064279,0.16705455997356736,-1.843208410815364,4.681302016135879,1.4661869248217145,10667.36050219677,0.388486534106341,132.1559234538658,2.1306207027861688,1.2215568980660263,100973.4029543185,287.95949218772944,0.0,1.0,0.0,401.86894736842106,0.21568014795997512,0.86,nominal,9018.250524298948,nan,pitch_program,11.77,0.0,0.0
2.4899999999999998,272.07447170587886,-0.8697800285742594,29.37452734104186,132.66571234667157,-1.3100968002348514,2.187771519007731,132.69021791486807,17.470090200960787,2.0705912395418036,5.565837550011396,-2.669368285710831,1.6519356816037907,0.1487584960660435,-1.8968646520697323,4.6780143046241776,1.5036980943301714,10755.932529684314,0.390097537703637,132.7038587377761,2.1307779446570874,1.2215491960009353,100972.61671234308,287.9590655722832,0.0,1.0,0.0,401.835,0.21566192865367675,0.86,nominal,9091.412673696614,nan,pitch_program,11.755,0.0,0.0
2.52,276.0708268745529,-0.9104522754144454,29.440465286660473,133.21183895580165,-1.3557415613395345,2.197931520620532,133.23686793127837,17.463620343101177,2.1280153586556496,5.562241955378829,-2.7283617712665547,1.7234738974522992,0.048077996626197675,-1.9602616852977743,4.677018209972204,1.5425863583517199,10844.70731226063,0.3917056093046223,133.25079534194003,2.1311981702730405,1.2215414582048993,100971.82682405537,287.9586369756367,0.0,1.0,0.0,401.80105263157895,0.2156437093473784,0.86,nominal,9164.743826971888,nan,pitch_program,11.74,0.0,0.0
2.55,280.0835321490678,-0.9525301716304604,29.50677033698327,133.75684248383016,-1.4025965405338328,2.210168344093208,133.78245412762055,17.457151031820754,2.187798759021811,5.560241062361099,-2.789528768319999,1.7951910648003722,-0.009761604370368474,-2.0303758718250355,4.6769363824573595,1.5830307713942353,10933.673238756937,0.3933105777443312,133.79667494183096,2.131653492585554,1.221533677367059,100971.0325431675,287.9582059928096,0.0,1.0,0.0,401.7671052631579,0.21562549004108003,0.86,nominal,9238.235085529626,nan,pitch_program,11.725000000000001,0.0,0.0
2.58,284.11255301106416,-0.9960519305370216,29.5735059020087,134.30069539987787,-1.450725296885374,2.224518834181045,134.3269514015018,17.45068226711952,2.2499884399091323,5.559876740415755,-2.852999078017244,1.8680034528377258,-0.06939301191310648,-2.104614903637956,4.67782138094331,1.625130370774136,11022.824060739465,0.3949123707019837,134.3414728347698,2.1321908046577156,1.2215258460469915,100970.23311017017,287.9577722116369,0.0,1.0,0.0,401.73315789473685,0.2156072707347817,0.86,nominal,9311.881958064647,nan,pitch_program,11.71,0.0,0.0
2.61,288.1578539798744,-1.041057615647568,29.64073752504717,134.84336562700736,-1.5001895036848774,2.241054101282361,134.870330857645,17.444214048997477,2.314694503514716,5.561224756205397,-2.9188610725617643,1.9441398628549622,-0.13191607943896327,-2.1815467401213113,4.67974631704641,1.668937543350187,11112.152835766008,0.3965109046637965,134.88516050573537,2.1328388421525526,1.2215179565540903,100969.4277400197,287.9573352060872,0.0,1.0,0.0,401.6992105263158,0.21558905142848334,0.86,nominal,9385.67941147532,nan,pitch_program,11.695,0.0,0.0
2.6399999999999997,292.21939850469204,-1.0875890837592483,29.708533508778103,135.3848174939217,-1.5510489370560145,2.259866124364339,135.41256055317643,17.437746377454623,2.382056131084932,5.563835311263767,-2.98716946372075,2.024678724835554,-0.17980491541559263,-2.260755928135441,4.682251260608343,1.7144913284558203,11201.652037673577,0.3981060871176996,135.42770637296417,2.133536670657747,1.2215100008740938,100968.61561463834,287.9568945321929,0.0,1.0,0.0,401.6652631578947,0.21557083212218495,0.86,nominal,9459.621967917697,nan,pitch_program,11.68,0.0,0.0
2.67,296.2971492982236,-1.135689919143671,29.776963189919528,135.92502645105102,-1.603361179480752,2.2809893713808247,135.95361891212434,17.431279252490956,2.4522118819908356,5.567873419882883,-3.0580076739531648,2.1095058180242603,-0.23359978091345504,-2.342373975733915,4.6855175900564205,1.7618355383020992,11291.31577602311,0.3996978559697762,135.9690891992077,2.1343355522371326,1.221501970871575,100967.79590358483,287.9564497392655,0.0,1.0,0.0,401.63131578947366,0.21555261281588659,0.86,nominal,9533.705503717993,nan,pitch_program,11.665,0.0,0.0
2.6999999999999997,300.3910681291848,-1.185405499757905,29.846098120225076,136.46396103204054,-1.6571860204744706,2.3044976768515917,136.49347836289962,17.42481267410648,2.5252908088897787,5.573021648546029,-3.131451734874508,2.1983250160771877,-0.27724978401248596,-2.4268250017200748,4.6892288005771405,1.8110275257521917,11381.137106657263,0.4012861315515271,136.50928176371121,2.1351916960640622,1.2214938581513508,100966.96774990723,287.9560003622185,0.0,1.0,0.0,401.59736842105264,0.21553439350958825,0.86,nominal,9607.92505593238,nan,pitch_program,11.65,0.0,0.0
2.73,304.5011160497306,-1.2367830367703263,29.916010835095367,137.0015973515264,-1.7125845670807103,2.330423829009718,137.0321184904911,17.41834664230119,2.601426074550125,5.57931818807969,-3.20760491898452,2.2911848963244665,-0.32266695206088314,-2.514513232436057,4.693443777617902,1.8621359263133148,11471.110213941765,0.40287085525293304,137.04826400624762,2.1361313772244235,1.2214856542029955,100966.1302848954,287.9555459295719,0.0,1.0,0.0,401.56342105263155,0.21551617420328986,0.86,nominal,9682.276596651984,nan,pitch_program,11.635,0.0,0.0
2.76,308.6272532971336,-1.2898716851517502,29.98677539286135,137.53790824676722,-1.7696216127141302,2.3588185921994023,137.56951621162025,17.411881157075094,2.680761595566094,5.586581021791576,-3.2865713251663515,2.3884381894694373,-0.3625530127254854,-2.6057899661708515,4.697995799210075,1.9152382340220815,11561.22878592207,0.4044519606973675,137.58601322054753,2.137134313041989,1.2214773503375644,100965.28262162166,287.95508595994636,0.0,1.0,0.0,401.52947368421053,0.21549795489699153,0.86,nominal,9756.755706256028,nan,pitch_program,11.620000000000001,0.0,0.0
2.79,312.76943940024904,-1.3447226298700523,30.058466765636446,138.07287010384684,-1.8283648239434036,2.3897124258365308,138.10565195574506,17.405416218428183,2.763453934695166,5.594779322775246,-3.368469251201388,2.490458980810629,-0.4020012665469886,-2.7009021757211102,4.702880450480572,1.9704173961351221,11651.487048210985,0.4060293918881917,138.12251022830884,2.1382110199954645,1.2214689377590873,100964.42386223956,287.95461996602336,0.0,1.0,0.0,401.49552631578945,0.21547973559069317,0.86,nominal,9831.358414167924,nan,pitch_program,11.605,0.0,0.0
2.82,316.92763314419625,-1.4013891966504484,30.131160994728265,138.6064581315743,-1.8888855593465352,2.423140969727318,138.6405053964942,17.398951826360463,2.8496686148013657,5.603795169414889,-3.4534189151880827,2.5975369255363088,-0.4381559235151513,-2.8000503395176617,4.708006399176819,2.027760707978708,11741.879053722472,0.40760309067959705,138.65773511677605,2.139352484648808,1.2214604075463333,100963.55309612234,287.95414745353423,0.0,1.0,0.0,401.4615789473684,0.2154615162843948,0.86,nominal,9906.08061826662,nan,pitch_program,11.59,0.0,0.0
2.85,321.10179261736243,-1.4599269482485528,30.20493487844886,139.13864910554017,-1.9512583866034792,2.4591294573531988,139.17405793427864,17.39248798087193,2.9395791988803937,5.613577565369962,-3.541548865422767,2.709910758919632,-0.4733035767105007,-2.9034055178501315,4.713356167098966,2.0873590213810806,11832.399102262732,0.40917300406103724,139.1916697172182,2.14056345259694,1.221451750689462,100962.66940360477,287.9536679232901,0.0,1.0,0.0,401.4276315789474,0.21544329697809647,0.86,nominal,9980.918425572712,nan,pitch_program,11.575,0.0,0.0
2.88,325.2918751940456,-1.5203937922499065,30.279865996366677,139.66941922277158,-2.0155614667117905,2.4977039305938984,139.70629076379242,17.38602468196259,3.0333676214111267,5.6240353024674175,-3.6329910580431846,2.82784570226782,-0.5061601669752942,-3.0111480484201376,4.718874413193867,2.1493070059448973,11923.04141709167,0.4107390784844735,139.72429567512853,2.1418392976499523,1.2214429580871793,100961.77185569314,287.9531808710236,0.0,1.0,0.0,401.3936842105263,0.21542507767179808,0.86,nominal,10055.867887361926,nan,pitch_program,11.56,0.0,0.0
2.9099999999999997,329.49783755435936,-1.5828500846532731,30.35603251501611,140.1987453437931,-2.0818764134455585,2.5388839549810545,140.23718599968936,17.379561929632434,3.1312259634386694,5.63511535701711,-3.727885222885432,2.9516520538637887,-0.538063589325086,-3.1234711399478337,4.724549720420299,2.2137033680587876,12013.800337389217,0.412301263168261,140.25559557443106,2.1431833888202667,1.221434020569552,100960.8595163943,287.9526857886524,0.0,1.0,0.0,401.3597368421053,0.21540685836549975,0.86,nominal,10130.925154819115,nan,pitch_program,11.545,0.0,0.0
2.94,333.7196356655318,-1.6473587448875013,30.433513185009392,140.72660370574891,-2.1502886744742717,2.582688999776092,140.7667255227884,17.37309972388147,3.2333571922973707,5.646738473881545,-3.8263762532131707,3.081673044010543,-0.5682082614996243,-3.240592128323279,4.730347766306047,2.280651470925004,12104.67012359324,0.4138595067129311,140.78555178624327,2.1445929871369622,1.2214249288983523,100959.93144275135,287.9521821642974,0.0,1.0,0.0,401.3257894736842,0.21538863905920136,0.86,nominal,10206.086319279793,nan,pitch_program,11.53,0.0,0.0
2.9699999999999998,337.95722478602653,-1.713985372116685,30.512387197821276,141.25297068315703,-2.220887574306117,2.6291337603961344,141.29489167257458,17.366638064709694,3.3399759161148967,5.658854318005383,-3.928617684583524,3.2182656663783424,-0.5976364561104451,-3.3627442598067474,4.736268785176439,2.350259685353267,12195.645076646959,0.41541375913587864,141.31414716125627,2.1460717316889997,1.2214156737838766,100958.98668656063,287.9516694832141,0.0,1.0,0.0,401.29184210526313,0.215370419752903,0.86,nominal,10281.347508295807,nan,pitch_program,11.515,0.0,0.0
3.0,342.2105594383895,-1.7827983738720081,30.59273419054882,141.7778217454318,-2.2937667251774436,2.678233090918154,141.821666317803,17.360176952117108,3.45130861899362,5.671389025307802,-4.0347693765041255,3.361802260523872,-0.625647115751912,-3.4901802908487802,4.742293365200684,2.422641887326036,12286.719379259084,0.41696396914720235,141.841364103031,2.1476179205195285,1.2214062458843944,100958.02429431604,287.9511472277614,0.0,1.0,0.0,401.2578947368421,0.21535220044660466,0.86,nominal,10356.704755328872,nan,pitch_program,11.5,0.0,0.0
3.03,346.47959340136583,-1.8538690973621228,30.674634128680406,142.30113209921032,-2.3690241163371573,2.7299979377194847,142.34703144330282,17.35371638610371,3.567594576365432,5.684295806288133,-4.145000790885518,3.5126748743489586,-0.6532366594084358,-3.623164066125701,4.748435170438749,2.4979176373764056,12377.88719694808,0.4185100858746722,142.36718515498336,2.1492362563380545,1.2213966358199178,100957.04330861467,287.95061487816355,0.0,1.0,0.0,401.223947368421,0.21533398114030627,0.86,nominal,10432.154081138346,nan,pitch_program,11.485,0.0,0.0
3.06,350.76427967088716,-1.9272719739609572,30.758167332317253,142.82287565071044,-2.4467625532944783,2.7844401212282683,142.8709682297954,17.3472563666695,3.689086426349952,5.697501908122307,-4.259488356872185,3.671303322458051,-0.6796394640656684,-3.7619764721473214,4.754686300087076,2.576212570037067,12469.1425186434,0.4200520561671621,142.89159208303965,2.1509256708567035,1.2213868341691354,100956.0427678444,287.9500719123399,0.0,1.0,0.0,401.19,0.21531576183400794,0.86,nominal,10507.691363129074,nan,pitch_program,11.47,0.0,0.0
3.09,355.0645704417847,-2.0030846662726205,30.843414371309358,143.34302569658536,-2.527089743722115,2.8415679664035305,143.39345768525303,17.34079689381448,3.8160513208350233,5.710964394775644,-4.378419248287257,3.8381333052110627,-0.7059622099414099,-3.906908573990558,4.76107540884192,2.657658518416525,12560.479265231124,0.42158982645041604,143.41456650710165,2.1526926255764263,1.22137683148173,100955.02170744151,287.94951780658647,0.0,1.0,0.0,401.156052631579,0.21529754252770958,0.86,nominal,10583.312423010626,nan,pitch_program,11.455,0.0,0.0
3.12,359.38041705375514,-2.081388230377842,30.93045612362605,143.86155373234797,-2.6101188035073943,2.901391743889835,143.91447959293455,17.33433796753865,3.9487714595214016,5.724607461586267,-4.501987977985702,4.013639818552684,-0.7312287768939248,-4.058270923204449,4.767603232178757,2.742393972534859,12651.891104970353,0.423123339644492,143.93608885235207,2.1545362754175574,1.221366618271539,100953.97915919316,287.9489520351964,0.0,1.0,0.0,401.1221052631579,0.21527932322141122,0.86,nominal,10659.012875797345,nan,pitch_program,11.44,0.0,0.0
3.15,363.7117699639477,-2.1622672797873004,31.019373669600846,144.37843033975116,-2.695968313648611,2.963918199159864,144.4340133196121,17.32787958784201,4.087545383960935,5.738393141673039,-4.63040144122143,4.198324268651744,-0.7568364993468284,-4.216385188681706,4.774316213553374,2.8305642056580567,12743.371592720945,0.42465253753863774,144.45613915731371,2.1564657980264825,1.2213561850289818,100952.914152506,287.94837407114755,0.0,1.0,0.0,401.08815789473687,0.21526110391511288,0.86,nominal,10734.788242601935,nan,pitch_program,11.425,0.0,0.0
3.1799999999999997,368.05857867342087,-2.245810168414315,31.11024839770972,144.89362364910644,-2.7847629542338144,3.029157603629179,144.95203646264443,17.321421754724557,4.2326884655420205,5.752237165558274,-4.763873882116567,4.392721570170069,-0.7813849399682099,-4.381597060289265,4.781220001981638,2.922321860444471,12834.913930118535,0.4261773568267935,144.9746957250687,2.158479833181156,1.2213455222086576,100951.82571314089,287.9477833854149,0.0,1.0,0.0,401.0542105263158,0.2152428846088145,0.86,nominal,10810.633754783299,nan,pitch_program,11.410000000000002,0.0,0.0
