time_s,x_m,y_m,altitude_m,vx_mps,vy_mps,vz_mps,speed_mps,mass_kg,roll_deg,pitch_deg,yaw_deg,p_dps,q_dps,r_dps,alpha_deg,beta_deg,qbar_pa,mach,airspeed_mps,load_factor_g,density_kgpm3,pressure_pa,temperature_k,wind_x_mps,wind_y_mps,wind_z_mps,thrust_n,mass_flow_kgps,propulsion_throttle_actual,propulsion_health,energy_j_per_kg,target_distance_m,guidance_mode,pitch_command_deg,heading_command_deg,roll_command_deg,elevator_command_deg,aileron_command_deg,rudder_command_deg,elevator_deg,aileron_deg,rudder_deg,throttle,elevator_saturated,aileron_saturated,rudder_saturated,elevator_failed,aileron_failed,rudder_failed,elevator_raw_rad,aileron_raw_rad,rudder_raw_rad,elevator_effective_rad,aileron_effective_rad,rudder_effective_rad,sensor_time_s,imu_valid,imu_ax_mps2,imu_ay_mps2,imu_az_mps2,gyro_p_rps,gyro_q_rps,gyro_r_rps,imu_accel_norm_mps2,imu_gyro_norm_rps,gps_valid,gps_latency_s,gps_x_m,gps_y_m,gps_z_m,gps_vx_mps,gps_vy_mps,gps_vz_mps,baro_valid,baro_alt_m,baro_bias_m,pitot_valid,pitot_airspeed_mps,pitot_qbar_pa,pitot_compressibility_factor,mag_valid,mag_heading_deg,mag_x_ut,mag_y_ut,mag_z_ut,radar_valid,radar_agl_m,optical_flow_valid,optical_flow_x_radps,optical_flow_y_radps,optical_flow_quality,horizon_valid,horizon_roll_deg,horizon_pitch_deg
0.0,0.0,0.0,20.0,86.0,0.0,6.0,86.20904824900923,18.0,0.0,5.000000000000001,0.0,0.0,0.0,0.0,1.0090869015702202,0.0,4543.366193665201,0.2533941375411892,86.20904824900923,1.7400872986971718,1.2226496753673843,101084.96761777384,288.02,0.0,0.0,0.0,326.8,0.17539118863220368,0.86,nominal,3912.133,nan,pitch_program,12.000000000000002,0.0,0.0,-20.05352282957881,-0.0,0.0,-2.6999999999999997,0.0,0.0,0.86,0.0,0.0,0.0,0.0,0.0,0.0,-0.047123889803846894,0.0,0.0,-0.047123889803846894,0.0,0.0,0.0,1.0,17.08237503538411,0.01421251978619979,0.4606039154704186,0.000988985189910357,-0.0019892199963123243,0.0018790631541648138,17.08858960863007,0.0029096333509448656,1.0,0.0,0.11140188189044599,-0.7015888405932479,21.088827502213036,85.93905660319169,-0.1992551608878452,5.726199720431493,1.0,21.63744828955775,0.0,1.0,86.04135887015845,4540.488943892901,1.0,1.0,-0.3872112908568312,20.285917184876087,-0.05810378146905089,-43.53294942148529,1.0,19.6652227091265,1.0,0.011325112515340333,4.3119036874876056,0.95,1.0,0.14162985211495935,4.920871775750005
0.03,2.5952546510678514,0.0,20.1729526389325,86.50848836892838,0.0,5.765087964416636,86.70037369650997,17.994738264341034,0.0,5.234794727757629,0.0,0.0,-7.826501877873444,0.0,1.4221340050852367,0.0,4595.22483836377,0.2548387870971885,86.70037369650997,1.7692997351253215,1.2226293655258118,101082.89391600437,288.01887580784694,0.0,0.0,0.0,332.605,0.1785066900092231,0.86,nominal,3956.306485553827,nan,pitch_program,11.987142857142857,0.0,0.0,-0.9410505850896078,-0.0,0.0,-1.6446303510537645,0.0,0.0,0.86,0.0,0.0,0.0,0.0,0.0,0.0,-0.028704214604118386,0.0,0.0,-0.028704214604118386,0.0,0.0,0.03,1.0,17.30101891336794,0.09142314907086134,0.9155581789700715,0.0038147050867697574,-0.13711181919315737,-0.0012129072573747257,17.32546854812245,0.13717023759318603,1.0,0.0,0.11140188189044599,-0.7015888405932479,21.088827502213036,85.93905660319169,-0.1992551608878452,5.726199720431493,1.0,21.63744828955775,0.0,1.0,86.94125958655195,4541.168831358772,1.0,1.0,-0.3872112908568312,20.285917184876087,-0.05810378146905089,-43.53294942148529,1.0,19.6652227091265,1.0,0.011325112515340333,4.3119036874876056,0.95,1.0,0.14162985211495935,4.920871775750005
0.06,5.205959611724756,0.0,20.339346846807565,87.02349868856348,0.0,5.546473595835538,87.20007278292668,17.98938306364076,0.0,5.516137720200073,0.0,0.0,-9.378118591582167,0.0,1.8693035772679327,0.0,4648.272509494541,0.2563080360461775,87.20007278292668,1.7992477268480958,1.2226098260849052,101080.89888232159,288.01779424549574,0.0,0.0,0.0,338.40999999999997,0.18162219138624247,0.86,nominal,4001.387202429101,nan,pitch_program,11.974285714285715,0.0,0.0,-0.2371095210404902,-0.0,0.0,-0.8001178530458001,0.0,0.0,0.86,0.0,0.0,0.0,0.0,0.0,0.0,-0.01396469093963735,0.0,0.0,-0.01396469093963735,0.0,0.0,0.06,1.0,17.63095389090444,0.02059212434932021,1.4173067836167923,-0.0011672849717643367,-0.16319011589917243,0.0016964472024277798,17.68784095523447,0.1632031078579733,1.0,0.0,0.11140188189044599,-0.7015888405932479,21.088827502213036,85.93905660319169,-0.1992551608878452,5.726199720431493,1.0,19.96219039828339,0.0,1.0,87.38461639073303,4642.173854953641,1.0,1.0,0.19143410935638505,19.87243569772928,0.02235370497587244,-43.65872030181343,1.0,19.956802097512114,1.0,0.005241926403184264,4.284102084046184,0.9491516328829811,1.0,-0.3560639179437177,5.328455549211613
0.09,7.832298738915467,0.0,20.4996992732729,87.54463757302369,0.0,5.345080882177758,87.70765905796992,17.983934397899173,0.0,5.692279161692285,0.0,0.0,-5.871386007280908,0.0,2.198394340649243,0.0,4702.47220162928,0.25780045587266015,87.70765905796992,1.8293937324522545,1.2225909963480475,101078.97631857259,288.0167519547237,0.0,0.0,0.0,344.215,0.18473769276326188,0.86,nominal,4047.3501045927887,nan,pitch_program,11.961428571428572,0.0,0.0,-1.3623846531330042,-0.0,0.0,-1.1374779330981224,0.0,0.0,0.86,0.0,0.0,0.0,0.0,0.0,0.0,-0.01985273510134202,0.0,0.0,-0.01985273510134202,0.0,0.0,0.09,1.0,17.852601975546342,0.056759778920092034,1.6888353772963287,-0.0012990572057890886,-0.1040151294787618,0.0023904089092338762,17.932394817798095,0.1040507028561597,1.0,0.0,0.11140188189044599,-0.7015888405932479,21.088827502213036,85.93905660319169,-0.1992551608878452,5.726199720431493,1.0,19.96219039828339,0.0,1.0,87.46483143616668,4759.0220128374385,1.0,1.0,0.19143410935638505,19.87243569772928,0.02235370497587244,-43.65872030181343,1.0,19.956802097512114,1.0,0.005241926403184264,4.284102084046184,0.9491516328829811,1.0,-0.3560639179437177,5.328455549211613
0.12,10.474487831157443,0.0,20.654304478425516,88.07296974139918,0.0,5.153506838420599,88.22361719972189,17.978392267116273,0.0,5.782706032545111,0.0,0.0,-3.0142296540967823,0.0,2.4339159659036067,0.0,4757.890781980446,0.2593174718831616,88.22361719972189,1.8596568060250882,1.222572841701387,101077.1226898277,288.0157470208902,0.0,0.0,0.0,350.02,0.1878531941402813,0.86,nominal,4094.252850914883,nan,pitch_program,11.948571428571428,0.0,0.0,-2.3082488486728168,-0.0,0.0,-1.839940482442939,0.0,0.0,0.86,0.0,0.0,0.0,0.0,0.0,0.0,-0.03211301945936221,0.0,0.0,-0.03211301945936221,0.0,0.0,0.12,1.0,18.204482574042263,-0.04683370455903968,1.7803980371561343,0.0008338834782699445,-0.054067831370131936,0.001405286998677105,18.29139678524307,0.0540925187273897,1.0,0.0,0.11140188189044599,-0.7015888405932479,21.088827502213036,85.93905660319169,-0.1992551608878452,5.726199720431493,1.0,20.47297489806428,0.0,1.0,88.52631681682173,4772.319886300808,1.0,1.0,-0.2805873157507246,19.71275183039799,0.052281592078596305,-43.84740850804786,1.0,20.795797370437363,1.0,-0.0006856874808727849,4.257919466340858,0.9483642388039362,1.0,0.34463731505732303,5.84463737010482
0.15,13.13276517316584,0.0,20.803334100112462,88.60924473361325,0.0,4.9676540562315505,88.74838499422827,17.972756671292064,0.0,5.861129007107175,0.0,0.0,-2.6140995601835373,0.0,2.6523444101715286,0.0,4814.59155094085,0.26086037121201017,88.74838499422827,1.8904527507189457,1.222555341967537,101075.33593522107,288.0147783283492,0.0,0.0,0.0,355.825,0.1909686955173007,0.86,nominal,4142.148935894748,nan,pitch_program,11.935714285714285,0.0,0.0,-2.4008222125663274,-0.0,0.0,-2.176469520516972,0.0,0.0,0.86,0.0,0.0,0.0,0.0,0.0,0.0,-0.03798655920232344,0.0,0.0,-0.03798655920232344,0.0,0.0,0.15,1.0,18.430248258442674,-0.06569288295801168,1.9656912318078692,0.0003569088105535444,-0.04569385751758055,-0.00010933390041589887,18.534894346650773,0.04569538218067318,1.0,0.0,0.11140188189044599,-0.7015888405932479,21.088827502213036,85.93905660319169,-0.1992551608878452,5.726199720431493,1.0,20.47297489806428,0.0,1.0,88.69311290256607,4811.342994164384,1.0,1.0,-0.2805873157507246,19.71275183039799,0.052281592078596305,-43.84740850804786,1.0,20.795797370437363,1.0,-0.0006856874808727849,4.257919466340858,0.9483642388039362,1.0,0.34463731505732303,5.84463737010482
0.18,15.807367440406518,0.0,20.946985929206168,89.1534089080226,0.0,4.788394303123526,89.28190768528229,17.967027610426545,0.0,5.950274320343362,0.0,0.0,-2.9715110406492213,0.0,2.87589465434817,0.0,4872.58543086413,0.2624289933376542,89.28190768528229,1.9217417101078516,1.2225384738998606,101073.61368056596,288.01384459146016,0.0,0.0,0.0,361.63,0.19408419689432013,0.86,nominal,4191.0492795242835,nan,pitch_program,11.922857142857143,0.0,0.0,-2.2221904165164656,-0.0,0.0,-2.203902058116668,0.0,0.0,0.86,0.0,0.0,0.0,0.0,0.0,0.0,-0.03846534730561528,0.0,0.0,-0.03846534730561528,0.0,0.0,0.18,1.0,18.692285847182355,-0.040344598285877165,2.1501995815873522,0.0015542492372452132,-0.05065566814616623,0.0029874636003795743,18.815592898445775,0.05076748314413066,1.0,0.0,0.11140188189044599,-0.7015888405932479,21.088827502213036,85.93905660319169,-0.1992551608878452,5.726199720431493,1.0,19.99091795073363,0.0,1.0,89.0226115124513,4897.8795091457305,1.0,1.0,-1.0248223977983817,19.517536720519526,0.012557342853959213,-43.80053278058868,1.0,21.0686018869242,1.0,0.010298730724903176,4.270155807881226,0.9476325351769845,1.0,0.18454272483068826,6.221361454897725
0.21,18.498524681986794,0.0,21.085501991948277,89.70524138600922,0.0,4.617202091403645,89.82398837323493,17.961205084519715,0.0,6.030249864834139,0.0,0.0,-2.6658519158624676,0.0,3.083789394312193,0.0,4931.867852566251,0.2640227600666576,89.82398837323493,1.95318817258041,1.222522209059284,101071.9530215774,288.0129442370523,0.0,0.0,0.0,367.435,0.19719969827133954,0.86,nominal,4240.952581746861,nan,pitch_program,11.91,0.0,0.0,-2.28071261370667,-0.0,0.0,-2.2499883914706693,0.0,0.0,0.86,0.0,0.0,0.0,0.0,0.0,0.0,-0.039269705562814276,0.0,0.0,-0.039269705562814276,0.0,0.0,0.21,1.0,18.972580355574507,0.045886725210506844,2.3587731452450518,-0.0011489502308364553,-0.04665715833896696,0.0018572109986174615,19.118700836903418,0.046708240639032415,1.0,0.0,17.046832885702912,2.1539115434048393,21.481414629446917,90.00617175658275,-0.011319481360851634,4.72941621585427,1.0,19.99091795073363,0.0,1.0,89.52043769792456,4826.273004750142,1.0,1.0,-1.0248223977983817,19.517536720519526,0.012557342853959213,-43.80053278058868,1.0,21.0686018869242,1.0,0.010298730724903176,4.270155807881226,0.9476325351769845,1.0,0.18454272483068826,6.221361454897725
0.24,21.20646882202242,0.0,21.219113428241748,90.26480466785416,0.0,4.4537145431157,90.37461222576519,17.955289093571576,0.0,6.08664632616532,0.0,0.0,-1.8798821961503287,0.0,3.261932170041461,0.0,4992.454116944207,0.2656416283354124,90.37461222576519,1.9846063666651999,1.222506520286875,101070.35118473227,288.0120757627164,0.0,0.0,0.0,373.24,0.20031519964835895,0.86,nominal,4291.873686179781,nan,pitch_program,11.897142857142857,0.0,0.0,-2.5205062249143473,-0.0,0.0,-2.412299091536876,0.0,0.0,0.86,0.0,0.0,0.0,0.0,0.0,0.0,-0.042102561690186564,0.0,0.0,-0.042102561690186564,0.0,0.0,0.24,1.0,19.2704442464995,0.004744190636815263,2.52899776242172,0.000306301684732536,-0.03363548549046462,-0.0023348955905986794,19.435685571832156,0.03371782084180891,1.0,0.0,17.046832885702912,2.1539115434048393,21.481414629446917,90.00617175658275,-0.011319481360851634,4.72941621585427,1.0,22.971859517868328,0.0,1.0,89.73223991771853,5018.7416855705615,1.0,1.0,0.7476838625380618,19.41024832191446,-0.03978677103122809,-43.86109351981635,1.0,21.401581704737332,1.0,0.003855106168475802,4.253412843246401,0.9469522164293956,1.0,-0.4114056418596584,6.909011087872143
0.27,23.931438776086974,0.0,21.348014230290065,90.83233180215187,0.0,4.2966934016106055,90.93389948090676,17.949279637582126,0.0,6.124711404980457,0.0,0.0,-1.2688360071739915,0.0,3.416435425276684,0.0,5054.374783738347,0.2672859519945801,90.93389948090676,2.016080283659034,1.2224913847872627,101068.80584208223,288.0112379075031,0.0,0.0,0.0,379.045,0.20343070102537836,0.86,nominal,4343.839541153301,nan,pitch_program,11.884285714285713,0.0,0.0,-2.70931166522786,-0.0,0.0,-2.5905066357514666,0.0,0.0,0.86,0.0,0.0,0.0,0.0,0.0,0.0,-0.04521287008862454,0.0,0.0,-0.04521287008862454,0.0,0.0,0.27,1.0,19.577140572561703,0.06873387830944926,2.63462555262252,0.0017306481288223445,-0.023935906862110314,-0.0021904605074801803,19.753744180443373,0.024098151329349855,1.0,0.0,17.046832885702912,2.1539115434048393,21.481414629446917,90.00617175658275,-0.011319481360851634,4.72941621585427,1.0,22.971859517868328,0.0,1.0,90.54143205920549,4984.883656678729,1.0,1.0,0.7476838625380618,19.41024832191446,-0.03978677103122809,-43.86109351981635,1.0,21.401581704737332,1.0,0.003855106168475802,4.253412843246401,0.9469522164293956,1.0,-0.4114056418596584,6.909011087872143
0.3,26.673678247543684,0.0,21.472377048422363,91.40798238189029,0.0,4.145427271076617,91.50193336967122,17.943176716551363,0.0,6.153881710905493,0.0,0.0,-0.972343551837268,0.0,3.5572501160296466,0.0,5117.656882682446,0.26895597606182375,91.50193336967122,2.047705208452784,1.2224767822724523,101067.31492172803,288.01042954918523,0.0,0.0,0.0,384.84999999999997,0.20654620240239774,0.86,nominal,4396.873991575788,nan,pitch_program,11.871428571428572,0.0,0.0,-2.7929791749776105,-0.0,0.0,-2.7119901592871525,0.0,0.0,0.86,0.0,0.0,0.0,0.0,0.0,0.0,-0.047333157561246286,0.0,0.0,-0.047333157561246286,0.0,0.0,0.3,1.0,19.88271648425844,-0.0025178401198233413,2.8933534704020163,0.0008852196816652362,-0.017271199304985413,-0.001022367323784688,20.092135661437503,0.01732406344545294,1.0,0.0,17.046832885702912,2.1539115434048393,21.481414629446917,90.00617175658275,-0.011319481360851634,4.72941621585427,1.0,21.422419201375142,0.0,1.0,90.32477569891623,5105.612478369088,1.0,1.0,2.183263109379218,19.440222341356534,0.1184662254349714,-43.92169663720886,1.0,21.742050372177296,1.0,0.031701840707228736,4.276873016583599,0.9463190573789441,1.0,-0.2166379528392713,5.951646940863802
0.32999999999999996,29.43343250261388,0.0,21.592371097514075,91.99180850233982,0.0,3.9998016363904125,92.0787230833575,17.93698033047929,0.0,6.176501886196758,0.0,0.0,-0.7540058528357128,0.0,3.6868508733493246,0.0,5182.319619165754,0.2706517279220009,92.0787230833575,2.0794438781197084,1.2224626928591171,101065.87639312726,288.00964958786614,0.0,0.0,0.0,390.655,0.20966170377941715,0.86,nominal,4450.994448354253,nan,pitch_program,11.85857142857143,0.0,0.0,-2.8529393103879794,-0.0,0.0,-2.796559649947649,0.0,0.0,0.86,0.0,0.0,0.0,0.0,0.0,0.0,-0.04880917362000654,0.0,0.0,-0.04880917362000654,0.0,0.0,0.32999999999999996,1.0,20.217913878181673,-0.08650425499922065,3.0140073903214355,-0.002208698967947825,-0.011576112572903812,0.0007656007214588456,20.4415206166424,0.011809778909710961,1.0,0.0,17.046832885702912,2.1539115434048393,21.481414629446917,90.00617175658275,-0.011319481360851634,4.72941621585427,1.0,21.422419201375142,0.0,1.0,92.53221658686951,5171.246340172565,1.0,1.0,2.183263109379218,19.440222341356534,0.1184662254349714,-43.92169663720886,1.0,21.742050372177296,1.0,0.031701840707228736,4.276873016583599,0.9463190573789441,1.0,-0.2166379528392713,5.951646940863802
0.36,32.210948057249325,0.0,21.708162424254375,92.58385182118158,0.0,3.859710891343401,92.66427027830771,17.930690479365907,0.0,6.190770389713118,0.0,0.0,-0.4756167863367028,0.0,3.803559664502187,0.0,5248.381651926277,0.27237321280771465,92.66427027830773,2.1112168821429087,1.222449097037137,101064.48826387964,288.00889694424234,0.0,0.0,0.0,396.46,0.21277720515643656,0.86,nominal,4506.217844143445,nan,pitch_program,11.845714285714285,0.0,0.0,-2.938578086197335,-0.0,0.0,-2.881770711697461,0.0,0.0,0.86,0.0,0.0,0.0,0.0,0.0,0.0,-0.05029638720666096,0.0,0.0,-0.05029638720666096,0.0,0.0,0.36,1.0,20.454801559345455,-0.0006221015086256383,3.154468008911224,0.0012055641439117526,-0.002855349778920058,-0.0014805113435264394,20.69660782926651,0.0034348684259189557,1.0,0.0,17.046832885702912,2.1539115434048393,21.481414629446917,90.00617175658275,-0.011319481360851634,4.72941621585427,1.0,21.135163322942397,0.0,1.0,91.94303918352549,5260.066831138704,1.0,1.0,0.926893308192642,19.399742469443066,-0.007981179086517892,-43.93115721188406,1.0,22.311605470558504,1.0,0.007806674029560399,4.266796118464243,0.9457295939393641,1.0,0.05519103641737052,6.5084944248970595
0.39,35.00647374012617,0.0,21.819907487039696,93.1841894292281,0.0,3.724835426177365,93.25860581487572,17.924307163211214,0.0,6.196481860372251,0.0,0.0,-0.19038235546211063,0.0,3.907426265578075,0.0,5315.865258267139,0.2741205217684985,93.25860581487572,2.143001505596517,1.2224359764233306,101063.14865668022,288.0081706013342,0.0,0.0,0.0,402.265,0.21589270653345596,0.86,nominal,4562.563975024964,nan,pitch_program,11.832857142857144,0.0,0.0,-3.031393538028805,-0.0,0.0,-2.9715444074962676,0.0,0.0,0.86,0.0,0.0,0.0,0.0,0.0,0.0,-0.051863233780033935,0.0,0.0,-0.051863233780033935,0.0,0.0,0.39,1.0,20.785698525191055,0.03202324527787293,3.2449620356880176,-0.0020436304631556374,-0.004333295530207833,0.00056555860126917,21.03749194370432,0.004824285662512788,1.0,0.0,17.046832885702912,2.1539115434048393,21.481414629446917,90.00617175658275,-0.011319481360851634,4.72941621585427,1.0,21.135163322942397,0.0,1.0,93.71308595758991,5333.818971486444,1.0,1.0,0.926893308192642,19.399742469443066,-0.007981179086517892,-43.93115721188406,1.0,22.311605470558504,1.0,0.007806674029560399,4.266796118464243,0.9457295939393641,1.0,0.05519103641737052,6.5084944248970595
0.42,37.82026090297152,0.0,21.927752221396638,93.79290542817846,0.0,3.5948244785647416,93.86177002214968,17.91783038201521,0.0,6.1954826556827385,0.0,0.0,0.03330682298464651,0.0,4.000567120664431,0.0,5384.794177951197,0.27589377365881324,93.86177002214967,2.152944660921709,1.2224233138710972,101061.85582051013,288.0074696105609,0.0,0.0,0.0,404.1773684210526,0.21691906078826353,0.86,nominal,4620.0537271674175,nan,pitch_program,11.82,0.0,0.0,-3.1064190154780076,-0.0,0.0,-3.0524691722853112,0.0,0.0,0.86,0.0,0.0,0.0,0.0,0.0,0.0,-0.053275637372004726,0.0,0.0,-0.053275637372004726,0.0,0.0,0.42,1.0,20.859767652139052,-0.06410200858412533,3.4162679225204453,-0.0014322366621200033,-0.00015300905428892477,-0.0013729135286855469,21.13776010099399,0.001989875670554027,1.0,0.0,40.768467435680314,-2.9747188159285467,21.70631843485173,93.6770973417077,-0.02562489186334038,3.5934437572751556,1.0,21.025757577512493,0.0,1.0,94.15910098245277,5358.093226369159,1.0,1.0,-1.9259249666437939,19.28463969489506,0.04938627174586668,-43.94914285340094,1.0,22.140443495151445,1.0,0.01215755747993498,4.258758031062894,0.9451806194465084,1.0,-0.21828317300431793,6.381104992498344
0.44999999999999996,40.65236841291433,0.0,22.03181438989389,94.40358366476039,0.0,3.468738949908356,94.46728935802078,17.911322810191564,0.0,6.189366117592097,0.0,0.0,0.203884603215075,0.0,4.08505264564364,0.0,5454.440333980893,0.27767394059850026,94.46728935802078,2.1520181047350424,1.222411095542653,101060.60834220669,288.00679320646566,0.0,0.0,0.0,404.14342105263154,0.21690084148196515,0.86,nominal,4678.092671912666,nan,pitch_program,11.807142857142857,0.0,0.0,-3.1657171658850385,-0.0,0.0,-3.120417968445148,0.0,0.0,0.86,0.0,0.0,0.0,0.0,0.0,0.0,-0.05446156758776035,0.0,0.0,-0.05446156758776035,0.0,0.0,0.44999999999999996,1.0,20.823947715478607,-0.025547885687780866,3.429788741933567,0.001646581049793081,0.004102303449767345,-0.0013563986814435615,21.104523258433108,0.004623844734691312,1.0,0.0,40.768467435680314,-2.9747188159285467,21.70631843485173,93.6770973417077,-0.02562489186334038,3.5934437572751556,1.0,21.025757577512493,0.0,1.0,94.24560213095761,5601.009929608042,1.0,1.0,-1.9259249666437939,19.28463969489506,0.04938627174586668,-43.94914285340094,1.0,22.140443495151445,1.0,0.01215755747993498,4.258758031062894,0.9451806194465084,1.0,-0.21828317300431793,6.381104992498344
0.48,43.50275934559751,0.0,22.132196148568738,95.01303108943941,0.0,3.3460586224950037,95.07193163656639,17.904815784947104,0.0,6.178657637711484,0.0,0.0,0.35694933039278887,0.0,4.1617149388157255,0.0,5524.4333186355325,0.27945152211784546,95.07193163656639,2.151148777984691,1.2223993094334247,101059.40499580039,288.0061407250343,0.0,0.0,0.0,404.1094736842105,0.2168826221756668,0.86,nominal,4736.378793914338,nan,pitch_program,11.794285714285714,0.0,0.0,-3.2214559457651264,-0.0,0.0,-3.181040754837135,0.0,0.0,0.86,0.0,0.0,0.0,0.0,0.0,0.0,-0.05551963481203374,0.0,0.0,-0.05551963481203374,0.0,0.0,0.48,1.0,20.812981368457148,-0.034379127027057484,3.633407734584543,0.0019368535746598246,0.006379979509274776,-0.000973833407350575,21.127778565998327,0.006738241002940648,1.0,0.0,40.768467435680314,-2.9747188159285467,21.70631843485173,93.6770973417077,-0.02562489186334038,3.5934437572751556,1.0,22.10361226277454,0.0,1.0,95.1264184659006,5636.7919747671785,1.0,1.0,0.6771720774836267,19.381308383539228,-0.10706663982121749,-43.950017600946666,1.0,22.322810773389516,1.0,0.017072148359275605,4.298209897711457,0.9446695096285782,1.0,-0.6448102250468786,6.000751820746105
0.51,46.37139817761636,0.0,22.228994371119605,95.6212944006285,0.0,3.2266074183621685,95.67571760004675,17.898309306281835,0.0,6.1636337230748595,0.0,0.0,0.5007971574235923,0.0,4.231000728942981,0.0,5594.773625245057,0.2812265792632129,95.67571760004675,2.150320682233597,1.2223879441597518,101058.24461873829,288.0055115365877,0.0,0.0,0.0,404.0755263157895,0.21686440286936848,0.86,nominal,4794.9134367914885,nan,pitch_program,11.781428571428572,0.0,0.0,-3.2763867538736156,-0.0,0.0,-3.2382483542590235,0.0,0.0,0.86,0.0,0.0,0.0,0.0,0.0,0.0,-0.0565180957791077,0.0,0.0,-0.0565180957791077,0.0,0.0,0.51,1.0,20.816123561306377,0.00026455899341258356,3.7521009897465207,-0.0011964725875130916,0.010754167677084593,-0.0006564053285177824,21.151578239621337,0.010840412217015913,1.0,0.0,40.768467435680314,-2.9747188159285467,21.70631843485173,93.6770973417077,-0.02562489186334038,3.5934437572751556,1.0,22.10361226277454,0.0,1.0,95.92864317370105,5648.738010823772,1.0,1.0,0.6771720774836267,19.381308383539228,-0.10706663982121749,-43.950017600946666,1.0,22.322810773389516,1.0,0.017072148359275605,4.298209897711457,0.9446695096285782,1.0,-0.6448102250468786,6.000751820746105
0.54,49.25825079566627,0.0,22.322300428873028,96.22842060166367,0.0,3.110201925114165,96.27866995085502,17.891803374195753,0.0,6.1448777563127015,0.0,0.0,0.6251988976549542,0.0,4.293663439053015,0.0,5665.462042873447,0.282999178833615,96.27866995085503,2.1495304006674463,1.2223769889846783,101057.1261145155,288.0049050472123,0.0,0.0,0.0,404.0415789473684,0.2168461835630701,0.86,nominal,4853.6981312536445,nan,pitch_program,11.768571428571429,0.0,0.0,-3.3266049198664964,-0.0,0.0,-3.291262293623507,0.0,0.0,0.86,0.0,0.0,0.0,0.0,0.0,0.0,-0.05744336357047057,0.0,0.0,-0.05744336357047057,0.0,0.0,0.54,1.0,20.748292386713914,0.048098580028499094,3.816057336608257,-0.0023887544329169964,0.00926658957301851,0.0006294828520748582,21.096356179071613,0.00959020743866431,1.0,0.0,40.768467435680314,-2.9747188159285467,21.70631843485173,93.6770973417077,-0.02562489186334038,3.5934437572751556,1.0,22.316068545050154,0.0,1.0,95.42339317177237,5702.359127892188,1.0,1.0,-1.0446435894470076,19.436208726100784,0.0016840829861581581,-43.92119000986159,1.0,22.43477387670931,1.0,0.008665747007294103,4.311187466504007,0.9441942489278174,1.0,0.16102366489970338,6.281961352520365
0.57,52.16328434037269,0.0,22.41220091252022,96.83445149021398,0.0,2.9966827882397693,96.88080874530279,17.885297988688862,0.0,6.123054143988113,0.0,0.0,0.7274537529478653,0.0,4.350518702111893,0.0,5736.49911757891,0.2847693798430513,96.88080874530279,2.1487775911605835,1.2223664337331568,101056.0484440162,288.0043206940686,0.0,0.0,0.0,404.0076315789474,0.21682796425677175,0.86,nominal,4912.734161650735,nan,pitch_program,11.755714285714285,0.0,0.0,-3.3707949374027133,-0.0,0.0,-3.338981879891031,0.0,0.0,0.86,0.0,0.0,0.0,0.0,0.0,0.0,-0.058276227468528334,0.0,0.0,-0.058276227468528334,0.0,0.0,0.57,1.0,20.717231530944563,-0.05069117886285754,3.912354475030293,0.0025892295499083413,0.011543392314172842,-0.0022344017829108494,21.08347147508369,0.012039375694299866,1.0,0.0,40.768467435680314,-2.9747188159285467,21.70631843485173,93.6770973417077,-0.02562489186334038,3.5934437572751556,1.0,22.316068545050154,0.0,1.0,96.96393721669823,5795.963512999948,1.0,1.0,-1.0446435894470076,19.436208726100784,0.0016840829861581581,-43.92119000986159,1.0,22.43477387670931,1.0,0.008665747007294103,4.311187466504007,0.9441942489278174,1.0,0.16102366489970338,6.281961352520365
0.6,55.086467010899625,0.0,22.498778513052468,97.43942235089789,0.0,2.8859200177416118,97.4821499682145,17.878793149761158,0.0,6.098637565414287,0.0,0.0,0.8138859647779559,0.0,4.402171086380816,0.0,5807.884972266862,0.28653722933298037,97.4821499682145,2.1480577840315314,1.2223562686885723,101055.01061494743,288.00375793966515,0.0,0.0,0.0,403.9736842105263,0.21680974495047337,0.86,nominal,4972.022427517756,nan,pitch_program,11.742857142857144,0.0,0.0,-3.4109060264106152,-0.0,0.0,-3.3821363678027816,0.0,0.0,0.86,0.0,0.0,0.0,0.0,0.0,0.0,-0.05902941536960047,0.0,0.0,-0.05902941536960047,0.0,0.0,0.6,1.0,20.655149347144974,-0.04776757811930027,3.9739234536087857,0.0027178250654590636,0.01245919365488434,-0.004512620966287809,21.03400922100979,0.013527077570625818,1.0,0.0,40.768467435680314,-2.9747188159285467,21.70631843485173,93.6770973417077,-0.02562489186334038,3.5934437572751556,1.0,22.150632317899365,0.0,1.0,97.70875528494138,5899.962325042079,1.0,1.0,-0.4789557255683479,19.457053378573153,-0.00382860177692922,-43.90704145256858,1.0,22.43260380747768,1.0,0.021316720605905944,4.31418265442458,0.9437530537173688,1.0,-0.03751401384848972,5.87767103485659
0.63,58.027767946912796,0.0,22.582112461119575,98.04336453377226,0.0,2.777798268903555,98.0827074071922,17.872288857412645,0.0,6.071968990201232,0.0,0.0,0.8889525231509732,0.0,4.449079441472602,0.0,5879.6195161321675,0.2883027678824426,98.08270740719219,2.1473653737707368,1.2223464845411238,101054.01167656787,288.0032162690027,0.0,0.0,0.0,403.9397368421053,0.21679152564417503,0.86,nominal,5031.563619329277,nan,pitch_program,11.73,0.0,0.0,-3.448308541633281,-0.0,0.0,-3.4218396721010813,0.0,0.0,0.86,0.0,0.0,0.0,0.0,0.0,0.0,-0.059722368753527016,0.0,0.0,-0.059722368753527016,0.0,0.0,0.63,1.0,20.70793046953961,-0.007021102254339496,4.112767127872235,0.0012090523247497555,0.013273592527872795,0.0016463110019708706,21.112396526099783,0.013429832688279984,1.0,0.0,57.96851559416923,-0.2895424844230427,19.330622755642562,98.20871420406185,-0.03152220870634551,2.5806598071198916,1.0,22.150632317899365,0.0,1.0,98.17990635283206,5885.475874214155,1.0,1.0,-0.4789557255683479,19.457053378573153,-0.00382860177692922,-43.90704145256858,1.0,22.43260380747768,1.0,0.021316720605905944,4.31418265442458,0.9437530537173688,1.0,-0.03751401384848972,5.87767103485659
0.6599999999999999,60.987157153280386,0.0,22.662278761802927,98.64630687891972,0.0,2.6722100227784478,98.68249372232059,17.86578511164332,0.0,6.043386965678393,0.0,0.0,0.9527341705187798,0.0,4.491692557342602,0.0,5951.702565448311,0.2900660327526934,98.68249372232057,2.1466973737820845,1.2223370723602227,101053.05071686853,288.0026951880483,0.0,0.0,0.0,403.9057894736842,0.21677330633787664,0.86,nominal,5091.3583196473555,nan,pitch_program,11.717142857142859,0.0,0.0,-3.48284230455266,-0.0,0.0,-3.4584412515720286,0.0,0.0,0.86,0.0,0.0,0.0,0.0,0.0,0.0,-0.060361186826725415,0.0,0.0,-0.060361186826725415,0.0,0.0,0.6599999999999999,1.0,20.671093717067844,0.06931857074170071,4.210095432561159,-0.0003386704767009719,0.017486771782199477,0.0021454725822396895,21.095587786912308,0.017621150293203307,1.0,0.0,57.96851559416923,-0.2895424844230427,19.330622755642562,98.20871420406185,-0.03152220870634551,2.5806598071198916,1.0,22.321332147941114,0.0,1.0,99.10980727481495,5999.339680259934,1.0,1.0,-0.07013885321341759,19.568936522833358,0.0770420550587787,-43.84146086577746,1.0,22.544555617357126,1.0,-0.0009414935356189328,4.350423177747576,0.9433443030954927,1.0,0.11473033084677396,5.51049556386278
0.69,63.96460541038376,0.0,22.739350531223742,99.24827523677912,0.0,2.569058980693803,99.28151993962294,17.859281912453184,0.0,6.013229619535624,0.0,0.0,1.0052448946332992,0.0,4.530449451595107,0.0,6024.133777731224,0.2918270563990114,99.28151993962295,2.1460524363398963,1.222328023554936,101052.12685853329,288.00219422154703,0.0,0.0,0.0,403.8718421052631,0.21675508703157828,0.86,nominal,5151.4069526479,nan,pitch_program,11.704285714285714,0.0,0.0,-3.5143238046271543,-0.0,0.0,-3.491970783405104,0.0,0.0,0.86,0.0,0.0,0.0,0.0,0.0,0.0,-0.060946387553864834,0.0,0.0,-0.060946387553864834,0.0,0.0,0.69,1.0,20.584302524415026,-0.08740031323539292,4.255924004403652,0.003417155067797721,0.018310505006036724,-0.0007952418766311181,21.019848676016956,0.018643603513693895,1.0,0.0,57.96851559416923,-0.2895424844230427,19.330622755642562,98.20871420406185,-0.03152220870634551,2.5806598071198916,1.0,22.321332147941114,0.0,1.0,99.55275419058135,5995.91169309189,1.0,1.0,-0.07013885321341759,19.568936522833358,0.0770420550587787,-43.84146086577746,1.0,22.544555617357126,1.0,-0.0009414935356189328,4.350423177747576,0.9433443030954927,1.0,0.11473033084677396,5.51049556386278
0.72,66.96008417589233,0.0,22.81339838325089,99.84929218361891,0.0,2.468261734238342,99.8797950816801,17.852779259842237,0.0,5.981785667431118,0.0,0.0,1.048131763123385,0.0,4.565729715175899,0.0,6096.912600404433,0.29358586538588394,99.8797950816801,2.1454288426183745,1.2223193298285615,101051.23925429997,288.00171291050884,0.0,0.0,0.0,403.8378947368421,0.21673686772527995,0.86,nominal,5211.709746034311,nan,pitch_program,11.691428571428572,0.0,0.0,-3.5431686067447217,-0.0,0.0,-3.5226894774088744,0.0,0.0,0.86,0.0,0.0,0.0,0.0,0.0,0.0,-0.061482529906143266,0.0,0.0,-0.061482529906143266,0.0,0.0,0.72,1.0,20.57082278622719,-0.011476210613836418,4.379180925003172,-0.005319940272440017,0.019601150486913774,0.0006891251329282022,21.031788021461356,0.020321952621778314,1.0,0.0,57.96851559416923,-0.2895424844230427,19.330622755642562,98.20871420406185,-0.03152220870634551,2.5806598071198916,1.0,22.674706643320846,0.0,1.0,99.31894593574327,6037.701840944376,1.0,1.0,-1.1562856659181497,19.519807954880456,0.06482023080752466,-43.80317596807646,1.0,23.370350896871077,1.0,0.009836571636013498,4.351355378153982,0.9429665040418728,1.0,0.20725875569779917,6.147420255566543
0.75,69.97356550264155,0.0,22.884490731999726,100.44937755830694,0.0,2.3697449582945227,100.47732651209755,17.84627715381048,0.0,5.949293863125278,0.0,0.0,1.0830601725531364,0.0,4.597854886641419,0.0,6170.038305576993,0.29534248140023944,100.47732651209755,2.144824619962291,1.2223109831430794,101050.38708333041,288.00125081024197,0.0,0.0,0.0,403.80394736842106,0.21671864841898159,0.86,nominal,5272.266762546295,nan,pitch_program,11.678571428571429,0.0,0.0,-3.5698265263159383,-0.0,0.0,-3.550971706753113,0.0,0.0,0.86,0.0,0.0,0.0,0.0,0.0,0.0,-0.061976147928004384,0.0,0.0,-0.061976147928004384,0.0,0.0,0.75,1.0,20.504626942868757,-0.0017917091056568128,4.474541383100016,0.0004914187573424716,0.017674974137035962,0.0032464220828635677,20.987168695789233,0.017977359635943827,1.0,0.0,57.96851559416923,-0.2895424844230427,19.330622755642562,98.20871420406185,-0.03152220870634551,2.5806598071198916,1.0,22.674706643320846,0.0,1.0,100.01954076607574,6193.75127516846,1.0,1.0,-1.1562856659181497,19.519807954880456,0.06482023080752466,-43.80317596807646,1.0,23.370350896871077,1.0,0.009836571636013498,4.351355378153982,0.9429665040418728,1.0,0.20725875569779917,6.147420255566543
0.78,73.00502197198475,0.0,22.95269402204148,101.04854897810655,0.0,2.273443001391771,101.07412029625277,17.83977559435791,0.0,5.915968637785064,0.0,0.0,1.110840875990103,0.0,4.627115718401462,0.0,6243.510028398385,0.2970969223123352,101.07412029625277,2.1442383926003363,1.2223029756921053,101049.56954844798,288.0008074888567,0.0,0.0,0.0,403.77,0.21670042911268322,0.86,nominal,5333.077933661941,nan,pitch_program,11.665714285714285,0.0,0.0,-3.5944617455254537,-0.0,0.0,-3.5770657300165176,0.0,0.0,0.86,0.0,0.0,0.0,0.0,0.0,0.0,-0.06243157454904279,0.0,0.0,-0.06243157454904279,0.0,0.0,0.78,1.0,20.529114386446555,-0.06781371378475642,4.579041169161964,0.0008063179923524863,0.017311982930345568,-0.0014482938548559922,21.033705194769283,0.017391160305608746,1.0,0.0,57.96851559416923,-0.2895424844230427,19.330622755642562,98.20871420406185,-0.03152220870634551,2.5806598071198916,1.0,23.333795080896135,0.0,1.0,101.356922331223,6175.525726817563,1.0,1.0,-0.6277046595377741,19.577205919749073,0.06643482272329095,-43.81896074935404,1.0,23.523458853241916,1.0,-0.004707283612215783,4.386031291368446,0.9426182649448963,1.0,-0.04417467545859814,5.821334345241168
0.8099999999999999,76.05442663112994,0.0,23.018072949721393,101.64682197150633,0.0,2.1792975893304716,101.67018124745309,17.83327458148453,0.0,5.8820067572918155,0.0,0.0,1.1320627162540056,0.0,4.6537792053379325,0.0,6317.326767913784,0.29884920231194734,101.6701812474531,2.1436693190167038,1.222295299874876,101048.78587348117,288.0003825258268,0.0,0.0,0.0,403.73605263157896,0.21668220980638486,0.86,nominal,5394.143062537366,nan,pitch_program,11.652857142857142,0.0,0.0,-3.617170552468074,-0.0,0.0,-3.601128623487451,0.0,0.0,0.86,0.0,0.0,0.0,0.0,0.0,0.0,-0.06285155126766723,0.0,0.0,-0.06285155126766723,0.0,0.0,0.8099999999999999,1.0,20.50317634565709,0.02156082937765524,4.704997028009547,0.002960550429296416,0.021420579125198565,0.004053366781907528,21.03610472887161,0.022000814784274948,1.0,0.0,57.96851559416923,-0.2895424844230427,19.330622755642562,98.20871420406185,-0.03152220870634551,2.5806598071198916,1.0,23.333795080896135,0.0,1.0,101.8889140659677,6280.497966805758,1.0,1.0,-0.6277046595377741,19.577205919749073,0.06643482272329095,-43.81896074935404,1.0,23.523458853241916,1.0,-0.004707283612215783,4.386031291368446,0.9426182649448963,1.0,-0.04417467545859814,5.821334345241168
0.84,79.12175293307958,0.0,23.080690679226816,102.24421006498771,0.0,2.087257650180746,102.26551293721444,17.82677411519034,0.0,5.84758102674826,0.0,0.0,1.1475243859743338,0.0,4.678082577557583,0.0,6391.487383648301,0.30059933193910915,102.26551293721444,2.143116633779313,1.2222879482708706,101048.03530067162,287.999975510585,0.0,0.0,0.0,403.7021052631579,0.2166639905000865,0.86,nominal,5455.461823405227,nan,pitch_program,11.64,0.0,0.0,-3.6381359970141407,-0.0,0.0,-3.6233330476034653,0.0,0.0,0.86,0.0,0.0,0.0,0.0,0.0,0.0,-0.0632390915770009,0.0,0.0,-0.0632390915770009,0.0,0.0,0.84,1.0,20.45019077656317,-0.052457408029437345,4.74504976551276,0.001067942769418286,0.019914875054423242,-0.0006961169280190413,20.993535954066413,0.019955634015723894,1.0,0.0,79.05067568790163,-3.669360176335259,23.9074962884564,102.3484465591693,0.02994665883249877,2.0698586204577376,1.0,23.99772209898627,0.0,1.0,102.02258270894289,6369.967984295671,1.0,1.0,0.6671738307441417,19.759012638425165,-0.07576789622443676,-43.824589812588904,1.0,23.30190198740372,1.0,-0.0067562565785145605,4.410694698425471,0.9422982733019329,1.0,0.003925230021731714,5.412167621881004
0.87,82.20697468326959,0.0,23.140609029890275,102.84072500633394,0.0,1.9972783554486389,102.86011783318908,17.82027419547534,0.0,5.812840969159052,0.0,0.0,1.1580019551170164,0.0,4.700234694007275,0.0,6465.990608310695,0.30234731848999236,102.86011783318908,2.14257960105358,1.2222809136177937,101047.31708842579,287.9995860413057,0.0,0.0,0.0,403.66815789473685,0.21664577119378817,0.86,nominal,5517.033773871744,nan,pitch_program,11.627142857142857,0.0,0.0,-3.6575461593584024,-0.0,0.0,-3.6438609146564276,0.0,0.0,0.86,0.0,0.0,0.0,0.0,0.0,0.0,-0.06359737044548676,0.0,0.0,-0.06359737044548676,0.0,0.0,0.87,1.0,20.378362884933555,0.004452015257319473,4.831960512662262,-0.0006146842364827338,0.02244565250828799,0.0002176097125140277,20.943388839593382,0.022455122070930183,1.0,0.0,79.05067568790163,-3.669360176335259,23.9074962884564,102.3484465591693,0.02994665883249877,2.0698586204577376,1.0,23.99772209898627,0.0,1.0,103.27811105124279,6480.900554433601,1.0,1.0,0.6671738307441417,19.759012638425165,-0.07576789622443676,-43.824589812588904,1.0,23.30190198740372,1.0,-0.0067562565785145605,4.410694698425471,0.9422982733019329,1.0,0.003925230021731714,5.412167621881004
0.8999999999999999,85.31006599294203,0.0,23.19788863545505,103.43637698908134,0.0,1.9093201854925008,103.45399744909852,17.813774822339525,0.0,5.777918819119527,0.0,0.0,1.1640717040216648,0.0,4.720422711426754,0.0,6540.835062642081,0.30409316645800494,103.45399744909852,2.142057673968009,1.2222741887928608,101046.63050940374,287.9992137238695,0.0,0.0,0.0,403.6342105263158,0.2166275518874898,0.86,nominal,5578.858368685927,nan,pitch_program,11.614285714285714,0.0,0.0,-3.6755287954940115,-0.0,0.0,-3.6628616431589776,0.0,0.0,0.86,0.0,0.0,0.0,0.0,0.0,0.0,-0.06392899571813379,0.0,0.0,-0.06392899571813379,0.0,0.0,0.8999999999999999,1.0,20.424895662412816,0.005091857072129036,4.8809813651218175,0.0007052006663567407,0.021553554277279834,0.0004326371754738926,21.000008757953523,0.021569427087641427,1.0,0.0,79.05067568790163,-3.669360176335259,23.9074962884564,102.3484465591693,0.02994665883249877,2.0698586204577376,1.0,23.413521090229786,0.0,1.0,103.27769801635725,6525.062453229846,1.0,1.0,1.8726474759458809,19.678161696308464,0.05777671323278474,-43.71967656763985,1.0,23.242906273897372,1.0,0.008640461770223259,4.455248565928077,0.9420052784113624,1.0,0.23864947538422865,5.431176514096328
0.9299999999999999,88.43100123682034,0.0,23.25258908838077,104.03117479594367,0.0,1.8233484308572998,104.04715243063836,17.8072759957829,0.0,5.742932259988957,0.0,0.0,1.1662186739230227,0.0,4.738815231420147,0.0,6616.019262791399,0.3058368777866562,104.04715243063836,2.1415504759699906,1.2222677667958424,101045.97484878733,287.99885817092553,0.0,0.0,0.0,403.6002631578947,0.21660933258119142,0.86,nominal,5640.934967245817,nan,pitch_program,11.601428571428572,0.0,0.0,-3.692187805809622,-0.0,0.0,-3.680457340749364,0.0,0.0,0.86,0.0,0.0,0.0,0.0,0.0,0.0,-0.06423609857527127,0.0,0.0,-0.06423609857527127,0.0,0.0,0.9299999999999999,1.0,20.41419004464393,0.043431825049913615,4.985296108089695,-0.0011535177192977509,0.016147732285751643,-0.001821824955904986,21.014143303680044,0.016291068328105375,1.0,0.0,79.05067568790163,-3.669360176335259,23.9074962884564,102.3484465591693,0.02994665883249877,2.0698586204577376,1.0,23.413521090229786,0.0,1.0,104.02767129644228,6702.0992263695525,1.0,1.0,1.8726474759458809,19.678161696308464,0.05777671323278474,-43.71967656763985,1.0,23.242906273897372,1.0,0.008640461770223259,4.455248565928077,0.9420052784113624,1.0,0.23864947538422865,5.431176514096328
0.96,91.56975501442575,0.0,23.304769071641687,104.62512592018055,0.0,1.7393327753639223,104.63958262682957,17.800777715805463,0.0,5.70798458959458,0.0,0.0,1.1649223825958326,0.0,4.7555628160654,0.0,6691.541626217276,0.307578452079619,104.63958262682957,2.1410576946949793,1.2222616407335687,101045.34940269779,287.9985190010343,0.0,0.0,0.0,403.56631578947366,0.21659111327489305,0.86,nominal,5703.262839774961,nan,pitch_program,11.588571428571429,0.0,0.0,-3.7076331513996177,-0.0,0.0,-3.6967628271395157,0.0,0.0,0.86,0.0,0.0,0.0,0.0,0.0,0.0,-0.06452068299891854,0.0,0.0,-0.06452068299891854,0.0,0.0,0.96,1.0,20.313010503331633,0.01212089030896153,5.105621124658305,-0.0005616662321371039,0.01670511027075654,-0.0023788195122700167,20.94483014237643,0.016882978421665275,1.0,0.0,79.05067568790163,-3.669360176335259,23.9074962884564,102.3484465591693,0.02994665883249877,2.0698586204577376,1.0,23.388377352890394,0.0,1.0,104.85749331315675,6654.839956352769,1.0,1.0,1.2701259009089658,19.749797536042287,-0.03508464136893619,-43.7444632265269,1.0,23.006376163150975,1.0,-0.007435199087661565,4.490454900523376,0.9417380773208958,1.0,-0.16655817806543646,6.120077464343643
0.99,94.72630211548194,0.0,23.354486474856515,105.21823670187304,0.0,1.6572467738276209,105.23128717981523,17.794279982407215,0.0,5.6731660212822925,0.0,0.0,1.1606189794607285,0.0,4.770799683602518,0.0,6767.400480288076,0.30931788686497386,105.23128717981523,2.140579064223057,1.2222558038062856,101044.75347680233,287.9981958379134,0.0,0.0,0.0,403.53236842105264,0.21657289396859472,0.86,nominal,5765.841175549024,nan,pitch_program,11.575714285714287,0.0,0.0,-3.72196688761533,-0.0,0.0,-3.711885263425004,0.0,0.0,0.86,0.0,0.0,0.0,0.0,0.0,0.0,-0.06478461930302337,0.0,0.0,-0.06478461930302337,0.0,0.0,0.99,1.0,20.294004656616035,0.028317578975075315,5.117734844774498,0.0021692599251646174,0.022943553191646582,-0.0014056166651458266,20.929372585661795,0.023088700264202334,1.0,0.0,79.05067568790163,-3.669360176335259,23.9074962884564,102.3484465591693,0.02994665883249877,2.0698586204577376,1.0,23.388377352890394,0.0,1.0,105.9675577592591,6833.270617537771,1.0,1.0,1.2701259009089658,19.749797536042287,-0.03508464136893619,-43.7444632265269,1.0,23.006376163150975,1.0,-0.007435199087661565,4.490454900523376,0.9417380773208958,1.0,-0.16655817806543646,6.120077464343643
1.02,97.90061748911593,0.0,23.401798496058145,105.81051245446614,0.0,1.577067373387702,105.82226461088865,17.787782795588157,0.0,5.638555753364656,0.0,0.0,1.1536756323351713,0.0,4.784646134693512,0.0,6843.59407079865,0.31105517784834064,105.82226461088865,2.1401143882840765,1.2222502492956924,101044.18638509222,287.9978883097756,0.0,0.0,0.0,403.49842105263156,0.21655467466229633,0.86,nominal,5828.669090909837,nan,pitch_program,11.562857142857142,0.0,0.0,-3.7352730471483,-0.0,0.0,-3.725917933658982,0.0,0.0,0.86,0.0,0.0,0.0,0.0,0.0,0.0,-0.06502953560145289,0.0,0.0,-0.06502953560145289,0.0,0.0,1.02,1.0,20.356704941100272,-0.018433216260880875,5.152979223448928,-0.0008137255452803577,0.01748509928053716,0.0004376194979424285,20.998784981988226,0.017509493337565834,1.0,0.0,79.05067568790163,-3.669360176335259,23.9074962884564,102.3484465591693,0.02994665883249877,2.0698586204577376,1.0,22.669542696233755,0.0,1.0,105.78132097516674,6684.626168040541,1.0,1.0,2.228262624781329,19.69879288161601,0.001964563342723118,-43.715262151669094,1.0,23.63886932189646,1.0,0.015591526997094967,4.508524807709895,0.9414955037598547,1.0,0.2430916353492683,5.745887209159729
1.05,101.09267621616097,0.0,23.446761732442436,106.40195756816786,0.0,1.4987745461430046,106.41251288959565,17.781286155348287,0.0,5.604223268942223,0.0,0.0,1.1444161816571035,0.0,4.797210136274497,0.0,6920.120568670301,0.3127903191162334,106.41251288959566,2.1396635250545297,1.2222449705542713,101043.64744879311,287.9975960487391,0.0,0.0,0.0,403.46447368421053,0.216536455355998,0.86,nominal,5891.745635682636,nan,pitch_program,11.55,0.0,0.0,-3.747625896935733,-0.0,0.0,-3.7389427116250324,0.0,0.0,0.86,0.0,0.0,0.0,0.0,0.0,0.0,-0.06525686086130168,0.0,0.0,-0.06525686086130168,0.0,0.0,1.05,1.0,20.331922014776303,0.050739489062825494,5.242544124123411,-0.0014222981398267444,0.01962508147708128,-0.0013427473321167547,20.99699731399889,0.019722315416262362,1.0,0.0,101.57303233185966,0.8089325641884302,22.034866165325088,106.31975848404791,-0.1378270317589797,1.5758239561270724,1.0,22.669542696233755,0.0,1.0,107.00788575439518,6955.8858277906465,1.0,1.0,2.228262624781329,19.69879288161601,0.001964563342723118,-43.715262151669094,1.0,23.63886932189646,1.0,0.015591526997094967,4.508524807709895,0.9414955037598547,1.0,0.2430916353492683,5.745887209159729
1.08,104.3024534842524,0.0,23.48943226118265,106.99257560304746,0.0,1.422350958007123,107.00202949674164,17.774790061687607,0.0,5.570229151415855,0.0,0.0,1.133137284119139,0.0,4.808588391567067,0.0,6996.978076163459,0.314523303321476,107.00202949674164,2.1392263598600456,1.2222399609957866,101043.13599539455,287.9973186903023,0.0,0.0,0.0,403.43052631578945,0.21651823604969964,0.86,nominal,5955.069799094912,nan,pitch_program,11.537142857142857,0.0,0.0,-3.7590951370863666,-0.0,0.0,-3.751034166901833,0.0,0.0,0.86,0.0,0.0,0.0,0.0,0.0,0.0,-0.06546789656723949,0.0,0.0,-0.06546789656723949,0.0,0.0,1.08,1.0,20.216590156647506,0.06507131756540041,5.372994267902009,0.0006410331502114088,0.016872932149189702,-0.003423662041902447,20.91850423049254,0.01722870350862168,1.0,0.0,101.57303233185966,0.8089325641884302,22.034866165325088,106.31975848404791,-0.1378270317589797,1.5758239561270724,1.0,23.593365788225224,0.0,1.0,106.52961488409224,7023.53043855903,1.0,1.0,0.7737687936948424,19.87496320572165,0.0022988743313570917,-43.684921161233426,1.0,23.03356215732267,1.0,0.007843023665812304,4.541152396306105,0.9412764193470434,1.0,0.022254860809549203,5.130649376589643
1.1099999999999999,107.5299245655923,0.0,23.529865710504097,107.5823693779969,0.0,1.3477816440482677,107.59081148659395,17.768294514606115,0.0,5.536626071893452,0.0,0.0,1.1201026828529699,0.0,4.818867569553641,0.0,7074.164633267145,0.31625412186622764,107.59081148659395,2.1388027992693774,1.2222352140869341,101042.65135779706,287.9970558728817,0.0,0.0,0.0,403.3965789473684,0.21650001674340127,0.86,nominal,6018.640515741814,nan,pitch_program,11.524285714285714,0.0,0.0,-3.769743347244529,-0.0,0.0,-3.762259675107451,0.0,0.0,0.86,0.0,0.0,0.0,0.0,0.0,0.0,-0.06566381864563717,0.0,0.0,-0.06566381864563717,0.0,0.0,1.1099999999999999,1.0,20.220684358396344,0.014766145577709128,5.426311874097563,0.0012193695060839075,0.018266740619793248,-0.0019554925006107127,20.936120808686645,0.01841153512836767,1.0,0.0,101.57303233185966,0.8089325641884302,22.034866165325088,106.31975848404791,-0.1378270317589797,1.5758239561270724,1.0,23.593365788225224,0.0,1.0,107.51505360465532,7054.291646668004,1.0,1.0,0.7737687936948424,19.87496320572165,0.0022988743313570917,-43.684921161233426,1.0,23.03356215732267,1.0,0.007843023665812304,4.541152396306105,0.9412764193470434,1.0,0.022254860809549203,5.130649376589643
1.14,110.7750647971157,0.0,23.568117322097443,108.17134105078021,0.0,1.2750537197781915,108.17885554355125,17.761799514103814,0.0,5.503459781100799,0.0,0.0,1.1055430572922496,0.0,4.828125511435398,0.0,7151.6782236345825,0.31798276506872375,108.17885554355126,2.1383927706663184,1.2222307233399965,101042.19287356199,287.99680723740636,0.0,0.0,0.0,403.3626315789474,0.21648179743710294,0.86,nominal,6082.456671093011,nan,pitch_program,11.51142857142857,0.0,0.0,-3.779625382725334,-0.0,0.0,-3.7726790996781805,0.0,0.0,0.86,0.0,0.0,0.0,0.0,0.0,0.0,-0.0658456719105596,0.0,0.0,-0.0658456719105596,0.0,0.0,1.14,1.0,20.186633707945596,0.02321015744087059,5.428634971635416,0.0032967124718470743,0.017774608083753626,-0.0018795177148623384,20.9038464600522,0.01817519167694121,1.0,0.0,101.57303233185966,0.8089325641884302,22.034866165325088,106.31975848404791,-0.1378270317589797,1.5758239561270724,1.0,23.950414501209885,0.0,1.0,107.41675916263941,7036.587437116697,1.0,1.0,-0.23541301893780128,19.984532994306765,-0.05287050166801633,-43.652655656409415,1.0,23.61085928253173,1.0,0.004738532693969231,4.569177442602747,0.9410797066947564,1.0,0.285201493971139,5.268799089817155
1.17,114.03784956276526,0.0,23.60424200607639,108.75949218831867,0.0,1.2041561326316284,108.76615803204922,17.7553050601807,0.0,5.4707698670422245,0.0,0.0,1.089663831511712,0.0,4.836432174197293,0.0,7229.516779872075,0.31970922231011656,108.76615803204922,2.1379962136699806,1.2222264823063798,101041.75988425114,287.9965724269605,0.0,0.0,0.0,403.3286842105263,0.21646357813080455,0.86,nominal,6146.517106395242,nan,pitch_program,11.498571428571429,0.0,0.0,-3.788790686839662,-0.0,0.0,-3.7823460519750696,0.0,0.0,0.86,0.0,0.0,0.0,0.0,0.0,0.0,-0.06601439205677354,0.0,0.0,-0.06601439205677354,0.0,0.0,1.17,1.0,20.3001863173014,-0.04875057647929631,5.600780170013345,-0.00048602473611915006,0.021262257667467237,0.00037588878698601114,21.05869605765449,0.021271133339389108,1.0,0.0,101.57303233185966,0.8089325641884302,22.034866165325088,106.31975848404791,-0.1378270317589797,1.5758239561270724,1.0,23.950414501209885,0.0,1.0,108.8621770109863,7492.864949173178,1.0,1.0,-0.23541301893780128,19.984532994306765,-0.05287050166801633,-43.652655656409415,1.0,23.61085928253173,1.0,0.004738532693969231,4.569177442602747,0.9410797066947564,1.0,0.285201493971139,5.268799089817155
1.2,117.31825427768102,0.0,23.638294389146875,109.34682383052541,0.0,1.1350794356828542,109.35271504242256,17.748811152836776,0.0,5.438590401089976,0.0,0.0,1.0726488932710545,0.0,4.843850444530882,0.0,7307.678188509746,0.32143348216941203,109.35271504242256,2.1376130722230373,1.2222224845709522,101041.35173484859,287.9963510864705,0.0,0.0,0.0,403.2947368421053,0.21644535882450622,0.86,nominal,6210.8206232459615,nan,pitch_program,11.485714285714286,0.0,0.0,-3.7972842340602995,-0.0,0.0,-3.7913089612262074,0.0,0.0,0.86,0.0,0.0,0.0,0.0,0.0,0.0,-0.06617082433376335,0.0,0.0,-0.06617082433376335,0.0,0.0,1.2,1.0,20.16861358329383,0.01990999186411493,5.625824379819553,0.0014250376745710198,0.017479681770971395,-0.0008963054192959681,20.93855941158733,0.01756056293496982,1.0,0.0,101.57303233185966,0.8089325641884302,22.034866165325088,106.31975848404791,-0.1378270317589797,1.5758239561270724,1.0,24.5995123270148,0.0,1.0,109.76067736052711,7178.604035085249,1.0,1.0,1.733303350845767,19.974231673987862,-0.044839315271622146,-43.62489144429805,1.0,23.07878202479095,1.0,0.0008907922308650601,4.607028243351915,0.9409042640271328,1.0,0.09629121747350551,5.317967671825351
1.23,120.6162543741399,0.0,23.67032885655242,109.93333654862948,0.0,1.0678155801848148,109.9385224333469,17.74231779207204,0.0,5.406950570199509,0.0,0.0,1.0546610564834584,0.0,4.8504369233272095,0.0,7386.160294716534,0.3231555325483376,109.93852243334692,2.13724329179181,1.2222187237471067,101040.96777325614,287.9961428624324,0.0,0.0,0.0,403.26078947368416,0.2164271395182078,0.86,nominal,6275.36598789487,nan,pitch_program,11.472857142857142,0.0,0.0,-3.8051463407754094,-0.0,0.0,-3.7996113889557286,0.0,0.0,0.86,0.0,0.0,0.0,0.0,0.0,0.0,-0.06631572903355237,0.0,0.0,-0.06631572903355237,0.0,0.0,1.23,1.0,20.124646806838946,-0.030657478426395733,5.6905186106811545,0.0006763535546386965,0.01748043571779708,0.001228557107569541,20.913735941708385,0.017536602851791677,1.0,0.0,101.57303233185966,0.8089325641884302,22.034866165325088,106.31975848404791,-0.1378270317589797,1.5758239561270724,1.0,24.5995123270148,0.0,1.0,110.04169891508128,7394.313648232561,1.0,1.0,1.733303350845767,19.974231673987862,-0.044839315271622146,-43.62489144429805,1.0,23.07878202479095,1.0,0.0008907922308650601,4.607028243351915,0.9409042640271328,1.0,0.09629121747350551,5.317967671825351
1.26,123.93182528906256,0.0,23.700399588490267,110.51903049742182,0.0,1.0023577312615786,110.5235758700897,17.735824977886494,0.0,5.375875240293247,0.0,0.0,1.0358443556009247,0.0,4.856242624160518,0.0,7464.960906637296,0.32487536078387547,110.52357587008969,2.1368868166567765,1.2222151934724723,101040.60734985532,287.9959474026748,0.0,0.0,0.0,403.22684210526313,0.21640892021190947,0.86,nominal,6340.151935180205,nan,pitch_program,11.46,0.0,0.0,-3.8124131554224028,-0.0,0.0,-3.807292448835733,0.0,0.0,0.86,0.0,0.0,0.0,0.0,0.0,0.0,-0.06644978881850129,0.0,0.0,-0.06644978881850129,0.0,0.0,1.26,1.0,20.113244733229163,-0.0004340831347447248,5.783616980496977,-0.0002766262515115177,0.0175007613559263,-0.0015963300319073032,20.928278459163614,0.017575592157616705,1.0,0.0,125.33830604988364,0.4485061118564023,21.3931689889178,110.35569812702947,-0.06656021789848114,1.068336417770614,1.0,24.0243963111944,0.0,1.0,110.82230487981974,7484.60003983839,1.0,1.0,-0.06113834604444338,20.011489617944648,0.055090483918756074,-43.63164723334753,1.0,23.610687228213443,1.0,0.004596931728299501,4.645056088853498,0.9407490010287743,1.0,-0.4990868342499308,5.499521737345793
1.29,127.26494245292444,0.0,23.728560591604218,111.10390546206281,0.0,0.9387001037983241,111.10787085894438,17.729332710280136,0.0,5.345385433480092,0.0,0.0,1.016326917755548,0.0,4.861313570635875,0.0,7544.077799381091,0.32659295374956343,111.10787085894438,2.1365435860995636,1.222211887405216,101040.26981712926,287.99576435615455,0.0,0.0,0.0,403.1928947368421,0.21639070090561113,0.86,nominal,6405.177172129586,nan,pitch_program,11.447142857142858,0.0,0.0,-3.8191173987980145,-0.0,0.0,-3.8143874188131024,0.0,0.0,0.86,0.0,0.0,0.0,0.0,0.0,0.0,-0.06657361940493653,0.0,0.0,-0.06657361940493653,0.0,0.0,1.29,1.0,20.0803205988185,0.009634035050253823,5.880907987779911,-0.0005409071168530564,0.016528692613150434,-1.8378517530172108e-05,20.923777071234042,0.016537551142142618,1.0,0.0,125.33830604988364,0.4485061118564023,21.3931689889178,110.35569812702947,-0.06656021789848114,1.068336417770614,1.0,24.0243963111944,0.0,1.0,111.63795969558477,7468.146670182166,1.0,1.0,-0.06113834604444338,20.011489617944648,0.055090483918756074,-43.63164723334753,1.0,23.610687228213443,1.0,0.004596931728299501,4.645056088853498,0.9407490010287743,1.0,-0.4990868342499308,5.499521737345793
1.3199999999999998,130.61558127993703,0.0,23.754865726024914,111.68796090041985,0.0,0.87683781402319,111.69140277857475,17.72284098925297,0.0,5.315498757870546,0.0,0.0,0.9962225429065731,0.0,4.8656913342638575,0.0,7623.508718739718,0.32830829794770133,111.69140277857474,2.136213531822654,1.2222087992208495,101039.95452933683,287.99559337278083,0.0,0.0,0.0,403.158947368421,0.21637248159931274,0.86,nominal,6470.44038129503,nan,pitch_program,11.434285714285714,0.0,0.0,-3.825288678464997,-0.0,0.0,-3.820928174604239,0.0,0.0,0.86,0.0,0.0,0.0,0.0,0.0,0.0,-0.06668777712906075,0.0,0.0,-0.06668777712906075,0.0,0.0,1.3199999999999998,1.0,20.13024917404797,-0.04538704630111511,5.981754448889538,0.003968376119048901,0.018236369879059636,0.0008935434377180893,21.000247095690106,0.01868452876749104,1.0,0.0,125.33830604988364,0.4485061118564023,21.3931689889178,110.35569812702947,-0.06656021789848114,1.068336417770614,1.0,23.47022774178054,0.0,1.0,111.46811481321195,7625.8982892413405,1.0,1.0,-0.18024812650949107,20.05215058328497,-0.0194151779748228,-43.6776587878748,1.0,23.848765538099432,1.0,-0.006621790618816954,4.672900958142503,0.9406128356849377,1.0,0.07758936305187503,5.275391042431411
1.3499999999999999,133.98371715937412,0.0,23.779368728407466,112.27119598123673,0.0,0.8167667460850152,112.27416690839783,17.71634981480499,0.0,5.286229798722792,0.0,0.0,0.9756319928083319,0.0,4.86941352242705,0.0,7703.251384638362,0.33002137959284045,112.27416690839785,2.135896576420698,1.2222059226095223,101039.66084223546,287.9954341032653,0.0,0.0,0.0,403.125,0.2163542622930144,0.86,nominal,6535.940223827825,nan,pitch_program,11.42142857142857,0.0,0.0,-3.8309537226599124,-0.0,0.0,-3.826943503437643,0.0,0.0,0.86,0.0,0.0,0.0,0.0,0.0,0.0,-0.0667927644227938,0.0,0.0,-0.0667927644227938,0.0,0.0,1.3499999999999999,1.0,20.085675417601287,-0.08651167241201227,6.036078904441656,-0.0011739348891747197,0.018096536609756624,-0.0010776385175902564,20.973223161720796,0.018166564484427914,1.0,0.0,125.33830604988364,0.4485061118564023,21.3931689889178,110.35569812702947,-0.06656021789848114,1.068336417770614,1.0,23.47022774178054,0.0,1.0,111.93368964399106,7847.140801272247,1.0,1.0,-0.18024812650949107,20.05215058328497,-0.0194151779748228,-43.6776587878748,1.0,23.848765538099432,1.0,-0.006621790618816954,4.672900958142503,0.9406128356849377,1.0,0.07758936305187503,5.275391042431411
1.38,137.36932544792558,0.0,23.80212323139732,112.85360961838172,0.0,0.7584834329952133,112.8561584540969,17.7098591869362,0.0,5.2575904619144485,0.0,0.0,0.9546445801546682,0.0,4.8725142081913715,0.0,7783.303494315242,0.3317321846868267,112.8561584540969,2.1355926317766523,1.2222032512737255,101039.38811284685,287.99528619899587,0.0,0.0,0.0,403.0910526315789,0.21633604298671602,0.86,nominal,6601.675342295297,nan,pitch_program,11.40857142857143,0.0,0.0,-3.8361367457588154,-0.0,0.0,-3.8324594488303463,0.0,0.0,0.86,0.0,0.0,0.0,0.0,0.0,0.0,-0.06688903583125669,0.0,0.0,-0.06688903583125669,0.0,0.0,1.38,1.0,19.946971041113695,-0.005689409983457614,6.116112588253409,-0.0037790509888051545,0.015189450067074105,-0.00029757138752600423,20.863569188338946,0.015655323964926467,1.0,0.0,125.33830604988364,0.4485061118564023,21.3931689889178,110.35569812702947,-0.06656021789848114,1.068336417770614,1.0,23.45896434865182,0.0,1.0,112.26920332342212,7781.761065244185,1.0,1.0,0.4453841262117272,20.09287014084008,0.03302824672445841,-43.616196312821245,1.0,24.263400585873892,1.0,0.0029440288398331045,4.736345875367151,0.9404946919215067,1.0,-0.27351646018290926,4.402549539119901
1.41,140.7723814629752,0.0,23.823182779894825,113.43520050165428,0.0,0.7019849499168124,113.43737257059693,17.703369105646598,0.0,5.229590277159452,0.0,0.0,0.9333395104085279,0.0,4.875024310805284,0.0,7863.662725261648,0.3334406990863751,113.43737257059693,2.135301597665879,1.2222007789263751,101039.13569926082,287.9951493119307,0.0,0.0,0.0,403.0571052631579,0.2163178236804177,0.86,nominal,6667.644363268664,nan,pitch_program,11.395714285714286,0.0,0.0,-3.8408597495409267,-0.0,0.0,-3.8374996292566945,0.0,0.0,0.86,0.0,0.0,0.0,0.0,0.0,0.0,-0.06697700357459103,0.0,0.0,-0.06697700357459103,0.0,0.0,1.41,1.0,19.974301397177378,-0.01608739028599828,6.169051178478876,0.002080699158342407,0.016997795738749016,0.0018545924182634434,20.90526650277628,0.017224804265989244,1.0,0.0,125.33830604988364,0.4485061118564023,21.3931689889178,110.35569812702947,-0.06656021789848114,1.068336417770614,1.0,23.45896434865182,0.0,1.0,113.46272239259298,7846.873941267896,1.0,1.0,0.4453841262117272,20.09287014084008,0.03302824672445841,-43.616196312821245,1.0,24.263400585873892,1.0,0.0029440288398331045,4.736345875367151,0.9404946919215067,1.0,-0.27351646018290926,4.402549539119901
1.44,144.192860476711,0.0,23.8426008444464,114.01596712452621,0.0,0.6472688183858802,114.01780438275549,17.696879570936186,0.0,5.202236670313664,0.0,0.0,0.9117869121775064,0.0,4.876971937289305,0.0,7944.326737944281,0.33514690856392026,114.01780438275549,2.1350233608858247,1.2221984992892274,101038.9029604734,287.99502309451105,0.0,0.0,0.0,403.02315789473687,0.21629960437411935,0.86,nominal,6733.845899703339,nan,pitch_program,11.382857142857143,0.0,0.0,-3.845142732591553,-0.0,0.0,-3.8420854912576097,0.0,0.0,0.86,0.0,0.0,0.0,0.0,0.0,0.0,-0.0670570419655491,0.0,0.0,-0.0670570419655491,0.0,0.0,1.44,1.0,19.976906157872794,0.0002473654822085405,6.307868700580864,0.001165493200229868,0.015031898421654507,-0.005182165176221612,20.94912855575175,0.015942746955037744,1.0,0.0,125.33830604988364,0.4485061118564023,21.3931689889178,110.35569812702947,-0.06656021789848114,1.068336417770614,1.0,22.950579290188195,0.0,1.0,113.79221716215271,7955.3122159350705,1.0,1.0,-0.1253954197616447,20.107102102015045,0.01307831039106173,-43.5250756772369,1.0,24.24145777115337,1.0,0.008563321625880532,4.772688140742898,0.940393497888884,1.0,0.15909822990750117,5.4054991879135175
1.47,147.630737710983,0.0,23.860430832067177,114.59590780906704,0.0,0.594332920692497,114.59744900391462,17.690390582804962,0.0,5.175535205697104,0.0,0.0,0.8900488366606064,0.0,4.878382686735003,0.0,8025.293178318636,0.3368507988621708,114.5974490039146,2.1347577945999094,1.222196406091608,101038.68925625671,287.9949071995915,0.0,0.0,0.0,402.9892105263158,0.21628138506782096,0.86,nominal,6800.278553121698,nan,pitch_program,11.37,0.0,0.0,-3.849003905524639,-0.0,0.0,-3.8462365398178275,0.0,0.0,0.86,0.0,0.0,0.0,0.0,0.0,0.0,-0.06712949143033507,0.0,0.0,-0.06712949143033507,0.0,0.0,1.47,1.0,19.975176268748477,-0.009975117724252332,6.38455899665904,0.0033253383755549276,0.018650769978125745,0.002113230358068348,20.97070242153004,0.01906239330816455,1.0,0.0,145.40558836344601,-1.4685430373265003,22.116463184997638,114.72150654609764,0.06855132252185792,0.6462097642578685,1.0,22.950579290188195,0.0,1.0,114.85812579201799,7897.972763783123,1.0,1.0,-0.1253954197616447,20.107102102015045,0.01307831039106173,-43.5250756772369,1.0,24.24145777115337,1.0,0.008563321625880532,4.772688140742898,0.940393497888884,1.0,0.15909822990750117,5.4054991879135175
