time_s,sensor_time_s,imu_valid,imu_ax_mps2,imu_ay_mps2,imu_az_mps2,gyro_p_rps,gyro_q_rps,gyro_r_rps,imu_accel_norm_mps2,imu_gyro_norm_rps,gps_valid,gps_latency_s,gps_x_m,gps_y_m,gps_z_m,gps_vx_mps,gps_vy_mps,gps_vz_mps,baro_valid,baro_alt_m,baro_bias_m,pitot_valid,pitot_airspeed_mps,pitot_qbar_pa,pitot_compressibility_factor,mag_valid,mag_heading_deg,mag_x_ut,mag_y_ut,mag_z_ut,radar_valid,radar_agl_m,optical_flow_valid,optical_flow_x_radps,optical_flow_y_radps,optical_flow_quality,horizon_valid,horizon_roll_deg,horizon_pitch_deg
0.0,0.0,1.0,17.08237503538411,0.01421251978619979,0.4606039154704186,0.000988985189910357,-0.0019892199963123243,0.0018790631541648138,17.08858960863007,0.0029096333509448656,1.0,0.0,0.11140188189044599,-0.7015888405932479,21.088827502213036,85.93905660319169,-0.1992551608878452,5.726199720431493,1.0,21.63744828955775,0.0,1.0,86.04135887015845,4540.488943892901,1.0,1.0,-0.3872112908568312,20.285917184876087,-0.05810378146905089,-43.53294942148529,1.0,19.6652227091265,1.0,0.011325112515340333,4.3119036874876056,0.95,1.0,0.14162985211495935,4.920871775750005
0.03,0.03,1.0,17.30101891336794,0.09142314907086134,0.9155581789700715,0.0038147050867697574,-0.13711181919315737,-0.0012129072573747257,17.32546854812245,0.13717023759318603,1.0,0.0,0.11140188189044599,-0.7015888405932479,21.088827502213036,85.93905660319169,-0.1992551608878452,5.726199720431493,1.0,21.63744828955775,0.0,1.0,86.94125958655195,4541.168831358772,1.0,1.0,-0.3872112908568312,20.285917184876087,-0.05810378146905089,-43.53294942148529,1.0,19.6652227091265,1.0,0.011325112515340333,4.3119036874876056,0.95,1.0,0.14162985211495935,4.920871775750005
0.06,0.06,1.0,17.63095389090444,0.02059212434932021,1.4173067836167923,-0.0011672849717643367,-0.16319011589917243,0.0016964472024277798,17.68784095523447,0.1632031078579733,1.0,0.0,0.11140188189044599,-0.7015888405932479,21.088827502213036,85.93905660319169,-0.1992551608878452,5.726199720431493,1.0,19.96219039828339,0.0,1.0,87.38461639073303,4642.173854953641,1.0,1.0,0.19143410935638505,19.87243569772928,0.02235370497587244,-43.65872030181343,1.0,19.956802097512114,1.0,0.005241926403184264,4.284102084046184,0.9491516328829811,1.0,-0.3560639179437177,5.328455549211613
0.09,0.09,1.0,17.852601975546342,0.056759778920092034,1.6888353772963287,-0.0012990572057890886,-0.1040151294787618,0.0023904089092338762,17.932394817798095,0.1040507028561597,1.0,0.0,0.11140188189044599,-0.7015888405932479,21.088827502213036,85.93905660319169,-0.1992551608878452,5.726199720431493,1.0,19.96219039828339,0.0,1.0,87.46483143616668,4759.0220128374385,1.0,1.0,0.19143410935638505,19.87243569772928,0.02235370497587244,-43.65872030181343,1.0,19.956802097512114,1.0,0.005241926403184264,4.284102084046184,0.9491516328829811,1.0,-0.3560639179437177,5.328455549211613
0.12,0.12,1.0,18.204482574042263,-0.04683370455903968,1.7803980371561343,0.0008338834782699445,-0.054067831370131936,0.001405286998677105,18.29139678524307,0.0540925187273897,1.0,0.0,0.11140188189044599,-0.7015888405932479,21.088827502213036,85.93905660319169,-0.1992551608878452,5.726199720431493,1.0,20.47297489806428,0.0,1.0,88.52631681682173,4772.319886300808,1.0,1.0,-0.2805873157507246,19.71275183039799,0.052281592078596305,-43.84740850804786,1.0,20.795797370437363,1.0,-0.0006856874808727849,4.257919466340858,0.9483642388039362,1.0,0.34463731505732303,5.84463737010482
0.15,0.15,1.0,18.430248258442674,-0.06569288295801168,1.9656912318078692,0.0003569088105535444,-0.04569385751758055,-0.00010933390041589887,18.534894346650773,0.04569538218067318,1.0,0.0,0.11140188189044599,-0.7015888405932479,21.088827502213036,85.93905660319169,-0.1992551608878452,5.726199720431493,1.0,20.47297489806428,0.0,1.0,88.69311290256607,4811.342994164384,1.0,1.0,-0.2805873157507246,19.71275183039799,0.052281592078596305,-43.84740850804786,1.0,20.795797370437363,1.0,-0.0006856874808727849,4.257919466340858,0.9483642388039362,1.0,0.34463731505732303,5.84463737010482
0.18,0.18,1.0,18.692285847182355,-0.040344598285877165,2.1501995815873522,0.0015542492372452132,-0.05065566814616623,0.0029874636003795743,18.815592898445775,0.05076748314413066,1.0,0.0,0.11140188189044599,-0.7015888405932479,21.088827502213036,85.93905660319169,-0.1992551608878452,5.726199720431493,1.0,19.99091795073363,0.0,1.0,89.0226115124513,4897.8795091457305,1.0,1.0,-1.0248223977983817,19.517536720519526,0.012557342853959213,-43.80053278058868,1.0,21.0686018869242,1.0,0.010298730724903176,4.270155807881226,0.9476325351769845,1.0,0.18454272483068826,6.221361454897725
0.21,0.21,1.0,18.972580355574507,0.045886725210506844,2.3587731452450518,-0.0011489502308364553,-0.04665715833896696,0.0018572109986174615,19.118700836903418,0.046708240639032415,1.0,0.0,17.046832885702912,2.1539115434048393,21.481414629446917,90.00617175658275,-0.011319481360851634,4.72941621585427,1.0,19.99091795073363,0.0,1.0,89.52043769792456,4826.273004750142,1.0,1.0,-1.0248223977983817,19.517536720519526,0.012557342853959213,-43.80053278058868,1.0,21.0686018869242,1.0,0.010298730724903176,4.270155807881226,0.9476325351769845,1.0,0.18454272483068826,6.221361454897725
0.24,0.24,1.0,19.2704442464995,0.004744190636815263,2.52899776242172,0.000306301684732536,-0.03363548549046462,-0.0023348955905986794,19.435685571832156,0.03371782084180891,1.0,0.0,17.046832885702912,2.1539115434048393,21.481414629446917,90.00617175658275,-0.011319481360851634,4.72941621585427,1.0,22.971859517868328,0.0,1.0,89.73223991771853,5018.7416855705615,1.0,1.0,0.7476838625380618,19.41024832191446,-0.03978677103122809,-43.86109351981635,1.0,21.401581704737332,1.0,0.003855106168475802,4.253412843246401,0.9469522164293956,1.0,-0.4114056418596584,6.909011087872143
0.27,0.27,1.0,19.577140572561703,0.06873387830944926,2.63462555262252,0.0017306481288223445,-0.023935906862110314,-0.0021904605074801803,19.753744180443373,0.024098151329349855,1.0,0.0,17.046832885702912,2.1539115434048393,21.481414629446917,90.00617175658275,-0.011319481360851634,4.72941621585427,1.0,22.971859517868328,0.0,1.0,90.54143205920549,4984.883656678729,1.0,1.0,0.7476838625380618,19.41024832191446,-0.03978677103122809,-43.86109351981635,1.0,21.401581704737332,1.0,0.003855106168475802,4.253412843246401,0.9469522164293956,1.0,-0.4114056418596584,6.909011087872143
0.3,0.3,1.0,19.88271648425844,-0.0025178401198233413,2.8933534704020163,0.0008852196816652362,-0.017271199304985413,-0.001022367323784688,20.092135661437503,0.01732406344545294,1.0,0.0,17.046832885702912,2.1539115434048393,21.481414629446917,90.00617175658275,-0.011319481360851634,4.72941621585427,1.0,21.422419201375142,0.0,1.0,90.32477569891623,5105.612478369088,1.0,1.0,2.183263109379218,19.440222341356534,0.1184662254349714,-43.92169663720886,1.0,21.742050372177296,1.0,0.031701840707228736,4.276873016583599,0.9463190573789441,1.0,-0.2166379528392713,5.951646940863802
0.32999999999999996,0.32999999999999996,1.0,20.217913878181673,-0.08650425499922065,3.0140073903214355,-0.002208698967947825,-0.011576112572903812,0.0007656007214588456,20.4415206166424,0.011809778909710961,1.0,0.0,17.046832885702912,2.1539115434048393,21.481414629446917,90.00617175658275,-0.011319481360851634,4.72941621585427,1.0,21.422419201375142,0.0,1.0,92.53221658686951,5171.246340172565,1.0,1.0,2.183263109379218,19.440222341356534,0.1184662254349714,-43.92169663720886,1.0,21.742050372177296,1.0,0.031701840707228736,4.276873016583599,0.9463190573789441,1.0,-0.2166379528392713,5.951646940863802
0.36,0.36,1.0,20.454801559345455,-0.0006221015086256383,3.154468008911224,0.0012055641439117526,-0.002855349778920058,-0.0014805113435264394,20.69660782926651,0.0034348684259189557,1.0,0.0,17.046832885702912,2.1539115434048393,21.481414629446917,90.00617175658275,-0.011319481360851634,4.72941621585427,1.0,21.135163322942397,0.0,1.0,91.94303918352549,5260.066831138704,1.0,1.0,0.926893308192642,19.399742469443066,-0.007981179086517892,-43.93115721188406,1.0,22.311605470558504,1.0,0.007806674029560399,4.266796118464243,0.9457295939393641,1.0,0.05519103641737052,6.5084944248970595
0.39,0.39,1.0,20.785698525191055,0.03202324527787293,3.2449620356880176,-0.0020436304631556374,-0.004333295530207833,0.00056555860126917,21.03749194370432,0.004824285662512788,1.0,0.0,17.046832885702912,2.1539115434048393,21.481414629446917,90.00617175658275,-0.011319481360851634,4.72941621585427,1.0,21.135163322942397,0.0,1.0,93.71308595758991,5333.818971486444,1.0,1.0,0.926893308192642,19.399742469443066,-0.007981179086517892,-43.93115721188406,1.0,22.311605470558504,1.0,0.007806674029560399,4.266796118464243,0.9457295939393641,1.0,0.05519103641737052,6.5084944248970595
0.42,0.42,1.0,20.859767652139052,-0.06410200858412533,3.4162679225204453,-0.0014322366621200033,-0.00015300905428892477,-0.0013729135286855469,21.13776010099399,0.001989875670554027,1.0,0.0,40.768467435680314,-2.9747188159285467,21.70631843485173,93.6770973417077,-0.02562489186334038,3.5934437572751556,1.0,21.025757577512493,0.0,1.0,94.15910098245277,5358.093226369159,1.0,1.0,-1.9259249666437939,19.28463969489506,0.04938627174586668,-43.94914285340094,1.0,22.140443495151445,1.0,0.01215755747993498,4.258758031062894,0.9451806194465084,1.0,-0.21828317300431793,6.381104992498344
0.44999999999999996,0.44999999999999996,1.0,20.823947715478607,-0.025547885687780866,3.429788741933567,0.001646581049793081,0.004102303449767345,-0.0013563986814435615,21.104523258433108,0.004623844734691312,1.0,0.0,40.768467435680314,-2.9747188159285467,21.70631843485173,93.6770973417077,-0.02562489186334038,3.5934437572751556,1.0,21.025757577512493,0.0,1.0,94.24560213095761,5601.009929608042,1.0,1.0,-1.9259249666437939,19.28463969489506,0.04938627174586668,-43.94914285340094,1.0,22.140443495151445,1.0,0.01215755747993498,4.258758031062894,0.9451806194465084,1.0,-0.21828317300431793,6.381104992498344
0.48,0.48,1.0,20.812981368457148,-0.034379127027057484,3.633407734584543,0.0019368535746598246,0.006379979509274776,-0.000973833407350575,21.127778565998327,0.006738241002940648,1.0,0.0,40.768467435680314,-2.9747188159285467,21.70631843485173,93.6770973417077,-0.02562489186334038,3.5934437572751556,1.0,22.10361226277454,0.0,1.0,95.1264184659006,5636.7919747671785,1.0,1.0,0.6771720774836267,19.381308383539228,-0.10706663982121749,-43.950017600946666,1.0,22.322810773389516,1.0,0.017072148359275605,4.298209897711457,0.9446695096285782,1.0,-0.6448102250468786,6.000751820746105
0.51,0.51,1.0,20.816123561306377,0.00026455899341258356,3.7521009897465207,-0.0011964725875130916,0.010754167677084593,-0.0006564053285177824,21.151578239621337,0.010840412217015913,1.0,0.0,40.768467435680314,-2.9747188159285467,21.70631843485173,93.6770973417077,-0.02562489186334038,3.5934437572751556,1.0,22.10361226277454,0.0,1.0,95.92864317370105,5648.738010823772,1.0,1.0,0.6771720774836267,19.381308383539228,-0.10706663982121749,-43.950017600946666,1.0,22.322810773389516,1.0,0.017072148359275605,4.298209897711457,0.9446695096285782,1.0,-0.6448102250468786,6.000751820746105
0.54,0.54,1.0,20.748292386713914,0.048098580028499094,3.816057336608257,-0.0023887544329169964,0.00926658957301851,0.0006294828520748582,21.096356179071613,0.00959020743866431,1.0,0.0,40.768467435680314,-2.9747188159285467,21.70631843485173,93.6770973417077,-0.02562489186334038,3.5934437572751556,1.0,22.316068545050154,0.0,1.0,95.42339317177237,5702.359127892188,1.0,1.0,-1.0446435894470076,19.436208726100784,0.0016840829861581581,-43.92119000986159,1.0,22.43477387670931,1.0,0.008665747007294103,4.311187466504007,0.9441942489278174,1.0,0.16102366489970338,6.281961352520365
0.57,0.57,1.0,20.717231530944563,-0.05069117886285754,3.912354475030293,0.0025892295499083413,0.011543392314172842,-0.0022344017829108494,21.08347147508369,0.012039375694299866,1.0,0.0,40.768467435680314,-2.9747188159285467,21.70631843485173,93.6770973417077,-0.02562489186334038,3.5934437572751556,1.0,22.316068545050154,0.0,1.0,96.96393721669823,5795.963512999948,1.0,1.0,-1.0446435894470076,19.436208726100784,0.0016840829861581581,-43.92119000986159,1.0,22.43477387670931,1.0,0.008665747007294103,4.311187466504007,0.9441942489278174,1.0,0.16102366489970338,6.281961352520365
0.6,0.6,1.0,20.655149347144974,-0.04776757811930027,3.9739234536087857,0.0027178250654590636,0.01245919365488434,-0.004512620966287809,21.03400922100979,0.013527077570625818,1.0,0.0,40.768467435680314,-2.9747188159285467,21.70631843485173,93.6770973417077,-0.02562489186334038,3.5934437572751556,1.0,22.150632317899365,0.0,1.0,97.70875528494138,5899.962325042079,1.0,1.0,-0.4789557255683479,19.457053378573153,-0.00382860177692922,-43.90704145256858,1.0,22.43260380747768,1.0,0.021316720605905944,4.31418265442458,0.9437530537173688,1.0,-0.03751401384848972,5.87767103485659
0.63,0.63,1.0,20.70793046953961,-0.007021102254339496,4.112767127872235,0.0012090523247497555,0.013273592527872795,0.0016463110019708706,21.112396526099783,0.013429832688279984,1.0,0.0,57.96851559416923,-0.2895424844230427,19.330622755642562,98.20871420406185,-0.03152220870634551,2.5806598071198916,1.0,22.150632317899365,0.0,1.0,98.17990635283206,5885.475874214155,1.0,1.0,-0.4789557255683479,19.457053378573153,-0.00382860177692922,-43.90704145256858,1.0,22.43260380747768,1.0,0.021316720605905944,4.31418265442458,0.9437530537173688,1.0,-0.03751401384848972,5.87767103485659
0.6599999999999999,0.6599999999999999,1.0,20.671093717067844,0.06931857074170071,4.210095432561159,-0.0003386704767009719,0.017486771782199477,0.0021454725822396895,21.095587786912308,0.017621150293203307,1.0,0.0,57.96851559416923,-0.2895424844230427,19.330622755642562,98.20871420406185,-0.03152220870634551,2.5806598071198916,1.0,22.321332147941114,0.0,1.0,99.10980727481495,5999.339680259934,1.0,1.0,-0.07013885321341759,19.568936522833358,0.0770420550587787,-43.84146086577746,1.0,22.544555617357126,1.0,-0.0009414935356189328,4.350423177747576,0.9433443030954927,1.0,0.11473033084677396,5.51049556386278
0.69,0.69,1.0,20.584302524415026,-0.08740031323539292,4.255924004403652,0.003417155067797721,0.018310505006036724,-0.0007952418766311181,21.019848676016956,0.018643603513693895,1.0,0.0,57.96851559416923,-0.2895424844230427,19.330622755642562,98.20871420406185,-0.03152220870634551,2.5806598071198916,1.0,22.321332147941114,0.0,1.0,99.55275419058135,5995.91169309189,1.0,1.0,-0.07013885321341759,19.568936522833358,0.0770420550587787,-43.84146086577746,1.0,22.544555617357126,1.0,-0.0009414935356189328,4.350423177747576,0.9433443030954927,1.0,0.11473033084677396,5.51049556386278
0.72,0.72,1.0,20.57082278622719,-0.011476210613836418,4.379180925003172,-0.005319940272440017,0.019601150486913774,0.0006891251329282022,21.031788021461356,0.020321952621778314,1.0,0.0,57.96851559416923,-0.2895424844230427,19.330622755642562,98.20871420406185,-0.03152220870634551,2.5806598071198916,1.0,22.674706643320846,0.0,1.0,99.31894593574327,6037.701840944376,1.0,1.0,-1.1562856659181497,19.519807954880456,0.06482023080752466,-43.80317596807646,1.0,23.370350896871077,1.0,0.009836571636013498,4.351355378153982,0.9429665040418728,1.0,0.20725875569779917,6.147420255566543
0.75,0.75,1.0,20.504626942868757,-0.0017917091056568128,4.474541383100016,0.0004914187573424716,0.017674974137035962,0.0032464220828635677,20.987168695789233,0.017977359635943827,1.0,0.0,57.96851559416923,-0.2895424844230427,19.330622755642562,98.20871420406185,-0.03152220870634551,2.5806598071198916,1.0,22.674706643320846,0.0,1.0,100.01954076607574,6193.75127516846,1.0,1.0,-1.1562856659181497,19.519807954880456,0.06482023080752466,-43.80317596807646,1.0,23.370350896871077,1.0,0.009836571636013498,4.351355378153982,0.9429665040418728,1.0,0.20725875569779917,6.147420255566543
0.78,0.78,1.0,20.529114386446555,-0.06781371378475642,4.579041169161964,0.0008063179923524863,0.017311982930345568,-0.0014482938548559922,21.033705194769283,0.017391160305608746,1.0,0.0,57.96851559416923,-0.2895424844230427,19.330622755642562,98.20871420406185,-0.03152220870634551,2.5806598071198916,1.0,23.333795080896135,0.0,1.0,101.356922331223,6175.525726817563,1.0,1.0,-0.6277046595377741,19.577205919749073,0.06643482272329095,-43.81896074935404,1.0,23.523458853241916,1.0,-0.004707283612215783,4.386031291368446,0.9426182649448963,1.0,-0.04417467545859814,5.821334345241168
0.8099999999999999,0.8099999999999999,1.0,20.50317634565709,0.02156082937765524,4.704997028009547,0.002960550429296416,0.021420579125198565,0.004053366781907528,21.03610472887161,0.022000814784274948,1.0,0.0,57.96851559416923,-0.2895424844230427,19.330622755642562,98.20871420406185,-0.03152220870634551,2.5806598071198916,1.0,23.333795080896135,0.0,1.0,101.8889140659677,6280.497966805758,1.0,1.0,-0.6277046595377741,19.577205919749073,0.06643482272329095,-43.81896074935404,1.0,23.523458853241916,1.0,-0.004707283612215783,4.386031291368446,0.9426182649448963,1.0,-0.04417467545859814,5.821334345241168
0.84,0.84,1.0,20.45019077656317,-0.052457408029437345,4.74504976551276,0.001067942769418286,0.019914875054423242,-0.0006961169280190413,20.993535954066413,0.019955634015723894,1.0,0.0,79.05067568790163,-3.669360176335259,23.9074962884564,102.3484465591693,0.02994665883249877,2.0698586204577376,1.0,23.99772209898627,0.0,1.0,102.02258270894289,6369.967984295671,1.0,1.0,0.6671738307441417,19.759012638425165,-0.07576789622443676,-43.824589812588904,1.0,23.30190198740372,1.0,-0.0067562565785145605,4.410694698425471,0.9422982733019329,1.0,0.003925230021731714,5.412167621881004
0.87,0.87,1.0,20.378362884933555,0.004452015257319473,4.831960512662262,-0.0006146842364827338,0.02244565250828799,0.0002176097125140277,20.943388839593382,0.022455122070930183,1.0,0.0,79.05067568790163,-3.669360176335259,23.9074962884564,102.3484465591693,0.02994665883249877,2.0698586204577376,1.0,23.99772209898627,0.0,1.0,103.27811105124279,6480.900554433601,1.0,1.0,0.6671738307441417,19.759012638425165,-0.07576789622443676,-43.824589812588904,1.0,23.30190198740372,1.0,-0.0067562565785145605,4.410694698425471,0.9422982733019329,1.0,0.003925230021731714,5.412167621881004
0.8999999999999999,0.8999999999999999,1.0,20.424895662412816,0.005091857072129036,4.8809813651218175,0.0007052006663567407,0.021553554277279834,0.0004326371754738926,21.000008757953523,0.021569427087641427,1.0,0.0,79.05067568790163,-3.669360176335259,23.9074962884564,102.3484465591693,0.02994665883249877,2.0698586204577376,1.0,23.413521090229786,0.0,1.0,103.27769801635725,6525.062453229846,1.0,1.0,1.8726474759458809,19.678161696308464,0.05777671323278474,-43.71967656763985,1.0,23.242906273897372,1.0,0.008640461770223259,4.455248565928077,0.9420052784113624,1.0,0.23864947538422865,5.431176514096328
0.9299999999999999,0.9299999999999999,1.0,20.41419004464393,0.043431825049913615,4.985296108089695,-0.0011535177192977509,0.016147732285751643,-0.001821824955904986,21.014143303680044,0.016291068328105375,1.0,0.0,79.05067568790163,-3.669360176335259,23.9074962884564,102.3484465591693,0.02994665883249877,2.0698586204577376,1.0,23.413521090229786,0.0,1.0,104.02767129644228,6702.0992263695525,1.0,1.0,1.8726474759458809,19.678161696308464,0.05777671323278474,-43.71967656763985,1.0,23.242906273897372,1.0,0.008640461770223259,4.455248565928077,0.9420052784113624,1.0,0.23864947538422865,5.431176514096328
0.96,0.96,1.0,20.313010503331633,0.01212089030896153,5.105621124658305,-0.0005616662321371039,0.01670511027075654,-0.0023788195122700167,20.94483014237643,0.016882978421665275,1.0,0.0,79.05067568790163,-3.669360176335259,23.9074962884564,102.3484465591693,0.02994665883249877,2.0698586204577376,1.0,23.388377352890394,0.0,1.0,104.85749331315675,6654.839956352769,1.0,1.0,1.2701259009089658,19.749797536042287,-0.03508464136893619,-43.7444632265269,1.0,23.006376163150975,1.0,-0.007435199087661565,4.490454900523376,0.9417380773208958,1.0,-0.16655817806543646,6.120077464343643
0.99,0.99,1.0,20.294004656616035,0.028317578975075315,5.117734844774498,0.0021692599251646174,0.022943553191646582,-0.0014056166651458266,20.929372585661795,0.023088700264202334,1.0,0.0,79.05067568790163,-3.669360176335259,23.9074962884564,102.3484465591693,0.02994665883249877,2.0698586204577376,1.0,23.388377352890394,0.0,1.0,105.9675577592591,6833.270617537771,1.0,1.0,1.2701259009089658,19.749797536042287,-0.03508464136893619,-43.7444632265269,1.0,23.006376163150975,1.0,-0.007435199087661565,4.490454900523376,0.9417380773208958,1.0,-0.16655817806543646,6.120077464343643
1.02,1.02,1.0,20.356704941100272,-0.018433216260880875,5.152979223448928,-0.0008137255452803577,0.01748509928053716,0.0004376194979424285,20.998784981988226,0.017509493337565834,1.0,0.0,79.05067568790163,-3.669360176335259,23.9074962884564,102.3484465591693,0.02994665883249877,2.0698586204577376,1.0,22.669542696233755,0.0,1.0,105.78132097516674,6684.626168040541,1.0,1.0,2.228262624781329,19.69879288161601,0.001964563342723118,-43.715262151669094,1.0,23.63886932189646,1.0,0.015591526997094967,4.508524807709895,0.9414955037598547,1.0,0.2430916353492683,5.745887209159729
1.05,1.05,1.0,20.331922014776303,0.050739489062825494,5.242544124123411,-0.0014222981398267444,0.01962508147708128,-0.0013427473321167547,20.99699731399889,0.019722315416262362,1.0,0.0,101.57303233185966,0.8089325641884302,22.034866165325088,106.31975848404791,-0.1378270317589797,1.5758239561270724,1.0,22.669542696233755,0.0,1.0,107.00788575439518,6955.8858277906465,1.0,1.0,2.228262624781329,19.69879288161601,0.001964563342723118,-43.715262151669094,1.0,23.63886932189646,1.0,0.015591526997094967,4.508524807709895,0.9414955037598547,1.0,0.2430916353492683,5.745887209159729
1.08,1.08,1.0,20.216590156647506,0.06507131756540041,5.372994267902009,0.0006410331502114088,0.016872932149189702,-0.003423662041902447,20.91850423049254,0.01722870350862168,1.0,0.0,101.57303233185966,0.8089325641884302,22.034866165325088,106.31975848404791,-0.1378270317589797,1.5758239561270724,1.0,23.593365788225224,0.0,1.0,106.52961488409224,7023.53043855903,1.0,1.0,0.7737687936948424,19.87496320572165,0.0022988743313570917,-43.684921161233426,1.0,23.03356215732267,1.0,0.007843023665812304,4.541152396306105,0.9412764193470434,1.0,0.022254860809549203,5.130649376589643
1.1099999999999999,1.1099999999999999,1.0,20.220684358396344,0.014766145577709128,5.426311874097563,0.0012193695060839075,0.018266740619793248,-0.0019554925006107127,20.936120808686645,0.01841153512836767,1.0,0.0,101.57303233185966,0.8089325641884302,22.034866165325088,106.31975848404791,-0.1378270317589797,1.5758239561270724,1.0,23.593365788225224,0.0,1.0,107.51505360465532,7054.291646668004,1.0,1.0,0.7737687936948424,19.87496320572165,0.0022988743313570917,-43.684921161233426,1.0,23.03356215732267,1.0,0.007843023665812304,4.541152396306105,0.9412764193470434,1.0,0.022254860809549203,5.130649376589643
1.14,1.14,1.0,20.186633707945596,0.02321015744087059,5.428634971635416,0.0032967124718470743,0.017774608083753626,-0.0018795177148623384,20.9038464600522,0.01817519167694121,1.0,0.0,101.57303233185966,0.8089325641884302,22.034866165325088,106.31975848404791,-0.1378270317589797,1.5758239561270724,1.0,23.950414501209885,0.0,1.0,107.41675916263941,7036.587437116697,1.0,1.0,-0.23541301893780128,19.984532994306765,-0.05287050166801633,-43.652655656409415,1.0,23.61085928253173,1.0,0.004738532693969231,4.569177442602747,0.9410797066947564,1.0,0.285201493971139,5.268799089817155
1.17,1.17,1.0,20.3001863173014,-0.04875057647929631,5.600780170013345,-0.00048602473611915006,0.021262257667467237,0.00037588878698601114,21.05869605765449,0.021271133339389108,1.0,0.0,101.57303233185966,0.8089325641884302,22.034866165325088,106.31975848404791,-0.1378270317589797,1.5758239561270724,1.0,23.950414501209885,0.0,1.0,108.8621770109863,7492.864949173178,1.0,1.0,-0.23541301893780128,19.984532994306765,-0.05287050166801633,-43.652655656409415,1.0,23.61085928253173,1.0,0.004738532693969231,4.569177442602747,0.9410797066947564,1.0,0.285201493971139,5.268799089817155
1.2,1.2,1.0,20.16861358329383,0.01990999186411493,5.625824379819553,0.0014250376745710198,0.017479681770971395,-0.0008963054192959681,20.93855941158733,0.01756056293496982,1.0,0.0,101.57303233185966,0.8089325641884302,22.034866165325088,106.31975848404791,-0.1378270317589797,1.5758239561270724,1.0,24.5995123270148,0.0,1.0,109.76067736052711,7178.604035085249,1.0,1.0,1.733303350845767,19.974231673987862,-0.044839315271622146,-43.62489144429805,1.0,23.07878202479095,1.0,0.0008907922308650601,4.607028243351915,0.9409042640271328,1.0,0.09629121747350551,5.317967671825351
1.23,1.23,1.0,20.124646806838946,-0.030657478426395733,5.6905186106811545,0.0006763535546386965,0.01748043571779708,0.001228557107569541,20.913735941708385,0.017536602851791677,1.0,0.0,101.57303233185966,0.8089325641884302,22.034866165325088,106.31975848404791,-0.1378270317589797,1.5758239561270724,1.0,24.5995123270148,0.0,1.0,110.04169891508128,7394.313648232561,1.0,1.0,1.733303350845767,19.974231673987862,-0.044839315271622146,-43.62489144429805,1.0,23.07878202479095,1.0,0.0008907922308650601,4.607028243351915,0.9409042640271328,1.0,0.09629121747350551,5.317967671825351
1.26,1.26,1.0,20.113244733229163,-0.0004340831347447248,5.783616980496977,-0.0002766262515115177,0.0175007613559263,-0.0015963300319073032,20.928278459163614,0.017575592157616705,1.0,0.0,125.33830604988364,0.4485061118564023,21.3931689889178,110.35569812702947,-0.06656021789848114,1.068336417770614,1.0,24.0243963111944,0.0,1.0,110.82230487981974,7484.60003983839,1.0,1.0,-0.06113834604444338,20.011489617944648,0.055090483918756074,-43.63164723334753,1.0,23.610687228213443,1.0,0.004596931728299501,4.645056088853498,0.9407490010287743,1.0,-0.4990868342499308,5.499521737345793
1.29,1.29,1.0,20.0803205988185,0.009634035050253823,5.880907987779911,-0.0005409071168530564,0.016528692613150434,-1.8378517530172108e-05,20.923777071234042,0.016537551142142618,1.0,0.0,125.33830604988364,0.4485061118564023,21.3931689889178,110.35569812702947,-0.06656021789848114,1.068336417770614,1.0,24.0243963111944,0.0,1.0,111.63795969558477,7468.146670182166,1.0,1.0,-0.06113834604444338,20.011489617944648,0.055090483918756074,-43.63164723334753,1.0,23.610687228213443,1.0,0.004596931728299501,4.645056088853498,0.9407490010287743,1.0,-0.4990868342499308,5.499521737345793
1.3199999999999998,1.3199999999999998,1.0,20.13024917404797,-0.04538704630111511,5.981754448889538,0.003968376119048901,0.018236369879059636,0.0008935434377180893,21.000247095690106,0.01868452876749104,1.0,0.0,125.33830604988364,0.4485061118564023,21.3931689889178,110.35569812702947,-0.06656021789848114,1.068336417770614,1.0,23.47022774178054,0.0,1.0,111.46811481321195,7625.8982892413405,1.0,1.0,-0.18024812650949107,20.05215058328497,-0.0194151779748228,-43.6776587878748,1.0,23.848765538099432,1.0,-0.006621790618816954,4.672900958142503,0.9406128356849377,1.0,0.07758936305187503,5.275391042431411
1.3499999999999999,1.3499999999999999,1.0,20.085675417601287,-0.08651167241201227,6.036078904441656,-0.0011739348891747197,0.018096536609756624,-0.0010776385175902564,20.973223161720796,0.018166564484427914,1.0,0.0,125.33830604988364,0.4485061118564023,21.3931689889178,110.35569812702947,-0.06656021789848114,1.068336417770614,1.0,23.47022774178054,0.0,1.0,111.93368964399106,7847.140801272247,1.0,1.0,-0.18024812650949107,20.05215058328497,-0.0194151779748228,-43.6776587878748,1.0,23.848765538099432,1.0,-0.006621790618816954,4.672900958142503,0.9406128356849377,1.0,0.07758936305187503,5.275391042431411
1.38,1.38,1.0,19.946971041113695,-0.005689409983457614,6.116112588253409,-0.0037790509888051545,0.015189450067074105,-0.00029757138752600423,20.863569188338946,0.015655323964926467,1.0,0.0,125.33830604988364,0.4485061118564023,21.3931689889178,110.35569812702947,-0.06656021789848114,1.068336417770614,1.0,23.45896434865182,0.0,1.0,112.26920332342212,7781.761065244185,1.0,1.0,0.4453841262117272,20.09287014084008,0.03302824672445841,-43.616196312821245,1.0,24.263400585873892,1.0,0.0029440288398331045,4.736345875367151,0.9404946919215067,1.0,-0.27351646018290926,4.402549539119901
1.41,1.41,1.0,19.974301397177378,-0.01608739028599828,6.169051178478876,0.002080699158342407,0.016997795738749016,0.0018545924182634434,20.90526650277628,0.017224804265989244,1.0,0.0,125.33830604988364,0.4485061118564023,21.3931689889178,110.35569812702947,-0.06656021789848114,1.068336417770614,1.0,23.45896434865182,0.0,1.0,113.46272239259298,7846.873941267896,1.0,1.0,0.4453841262117272,20.09287014084008,0.03302824672445841,-43.616196312821245,1.0,24.263400585873892,1.0,0.0029440288398331045,4.736345875367151,0.9404946919215067,1.0,-0.27351646018290926,4.402549539119901
1.44,1.44,1.0,19.976906157872794,0.0002473654822085405,6.307868700580864,0.001165493200229868,0.015031898421654507,-0.005182165176221612,20.94912855575175,0.015942746955037744,1.0,0.0,125.33830604988364,0.4485061118564023,21.3931689889178,110.35569812702947,-0.06656021789848114,1.068336417770614,1.0,22.950579290188195,0.0,1.0,113.79221716215271,7955.3122159350705,1.0,1.0,-0.1253954197616447,20.107102102015045,0.01307831039106173,-43.5250756772369,1.0,24.24145777115337,1.0,0.008563321625880532,4.772688140742898,0.940393497888884,1.0,0.15909822990750117,5.4054991879135175
1.47,1.47,1.0,19.975176268748477,-0.009975117724252332,6.38455899665904,0.0033253383755549276,0.018650769978125745,0.002113230358068348,20.97070242153004,0.01906239330816455,1.0,0.0,145.40558836344601,-1.4685430373265003,22.116463184997638,114.72150654609764,0.06855132252185792,0.6462097642578685,1.0,22.950579290188195,0.0,1.0,114.85812579201799,7897.972763783123,1.0,1.0,-0.1253954197616447,20.107102102015045,0.01307831039106173,-43.5250756772369,1.0,24.24145777115337,1.0,0.008563321625880532,4.772688140742898,0.940393497888884,1.0,0.15909822990750117,5.4054991879135175
1.5,1.5,1.0,20.012159899221718,0.05388772767323559,6.416971279710562,-0.0005851810114994808,0.01622194860506446,-0.0011954030880670305,21.015874193662317,0.0162764566753496,1.0,0.0,145.40558836344601,-1.4685430373265003,22.116463184997638,114.72150654609764,0.06855132252185792,0.6462097642578685,1.0,24.5089926349973,0.0,1.0,115.65201979683357,7958.738352542599,1.0,1.0,-0.8606543757244085,20.167568619061296,0.04906720531176424,-43.55617574640749,1.0,23.839545779018565,1.0,0.002728323893572216,4.800322729098936,0.9403081847630775,1.0,0.03062243096394848,5.432630066289422
1.53,1.53,1.0,20.00428671389564,-0.07526211389986547,6.439031092451648,-0.0005823516557197367,0.017289562629690534,0.0023678742643823574,21.015191474909034,0.017460668312204868,1.0,0.0,145.40558836344601,-1.4685430373265003,22.116463184997638,114.72150654609764,0.06855132252185792,0.6462097642578685,1.0,24.5089926349973,0.0,1.0,115.24282075627838,8240.840024111643,1.0,1.0,-0.8606543757244085,20.167568619061296,0.04906720531176424,-43.55617574640749,1.0,23.839545779018565,1.0,0.002728323893572216,4.800322729098936,0.9403081847630775,1.0,0.03062243096394848,5.432630066289422
1.56,1.56,1.0,19.863806377856992,-0.05135970264853507,6.5976907084745635,0.0005065457888140905,0.012340255312295073,0.0017988394251295722,20.93090930468,0.01248095801956695,1.0,0.0,145.40558836344601,-1.4685430373265003,22.116463184997638,114.72150654609764,0.06855132252185792,0.6462097642578685,1.0,24.714019283381706,0.0,1.0,116.66031422383746,8332.757797855695,1.0,1.0,-0.3158058968260498,20.137026897090152,-0.014326612900900416,-43.549307522844764,1.0,24.13246307512541,1.0,-0.006317170036720645,4.840551600523449,0.9402376859613146,1.0,-0.3981687493646026,4.8732918518805635
1.5899999999999999,1.5899999999999999,1.0,19.914363349537798,0.005196363118692796,6.5909261354801405,0.0008741198863822981,0.012838454538706376,0.0012736340846161741,20.976706174777753,0.012931053487620234,1.0,0.0,145.40558836344601,-1.4685430373265003,22.116463184997638,114.72150654609764,0.06855132252185792,0.6462097642578685,1.0,24.714019283381706,0.0,1.0,117.01404689281254,8396.187575307795,1.0,1.0,-0.3158058968260498,20.137026897090152,-0.014326612900900416,-43.549307522844764,1.0,24.13246307512541,1.0,-0.006317170036720645,4.840551600523449,0.9402376859613146,1.0,-0.3981687493646026,4.8732918518805635
1.6199999999999999,1.6199999999999999,1.0,19.80960794701447,-0.033510674307943404,6.652691132974926,0.00033110685799250664,0.011839094582783908,0.0027325025744915064,20.89688946447472,0.012154849345471775,1.0,0.0,145.40558836344601,-1.4685430373265003,22.116463184997638,114.72150654609764,0.06855132252185792,0.6462097642578685,1.0,25.154118711993338,0.0,1.0,117.66953764057982,8561.49557638618,1.0,1.0,1.6009331510899876,20.31114333410261,0.019565429836488075,-43.54743493349303,1.0,24.16754062807241,1.0,0.00282912642495302,4.874413138279002,0.9401809366887574,1.0,0.5989467129546234,4.861952475324324
1.65,1.65,1.0,19.773451653129513,0.019335254789639184,6.761063316886992,-0.00026646028621094854,0.012715312606810726,0.0015143232836768326,20.897409918592373,0.012807940926649108,1.0,0.0,145.40558836344601,-1.4685430373265003,22.116463184997638,114.72150654609764,0.06855132252185792,0.6462097642578685,1.0,25.154118711993338,0.0,1.0,117.53233132549502,8466.963451295547,1.0,1.0,1.6009331510899876,20.31114333410261,0.019565429836488075,-43.54743493349303,1.0,24.16754062807241,1.0,0.00282912642495302,4.874413138279002,0.9401809366887574,1.0,0.5989467129546234,4.861952475324324
1.68,1.68,1.0,19.779157999885257,-0.08194539785330998,6.8576591845049375,0.0010295736039668336,0.013700693996448614,0.0048133681027184025,20.934404594434476,0.014558075088505875,1.0,0.0,168.01293969482683,1.078970934809092,26.208496913687046,118.91943375562325,-0.12010241316899486,0.23906501443454903,1.0,21.926561296879374,0.0,1.0,119.00706819360676,8651.231790589562,1.0,1.0,0.25948856128392955,20.33646081772412,0.00014094145981285633,-43.56071323330651,1.0,24.38216790945125,1.0,0.010864012017369766,4.924818752370923,0.9401368737486688,1.0,-0.354321653247542,5.572272378338267
1.71,1.71,1.0,19.873840434243487,-0.0299663172578417,6.875519910598473,0.0034473767714564476,0.010572423127553496,-0.0018861774478216799,21.02957930218713,0.011279104696609418,1.0,0.0,168.01293969482683,1.078970934809092,26.208496913687046,118.91943375562325,-0.12010241316899486,0.23906501443454903,1.0,21.926561296879374,0.0,1.0,119.41478162737971,8781.405313796744,1.0,1.0,0.25948856128392955,20.33646081772412,0.00014094145981285633,-43.56071323330651,1.0,24.38216790945125,1.0,0.010864012017369766,4.924818752370923,0.9401368737486688,1.0,-0.354321653247542,5.572272378338267
1.74,1.74,1.0,19.71949474373806,0.008211244011653736,6.951414115301605,-0.001733257110114576,0.009952466610167592,-0.0032073212487572812,20.90886650622782,0.01059918305479217,1.0,0.0,168.01293969482683,1.078970934809092,26.208496913687046,118.91943375562325,-0.12010241316899486,0.23906501443454903,1.0,25.03012096492904,0.0,1.0,119.63644509296367,8782.065739840704,1.0,1.0,-0.9233159761489963,20.411603478604736,0.03103407535567429,-43.53290605237559,1.0,24.346711286729256,1.0,-0.006603260864179216,4.987938273984789,0.9401044355611257,1.0,-0.2998024213284304,4.951738420210227
1.77,1.77,1.0,19.66081520222233,0.07977059481952957,6.94823907889721,-0.0016256867417894893,0.012717172244667719,0.0022269891554433574,20.85262679043695,0.013012640315533178,1.0,0.0,168.01293969482683,1.078970934809092,26.208496913687046,118.91943375562325,-0.12010241316899486,0.23906501443454903,1.0,25.03012096492904,0.0,1.0,120.15094819734773,8887.133447870721,1.0,1.0,-0.9233159761489963,20.411603478604736,0.03103407535567429,-43.53290605237559,1.0,24.346711286729256,1.0,-0.006603260864179216,4.987938273984789,0.9401044355611257,1.0,-0.2998024213284304,4.951738420210227
1.7999999999999998,1.7999999999999998,1.0,19.65255604153364,0.0001851424778877232,7.0700151276165375,-0.0010353137584553993,0.013790269076817973,0.0013965190472990064,20.885594865950665,0.013899412262356924,1.0,0.0,168.01293969482683,1.078970934809092,26.208496913687046,118.91943375562325,-0.12010241316899486,0.23906501443454903,1.0,23.033270919743064,0.0,1.0,121.06597618404292,8904.726301979765,1.0,1.0,-2.124294983972606,20.34105968249397,0.14056507597209875,-43.520793647035234,1.0,23.629558972030072,1.0,0.0024721741746099343,5.027619444711892,0.940082562345742,1.0,0.2678606124229734,4.896945987443371
1.8299999999999998,1.8299999999999998,1.0,19.629657472956332,-0.019593139169286174,7.1325485780426146,-0.0016612224427601657,0.0111636331948311,0.0015663249629630986,20.88533182917692,0.011394724217929376,1.0,0.0,168.01293969482683,1.078970934809092,26.208496913687046,118.91943375562325,-0.12010241316899486,0.23906501443454903,1.0,23.033270919743064,0.0,1.0,121.48955048515934,8806.256025251689,1.0,1.0,-2.124294983972606,20.34105968249397,0.14056507597209875,-43.520793647035234,1.0,23.629558972030072,1.0,0.0024721741746099343,5.027619444711892,0.940082562345742,1.0,0.2678606124229734,4.896945987443371
1.8599999999999999,1.8599999999999999,1.0,19.586738321626704,-0.01718241320759571,7.316300973212198,-0.0012560253184492798,0.007819872304525598,0.0004884887309836133,20.90858372166392,0.007935151145376506,1.0,0.0,168.01293969482683,1.078970934809092,26.208496913687046,118.91943375562325,-0.12010241316899486,0.23906501443454903,1.0,23.642626501218157,0.0,1.0,121.9683718842692,9053.256697248551,1.0,1.0,0.20555331277387554,20.40013685719942,0.03289426122718483,-43.46393016913236,1.0,24.237264616117567,1.0,0.0025530428312025215,5.065272350245205,0.9400701964322868,1.0,-0.5225566449266681,4.750107594319917
1.89,1.89,1.0,19.592782844215442,-0.059573841151462185,7.33002730381971,-0.0024061340022249315,0.011826530288869076,0.0017930418629630047,20.919129735671962,0.012201282663414468,1.0,0.0,197.46634389820812,1.084032063446249,24.306713881600004,122.45705435649289,0.23060596114578932,0.26662651705281004,1.0,23.642626501218157,0.0,1.0,122.62698443385935,9270.32906453935,1.0,1.0,0.20555331277387554,20.40013685719942,0.03289426122718483,-43.46393016913236,1.0,24.237264616117567,1.0,0.0025530428312025215,5.065272350245205,0.9400701964322868,1.0,-0.5225566449266681,4.750107594319917
1.92,1.92,1.0,19.502936092876002,-0.08308658735646747,7.359994790181451,-0.0003528862841065466,0.005915434434084386,0.003111678514843899,20.845645658873273,0.006693238114186804,1.0,0.0,197.46634389820812,1.084032063446249,24.306713881600004,122.45705435649289,0.23060596114578932,0.26662651705281004,1.0,24.137198397375865,0.0,1.0,123.42934742299367,9309.448367494688,1.0,1.0,0.5485986050107547,20.43697977264354,-0.07620971227106328,-43.434729072326945,1.0,24.186637340754565,1.0,-0.008079057992653918,5.114386901909943,0.9400662826699041,1.0,-0.2966262797826869,4.939260819457201
1.95,1.95,1.0,19.53277298738497,-0.08867701103510481,7.487541020649613,0.004243937088053086,0.008265635804500102,-0.0030434801326569426,20.91889946256525,0.009777244426619603,1.0,0.0,197.46634389820812,1.084032063446249,24.306713881600004,122.45705435649289,0.23060596114578932,0.26662651705281004,1.0,24.137198397375865,0.0,1.0,123.91941690896532,9239.122914284084,1.0,1.0,0.5485986050107547,20.43697977264354,-0.07620971227106328,-43.434729072326945,1.0,24.186637340754565,1.0,-0.008079057992653918,5.114386901909943,0.9400662826699041,1.0,-0.2966262797826869,4.939260819457201
1.98,1.98,1.0,19.508895388503458,0.006587002876667933,7.420306342869677,-0.0019000339986523414,0.005773850140475028,0.0011497018515467903,20.872421730364938,0.006186217664142479,1.0,0.0,197.46634389820812,1.084032063446249,24.306713881600004,122.45705435649289,0.23060596114578932,0.26662651705281004,1.0,24.034843422156758,0.0,1.0,124.53363163920528,9422.365405851931,1.0,1.0,-0.1447953691701062,20.442709165576808,-0.061087071216301386,-43.37058797455615,1.0,23.547647424372936,1.0,-0.01349884706599481,5.16023487017209,0.9400697689111953,1.0,-0.09113166905457058,4.581431900442071
2.01,2.01,1.0,19.49145104806001,0.034777439238756216,7.544766979211382,0.0012879563060053613,0.007548224966237601,-8.431591336293012e-05,20.900750756845987,0.0076577830186260725,1.0,0.0,197.46634389820812,1.084032063446249,24.306713881600004,122.45705435649289,0.23060596114578932,0.26662651705281004,1.0,24.034843422156758,0.0,1.0,124.91958261222146,9659.824609719819,1.0,1.0,-0.1447953691701062,20.442709165576808,-0.061087071216301386,-43.37058797455615,1.0,23.547647424372936,1.0,-0.01349884706599481,5.16023487017209,0.9400697689111953,1.0,-0.09113166905457058,4.581431900442071
2.04,2.04,1.0,19.473098180637624,-0.014224252654173625,7.643083846283925,0.0005886206893400044,0.007082185496489418,-0.0019378538881764317,20.919332823095534,0.0073660778854506195,1.0,0.0,197.46634389820812,1.084032063446249,24.306713881600004,122.45705435649289,0.23060596114578932,0.26662651705281004,1.0,24.754756609931974,0.0,1.0,125.0346050049665,9567.234508121152,1.0,1.0,0.38082055530277426,20.44840757099844,0.016744399695213127,-43.42079397617477,1.0,23.99917716891116,1.0,0.013820311149064885,5.225213309548763,0.9400796065519251,1.0,0.8375369841038617,4.664711163397867
2.07,2.07,1.0,19.42316163603219,-0.04010615744160664,7.604020457768795,-0.002555625871460416,0.009581612414416598,0.00019389580652291182,20.858617968730904,0.009918473453045447,1.0,0.0,197.46634389820812,1.084032063446249,24.306713881600004,122.45705435649289,0.23060596114578932,0.26662651705281004,1.0,24.754756609931974,0.0,1.0,126.75789396441927,9723.370844531584,1.0,1.0,0.38082055530277426,20.44840757099844,0.016744399695213127,-43.42079397617477,1.0,23.99917716891116,1.0,0.013820311149064885,5.225213309548763,0.9400796065519251,1.0,0.8375369841038617,4.664711163397867
2.1,2.1,1.0,19.36376637501603,0.041111378195615556,7.725129563137828,0.0013997125423812942,0.007276590568214058,0.003592067820366542,20.847895940331355,0.008234738412653686,1.0,0.0,225.83267815746436,0.566155751154113,23.25088142505031,126.53598829262098,0.07519759705345622,-0.2290921017956993,1.0,24.262488665176427,0.0,1.0,125.98961113434395,9868.119154256648,1.0,1.0,1.2642408181950915,20.514127511008358,-0.05097631030971249,-43.45287742295296,1.0,23.721334572141263,1.0,-0.0038607211698143437,5.252650933818107,0.9400947511107659,1.0,-0.10370426286289645,4.872694449541318
2.13,2.13,1.0,19.429557790326903,-0.017392723532187678,7.82364053482663,0.0009112016338965498,0.009435848817382457,-0.0002478537285706779,20.945581148601892,0.00948298280041043,1.0,0.0,225.83267815746436,0.566155751154113,23.25088142505031,126.53598829262098,0.07519759705345622,-0.2290921017956993,1.0,24.262488665176427,0.0,1.0,127.47186002597735,9751.180948467956,1.0,1.0,1.2642408181950915,20.514127511008358,-0.05097631030971249,-43.45287742295296,1.0,23.721334572141263,1.0,-0.0038607211698143437,5.252650933818107,0.9400947511107659,1.0,-0.10370426286289645,4.872694449541318
2.16,2.16,1.0,19.38677736057102,-0.0022233666103616072,7.86060392808476,-0.003229244183106655,0.006599601608096183,0.0015402365204692681,20.919757060872616,0.0075070025921602805,1.0,0.0,225.83267815746436,0.566155751154113,23.25088142505031,126.53598829262098,0.07519759705345622,-0.2290921017956993,1.0,23.196454273216027,0.0,1.0,127.60367121753056,9809.261254148387,1.0,1.0,-0.19190255021540337,20.529076058466615,0.049331040040509595,-43.41466799419633,1.0,23.72904154919267,1.0,0.01008789561645769,5.298333505217985,0.9401141628364672,1.0,-0.16005779986626814,4.849213517342434
2.19,2.19,1.0,19.30982029293867,0.00991870945697767,7.938219543156016,-0.0004532837566625489,0.0008230105555278302,-0.0001197979107000187,20.877849210149197,0.0009471874566169203,1.0,0.0,225.83267815746436,0.566155751154113,23.25088142505031,126.53598829262098,0.07519759705345622,-0.2290921017956993,1.0,23.196454273216027,0.0,1.0,127.99609817926257,9954.658627902993,1.0,1.0,-0.19190255021540337,20.529076058466615,0.049331040040509595,-43.41466799419633,1.0,23.72904154919267,1.0,0.01008789561645769,5.298333505217985,0.9401141628364672,1.0,-0.16005779986626814,4.849213517342434
2.2199999999999998,2.2199999999999998,1.0,19.266421505751484,0.06446839646464884,7.99721910375111,-0.0016616540134399911,0.0062133294219471865,0.0037032165202734663,20.860361147516784,0.007421614996888623,1.0,0.0,225.83267815746436,0.566155751154113,23.25088142505031,126.53598829262098,0.07519759705345622,-0.2290921017956993,1.0,23.633434308785777,0.0,1.0,129.21299241254,10075.799362606213,1.0,1.0,0.6289750329814405,20.413221108266917,0.02521206655180406,-43.48392118746991,1.0,23.718766904395473,1.0,0.010148054980072102,5.3488341174834435,0.940136807332245,1.0,0.06795286116781099,4.800361807528171
2.25,2.25,1.0,19.360709429730953,0.04279677235769576,8.04199043062038,-0.00032455766380753715,0.006278719786553876,-0.002405213752154487,20.964553686458174,0.006731471832278022,1.0,0.0,225.83267815746436,0.566155751154113,23.25088142505031,126.53598829262098,0.07519759705345622,-0.2290921017956993,1.0,23.633434308785777,0.0,1.0,129.41091684111473,10196.776213220674,1.0,1.0,0.6289750329814405,20.413221108266917,0.02521206655180406,-43.48392118746991,1.0,23.718766904395473,1.0,0.010148054980072102,5.3488341174834435,0.940136807332245,1.0,0.06795286116781099,4.800361807528171
2.28,2.28,1.0,19.236896892943374,0.08975848522256799,8.138816565935791,0.0020880502344816105,0.006117427199436474,0.002095842530399403,20.887953316429897,0.006795250196597242,1.0,0.0,225.83267815746436,0.566155751154113,23.25088142505031,126.53598829262098,0.07519759705345622,-0.2290921017956993,1.0,24.94968954968627,0.0,1.0,130.1595233925533,10437.584800029423,1.0,1.0,1.1488629846785174,20.558644502229672,0.000847778643342415,-43.4035743983532,1.0,24.012041602203716,1.0,-0.00019590345019271114,5.397368086880491,0.9401616561891444,1.0,0.20556768341703102,4.948792744289279
2.31,2.31,1.0,19.154816948003006,0.017788683914361673,8.210006007525823,-0.0017922547641050456,0.005314073666163863,0.0006363095469953765,20.840142211424297,0.005644151478164891,1.0,0.0,247.95379401421565,2.7460328961949054,22.386594456600378,130.5152715608531,0.21562627221836314,-0.456643800525941,1.0,24.94968954968627,0.0,1.0,130.03760195040869,10356.954146856815,1.0,1.0,1.1488629846785174,20.558644502229672,0.000847778643342415,-43.4035743983532,1.0,24.012041602203716,1.0,-0.00019590345019271114,5.397368086880491,0.9401616561891444,1.0,0.20556768341703102,4.948792744289279
2.34,2.34,1.0,19.18503575596195,0.011973033861616552,8.30307489261176,0.0010989405613646445,0.008138887454747286,-0.0010840373373279461,20.904707435967577,0.008283978289878376,1.0,0.0,247.95379401421565,2.7460328961949054,22.386594456600378,130.5152715608531,0.21562627221836314,-0.456643800525941,1.0,23.94548889908598,0.0,1.0,131.09276198224663,10470.751440465843,1.0,1.0,-0.8268447390397806,20.45330250922956,-0.008055526616211768,-43.341788377214364,1.0,23.92454058086064,1.0,0.005802470387778909,5.465509839145773,0.9401876876217177,1.0,0.021767456449150572,5.150374715010722
2.37,2.37,1.0,19.185975423059276,0.01703521638793303,8.302374678931455,0.0007917002549110282,0.007952952168650548,0.0005249061603467127,20.905295224947054,0.00800947963151412,1.0,0.0,247.95379401421565,2.7460328961949054,22.386594456600378,130.5152715608531,0.21562627221836314,-0.456643800525941,1.0,23.94548889908598,0.0,1.0,131.9423953217447,10400.271255292948,1.0,1.0,-0.8268447390397806,20.45330250922956,-0.008055526616211768,-43.341788377214364,1.0,23.92454058086064,1.0,0.005802470387778909,5.465509839145773,0.9401876876217177,1.0,0.021767456449150572,5.150374715010722
2.4,2.4,1.0,19.17071500964187,0.002780894704775898,8.34349867947163,0.002667111829248589,0.0004733415741635979,0.00343672582635242,20.907661082211668,0.004375913865819019,1.0,0.0,247.95379401421565,2.7460328961949054,22.386594456600378,130.5152715608531,0.21562627221836314,-0.456643800525941,1.0,24.527488243080214,0.0,1.0,132.19741611705896,10619.214994403777,1.0,1.0,-0.5091120220453089,20.56529510283579,-0.03923754558893441,-43.412502765151835,1.0,24.260457854162873,1.0,0.018799669081489043,5.532962796483129,0.9402138970285419,1.0,-0.06162184359268582,4.676521214772828
2.4299999999999997,2.4299999999999997,1.0,19.12918315996492,-0.021514806204044147,8.349829441992126,0.002377017484964677,0.004138461711140863,0.0014771997634841767,20.87212885559904,0.004995917993686892,1.0,0.0,247.95379401421565,2.7460328961949054,22.386594456600378,130.5152715608531,0.21562627221836314,-0.456643800525941,1.0,24.527488243080214,0.0,1.0,131.99975001643168,10678.24416209696,1.0,1.0,-0.5091120220453089,20.56529510283579,-0.03923754558893441,-43.412502765151835,1.0,24.260457854162873,1.0,0.018799669081489043,5.532962796483129,0.9402138970285419,1.0,-0.06162184359268582,4.676521214772828
2.46,2.46,1.0,19.0139114249553,0.007668659054939425,8.606237269356027,0.0008863692501038589,-0.0020875498997803173,-0.002402541414156954,20.87094167546903,0.0033038947135678805,1.0,0.0,247.95379401421565,2.7460328961949054,22.386594456600378,130.5152715608531,0.21562627221836314,-0.456643800525941,1.0,24.251432455960312,0.0,1.0,133.2282777397555,10855.775264558866,1.0,1.0,-0.4024013889485087,20.56119656365875,-0.08792465726667713,-43.41462228238444,1.0,24.08054007221064,1.0,-0.00790504997361721,5.57185256149321,0.9402391960537709,1.0,0.18800193183145195,4.22662116269738
2.4899999999999998,2.4899999999999998,1.0,19.032471538697042,-0.06252139806006736,8.568797525105854,-0.001095884946139046,-0.00040113017632962655,-0.0003033408653971769,20.872545911382936,0.0012057715016354986,1.0,0.0,247.95379401421565,2.7460328961949054,22.386594456600378,130.5152715608531,0.21562627221836314,-0.456643800525941,1.0,24.251432455960312,0.0,1.0,133.90787693215123,10943.888870880804,1.0,1.0,-0.4024013889485087,20.56119656365875,-0.08792465726667713,-43.41462228238444,1.0,24.08054007221064,1.0,-0.00790504997361721,5.57185256149321,0.9402391960537709,1.0,0.18800193183145195,4.22662116269738
2.52,2.52,1.0,19.053870376826893,-0.07558373205902659,8.750729320550535,0.0018008038850368278,-0.005794022482374447,0.0020254796107378407,20.967378302473016,0.006396573990202803,1.0,0.0,278.5883135704872,-0.3440415337469612,19.427722167731083,134.31185170507237,-0.06284186796440952,-0.26369451914190833,1.0,23.55259513424391,0.0,1.0,133.8711919554542,11220.738817151285,1.0,1.0,1.1857093564597825,20.51041813908779,0.044464107026134896,-43.36113081934577,1.0,23.945900926276874,1.0,-0.0012016444694733838,5.623968420793459,0.940262358042423,1.0,0.17717649954510928,4.644136326861053
2.55,2.55,1.0,18.959621999090977,0.014078077443032595,8.749346433707503,0.0011160774710953897,-0.007058501272301546,0.0007120782778919961,20.881056667652363,0.007181582319128205,1.0,0.0,278.5883135704872,-0.3440415337469612,19.427722167731083,134.31185170507237,-0.06284186796440952,-0.26369451914190833,1.0,23.55259513424391,0.0,1.0,134.59731859089771,10975.530550383084,1.0,1.0,1.1857093564597825,20.51041813908779,0.044464107026134896,-43.36113081934577,1.0,23.945900926276874,1.0,-0.0012016444694733838,5.623968420793459,0.940262358042423,1.0,0.17717649954510928,4.644136326861053
2.58,2.58,1.0,18.988501675005455,-0.036478384138906146,8.762712851934468,-0.0015042144320025572,-0.003319877812874782,-0.003688796636534424,20.91290661432915,0.0051856986391006854,1.0,0.0,278.5883135704872,-0.3440415337469612,19.427722167731083,134.31185170507237,-0.06284186796440952,-0.26369451914190833,1.0,23.909086742784012,0.0,1.0,136.26773901417135,11380.602734277112,1.0,1.0,-0.3452342156197893,20.515917333789087,-0.041222404820328164,-43.42193234074722,1.0,23.712837444395255,1.0,-0.002479408169375903,5.657961510911462,0.9402820527873023,1.0,0.12006195311984323,4.877742882885512
2.61,2.61,1.0,18.8948147407092,0.017952961475643184,8.92682203817156,0.0001858287197270408,-0.003462930418505439,-0.0018238488125027809,20.897428025853632,0.003918270522482266,1.0,0.0,278.5883135704872,-0.3440415337469612,19.427722167731083,134.31185170507237,-0.06284186796440952,-0.26369451914190833,1.0,23.909086742784012,0.0,1.0,135.44347689918982,11140.741691679024,1.0,1.0,-0.3452342156197893,20.515917333789087,-0.041222404820328164,-43.42193234074722,1.0,23.712837444395255,1.0,-0.002479408169375903,5.657961510911462,0.9402820527873023,1.0,0.12006195311984323,4.877742882885512
2.6399999999999997,2.6399999999999997,1.0,18.847632159780193,-0.02226071231787174,8.992255133071463,0.0009720465690649371,-0.007287254943336737,-0.0004419180443893157,20.88287302906244,0.007365069633043091,1.0,0.0,278.5883135704872,-0.3440415337469612,19.427722167731083,134.31185170507237,-0.06284186796440952,-0.26369451914190833,1.0,24.18710740740839,0.0,1.0,136.46042827335063,11465.764810925926,1.0,1.0,1.3459109615586782,20.541026256323757,0.02178746435471725,-43.39266732879528,1.0,23.813396013552467,1.0,-0.006549083507980497,5.702171301775536,0.9402968717346639,1.0,-0.17484114516770619,4.703852612270473
2.67,2.67,1.0,18.912375988365927,-0.05694627850182402,9.118414416655877,-5.1391108893179186e-05,-0.006339169327835938,0.0003573074149101096,20.995873163024992,0.00634943914072723,1.0,0.0,278.5883135704872,-0.3440415337469612,19.427722167731083,134.31185170507237,-0.06284186796440952,-0.26369451914190833,1.0,24.18710740740839,0.0,1.0,137.24141483453948,11577.134738263483,1.0,1.0,1.3459109615586782,20.541026256323757,0.02178746435471725,-43.39266732879528,1.0,23.813396013552467,1.0,-0.006549083507980497,5.702171301775536,0.9402968717346639,1.0,-0.17484114516770619,4.703852612270473
2.6999999999999997,2.6999999999999997,1.0,18.88980986970579,0.04550758898109062,9.149299592270292,-0.003825859579287832,-0.007981435314201197,-0.00024796452372298613,20.98896545529118,0.008854490250727683,1.0,0.0,278.5883135704872,-0.3440415337469612,19.427722167731083,134.31185170507237,-0.06284186796440952,-0.26369451914190833,1.0,23.58398388281844,0.0,1.0,137.947521934823,11779.251559612825,1.0,1.0,0.28213964576416684,20.428678512361625,0.016091909492770822,-43.40138491102253,1.0,23.73118629617908,1.0,0.0011945283160459369,5.74661221806428,0.9403053468498617,1.0,-0.3561514070170107,5.637725205555878
2.73,2.73,1.0,18.885330620310036,0.057966280400081754,9.219572093499513,-0.0007422300630782248,-0.009776477145876102,-0.0011268588578505591,21.01569847317282,0.009869155066969568,1.0,0.0,307.0960552480222,-1.7314291718918295,24.385258408167864,138.0151467710913,-0.17805452253143808,0.2469720995650188,1.0,23.58398388281844,0.0,1.0,137.5930896840327,11734.219633999439,1.0,1.0,0.28213964576416684,20.428678512361625,0.016091909492770822,-43.40138491102253,1.0,23.73118629617908,1.0,0.0011945283160459369,5.74661221806428,0.9403053468498617,1.0,-0.3561514070170107,5.637725205555878
2.76,2.76,1.0,18.822539347062353,-0.038700651021149,9.298658946301726,0.0007739677131526091,-0.008629153959671908,-0.00203391006750787,20.994154982083398,0.008899332235816007,1.0,0.0,307.0960552480222,-1.7314291718918295,24.385258408167864,138.0151467710913,-0.17805452253143808,0.2469720995650188,1.0,24.41196212554569,0.0,1.0,138.99214572191897,11844.7327702199,1.0,1.0,-0.7393815471011034,20.47548101240758,0.0400778213824563,-43.408357803138976,1.0,23.958634474481414,1.0,0.006037965286502384,5.797872776451523,0.9403059661948366,1.0,0.20462826001494872,4.767802050001274
2.79,2.79,1.0,18.77832502767356,0.015669916557492707,9.342707603536363,0.0024028661263010907,-0.008956929920915546,-0.0017372059781467866,20.974077375570356,0.009434948004076456,1.0,0.0,307.0960552480222,-1.7314291718918295,24.385258408167864,138.0151467710913,-0.17805452253143808,0.2469720995650188,1.0,24.41196212554569,0.0,1.0,139.46182171437076,12048.96080265869,1.0,1.0,-0.7393815471011034,20.47548101240758,0.0400778213824563,-43.408357803138976,1.0,23.958634474481414,1.0,0.006037965286502384,5.797872776451523,0.9403059661948366,1.0,0.20462826001494872,4.767802050001274
2.82,2.82,1.0,18.7119470451733,-0.06054474229818371,9.506231291603644,0.000782528196341349,-0.008705305464973445,0.002678710709427312,20.98830772731937,0.009141672969504343,1.0,0.0,307.0960552480222,-1.7314291718918295,24.385258408167864,138.0151467710913,-0.17805452253143808,0.2469720995650188,1.0,24.035767848338338,0.0,1.0,140.15530028073405,11976.266018334678,1.0,1.0,-0.8359526776482145,20.404310505495403,0.0036041208774439796,-43.50458183600774,1.0,24.04654669444703,1.0,-0.020549707218622832,5.854369552965315,0.9402971871287003,1.0,0.3253822691670156,4.601836915698538
2.85,2.85,1.0,18.66488108738525,-0.017108801531292076,9.701250834066112,-0.0016677300066916402,-0.010034431834374434,-0.00012332175594963958,21.035502049221215,0.010172824281850998,1.0,0.0,307.0960552480222,-1.7314291718918295,24.385258408167864,138.0151467710913,-0.17805452253143808,0.2469720995650188,1.0,24.035767848338338,0.0,1.0,140.51311894387217,12049.158555969583,1.0,1.0,-0.8359526776482145,20.404310505495403,0.0036041208774439796,-43.50458183600774,1.0,24.04654669444703,1.0,-0.020549707218622832,5.854369552965315,0.9402971871287003,1.0,0.3253822691670156,4.601836915698538
2.88,2.88,1.0,18.66835060296702,-0.02374241831101317,9.637770651994215,0.0020976094970740432,-0.007101655485116481,0.0032937412082968427,21.00939078312761,0.008104456019914783,1.0,0.0,307.0960552480222,-1.7314291718918295,24.385258408167864,138.0151467710913,-0.17805452253143808,0.2469720995650188,1.0,22.85819679393042,0.0,1.0,141.20291537218745,12282.44190177402,1.0,1.0,0.3792784184019397,20.45947041646456,-0.023072163670456065,-43.536514843955516,1.0,23.897332212780974,1.0,0.011906538629968884,5.877108749716024,0.9402774474701788,1.0,0.06337431289250699,4.944743658543933
2.9099999999999997,2.9099999999999997,1.0,18.665841659573875,0.0829818820033489,9.707778967797116,-0.003920967867369998,-0.006389334205033588,0.00021218986260448488,21.03952241237021,0.007499506993019764,1.0,0.0,307.0960552480222,-1.7314291718918295,24.385258408167864,138.0151467710913,-0.17805452253143808,0.2469720995650188,1.0,22.85819679393042,0.0,1.0,141.90815953851381,12205.697590384712,1.0,1.0,0.3792784184019397,20.45947041646456,-0.023072163670456065,-43.536514843955516,1.0,23.897332212780974,1.0,0.011906538629968884,5.877108749716024,0.9402774474701788,1.0,0.06337431289250699,4.944743658543933
2.94,2.94,1.0,18.605456606800036,-0.03229231912508943,9.891879901948533,0.0005540671976661708,-0.010094527928859018,0.0006850041731429903,21.071624197863034,0.010132902608989573,1.0,0.0,335.736459510935,-0.7382420301120729,23.970620326867323,141.7768378005262,-0.16578356142238226,0.10946852564312062,1.0,22.702974664327726,0.0,1.0,141.87716976596144,12228.654480268622,1.0,1.0,-0.17875312163995194,20.472141052636427,-0.03548410017371443,-43.421885693164946,1.0,23.782414455750047,1.0,0.018992293762112894,5.929808575804014,0.9402451749353548,1.0,-0.25170496755845817,4.775163920572569
2.9699999999999998,2.9699999999999998,1.0,18.5364265169496,0.007476358487680565,9.88503833217578,0.0002446666908570601,-0.009758159524179256,0.000697050044432182,21.007454551725036,0.009786082865651004,1.0,0.0,335.736459510935,-0.7382420301120729,23.970620326867323,141.7768378005262,-0.16578356142238226,0.10946852564312062,1.0,22.702974664327726,0.0,1.0,141.94583166519257,12370.856789080215,1.0,1.0,-0.17875312163995194,20.472141052636427,-0.03548410017371443,-43.421885693164946,1.0,23.782414455750047,1.0,0.018992293762112894,5.929808575804014,0.9402451749353548,1.0,-0.25170496755845817,4.775163920572569
3.0,3.0,1.0,18.483622015942924,0.0145520591234217,9.988402796901266,0.0010392173531779258,-0.010721981930779022,0.0018238642702791594,21.009823536237036,0.010925536605013912,1.0,0.0,335.736459510935,-0.7382420301120729,23.970620326867323,141.7768378005262,-0.16578356142238226,0.10946852564312062,1.0,23.89247184260088,0.0,1.0,143.00591800238917,12374.635327837721,1.0,1.0,-2.0965209379939984,20.39356557814723,0.03613128816463465,-43.45172298656302,1.0,23.67199613260408,1.0,-0.005325179780686153,5.951132305489065,0.9401987951454619,1.0,-0.7157503137272165,5.15820322716019
