time_s,x_m,y_m,altitude_m,vx_mps,vy_mps,vz_mps,speed_mps,mass_kg,roll_deg,pitch_deg,yaw_deg,p_dps,q_dps,r_dps,alpha_deg,beta_deg,qbar_pa,mach,airspeed_mps,load_factor_g,density_kgpm3,pressure_pa,temperature_k,wind_x_mps,wind_y_mps,wind_z_mps,thrust_n,mass_flow_kgps,propulsion_throttle_actual,propulsion_health,energy_j_per_kg,target_distance_m,guidance_mode,pitch_command_deg,heading_command_deg,roll_command_deg
0.0,0.0,0.0,20.0,86.0,0.0,6.0,86.20904824900923,18.0,0.0,5.000000000000001,0.0,0.0,0.0,0.0,1.0090869015702202,0.0,4543.366193665201,0.2533941375411892,86.20904824900923,1.7400872986971718,1.2226496753673843,101084.96761777384,288.02,0.0,0.0,0.0,326.8,0.17539118863220368,0.86,nominal,3912.133,nan,pitch_program,12.000000000000002,0.0,0.0
0.03,2.5952546510678514,0.0,20.1729526389325,86.50848836892838,0.0,5.765087964416636,86.70037369650997,17.994738264341034,0.0,5.234794727757629,0.0,0.0,-7.826501877873444,0.0,1.4221340050852367,0.0,4595.22483836377,0.2548387870971885,86.70037369650997,1.7692997351253215,1.2226293655258118,101082.89391600437,288.01887580784694,0.0,0.0,0.0,332.605,0.1785066900092231,0.86,nominal,3956.306485553827,nan,pitch_program,11.987142857142857,0.0,0.0
0.06,5.205959611724756,0.0,20.339346846807565,87.02349868856348,0.0,5.546473595835538,87.20007278292668,17.98938306364076,0.0,5.516137720200073,0.0,0.0,-9.378118591582167,0.0,1.8693035772679327,0.0,4648.272509494541,0.2563080360461775,87.20007278292668,1.7992477268480958,1.2226098260849052,101080.89888232159,288.01779424549574,0.0,0.0,0.0,338.40999999999997,0.18162219138624247,0.86,nominal,4001.387202429101,nan,pitch_program,11.974285714285715,0.0,0.0
0.09,7.832298738915467,0.0,20.4996992732729,87.54463757302369,0.0,5.345080882177758,87.70765905796992,17.983934397899173,0.0,5.692279161692285,0.0,0.0,-5.871386007280908,0.0,2.198394340649243,0.0,4702.47220162928,0.25780045587266015,87.70765905796992,1.8293937324522545,1.2225909963480475,101078.97631857259,288.0167519547237,0.0,0.0,0.0,344.215,0.18473769276326188,0.86,nominal,4047.3501045927887,nan,pitch_program,11.961428571428572,0.0,0.0
0.12,10.474487831157443,0.0,20.654304478425516,88.07296974139918,0.0,5.153506838420599,88.22361719972189,17.978392267116273,0.0,5.782706032545111,0.0,0.0,-3.0142296540967823,0.0,2.4339159659036067,0.0,4757.890781980446,0.2593174718831616,88.22361719972189,1.8596568060250882,1.222572841701387,101077.1226898277,288.0157470208902,0.0,0.0,0.0,350.02,0.1878531941402813,0.86,nominal,4094.252850914883,nan,pitch_program,11.948571428571428,0.0,0.0
0.15,13.13276517316584,0.0,20.803334100112462,88.60924473361325,0.0,4.9676540562315505,88.74838499422827,17.972756671292064,0.0,5.861129007107175,0.0,0.0,-2.6140995601835373,0.0,2.6523444101715286,0.0,4814.59155094085,0.26086037121201017,88.74838499422827,1.8904527507189457,1.222555341967537,101075.33593522107,288.0147783283492,0.0,0.0,0.0,355.825,0.1909686955173007,0.86,nominal,4142.148935894748,nan,pitch_program,11.935714285714285,0.0,0.0
0.18,15.807367440406518,0.0,20.946985929206168,89.1534089080226,0.0,4.788394303123526,89.28190768528229,17.967027610426545,0.0,5.950274320343362,0.0,0.0,-2.9715110406492213,0.0,2.87589465434817,0.0,4872.58543086413,0.2624289933376542,89.28190768528229,1.9217417101078516,1.2225384738998606,101073.61368056596,288.01384459146016,0.0,0.0,0.0,361.63,0.19408419689432013,0.86,nominal,4191.0492795242835,nan,pitch_program,11.922857142857143,0.0,0.0
0.21,18.498524681986794,0.0,21.085501991948277,89.70524138600922,0.0,4.617202091403645,89.82398837323493,17.961205084519715,0.0,6.030249864834139,0.0,0.0,-2.6658519158624676,0.0,3.083789394312193,0.0,4931.867852566251,0.2640227600666576,89.82398837323493,1.95318817258041,1.222522209059284,101071.9530215774,288.0129442370523,0.0,0.0,0.0,367.435,0.19719969827133954,0.86,nominal,4240.952581746861,nan,pitch_program,11.91,0.0,0.0
0.24,21.20646882202242,0.0,21.219113428241748,90.26480466785416,0.0,4.4537145431157,90.37461222576519,17.955289093571576,0.0,6.08664632616532,0.0,0.0,-1.8798821961503287,0.0,3.261932170041461,0.0,4992.454116944207,0.2656416283354124,90.37461222576519,1.9846063666651999,1.222506520286875,101070.35118473227,288.0120757627164,0.0,0.0,0.0,373.24,0.20031519964835895,0.86,nominal,4291.873686179781,nan,pitch_program,11.897142857142857,0.0,0.0
0.27,23.931438776086974,0.0,21.348014230290065,90.83233180215187,0.0,4.2966934016106055,90.93389948090676,17.949279637582126,0.0,6.124711404980457,0.0,0.0,-1.2688360071739915,0.0,3.416435425276684,0.0,5054.374783738347,0.2672859519945801,90.93389948090676,2.016080283659034,1.2224913847872627,101068.80584208223,288.0112379075031,0.0,0.0,0.0,379.045,0.20343070102537836,0.86,nominal,4343.839541153301,nan,pitch_program,11.884285714285713,0.0,0.0
0.3,26.673678247543684,0.0,21.472377048422363,91.40798238189029,0.0,4.145427271076617,91.50193336967122,17.943176716551363,0.0,6.153881710905493,0.0,0.0,-0.972343551837268,0.0,3.5572501160296466,0.0,5117.656882682446,0.26895597606182375,91.50193336967122,2.047705208452784,1.2224767822724523,101067.31492172803,288.01042954918523,0.0,0.0,0.0,384.84999999999997,0.20654620240239774,0.86,nominal,4396.873991575788,nan,pitch_program,11.871428571428572,0.0,0.0
0.32999999999999996,29.43343250261388,0.0,21.592371097514075,91.99180850233982,0.0,3.9998016363904125,92.0787230833575,17.93698033047929,0.0,6.176501886196758,0.0,0.0,-0.7540058528357128,0.0,3.6868508733493246,0.0,5182.319619165754,0.2706517279220009,92.0787230833575,2.0794438781197084,1.2224626928591171,101065.87639312726,288.00964958786614,0.0,0.0,0.0,390.655,0.20966170377941715,0.86,nominal,4450.994448354253,nan,pitch_program,11.85857142857143,0.0,0.0
0.36,32.210948057249325,0.0,21.708162424254375,92.58385182118158,0.0,3.859710891343401,92.66427027830771,17.930690479365907,0.0,6.190770389713118,0.0,0.0,-0.4756167863367028,0.0,3.803559664502187,0.0,5248.381651926277,0.27237321280771465,92.66427027830773,2.1112168821429087,1.222449097037137,101064.48826387964,288.00889694424234,0.0,0.0,0.0,396.46,0.21277720515643656,0.86,nominal,4506.217844143445,nan,pitch_program,11.845714285714285,0.0,0.0
0.39,35.00647374012617,0.0,21.819907487039696,93.1841894292281,0.0,3.724835426177365,93.25860581487572,17.924307163211214,0.0,6.196481860372251,0.0,0.0,-0.19038235546211063,0.0,3.907426265578075,0.0,5315.865258267139,0.2741205217684985,93.25860581487572,2.143001505596517,1.2224359764233306,101063.14865668022,288.0081706013342,0.0,0.0,0.0,402.265,0.21589270653345596,0.86,nominal,4562.563975024964,nan,pitch_program,11.832857142857144,0.0,0.0
0.42,37.82026090297152,0.0,21.927752221396638,93.79290542817846,0.0,3.5948244785647416,93.86177002214968,17.91783038201521,0.0,6.1954826556827385,0.0,0.0,0.03330682298464651,0.0,4.000567120664431,0.0,5384.794177951197,0.27589377365881324,93.86177002214967,2.152944660921709,1.2224233138710972,101061.85582051013,288.0074696105609,0.0,0.0,0.0,404.1773684210526,0.21691906078826353,0.86,nominal,4620.0537271674175,nan,pitch_program,11.82,0.0,0.0
0.44999999999999996,40.65236841291433,0.0,22.03181438989389,94.40358366476039,0.0,3.468738949908356,94.46728935802078,17.911322810191564,0.0,6.189366117592097,0.0,0.0,0.203884603215075,0.0,4.08505264564364,0.0,5454.440333980893,0.27767394059850026,94.46728935802078,2.1520181047350424,1.222411095542653,101060.60834220669,288.00679320646566,0.0,0.0,0.0,404.14342105263154,0.21690084148196515,0.86,nominal,4678.092671912666,nan,pitch_program,11.807142857142857,0.0,0.0
0.48,43.50275934559751,0.0,22.132196148568738,95.01303108943941,0.0,3.3460586224950037,95.07193163656639,17.904815784947104,0.0,6.178657637711484,0.0,0.0,0.35694933039278887,0.0,4.1617149388157255,0.0,5524.4333186355325,0.27945152211784546,95.07193163656639,2.151148777984691,1.2223993094334247,101059.40499580039,288.0061407250343,0.0,0.0,0.0,404.1094736842105,0.2168826221756668,0.86,nominal,4736.378793914338,nan,pitch_program,11.794285714285714,0.0,0.0
0.51,46.37139817761636,0.0,22.228994371119605,95.6212944006285,0.0,3.2266074183621685,95.67571760004675,17.898309306281835,0.0,6.1636337230748595,0.0,0.0,0.5007971574235923,0.0,4.231000728942981,0.0,5594.773625245057,0.2812265792632129,95.67571760004675,2.150320682233597,1.2223879441597518,101058.24461873829,288.0055115365877,0.0,0.0,0.0,404.0755263157895,0.21686440286936848,0.86,nominal,4794.9134367914885,nan,pitch_program,11.781428571428572,0.0,0.0
0.54,49.25825079566627,0.0,22.322300428873028,96.22842060166367,0.0,3.110201925114165,96.27866995085502,17.891803374195753,0.0,6.1448777563127015,0.0,0.0,0.6251988976549542,0.0,4.293663439053015,0.0,5665.462042873447,0.282999178833615,96.27866995085503,2.1495304006674463,1.2223769889846783,101057.1261145155,288.0049050472123,0.0,0.0,0.0,404.0415789473684,0.2168461835630701,0.86,nominal,4853.6981312536445,nan,pitch_program,11.768571428571429,0.0,0.0
0.57,52.16328434037269,0.0,22.41220091252022,96.83445149021398,0.0,2.9966827882397693,96.88080874530279,17.885297988688862,0.0,6.123054143988113,0.0,0.0,0.7274537529478653,0.0,4.350518702111893,0.0,5736.49911757891,0.2847693798430513,96.88080874530279,2.1487775911605835,1.2223664337331568,101056.0484440162,288.0043206940686,0.0,0.0,0.0,404.0076315789474,0.21682796425677175,0.86,nominal,4912.734161650735,nan,pitch_program,11.755714285714285,0.0,0.0
0.6,55.086467010899625,0.0,22.498778513052468,97.43942235089789,0.0,2.8859200177416118,97.4821499682145,17.878793149761158,0.0,6.098637565414287,0.0,0.0,0.8138859647779559,0.0,4.402171086380816,0.0,5807.884972266862,0.28653722933298037,97.4821499682145,2.1480577840315314,1.2223562686885723,101055.01061494743,288.00375793966515,0.0,0.0,0.0,403.9736842105263,0.21680974495047337,0.86,nominal,4972.022427517756,nan,pitch_program,11.742857142857144,0.0,0.0
0.63,58.027767946912796,0.0,22.582112461119575,98.04336453377226,0.0,2.777798268903555,98.0827074071922,17.872288857412645,0.0,6.071968990201232,0.0,0.0,0.8889525231509732,0.0,4.449079441472602,0.0,5879.6195161321675,0.2883027678824426,98.08270740719219,2.1473653737707368,1.2223464845411238,101054.01167656787,288.0032162690027,0.0,0.0,0.0,403.9397368421053,0.21679152564417503,0.86,nominal,5031.563619329277,nan,pitch_program,11.73,0.0,0.0
0.6599999999999999,60.987157153280386,0.0,22.662278761802927,98.64630687891972,0.0,2.6722100227784478,98.68249372232059,17.86578511164332,0.0,6.043386965678393,0.0,0.0,0.9527341705187798,0.0,4.491692557342602,0.0,5951.702565448311,0.2900660327526934,98.68249372232057,2.1466973737820845,1.2223370723602227,101053.05071686853,288.0026951880483,0.0,0.0,0.0,403.9057894736842,0.21677330633787664,0.86,nominal,5091.3583196473555,nan,pitch_program,11.717142857142859,0.0,0.0
0.69,63.96460541038376,0.0,22.739350531223742,99.24827523677912,0.0,2.569058980693803,99.28151993962294,17.859281912453184,0.0,6.013229619535624,0.0,0.0,1.0052448946332992,0.0,4.530449451595107,0.0,6024.133777731224,0.2918270563990114,99.28151993962295,2.1460524363398963,1.222328023554936,101052.12685853329,288.00219422154703,0.0,0.0,0.0,403.8718421052631,0.21675508703157828,0.86,nominal,5151.4069526479,nan,pitch_program,11.704285714285714,0.0,0.0
0.72,66.96008417589233,0.0,22.81339838325089,99.84929218361891,0.0,2.468261734238342,99.8797950816801,17.852779259842237,0.0,5.981785667431118,0.0,0.0,1.048131763123385,0.0,4.565729715175899,0.0,6096.912600404433,0.29358586538588394,99.8797950816801,2.1454288426183745,1.2223193298285615,101051.23925429997,288.00171291050884,0.0,0.0,0.0,403.8378947368421,0.21673686772527995,0.86,nominal,5211.709746034311,nan,pitch_program,11.691428571428572,0.0,0.0
0.75,69.97356550264155,0.0,22.884490731999726,100.44937755830694,0.0,2.3697449582945227,100.47732651209755,17.84627715381048,0.0,5.949293863125278,0.0,0.0,1.0830601725531364,0.0,4.597854886641419,0.0,6170.038305576993,0.29534248140023944,100.47732651209755,2.144824619962291,1.2223109831430794,101050.38708333041,288.00125081024197,0.0,0.0,0.0,403.80394736842106,0.21671864841898159,0.86,nominal,5272.266762546295,nan,pitch_program,11.678571428571429,0.0,0.0
0.78,73.00502197198475,0.0,22.95269402204148,101.04854897810655,0.0,2.273443001391771,101.07412029625277,17.83977559435791,0.0,5.915968637785064,0.0,0.0,1.110840875990103,0.0,4.627115718401462,0.0,6243.510028398385,0.2970969223123352,101.07412029625277,2.1442383926003363,1.2223029756921053,101049.56954844798,288.0008074888567,0.0,0.0,0.0,403.77,0.21670042911268322,0.86,nominal,5333.077933661941,nan,pitch_program,11.665714285714285,0.0,0.0
0.8099999999999999,76.05442663112994,0.0,23.018072949721393,101.64682197150633,0.0,2.1792975893304716,101.67018124745309,17.83327458148453,0.0,5.8820067572918155,0.0,0.0,1.1320627162540056,0.0,4.6537792053379325,0.0,6317.326767913784,0.29884920231194734,101.6701812474531,2.1436693190167038,1.222295299874876,101048.78587348117,288.0003825258268,0.0,0.0,0.0,403.73605263157896,0.21668220980638486,0.86,nominal,5394.143062537366,nan,pitch_program,11.652857142857142,0.0,0.0
0.84,79.12175293307958,0.0,23.080690679226816,102.24421006498771,0.0,2.087257650180746,102.26551293721444,17.82677411519034,0.0,5.84758102674826,0.0,0.0,1.1475243859743338,0.0,4.678082577557583,0.0,6391.487383648301,0.30059933193910915,102.26551293721444,2.143116633779313,1.2222879482708706,101048.03530067162,287.999975510585,0.0,0.0,0.0,403.7021052631579,0.2166639905000865,0.86,nominal,5455.461823405227,nan,pitch_program,11.64,0.0,0.0
0.87,82.20697468326959,0.0,23.140609029890275,102.84072500633394,0.0,1.9972783554486389,102.86011783318908,17.82027419547534,0.0,5.812840969159052,0.0,0.0,1.1580019551170164,0.0,4.700234694007275,0.0,6465.990608310695,0.30234731848999236,102.86011783318908,2.14257960105358,1.2222809136177937,101047.31708842579,287.9995860413057,0.0,0.0,0.0,403.66815789473685,0.21664577119378817,0.86,nominal,5517.033773871744,nan,pitch_program,11.627142857142857,0.0,0.0
0.8999999999999999,85.31006599294203,0.0,23.19788863545505,103.43637698908134,0.0,1.9093201854925008,103.45399744909852,17.813774822339525,0.0,5.777918819119527,0.0,0.0,1.1640717040216648,0.0,4.720422711426754,0.0,6540.835062642081,0.30409316645800494,103.45399744909852,2.142057673968009,1.2222741887928608,101046.63050940374,287.9992137238695,0.0,0.0,0.0,403.6342105263158,0.2166275518874898,0.86,nominal,5578.858368685927,nan,pitch_program,11.614285714285714,0.0,0.0
0.9299999999999999,88.43100123682034,0.0,23.25258908838077,104.03117479594367,0.0,1.8233484308572998,104.04715243063836,17.8072759957829,0.0,5.742932259988957,0.0,0.0,1.1662186739230227,0.0,4.738815231420147,0.0,6616.019262791399,0.3058368777866562,104.04715243063836,2.1415504759699906,1.2222677667958424,101045.97484878733,287.99885817092553,0.0,0.0,0.0,403.6002631578947,0.21660933258119142,0.86,nominal,5640.934967245817,nan,pitch_program,11.601428571428572,0.0,0.0
0.96,91.56975501442575,0.0,23.304769071641687,104.62512592018055,0.0,1.7393327753639223,104.63958262682957,17.800777715805463,0.0,5.70798458959458,0.0,0.0,1.1649223825958326,0.0,4.7555628160654,0.0,6691.541626217276,0.307578452079619,104.63958262682957,2.1410576946949793,1.2222616407335687,101045.34940269779,287.9985190010343,0.0,0.0,0.0,403.56631578947366,0.21659111327489305,0.86,nominal,5703.262839774961,nan,pitch_program,11.588571428571429,0.0,0.0
0.99,94.72630211548194,0.0,23.354486474856515,105.21823670187304,0.0,1.6572467738276209,105.23128717981523,17.794279982407215,0.0,5.6731660212822925,0.0,0.0,1.1606189794607285,0.0,4.770799683602518,0.0,6767.400480288076,0.30931788686497386,105.23128717981523,2.140579064223057,1.2222558038062856,101044.75347680233,287.9981958379134,0.0,0.0,0.0,403.53236842105264,0.21657289396859472,0.86,nominal,5765.841175549024,nan,pitch_program,11.575714285714287,0.0,0.0
1.02,97.90061748911593,0.0,23.401798496058145,105.81051245446614,0.0,1.577067373387702,105.82226461088865,17.787782795588157,0.0,5.638555753364656,0.0,0.0,1.1536756323351713,0.0,4.784646134693512,0.0,6843.59407079865,0.31105517784834064,105.82226461088865,2.1401143882840765,1.2222502492956924,101044.18638509222,287.9978883097756,0.0,0.0,0.0,403.49842105263156,0.21655467466229633,0.86,nominal,5828.669090909837,nan,pitch_program,11.562857142857142,0.0,0.0
1.05,101.09267621616097,0.0,23.446761732442436,106.40195756816786,0.0,1.4987745461430046,106.41251288959565,17.781286155348287,0.0,5.604223268942223,0.0,0.0,1.1444161816571035,0.0,4.797210136274497,0.0,6920.120568670301,0.3127903191162334,106.41251288959566,2.1396635250545297,1.2222449705542713,101043.64744879311,287.9975960487391,0.0,0.0,0.0,403.46447368421053,0.216536455355998,0.86,nominal,5891.745635682636,nan,pitch_program,11.55,0.0,0.0
1.08,104.3024534842524,0.0,23.48943226118265,106.99257560304746,0.0,1.422350958007123,107.00202949674164,17.774790061687607,0.0,5.570229151415855,0.0,0.0,1.133137284119139,0.0,4.808588391567067,0.0,6996.978076163459,0.314523303321476,107.00202949674164,2.1392263598600456,1.2222399609957866,101043.13599539455,287.9973186903023,0.0,0.0,0.0,403.43052631578945,0.21651823604969964,0.86,nominal,5955.069799094912,nan,pitch_program,11.537142857142857,0.0,0.0
1.1099999999999999,107.5299245655923,0.0,23.529865710504097,107.5823693779969,0.0,1.3477816440482677,107.59081148659395,17.768294514606115,0.0,5.536626071893452,0.0,0.0,1.1201026828529699,0.0,4.818867569553641,0.0,7074.164633267145,0.31625412186622764,107.59081148659395,2.1388027992693774,1.2222352140869341,101042.65135779706,287.9970558728817,0.0,0.0,0.0,403.3965789473684,0.21650001674340127,0.86,nominal,6018.640515741814,nan,pitch_program,11.524285714285714,0.0,0.0
1.14,110.7750647971157,0.0,23.568117322097443,108.17134105078021,0.0,1.2750537197781915,108.17885554355125,17.761799514103814,0.0,5.503459781100799,0.0,0.0,1.1055430572922496,0.0,4.828125511435398,0.0,7151.6782236345825,0.31798276506872375,108.17885554355126,2.1383927706663184,1.2222307233399965,101042.19287356199,287.99680723740636,0.0,0.0,0.0,403.3626315789474,0.21648179743710294,0.86,nominal,6082.456671093011,nan,pitch_program,11.51142857142857,0.0,0.0
1.17,114.03784956276526,0.0,23.60424200607639,108.75949218831867,0.0,1.2041561326316284,108.76615803204922,17.7553050601807,0.0,5.4707698670422245,0.0,0.0,1.089663831511712,0.0,4.836432174197293,0.0,7229.516779872075,0.31970922231011656,108.76615803204922,2.1379962136699806,1.2222264823063798,101041.75988425114,287.9965724269605,0.0,0.0,0.0,403.3286842105263,0.21646357813080455,0.86,nominal,6146.517106395242,nan,pitch_program,11.498571428571429,0.0,0.0
1.2,117.31825427768102,0.0,23.638294389146875,109.34682383052541,0.0,1.1350794356828542,109.35271504242256,17.748811152836776,0.0,5.438590401089976,0.0,0.0,1.0726488932710545,0.0,4.843850444530882,0.0,7307.678188509746,0.32143348216941203,109.35271504242256,2.1376130722230373,1.2222224845709522,101041.35173484859,287.9963510864705,0.0,0.0,0.0,403.2947368421053,0.21644535882450622,0.86,nominal,6210.8206232459615,nan,pitch_program,11.485714285714286,0.0,0.0
1.23,120.6162543741399,0.0,23.67032885655242,109.93333654862948,0.0,1.0678155801848148,109.9385224333469,17.74231779207204,0.0,5.406950570199509,0.0,0.0,1.0546610564834584,0.0,4.8504369233272095,0.0,7386.160294716534,0.3231555325483376,109.93852243334692,2.13724329179181,1.2222187237471067,101040.96777325614,287.9961428624324,0.0,0.0,0.0,403.26078947368416,0.2164271395182078,0.86,nominal,6275.36598789487,nan,pitch_program,11.472857142857142,0.0,0.0
1.26,123.93182528906256,0.0,23.700399588490267,110.51903049742182,0.0,1.0023577312615786,110.5235758700897,17.735824977886494,0.0,5.375875240293247,0.0,0.0,1.0358443556009247,0.0,4.856242624160518,0.0,7464.960906637296,0.32487536078387547,110.52357587008969,2.1368868166567765,1.2222151934724723,101040.60734985532,287.9959474026748,0.0,0.0,0.0,403.22684210526313,0.21640892021190947,0.86,nominal,6340.151935180205,nan,pitch_program,11.46,0.0,0.0
1.29,127.26494245292444,0.0,23.728560591604218,111.10390546206281,0.0,0.9387001037983241,111.10787085894438,17.729332710280136,0.0,5.345385433480092,0.0,0.0,1.016326917755548,0.0,4.861313570635875,0.0,7544.077799381091,0.32659295374956343,111.10787085894438,2.1365435860995636,1.222211887405216,101040.26981712926,287.99576435615455,0.0,0.0,0.0,403.1928947368421,0.21639070090561113,0.86,nominal,6405.177172129586,nan,pitch_program,11.447142857142858,0.0,0.0
1.3199999999999998,130.61558127993703,0.0,23.754865726024914,111.68796090041985,0.0,0.87683781402319,111.69140277857475,17.72284098925297,0.0,5.315498757870546,0.0,0.0,0.9962225429065731,0.0,4.8656913342638575,0.0,7623.508718739718,0.32830829794770133,111.69140277857474,2.136213531822654,1.2222087992208495,101039.95452933683,287.99559337278083,0.0,0.0,0.0,403.158947368421,0.21637248159931274,0.86,nominal,6470.44038129503,nan,pitch_program,11.434285714285714,0.0,0.0
1.3499999999999999,133.98371715937412,0.0,23.779368728407466,112.27119598123673,0.0,0.8167667460850152,112.27416690839783,17.71634981480499,0.0,5.286229798722792,0.0,0.0,0.9756319928083319,0.0,4.86941352242705,0.0,7703.251384638362,0.33002137959284045,112.27416690839785,2.135896576420698,1.2222059226095223,101039.66084223546,287.9954341032653,0.0,0.0,0.0,403.125,0.2163542622930144,0.86,nominal,6535.940223827825,nan,pitch_program,11.42142857142857,0.0,0.0
1.38,137.36932544792558,0.0,23.80212323139732,112.85360961838172,0.0,0.7584834329952133,112.8561584540969,17.7098591869362,0.0,5.2575904619144485,0.0,0.0,0.9546445801546682,0.0,4.8725142081913715,0.0,7783.303494315242,0.3317321846868267,112.8561584540969,2.1355926317766523,1.2222032512737255,101039.38811284685,287.99528619899587,0.0,0.0,0.0,403.0910526315789,0.21633604298671602,0.86,nominal,6601.675342295297,nan,pitch_program,11.40857142857143,0.0,0.0
1.41,140.7723814629752,0.0,23.823182779894825,113.43520050165428,0.0,0.7019849499168124,113.43737257059693,17.703369105646598,0.0,5.229590277159452,0.0,0.0,0.9333395104085279,0.0,4.875024310805284,0.0,7863.662725261648,0.3334406990863751,113.43737257059693,2.135301597665879,1.2222007789263751,101039.13569926082,287.9951493119307,0.0,0.0,0.0,403.0571052631579,0.2163178236804177,0.86,nominal,6667.644363268664,nan,pitch_program,11.395714285714286,0.0,0.0
1.44,144.192860476711,0.0,23.8426008444464,114.01596712452621,0.0,0.6472688183858802,114.01780438275549,17.696879570936186,0.0,5.202236670313664,0.0,0.0,0.9117869121775064,0.0,4.876971937289305,0.0,7944.326737944281,0.33514690856392026,114.01780438275549,2.1350233608858247,1.2221984992892274,101038.9029604734,287.99502309451105,0.0,0.0,0.0,403.02315789473687,0.21629960437411935,0.86,nominal,6733.845899703339,nan,pitch_program,11.382857142857143,0.0,0.0
1.47,147.630737710983,0.0,23.860430832067177,114.59590780906704,0.0,0.594332920692497,114.59744900391462,17.690390582804962,0.0,5.175535205697104,0.0,0.0,0.8900488366606064,0.0,4.878382686735003,0.0,8025.293178318636,0.3368507988621708,114.5974490039146,2.1347577945999094,1.222196406091608,101038.68925625671,287.9949071995915,0.0,0.0,0.0,402.9892105263158,0.21628138506782096,0.86,nominal,6800.278553121698,nan,pitch_program,11.37,0.0,0.0
1.5,151.08598833283298,0.0,23.87672609476898,115.17502072833312,0.0,0.5431754233934359,115.17630155250056,17.68390214125293,0.0,5.149489800495916,0.0,0.0,0.8681801883230681,0.0,4.87927992016427,0.0,8106.559680148464,0.33855235574291814,115.17630155250056,2.1345047577883474,1.2221944930693989,101038.49394705535,287.99480128038397,0.0,0.0,0.0,402.9552631578947,0.2162631657615226,0.86,nominal,6866.940915613538,nan,pitch_program,11.357142857142858,0.0,0.0
1.53,154.5585874506278,0.0,23.891539936036786,115.75330392649437,0.0,0.49379470892682503,115.7543571668641,17.677414246280083,0.0,5.124102915786035,0.0,0.0,0.8462295041739389,0.0,4.879685001245358,0.0,8188.123867148577,0.3402515650306665,115.7543571668641,2.1342640949191765,1.2221927539642687,101038.3163939077,287.99470499041576,0.0,0.0,0.0,402.9213157894737,0.21624494645522424,0.86,nominal,6933.831571670706,nan,pitch_program,11.344285714285714,0.0,0.0
1.56,158.0485101107353,0.0,23.90492561547417,116.33075533691577,0.0,0.4461893145794542,116.3316110185095,17.670926897886428,0.0,5.099375726713303,0.0,0.0,0.8242396485508339,0.0,4.879617510984469,0.0,8269.983354963037,0.3419484126515204,116.3316110185095,2.134035635789197,1.222191182523124,101038.15595838947,287.9946179834994,0.0,0.0,0.0,402.8873684210526,0.21622672714892588,0.86,nominal,7000.949099867891,nan,pitch_program,11.331428571428571,0.0,0.0
1.5899999999999999,161.55573129468706,0.0,23.916936351817423,116.90737279839239,0.0,0.40035787810844925,116.90805832385063,17.66444009607196,0.0,5.075308273525614,0.0,0.0,0.802248451385842,0.0,4.879095438622489,0.0,8352.135752990072,0.3436428846677363,116.90805832385063,2.1338191954583823,1.2221897724977508,101038.01200257706,287.99453991371314,0.0,0.0,0.0,402.8534210526316,0.21620850784262752,0.86,nominal,7068.292074400981,nan,pitch_program,11.31857142857143,0.0,0.0
1.6199999999999999,165.08022591677894,0.0,23.92762532449706,117.48315406972885,0.0,0.3562990893212896,117.48369435463245,17.657953840836683,0.0,5.05189959582789,0.0,0.0,0.7802892674446253,0.0,4.878135351617814,0.0,8434.57866606606,0.34533496730834645,117.48369435463246,2.1336145742912263,1.2221885176446186,101037.88388902729,287.9944704353907,0.0,0.0,0.0,402.8194736842105,0.21619028853632916,0.86,nominal,7135.859066494828,nan,pitch_program,11.305714285714286,0.0,0.0
1.65,168.62196882206385,0.0,23.937045673907797,118.05809684283014,0.0,0.3140116470244745,118.05851444713984,17.651468132180593,0.0,5.029147852043271,0.0,0.0,0.7583914694527385,0.0,4.87675254713572,0.0,8517.309696019292,0.34702464699621227,118.05851444713984,2.133421558097464,1.2221874117248466,101037.77098077376,287.9944092031196,0.0,0.0,0.0,402.78552631578947,0.21617206923003082,0.86,nominal,7203.648645690791,nan,pitch_program,11.292857142857143,0.0,0.0
1.68,172.18093478469737,0.0,23.945250500532445,118.63219875445095,0.0,0.27349422082161184,118.63251401030148,17.64498297010369,0.0,5.007050425540088,0.0,0.0,0.7365808925695674,0.0,4.874961186888582,0.0,8600.326443102958,0.34871191037182614,118.63251401030148,2.1332399183393216,1.222186448504299,101037.6726413364,287.9943558717465,0.0,0.0,0.0,402.75157894736844,0.21615384992373246,0.86,nominal,7271.659381023235,nan,pitch_program,11.28,0.0,0.0
1.71,175.7570985065996,0.0,23.952292863050594,119.20545739674077,0.0,0.23474541727165218,119.20568853279238,17.63849835460598,0.0,4.985604018919008,0.0,0.0,0.7148802290493769,0.0,4.872774417175627,0.0,8683.626507316723,0.35039674431416473,119.20568853279238,2.1330694123980107,1.2221856217538043,101037.5882347436,287.99431009639017,0.0,0.0,0.0,402.71763157894736,0.2161356306174341,0.86,nominal,7339.8898420939895,nan,pitch_program,11.267142857142858,0.0,0.0
1.74,179.3504346164008,0.0,23.958225775549735,119.77787032670676,0.0,0.19776374997140792,119.77803358922779,17.632014285687454,0.0,4.964804737825892,0.0,0.0,0.6933093773842528,0.0,4.870204475801827,0.0,8767.207489625303,0.3520791359588681,119.77803358922779,2.132909783894717,1.2221849252494705,101037.51712556444,287.9942715324589,0.0,0.0,0.0,402.68368421052634,0.21611741131113574,0.86,nominal,7408.338600052885,nan,pitch_program,11.254285714285714,0.0,0.0
1.77,182.9609176686419,0.0,23.963102203945024,120.34943507470392,0.0,0.16254761317632138,120.34954484553285,17.62553076334812,0.0,4.944648165405137,0.0,0.0,0.6718857542880524,0.0,4.867262787268191,0.0,8851.066993081979,0.3537590727139916,120.34954484553285,2.1327607630518717,1.2221843527731082,101037.45867895143,287.9942398356743,0.0,0.0,0.0,402.64973684210526,0.21609919200483738,0.86,nominal,7477.004228491779,nan,pitch_program,11.241428571428571,0.0,0.0
1.7999999999999998,186.58852214320345,0.0,23.966975061703202,120.92014915205131,0.0,0.12909525860598342,120.92021806356507,17.619047787587974,0.0,4.925129428425215,0.0,0.0,0.6506245722896093,0.0,4.863960047515929,0.0,8935.20262386404,0.35543654227355914,120.92021806356506,2.132622067087513,1.2221838981127253,101037.41226069108,287.9942146620989,0.0,0.0,0.0,402.6157894736842,0.216080972698539,0.86,nominal,7545.885304258916,nan,pitch_program,11.228571428571428,0.0,0.0
1.8299999999999998,190.23322244493937,0.0,23.969897204956688,121.49001005786381,0.0,0.09740477511620968,121.49004910506072,17.612565358407018,0.0,4.906243256014338,0.0,0.0,0.629539086062748,0.0,4.860306299386255,0.0,9019.611992226966,0.35711153262912504,121.49004910506072,2.1324934006380762,1.2221835550630902,101037.37723726119,287.9941956681678,0.0,0.0,0.0,402.58184210526315,0.21606275339224065,0.86,nominal,7614.980408200022,nan,pitch_program,11.215714285714286,0.0,0.0
1.8599999999999999,193.89499290349474,0.0,23.97192142708528,122.0590152851791,0.0,0.0674740709531133,122.05903393496868,17.60608347580525,0.0,4.887984031814272,0.0,0.0,0.6086408118199335,0.0,4.856310999803076,0.0,9104.29271338348,0.3587840320795332,122.05903393496867,2.132374456202725,1.2221833174263708,101037.35297589586,287.99418251072393,0.0,0.0,0.0,402.54789473684207,0.2160445340859423,0.86,nominal,7684.288125831845,nan,pitch_program,11.202857142857143,0.0,0.0
1.89,197.5738077732883,0.0,23.973100452835226,122.62716232645191,0.0,0.039300858331452165,122.62716862423046,17.59960213978267,0.0,4.870345840278879,0.0,0.0,0.5879397224895925,0.0,4.851983079583637,0.0,9189.24240831306,0.3604540292390451,122.62716862423046,2.132264914604358,1.2221831790128173,101037.33884465523,287.99417484705657,0.0,0.0,0.0,402.51394736842104,0.21602631477964393,0.86,nominal,7753.807047953523,nan,pitch_program,11.19,0.0,0.0
1.92,201.26964123364272,0.0,23.973486932038373,123.19444867848041,0.0,0.012882640104936127,123.19444935205954,17.59312135033928,0.0,4.853322507770365,0.0,0.0,0.5674444211248082,0.0,4.847330996689905,0.0,9274.458704507111,0.362121513043994,123.19444935205954,2.132164445463748,1.2221831336414948,101037.33421249999,287.9941723349417,0.0,0.0,0.0,402.48,0.2160080954733456,0.86,nominal,7823.535771200654,nan,pitch_program,11.177142857142858,0.0,0.0
1.95,204.9824673890474,0.0,23.973133432987964,123.76087184682278,0.0,-0.01178330168024207,123.76087240776825,17.58664110747508,0.0,4.836907639027865,0.0,0.0,0.5471622951591903,0.0,4.8423627836377285,0.0,9359.93923665465,0.3637864727581068,123.76087240776825,2.132072707683032,1.222183175141061,101037.33844937081,287.99417463268554,0.0,0.0,0.0,402.44605263157894,0.2159898761670472,0.86,nominal,7893.472898546557,nan,pitch_program,11.164285714285715,0.0,0.0
1.98,208.71226026954008,0.0,23.972092435521855,124.32642934975617,0.0,-0.0346999155370181,124.32643419218637,17.58016141119007,0.0,4.821094649520579,0.0,0.0,0.5270996535886251,0.0,4.837086089703533,0.0,9445.681647272802,0.365448897976624,124.32643419218637,2.131989349935448,1.222183297350569,101037.35092627008,287.99418139916907,0.0,0.0,0.0,402.4121052631579,0.21597165686074887,0.86,nominal,7963.617039754835,nan,pitch_program,11.151428571428571,0.0,0.0
2.01,212.45899383119485,0.0,23.970416323858935,124.8911187218251,0.0,-0.055870388764059836,124.89113121871125,17.573682261484247,0.0,4.805876794144142,0.0,0.0,0.5072618488632897,0.0,4.831508218501257,0.0,9531.6835872863,0.3671087786293336,124.89113121871125,2.131914011159052,1.222183494120312,101037.37101534805,287.9941922938949,0.0,0.0,0.0,402.37815789473683,0.2159534375544505,0.86,nominal,8033.966811787047,nan,pitch_program,11.138571428571428,0.0,0.0
2.04,216.2226419567055,0.0,23.96815737922993,125.45493751702142,0.0,-0.07529815430015802,125.45496011402574,17.567203658357613,0.0,4.791247192665475,0.0,0.0,0.4876533852716677,0.0,4.825636161436673,0.0,9617.94271655948,0.36876610498262824,125.45496011402574,2.131846321052078,1.2221837593126779,101037.39808999002,287.994206977035,0.0,0.0,0.0,402.3442105263158,0.21593521824815215,0.86,nominal,8104.520839168919,nan,pitch_program,11.125714285714286,0.0,0.0
2.07,220.0031784560545,0.0,23.9653677723396,126.01788331163358,0.0,-0.09298689634425472,126.0179176185172,17.56072560181017,0.0,4.777198852277809,0.0,0.0,0.4682780152681718,0.0,4.8194766274918655,0.0,9704.456704384509,0.37042086764068083,126.01791761851722,2.131785900568167,1.222184086803037,101037.431524907,287.99422510947977,0.0,0.0,0.0,402.3102631578947,0.2159169989418538,0.86,nominal,8175.277754318309,nan,pitch_program,11.112857142857143,0.0,0.0
2.1,223.8005770672585,0.0,23.96209955569364,126.57995370679922,0.0,-0.10894055486529156,126.58000058642726,17.554248091841913,0.0,4.763724687587429,0.0,0.0,0.4491388250825962,0.0,4.81303606974293,0.0,9791.223229928679,0.37207305754582765,126.58000058642727,2.1317323624098607,1.2221844704806384,101037.47069622693,287.99424635288796,0.0,0.0,0.0,402.27631578947364,0.2158987796355554,0.86,nominal,8246.236197837807,nan,pitch_program,11.1,0.0,0.0
2.13,227.61481145718224,0.0,23.958404655820225,127.14114633079147,0.0,-0.12316332911384414,127.14120598575967,17.547771128452847,0.0,4.750817538319317,0.0,0.0,0.4302383107565446,0.0,4.806320708970965,0.0,9878.239982643881,0.3737226659782393,127.14120598575967,2.131685311519226,1.222184904249522,101037.51498158782,287.99427036973714,0.0,0.0,0.0,402.2423684210526,0.21588056032925707,0.86,nominal,8317.394818774685,nan,pitch_program,11.08714285714286,0.0,0.0
2.16,231.44585522241422,0.0,23.954334865413134,127.70145884106643,0.0,-0.13565968023628971,127.70153089797093,17.54129471164297,0.0,4.738470184994416,0.0,0.0,0.41157844575623115,0.0,4.799336554684152,0.0,9965.504662640795,0.37536968455495134,127.70153089797094,2.1316443455642253,1.2221853820294355,101037.56376023138,287.9942968233748,0.0,0.0,0.0,402.2084210526316,0.2158623410229587,0.86,nominal,8388.752274850616,nan,pitch_program,11.074285714285715,0.0,0.0
2.19,235.2936818901971,0.0,23.949941835420656,128.26088892609604,0.0,-0.14643433308257908,128.2609725174663,17.53481884141228,0.0,4.726675362806652,0.0,0.0,0.39316074098058595,0.0,4.792089423837461,0.0,10053.014981030325,0.3770141052283221,128.2609725174663,2.131609055420174,1.222185897756767,101037.616413098,287.99432537806973,0.0,0.0,0.0,402.1744736842105,0.21584412171666034,0.86,nominal,8460.307232663454,nan,pitch_program,11.061428571428571,0.0,0.0
2.2199999999999998,239.15826491940734,0.0,23.945277067101973,128.81943430700855,0.0,-0.15549227728946557,128.81952815092123,17.52834351776078,0.0,4.7154257739002725,0.0,0.0,0.37498629808394335,0.0,4.784584957502594,0.0,10140.768660234442,0.3786559202839758,128.81952815092123,2.1315790256453746,1.2221864453854696,101037.67232292135,287.9943556990638,0.0,0.0,0.0,402.1405263157895,0.215825902410362,0.86,nominal,8532.058367863088,nan,pitch_program,11.04857142857143,0.0,0.0
2.25,243.03957770157902,0.0,23.94039190407058,129.37709273905608,0.0,-0.1628387677130959,129.3771952164468,17.521868740688472,0.0,4.704714098226306,0.0,0.0,0.3570558568388528,0.0,4.776828635713634,0.0,10228.763434268603,0.38029512233828683,129.3771952164468,2.131553834950247,1.2221870188879993,101037.73087432384,287.9943874526235,0.0,0.0,0.0,402.1065789473684,0.21580768310406362,0.86,nominal,8604.004365303348,nan,pitch_program,11.035714285714285,0.0,0.0
2.28,246.93759356196682,0.0,23.935337524342252,129.93386201292697,0.0,-0.16847932427763268,129.93397124261637,17.51539451019535,0.0,4.694533003138231,0.0,0.0,0.339369837162212,0.0,4.7688257906902445,0.0,10316.997048997584,0.38193170433545404,129.93397124261634,2.1315330566595545,1.2221876122562452,101037.79145391168,287.99442030609174,0.0,0.0,0.0,402.0726315789474,0.21578946379776529,0.86,nominal,8676.143919171618,nan,pitch_program,11.022857142857143,0.0,0.0
2.31,250.85228576064438,0.0,23.930164932403255,130.4897399559186,0.0,-0.17241973129990942,130.4898538673678,17.508920826281418,0.0,4.684875151867653,0.0,0.0,0.3219283764481901,0.0,4.760581618616531,0.0,10405.467262366508,0.38356565954421035,130.48985386736777,2.1315162591671446,1.2221882195024596,101037.85345036988,287.99445392793933,0.0,0.0,0.0,402.03868421052636,0.21577124449146692,0.86,nominal,8748.475733097852,nan,pitch_program,11.01,0.0,0.0
2.34,254.78362749363393,0.0,23.924924951312924,131.04472443298488,0.0,-0.17466603634433814,131.044840836796,17.502447688946674,0.0,4.675733211005993,0.0,0.0,0.30473136270179796,0.0,4.752101190134966,0.0,10494.171844608709,0.38519698155420706,131.044840836796,2.1315030063828586,1.2221888346601884,101037.91625455697,287.99448798781646,0.0,0.0,0.0,402.0047368421053,0.21575302518516856,0.86,nominal,8820.998520244391,nan,pitch_program,10.997142857142858,0.0,0.0
2.37,258.7315918940641,0.0,23.919668214853214,131.59881334767087,0.0,-0.17522454865696852,131.59893000384756,17.49597509819112,0.0,4.667099857104845,0.0,0.0,0.28777846391611545,0.0,4.743389459698019,0.0,10583.10857843178,0.38682566427211096,131.59893000384756,2.1313134068379282,1.2221894517851815,101037.97925959835,287.9945221566034,0.0,0.0,0.0,401.9707894736842,0.21573480587887017,0.86,nominal,8893.711003377975,nan,pitch_program,10.984285714285715,0.0,0.0
2.4,262.6961523575451,0.0,23.914441188583258,132.15201544936698,0.0,-0.17423420899852513,132.15213030779836,17.489503054014754,0.0,4.663834848489916,0.0,0.0,0.10883362052703847,0.0,4.739375724685658,0.0,10672.2770368297,0.3884517341775187,132.15213030779833,2.131699238254844,1.222190065422526,101038.04190857752,287.99455613227417,0.0,0.0,0.0,401.9368421052631,0.2157165865725718,0.86,nominal,8966.613327126677,nan,pitch_program,10.971428571428572,0.0,0.0
2.4299999999999997,266.67727898475334,0.0,23.909306865587467,132.70422090694095,0.0,-0.17114409985965387,132.70433126624428,17.483031556417576,0.0,4.660857683912174,0.0,0.0,0.0992388192804043,0.0,4.7347500522711785,0.0,10761.657432199108,0.3900748667947171,132.70433126624425,2.1318106290289984,1.2221906681770107,101038.10344648409,287.99458950537365,0.0,0.0,0.0,401.9028947368421,0.21569836726627348,0.86,nominal,9039.689972583963,nan,pitch_program,10.958571428571428,0.0,0.0
2.46,270.6749424430735,0.0,23.904321578491622,133.25544861067343,0.0,-0.166176236528136,133.2555522256893,17.476560605399587,0.0,4.661070719985259,0.0,0.0,-0.007101202436189294,0.0,4.7325213974031275,0.0,10851.25083123373,0.39169511924597317,133.2555522256893,2.1322129436138124,1.2221912534353356,101038.16319813613,287.9946219097398,0.0,0.0,0.0,401.86894736842106,0.21568014795997512,0.86,nominal,9112.942414694422,nan,pitch_program,10.945714285714285,0.0,0.0
2.4899999999999998,274.6891116064871,0.0,23.899549837548452,133.80563878045163,0.0,-0.15905803143896605,133.80573331850195,17.470090200960787,0.0,4.662918624249859,0.0,0.0,-0.061596808825303904,0.0,4.731027484904672,0.0,10941.045391394839,0.39331231584968634,133.80573331850198,2.1326245193091404,1.2221918136241579,101038.22039033628,287.9946529260559,0.0,0.0,0.0,401.835,0.21566192865367675,0.86,nominal,9186.361654865426,nan,pitch_program,10.932857142857143,0.0,0.0
2.52,278.71975478353954,0.0,23.895056783030828,134.35477256841588,0.0,-0.14976848392079437,134.35485604364857,17.463620343101177,0.0,4.666557196668052,0.0,0.0,-0.12128574731386157,0.0,4.730426148357489,0.0,11031.035902700423,0.39492640252590006,134.35485604364857,2.1331144858356765,1.222192341096166,101038.27424233516,287.9946821309103,0.0,0.0,0.0,401.80105263157895,0.2156437093473784,0.86,nominal,9259.944129856076,nan,pitch_program,10.92,0.0,0.0
2.55,282.766839515832,0.0,23.890909779786092,134.90282440974693,0.0,-0.13823344149118114,134.90289523287245,17.457151031820754,0.0,4.672044112874191,0.0,0.0,-0.18289720701110612,0.0,4.730754447870025,0.0,11121.216005620561,0.39653730561149636,134.90289523287245,2.133705346736165,1.222192827942879,101038.32394671909,287.9947090864314,0.0,0.0,0.0,401.7671052631579,0.21562549004108003,0.86,nominal,9333.685361497617,nan,pitch_program,10.907142857142858,0.0,0.0
2.58,286.8303325110631,0.0,23.887178885079113,135.4497665077036,0.0,-0.12436315689927786,135.4498235996866,17.45068226711952,0.0,4.678915570717938,0.0,0.0,-0.22904859506610165,0.0,4.731521656344444,0.0,11211.578921488777,0.3981449452339124,135.44982359968662,2.1343313821160903,1.222193265939727,101038.3686638032,287.99473333724694,0.0,0.0,0.0,401.73315789473685,0.2156072707347817,0.86,nominal,9407.58055940647,nan,pitch_program,10.894285714285715,0.0,0.0
2.61,290.91019997380585,0.0,23.88393502569434,135.9955820914249,0.0,-0.10812864615909035,135.99562507738847,17.444214048997477,0.0,4.687372085793738,0.0,0.0,-0.28188383637169634,0.0,4.732927343314703,0.0,11302.119664576921,0.39974927450926134,135.99562507738847,2.1350486023545474,1.2221936467600563,101038.40754348035,287.99475442233296,0.0,0.0,0.0,401.6992105263158,0.21558905142848334,0.86,nominal,9481.62641151453,nan,pitch_program,10.881428571428572,0.0,0.0
2.6399999999999997,295.0064074100645,0.0,23.881251306134452,136.54024787528888,0.0,-0.08945731866291953,136.54027718024156,17.437746377454623,0.0,4.697073346684763,0.0,0.0,-0.3233753638067289,0.0,4.734611919759907,0.0,11392.832134793589,0.4013502277002759,136.54027718024156,2.1358053656408855,1.222193961821552,101038.43970954165,287.9947718665101,0.0,0.0,0.0,401.6652631578947,0.21557083212218495,0.86,nominal,9555.8187193499,nan,pitch_program,10.868571428571428,0.0,0.0
2.67,299.1189198767056,0.0,23.879201614046824,137.08374888803579,0.0,-0.06832306958756815,137.08376591427552,17.431279252490956,0.0,4.708087941225052,0.0,0.0,-0.36715315247364405,0.0,4.73664437653092,0.0,11483.711596220328,0.40294776403934834,137.08376591427552,2.1366311168577137,1.2221942024499604,101038.46427639177,287.99478518950866,0.0,0.0,0.0,401.63131578947366,0.21555261281588659,0.86,nominal,9630.154411128337,nan,pitch_program,10.855714285714285,0.0,0.0
2.6999999999999997,303.24770189456655,0.0,23.877861260055337,137.62606726203154,0.0,-0.04467846638295572,137.62607451416534,17.42481267410648,0.0,4.720223999314891,0.0,0.0,-0.4045352711737953,0.0,4.738824308979039,0.0,11574.75281029672,0.4045418346243629,137.62607451416534,2.137499601147025,1.2221943598039795,101038.48034138085,287.9947939018096,0.0,0.0,0.0,401.59736842105264,0.21553439350958825,0.86,nominal,9704.630021215216,nan,pitch_program,10.842857142857143,0.0,0.0
2.73,307.3927175834375,0.0,23.877306256954707,138.16718962903235,0.0,-0.018500103354287575,138.1671908675819,17.41834664230119,0.0,4.733472865587086,0.0,0.0,-0.4416288777076387,0.0,4.741144569985705,0.0,11665.951281321995,0.40613240423882735,138.1671908675819,2.1384219957345834,1.2221944249598824,101038.48699344412,287.99479750932977,0.0,0.0,0.0,401.56342105263155,0.21551617420328986,0.86,nominal,9779.24270152417,nan,pitch_program,10.83,0.0,0.0
2.76,311.55393064396196,0.0,23.87761352206533,138.70710201748278,0.0,0.010242170354154166,138.70710239562513,17.411881157075094,0.0,4.747716414528488,0.0,0.0,-0.4747849671585483,0.0,4.743485678504555,0.0,11757.302403878153,0.40771943630423874,138.70710239562513,2.1393845769001163,1.2221943888877675,101038.4833106774,287.9947955121066,0.0,0.0,0.0,401.52947368421053,0.21549795489699153,0.86,nominal,9853.989526141377,nan,pitch_program,10.817142857142857,0.0,0.0
2.79,315.7313044357132,0.0,23.878860488978113,139.24579305837372,0.0,0.04156556375936722,139.24579926213764,17.405416218428183,0.0,4.762922705143234,0.0,0.0,-0.5068763568001425,0.0,4.745819629686157,0.0,11848.802008044102,0.4093029023118813,139.2457992621376,2.140391223761994,1.2221942424971415,101038.46836499099,287.9947874068216,0.0,0.0,0.0,401.49552631578945,0.21547973559069317,0.86,nominal,9928.867933290001,nan,pitch_program,10.804285714285717,0.0,0.0
2.82,319.92480198309516,0.0,23.881125148519892,139.7832515794,0.0,0.07548865139268673,139.7832719628723,17.398951826360463,0.0,4.779005916045108,0.0,0.0,-0.5361070335827002,0.0,4.748063863570334,0.0,11940.445956640857,0.41088277473656304,139.7832719628723,2.1414328867165517,1.2221939766321197,101038.44122161993,287.9947726865346,0.0,0.0,0.0,401.4615789473684,0.2154615162843948,0.86,nominal,10003.875396260893,nan,pitch_program,10.791428571428572,0.0,0.0
2.85,324.13438602991164,0.0,23.884485792293358,140.3194682272156,0.0,0.11202145911556263,140.31951294234122,17.39248798087193,0.0,4.795932395954683,0.0,0.0,-0.5642160010892914,0.0,4.7501913769801645,0.0,12032.230424016145,0.4124590317880458,140.31951294234122,2.142511124003401,1.2221935821015386,101038.40094219841,287.9947508423501,0.0,0.0,0.0,401.4276315789474,0.21544329697809647,0.86,nominal,10079.009648782929,nan,pitch_program,10.778571428571428,0.0,0.0
2.88,328.3600190502122,0.0,23.889021011928453,140.8544340100181,0.0,0.1511739878365313,140.85451513479128,17.38602468196259,0.0,4.813631996280209,0.0,0.0,-0.589986682209386,0.0,4.752138524595699,0.0,12124.151651365642,0.41403165312234036,140.85451513479128,2.1436184432640575,1.222193049679052,101038.34658476988,287.99472136342246,0.0,0.0,0.0,401.3936842105263,0.21542507767179808,0.86,nominal,10154.2684848352,nan,pitch_program,10.765714285714287,0.0,0.0
2.9099999999999997,332.60166329272664,0.0,23.894809495254663,141.38814141714707,0.0,0.1929494442070173,141.3882730741245,17.379561929632434,0.0,4.832076035799823,0.0,0.0,-0.6148013226295307,0.0,4.753885730454665,0.0,12216.206140461998,0.41560062310327184,141.3882730741245,2.144755947940888,1.2221923701270625,101038.27720623062,287.9946837382808,0.0,0.0,0.0,401.3597368421053,0.21540685836549975,0.86,nominal,10229.649914978238,nan,pitch_program,10.752857142857144,0.0,0.0
2.94,336.8592807901401,0.0,23.901930025858086,141.92058324711502,0.0,0.23735102011404122,141.92078172243856,17.37309972388147,0.0,4.851202737364926,0.0,0.0,-0.6375567247574673,0.0,4.755380139080974,0.0,12308.390455762363,0.41716592735903313,141.9207817224386,2.145916442714629,1.2221915341967913,101038.19186233701,287.9946374548319,0.0,0.0,0.0,401.3257894736842,0.21538863905920136,0.86,nominal,10305.152004442107,nan,pitch_program,10.74,0.0,0.0
2.9699999999999998,341.13283339909003,0.0,23.910461299492148,142.45175363166572,0.0,0.2843757878020679,142.45203748042874,17.366638064709694,0.0,4.870990722218536,0.0,0.0,-0.6595995016765615,0.0,4.7566115701398335,0.0,12400.701402004635,0.4187275557512947,142.45203748042874,2.147101455388726,1.2221905326498312,101038.08960990635,287.9945820015533,0.0,0.0,0.0,401.29184210526313,0.215370419752903,0.86,nominal,10380.773016465402,nan,pitch_program,10.727142857142857,0.0,0.0
3.0,345.4222828051606,0.0,23.920481941815247,142.98164686901896,0.0,0.3340214107699327,142.98203702451468,17.360176952117108,0.0,4.891381883887978,0.0,0.0,-0.679705396155696,0.0,4.75753266121827,0.0,12493.13582570665,0.42028549895706724,142.9820370245147,2.148303290361892,1.2221893562560773,101037.96950660579,287.9945168673782,0.0,0.0,0.0,401.2578947368421,0.21535220044660466,0.86,nominal,10456.511250074547,nan,pitch_program,10.714285714285715,0.0,0.0
3.03,349.7275905621157,0.0,23.932070324976735,143.5102585651714,0.0,0.3862794387162733,143.51077842882438,17.35371638610371,0.0,4.912364090520551,0.0,0.0,-0.6994068955688457,0.0,4.758144257572348,0.0,12585.690813124376,0.4218397517657794,143.5107784288244,2.1495246731884543,1.2221879958152682,101037.83061315195,287.9944415428876,0.0,0.0,0.0,401.223947368421,0.21533398114030627,0.86,nominal,10532.365200075996,nan,pitch_program,10.701428571428572,0.0,0.0
3.06,354.0487180902563,0.0,23.945304618372017,144.03758427135162,0.0,0.44114311317610927,144.0382598130546,17.3472563666695,0.0,4.933878135763198,0.0,0.0,-0.7171348498474481,0.0,4.7583992172209095,0.0,12678.363456718776,0.42339030910494874,144.03825981305462,2.150756473333556,1.222186442151039,101037.67199270408,287.99435551998056,0.0,0.0,0.0,401.19,0.21531576183400794,0.86,nominal,10608.333366522269,nan,pitch_program,10.688571428571429,0.0,0.0
3.09,358.38562671888826,0.0,23.960262583684656,144.5636209543997,0.0,0.4985988437546911,144.5644807836778,17.34079689381448,0.0,4.955924613434204,0.0,0.0,-0.7348825981006689,0.0,4.758312683450349,0.0,12771.151110226554,0.42493717027547445,144.5644807836778,2.152003766316226,1.2221846861349923,101037.49271332186,287.99425829320603,0.0,0.0,0.0,401.156052631579,0.21529754252770958,0.86,nominal,10684.414461193464,nan,pitch_program,10.675714285714285,0.0,0.0
3.12,362.73827767423285,0.0,23.977021681099615,145.08836517815257,0.0,0.5586365804986183,145.08944063886258,17.33433796753865,0.0,4.978436386208099,0.0,0.0,-0.7503924354499311,0.0,4.757830411799171,0.0,12864.051075025338,0.42648033367557253,145.08944063886256,2.153254411209951,1.2221827186742389,101037.29184669378,287.9941493590728,0.0,0.0,0.0,401.1221052631579,0.21527932322141122,0.86,nominal,10760.60715211797,nan,pitch_program,10.662857142857142,0.0,0.0
3.15,367.1066321313382,0.0,23.995658808742593,145.61181523684488,0.0,0.6212375880992462,145.61314045342857,17.32787958784201,0.0,5.001434077189571,0.0,0.0,-0.766589709674508,0.0,4.7569891064744025,0.0,12957.060970537168,0.42801980292803776,145.61314045342857,2.154517997560135,1.2221805307420015,101037.06847126194,287.99402821774316,0.0,0.0,0.0,401.08815789473687,0.21526110391511288,0.86,nominal,10836.910363811714,nan,pitch_program,10.65,0.0,0.0
3.1799999999999997,371.49065118398994,0.0,24.01625050726118,146.1339684217244,0.0,0.6863899506195941,146.13558039658193,17.321421754724557,0.0,5.024830452999648,0.0,0.0,-0.7798792045059854,0.0,4.755714664998507,0.0,13050.178260610755,0.42955557899682756,146.1355803965819,2.1557762606422206,1.2221781133536072,101036.82166977134,287.99389437170277,0.0,0.0,0.0,401.0542105263158,0.2152428846088145,0.86,nominal,10913.322891959962,nan,pitch_program,10.637142857142857,0.0,0.0
3.21,375.8902959177493,0.0,24.03887257921677,146.6548244586461,0.0,0.754069065186284,146.65676308016404,17.314964468186293,0.0,5.048682007357355,0.0,0.0,-0.7950518234051857,0.0,4.7540814423217075,0.0,13143.400851256063,0.43108767002709625,146.65676308016407,2.157047820980983,1.222175457611182,101036.55053383346,287.9937473282351,0.0,0.0,0.0,401.0202631578947,0.21522466530251613,0.86,nominal,10989.84388835466,nan,pitch_program,10.624285714285714,0.0,0.0
3.2399999999999998,380.30552734575815,0.0,24.063600481956886,147.17438093362733,0.0,0.8242634246706089,147.17668909643842,17.308507728227216,0.0,5.072856629378837,0.0,0.0,-0.8058207460038301,0.0,4.751969791815228,0.0,13236.72629528539,0.4326160782306485,147.17668909643842,2.1583015683366287,1.2221725546575402,101036.25415921888,287.99358659686726,0.0,0.0,0.0,400.9863157894737,0.21520644599621777,0.86,nominal,11066.47221436123,nan,pitch_program,10.611428571428572,0.0,0.0
3.27,384.73630652749944,0.0,24.090508691325894,147.6926393913767,0.0,0.8969403123002536,147.69536293436929,17.30205153484733,0.0,5.097482311838967,0.0,0.0,-0.8208560946405762,0.0,4.749528190337457,0.0,13330.15285464341,0.43414081727326764,147.69536293436929,2.1595752803057504,1.2221693957508992,101035.93165348569,287.99341169350635,0.0,0.0,0.0,400.9523684210526,0.2151882266899194,0.86,nominal,11143.207303215324,nan,pitch_program,10.598571428571429,0.0,0.0
3.3,389.1825944342104,0.0,24.119671483418806,148.20959689036528,0.0,0.9720930697637089,148.21278479045205,17.29559588804663,0.0,5.122326780143955,0.0,0.0,-0.828148956475567,0.0,4.7465344380718735,0.0,13423.67802835102,0.43566188820692797,148.21278479045205,2.1608094652998258,1.2221659721731157,101035.58212661135,287.99322213535777,0.0,0.0,0.0,400.9184210526316,0.21517000738362105,0.86,nominal,11220.047964023297,nan,pitch_program,10.585714285714285,0.0,0.0
3.33,393.6443521694433,0.0,24.151161734487406,148.72525784109862,0.0,1.049675035620058,148.728961999947,17.289140787825122,0.0,5.147673593303075,0.0,0.0,-0.8448937857498566,0.0,4.743297418786916,0.0,13517.300618338058,0.43717931306519137,148.728961999947,2.1620852317457064,1.2221622753705819,101035.20470537774,287.9930174487258,0.0,0.0,0.0,400.8844736842105,0.2151517880773227,0.86,nominal,11296.994059014347,nan,pitch_program,10.572857142857142,0.0,0.0
3.36,398.12154067763527,0.0,24.18505256603742,149.23961693973237,0.0,1.1296943850004209,149.24389258432504,17.2826862341828,0.0,5.1730578119607795,0.0,0.0,-0.8461406357636867,0.0,4.739356054396721,0.0,13611.017748852179,0.4386930865099874,149.24389258432504,2.163276488098566,1.2221582967611155,101034.79851365638,287.99279715832074,0.0,0.0,0.0,400.85052631578947,0.21513356877102435,0.86,nominal,11374.044082607508,nan,pitch_program,10.56,0.0,0.0
3.3899999999999997,402.6141212032027,0.0,24.22141483343451,149.75268418558187,0.0,1.212075579902945,149.7575892834751,17.27623222711967,0.0,5.199128069089977,0.0,0.0,-0.8690085859662672,0.0,4.735394820362909,0.0,13704.82923896964,0.4402032464602779,149.7575892834751,2.1645689929192877,1.2221540280288004,101034.36270251,287.99256080358265,0.0,0.0,0.0,400.81657894736844,0.215115349464726,0.86,nominal,11451.19871177531,nan,pitch_program,10.547142857142857,0.0,0.0
3.42,407.12205462399703,0.0,24.260320824698173,150.26444735981025,0.0,1.2968663754555072,150.27004359733505,17.269778766635728,0.0,5.224848257543038,0.0,0.0,-0.8573396294991376,0.0,4.7303658541101195,0.0,13798.731040022109,0.44170976841289844,150.27004359733505,2.165670168494331,1.2221494606897758,101033.89640586302,287.9923079146394,0.0,0.0,0.0,400.78263157894736,0.21509713015842763,0.86,nominal,11528.455476588013,nan,pitch_program,10.534285714285714,0.0,0.0
3.4499999999999997,411.64530250380204,0.0,24.30183850877003,150.77492932683313,0.0,1.3839228023951835,150.7812805219352,17.263325852730976,0.0,5.2517851497256585,0.0,0.0,-0.8978964226257943,0.0,4.725897262206286,0.0,13892.725263300637,0.44321272630713615,150.78128052193523,2.167035565871611,1.2221445867674794,101033.39880943988,287.99203804969295,0.0,0.0,0.0,400.74868421052633,0.21507891085212927,0.86,nominal,11605.816902529288,nan,pitch_program,10.521428571428572,0.0,0.0
3.48,416.18382546608194,0.0,24.34604045676939,151.28409874266248,0.0,1.4733982666454244,151.2912734920022,17.25687348540541,0.0,5.2774125266282645,0.0,0.0,-0.8542459109953072,0.0,4.719410503216304,0.0,13986.804545624473,0.4447120425479948,151.2912734920022,2.1679290146357997,1.2221393977453523,101032.86904384344,287.991750737031,0.0,0.0,0.0,400.71473684210525,0.2150606915458309,0.86,nominal,11683.277815061281,nan,pitch_program,10.508571428571429,0.0,0.0
3.51,420.73758581827525,0.0,24.39298956278593,151.7920117397767,0.0,1.5649702005513757,151.80007891874473,17.250421664659036,0.0,5.305763110977712,0.0,0.0,-0.9450194975963121,0.0,4.715066606616213,0.0,14080.976867420017,0.4462078834006085,151.80007891874473,2.169547761788852,1.2221338862431406,101032.30635569502,287.9914455678419,0.0,0.0,0.0,400.6807894736842,0.21504247223953252,0.86,nominal,11760.845490964459,nan,pitch_program,10.495714285714286,0.0,0.0
3.54,425.30654330480377,0.0,24.44276213682097,152.29858288428306,0.0,1.659085801167974,152.3076193571959,17.24397039049185,0.0,5.330173628133533,0.0,0.0,-0.8136839175018912,0.0,4.706038770939812,0.0,14175.225418006683,0.4477000217388434,152.3076193571959,2.169896666854803,1.222128043305965,101031.7098308664,287.99112204611066,0.0,0.0,0.0,400.64684210526315,0.21502425293323418,0.86,nominal,11838.507070437294,nan,pitch_program,10.482857142857142,0.0,0.0
3.57,429.89066216545694,0.0,24.49540972300613,152.8039620217727,0.0,1.7549195395053427,152.81403911991035,17.237519662903853,0.0,5.361734158422601,0.0,0.0,-1.052017702902473,0.0,4.703733795155853,0.0,14269.574646376985,0.4491888821596146,152.81403911991032,2.172344417221045,1.2221218628865886,101031.07885209029,287.9907798368004,0.0,0.0,0.0,400.61289473684207,0.21500603362693582,0.86,nominal,11916.283185830862,nan,pitch_program,10.47,0.0,0.0
3.5999999999999996,434.4898992632347,0.0,24.551023163657764,153.30790325925733,0.0,1.853781355054486,153.31911070398937,17.231069481895045,0.0,5.381563251931095,0.0,0.0,-0.6609697902137092,0.0,4.688783105946902,0.0,14363.979638567946,0.4506737965307386,153.3191107039894,2.1710945314392434,1.22211533432481,101030.41233115745,287.9904183494362,0.0,0.0,0.0,400.57894736842104,0.21498781432063746,0.86,nominal,11994.13814483896,nan,pitch_program,10.457142857142857,0.0,0.0
3.63,439.1042244532191,0.0,24.609623119419634,153.81083966614622,0.0,1.9533318587290507,153.82324240554567,17.224619847465426,0.0,5.422235125165432,0.0,0.0,-1.3557291647403917,0.0,4.694642351749768,0.0,14458.514542665893,0.4521559652659721,153.8232424055457,2.176276112984742,1.2221084551995212,101029.71002102389,287.99003744972373,0.0,0.0,0.0,400.545,0.21496959501433913,0.86,nominal,12072.13291264169,nan,pitch_program,10.444285714285714,0.0,0.0
3.6599999999999997,443.7335851101105,0.0,24.671350131373472,154.31202189637904,0.0,2.0575670651279476,154.3257388901024,17.218170759614996,0.0,5.426526304713092,0.0,0.0,-0.14303931832214345,0.0,4.662600580546906,0.0,14553.046199830927,0.45363334532582256,154.3257388901024,2.1699011932318317,1.222101209017063,101028.97023794884,287.98963622414607,0.0,0.0,0.0,400.51105263157893,0.21495137570804074,0.86,nominal,12150.160137753865,nan,pitch_program,10.431428571428572,0.0,0.0
3.69,448.37796895556596,0.0,24.736129120034548,154.81279484851675,0.0,2.159299622035827,154.8278528678437,17.211722218343755,0.0,5.496467609428809,0.0,0.0,-2.3313771133605163,0.0,4.697368715205146,0.0,14647.808647423582,0.4551096187572463,154.8278528678437,2.1844523009651233,1.2220936045960056,101028.19388239959,287.98921516071977,0.0,0.0,0.0,400.4771052631579,0.2149331564017424,0.86,nominal,12228.410572468316,nan,pitch_program,10.418571428571429,0.0,0.0
3.7199999999999998,453.03729099960583,0.0,24.804270975525164,155.3107348013286,0.0,2.2713951830204997,155.32734331277953,17.205274223651703,0.0,5.447164950006813,0.0,0.0,1.6434220821391126,0.0,4.609282877805195,0.0,14742.375251227511,0.45657819991054777,155.32734331277953,2.160499301810542,1.2220856054462703,101027.37722917587,287.98877223865907,0.0,0.0,0.0,400.4431578947368,0.21491493709544401,0.86,nominal,12306.538594265172,nan,pitch_program,10.405714285714286,0.0,0.0
3.75,457.71160003911706,0.0,24.875376697421938,155.81030131704134,0.0,2.3701907298924523,155.82832797859086,17.19882677553884,0.0,5.618746683612091,0.0,0.0,-5.719395394483563,0.0,4.747228878613983,0.0,14837.525838618858,0.458051190846428,155.82832797859083,2.2089796496152814,1.2220772584119504,101026.52506088307,287.9883100514667,0.0,0.0,0.0,400.4092105263158,0.21489671778914568,0.86,nominal,12385.178013191413,nan,pitch_program,10.392857142857142,0.0,0.0
3.78,462.40069497934826,0.0,24.950364279815265,156.3031646743724,0.0,2.4995860797775618,156.32314997400158,17.192379874005166,0.0,5.375903637437428,0.0,0.0,8.0947803237964,0.0,4.45971280820862,0.0,14931.798954002425,0.4595060893366222,156.3231499740016,2.1218032462471506,1.2220684557369028,101025.62637664235,287.9878226321812,0.0,0.0,0.0,400.3752631578947,0.21487849848284732,0.86,nominal,12463.143098761746,nan,pitch_program,10.38,0.0,0.0
3.81,467.1048457875865,0.0,25.027662440702755,156.80502694127514,0.0,2.5766053629163617,156.82619478024145,17.185933519050682,0.0,5.922898521015698,0.0,0.0,-18.23330127197853,0.0,4.981504416167297,0.0,15027.942463079002,0.4609851729771998,156.82619478024145,2.252642196785306,1.222059381877431,101024.700008186,287.9873201941354,0.0,0.0,0.0,400.34131578947364,0.21486027917654893,0.86,nominal,12542.665210499235,nan,pitch_program,10.367142857142857,0.0,0.0
3.84,471.8234817367013,0.0,25.10975328065073,157.28786497049413,0.0,2.736361331599126,157.3116656205555,17.179487710675385,0.0,5.811778807891034,0.0,0.0,3.7039915984714606,0.0,4.815095807815198,0.0,15121.008170343364,0.46241262609911427,157.3116656205555,2.1966058598451954,1.222049745472442,101023.7162101026,287.98678660367574,0.0,0.0,0.0,400.3073684210526,0.2148420598702506,0.86,nominal,12619.722632166424,nan,pitch_program,10.354285714285714,0.0,0.0
3.8699999999999997,476.55674860621906,0.0,25.19573827191647,157.77556231725802,0.0,2.866166375524692,157.80159369987098,17.17304244887928,0.0,5.8496850984196564,0.0,0.0,-1.2635430637085527,0.0,4.808958807490678,0.0,15215.21425135698,0.4638532041750758,157.80159369987098,2.208417192721809,1.2220396520066876,101022.68575181028,287.9862277012325,0.0,0.0,0.0,400.2734210526316,0.21482384056395223,0.86,nominal,12697.75727383387,nan,pitch_program,10.341428571428573,0.0,0.0
