time_s,x_m,y_m,altitude_m,vx_mps,vy_mps,vz_mps,speed_mps,mass_kg,roll_deg,pitch_deg,yaw_deg,p_dps,q_dps,r_dps,alpha_deg,beta_deg,qbar_pa,mach,airspeed_mps,load_factor_g,density_kgpm3,pressure_pa,temperature_k,wind_x_mps,wind_y_mps,wind_z_mps,thrust_n,mass_flow_kgps,propulsion_throttle_actual,propulsion_health,energy_j_per_kg,target_distance_m,guidance_mode,pitch_command_deg,heading_command_deg,roll_command_deg,elevator_command_deg,aileron_command_deg,rudder_command_deg,elevator_deg,aileron_deg,rudder_deg,throttle,elevator_saturated,aileron_saturated,rudder_saturated,elevator_failed,aileron_failed,rudder_failed,elevator_raw_rad,aileron_raw_rad,rudder_raw_rad,elevator_effective_rad,aileron_effective_rad,rudder_effective_rad,sensor_time_s,imu_valid,imu_ax_mps2,imu_ay_mps2,imu_az_mps2,gyro_p_rps,gyro_q_rps,gyro_r_rps,imu_accel_norm_mps2,imu_gyro_norm_rps,gps_valid,gps_latency_s,gps_x_m,gps_y_m,gps_z_m,gps_vx_mps,gps_vy_mps,gps_vz_mps,baro_valid,baro_alt_m,baro_bias_m,pitot_valid,pitot_airspeed_mps,pitot_qbar_pa,pitot_compressibility_factor,mag_valid,mag_heading_deg,mag_x_ut,mag_y_ut,mag_z_ut,radar_valid,radar_agl_m,optical_flow_valid,optical_flow_x_radps,optical_flow_y_radps,optical_flow_quality,horizon_valid,horizon_roll_deg,horizon_pitch_deg
0.0,0.0,0.0,750.0,86.0,-1.0,9.0,86.47543003651384,18.0,0.0,7.000000000000002,0.0,0.0,0.0,0.0,1.4016805444688731,-6.99563488160828,4536.612575246487,0.2645041814014108,89.24453490674894,1.7205257729526313,1.139195935492775,92633.60556773993,283.275,-2.1576439091004773,9.86942436359809,0.3586780454497614,323.0,0.17335175620624782,0.85,nominal,11093.9875,nan,heading_hold,7.499999999999999,-2.0,0.0,-4.446966666666616,-0.0,-6.173333333333343,-2.66817999999997,0.0,-2.6999999999999997,0.85,0.0,0.0,0.0,0.0,0.0,0.0,-0.04656852603586177,0.0,-0.047123889803846894,-0.04656852603586177,0.0,-0.047123889803846894,0.0,1.0,16.814264143952194,1.260259370746404,0.8286042313486423,-0.0022319153689813204,-0.0039015279865140195,-0.0023592222364778276,16.881774709915998,0.005076346757751937,1.0,0.0,-0.7785414889531648,-0.7699426628116489,749.9804323702161,85.939862586848,-0.9434081530172551,9.010771297708263,1.0,749.8555948662996,0.0,1.0,88.65372415368083,4500.244903264226,1.0,1.0,-0.5737756339655435,18.843798690923343,0.06929347722390143,-44.11802215367801,1.0,750.0321065721554,1.0,-0.007201073526722839,0.11474759090463373,0.375,1.0,-0.5314886576265022,6.887296576438832
0.03,2.5949261975140976,-0.02888807630962151,750.2637386433568,86.49753991713659,-0.9629358769873837,8.791288111891413,86.94848132018241,17.994799447313813,0.06895755966087255,7.193403095234845,-0.10556200241299275,1.8638651003683908,-6.448876764840874,-3.487902836132251,1.7642640975343076,-6.948368298312302,4581.590222390552,0.2658163708117686,89.6870003205539,1.7526481209161868,1.139166595339428,92630.65919778285,283.27328569881814,-2.1128780731609975,10.04690527549587,0.38086315943698384,328.7375,0.17643103082306932,0.85,nominal,11137.593094509928,nan,heading_hold,7.499999999999999,-2.0,0.0,1.439514235479067,0.1390644119827716,-0.5141652858852087,-0.2035634587125479,0.08343864718966297,-1.3884991715311252,0.85,0.0,0.0,0.0,0.0,0.0,0.0,-0.003552852591281498,0.0014562791168695323,-0.02423388220443165,-0.003552852591281498,0.0014562791168695323,-0.02423388220443165,0.03,1.0,17.06953998725059,1.3665580357269744,1.443859460385656,0.03213668082888313,-0.1159918628715981,-0.05889908910149277,17.1849179917363,0.13399992986605144,1.0,0.0,-0.7785414889531648,-0.7699426628116489,749.9804323702161,85.939862586848,-0.9434081530172551,9.010771297708263,1.0,749.8555948662996,0.0,1.0,89.18436850417089,4518.82341569258,1.0,1.0,-0.5737756339655435,18.843798690923343,0.06929347722390143,-44.11802215367801,1.0,750.0321065721554,1.0,-0.007201073526722839,0.11474759090463373,0.375,1.0,-0.5314886576265022,6.887296576438832
0.06,5.2049498231078575,-0.05659110793627645,750.5218075140677,87.000787519792,-0.9234343875551645,8.602295690364565,87.4299105070832,17.98950651638912,0.21120598162575846,7.227259422469903,-0.3362640247549001,3.7764172744386064,-1.1471941075127436,-7.626487178837396,1.945559247383967,-6.768020141885336,4627.801294710238,0.2671577103227577,90.13930419300752,1.7839859667332247,1.1391378864913169,92627.77624144037,283.2716082511585,-2.071434949935458,10.211129355173762,0.40139116939672026,334.47499999999997,0.17951030543989083,0.85,nominal,11182.099309296122,nan,heading_hold,7.499999999999999,-2.0,0.0,0.12875373438595414,0.3110027968438082,-0.08356371669118262,-0.004173142853446686,0.2199771369821501,-0.6055378986271597,0.85,0.0,0.0,0.0,0.0,0.0,0.0,-7.283508294871587e-05,0.003839325319449102,-0.010568630076651587,-7.283508294871587e-05,0.003839325319449102,-0.010568630076651587,0.06,1.0,17.411329653822186,1.3448739064963702,1.6798223860150543,0.059011093231798574,-0.02125035644954384,-0.1312911413607266,17.543799171986663,0.1455034383560986,1.0,0.0,-0.7785414889531648,-0.7699426628116489,749.9804323702161,85.939862586848,-0.9434081530172551,9.010771297708263,1.0,751.3524352950473,0.0,1.0,90.36214943801085,4667.09686652308,1.0,1.0,-1.986017406795213,18.56542747046713,0.0025885047385035345,-44.19801559755626,1.0,749.9279232600674,1.0,-0.0018802475210510637,0.10651965597421753,0.3745651604049436,1.0,0.2382785501147354,7.30548664959926
0.09,7.830312065698946,-0.08313699601875785,750.7744150004075,87.51207475303627,-0.8848629360827132,8.42024954466027,87.92068478117658,17.984121207225925,0.42847513154751327,7.071556727770143,-0.7004286134214744,5.731539980392566,5.122782252382888,-12.07328909986775,1.9253281453559306,-6.447251567500614,4675.412287952368,0.2685325484487548,90.60291349775314,1.814710042160174,1.13910978573048,92624.95436604808,283.2699663024973,-2.0334928581799616,10.361382077277707,0.42017275965971335,340.2125,0.18258958005671233,0.85,nominal,11227.605323059253,nan,heading_hold,7.499999999999999,-2.0,0.0,-1.538355356732886,0.5120815459112241,0.42528558741449723,-0.9246824711811099,0.3952397823395945,0.012956192997834477,0.85,0.0,0.0,0.0,0.0,0.0,0.0,-0.016138753657587948,0.006898235536691661,0.00022612822633604618,-0.016138753657587948,0.006898235536691661,0.00022612822633604618,0.09,1.0,17.68178073777216,1.492576895505479,1.495628561333939,0.10748391172093584,0.0883146739842514,-0.2134176851323872,17.80758435726545,0.25475356964534435,1.0,0.0,-0.7785414889531648,-0.7699426628116489,749.9804323702161,85.939862586848,-0.9434081530172551,9.010771297708263,1.0,751.3524352950473,0.0,1.0,90.1550819798749,4687.82511924001,1.0,1.0,-1.986017406795213,18.56542747046713,0.0025885047385035345,-44.19801559755626,1.0,749.9279232600674,1.0,-0.0018802475210510637,0.10651965597421753,0.3745651604049436,1.0,0.2382785501147354,7.30548664959926
0.12,10.471318960104849,-0.10863458610492897,751.0214662355188,88.03356314686344,-0.8499196695390374,8.235041170375396,88.4219797723125,17.978643519824224,0.7205772575988566,6.8576351578074854,-1.2017829458603986,7.710324226919084,6.96404435825328,-16.65933273923027,1.844067084422396,-5.983013439259871,4724.606692865597,0.2699456147954078,91.07942408786704,1.8457134403437214,1.1390823035754702,92622.19462680738,283.2683604694691,-1.9992153744787178,10.497009704672017,0.4371262130840022,345.95,0.18566885467353383,0.85,nominal,11274.22791528617,nan,heading_hold,7.499999999999999,-2.0,0.0,-2.143694148674545,0.7390389169118203,1.001693723765189,-1.656089477677171,0.60151926308293,0.6061987114582472,0.85,0.0,0.0,0.0,0.0,0.0,0.0,-0.02890421409309977,0.010498491654967105,0.01058016343629349,-0.02890421409309977,0.010498491654967105,0.01058016343629349,0.12,1.0,17.952115853456338,1.3593038972010634,1.3049197821522747,0.13295050897570132,0.12583537899531166,-0.28597968215146374,18.050733678682334,0.3395508195355211,1.0,0.0,-0.7785414889531648,-0.7699426628116489,749.9804323702161,85.939862586848,-0.9434081530172551,9.010771297708263,1.0,752.0922948497662,0.0,1.0,90.7844842309299,4701.365649756803,1.0,1.0,-1.8866740579184231,18.773303376454376,-0.0840840778661015,-44.20891730421887,1.0,750.785215596155,1.0,-0.009342982118997352,0.13769132850443816,0.3741487781370677,1.0,1.204509775629896,7.155248985110321
0.15,13.12828917961547,-0.13326609941171574,751.2628231160605,88.56567398368738,-0.8210504435595595,8.045229351392342,88.93412420062488,17.973073454184018,1.0868911390999516,6.688882052936692,-1.8417030684193696,9.694704762096716,5.290330356912849,-21.268190848840337,1.8097090522782742,-5.37589732441992,4775.475789896686,0.2713989050151087,91.56950941955733,1.8768222556430214,1.1390554553543533,92619.49856188307,283.2667916497456,-1.9687502321270465,10.61742213279545,0.45217776659943126,351.6875,0.18874812929035537,0.85,nominal,11322.0107879772,nan,heading_hold,7.499999999999999,-2.0,0.0,-1.8622786824050168,0.9909350345201781,1.6399689488934341,-1.7798030005138785,0.8351687259452788,1.2264608539193593,0.85,0.0,0.0,0.0,0.0,0.0,0.0,-0.03106342239584151,0.014576444077431307,0.02140578004771402,-0.03106342239584151,0.014576444077431307,0.02140578004771402,0.15,1.0,18.319768581845604,1.1927600935653633,1.3189894912265634,0.16567097432733502,0.0946582978222659,-0.3773166236500409,18.405877615890677,0.4228178089483033,1.0,0.0,-0.7785414889531648,-0.7699426628116489,749.9804323702161,85.939862586848,-0.9434081530172551,9.010771297708263,1.0,752.0922948497662,0.0,1.0,91.62148072229488,4786.330689016558,1.0,1.0,-1.8866740579184231,18.773303376454376,-0.0840840778661015,-44.20891730421887,1.0,750.785215596155,1.0,-0.009342982118997352,0.13769132850443816,0.3741487781370677,1.0,1.204509775629896,7.155248985110321
0.18,15.801520574874532,-0.15728616910496004,751.4984533650961,89.1077131753021,-0.80066898977481,7.854341634519081,89.45678454245287,17.96741101030531,1.5266742122049262,6.578358476671712,-2.618623290240115,11.667763959135499,3.0965138862632364,-25.801808932106525,1.8376252845624326,-4.629808746970552,4828.0399759912225,0.2728923535470092,92.0731473902662,1.907677307817442,1.1390292446232033,92616.86652731137,283.26526005312684,-1.9422284556630498,10.722095457157224,0.46526193214465283,357.425,0.19182740390717687,0.85,nominal,11370.940458030236,nan,heading_hold,7.499999999999999,-2.0,0.0,-1.439478798312299,1.2673077627799743,2.3316090400894436,-1.5756084791929308,1.094452148046096,1.8895497656214097,0.85,0.0,0.0,0.0,0.0,0.0,0.0,-0.02749955568425721,0.0191017934889288,0.03297886479038076,-0.02749955568425721,0.0191017934889288,0.03297886479038076,0.18,1.0,18.65113635617507,1.3117918685705063,1.2951666250967053,0.20429643212710052,0.04811987036298229,-0.45155879070321225,18.74201541643394,0.49795370825505525,1.0,0.0,-0.7785414889531648,-0.7699426628116489,749.9804323702161,85.939862586848,-0.9434081530172551,9.010771297708263,1.0,751.1470191231008,0.0,1.0,92.36352139489581,4720.020472230306,1.0,1.0,-4.077496166815841,19.084631717870852,-0.09081719144687721,-44.07066009224958,1.0,751.4267589281601,1.0,-0.00609376476823051,0.13278403486418563,0.37375128886241993,1.0,1.4271034553982875,6.658942576460791
0.21,18.49128749475722,-0.18102310351927958,751.7284196602604,89.65889732942297,-0.7912311471439846,7.6655431721449405,89.98946865706141,17.961656188188094,2.0383636055591423,6.4891208399928075,-3.5274226828243727,13.609274419555582,2.0369635640997226,-30.17534090547462,1.8943050991364265,-3.7513084278876594,4882.303880204076,0.2744254368838327,92.5901612933949,1.9382271157878495,1.139003664376502,92614.29781857821,283.2637652722083,-1.9197638073091063,10.810574252802013,0.47632178160025157,363.16249999999997,0.19490667852399834,0.85,nominal,11420.989741251411,nan,heading_hold,7.499999999999999,-2.0,0.0,-1.3126755724645693,1.5662429175361055,3.064982573677608,-1.417848735155914,1.3775266097401018,2.5948094504551285,0.85,0.0,0.0,0.0,0.0,0.0,0.0,-0.024746128723707773,0.024042374873799763,0.04528796837230667,-0.024746128723707773,0.024042374873799763,0.04528796837230667,0.21,1.0,19.005920957706298,1.1543095839771331,1.3936419948286516,0.2380691347018365,0.03779000163900456,-0.5215945031965414,19.09187523728329,0.5746005768239395,1.0,0.0,19.547521810772086,0.525516396176074,749.453684435872,89.71799971521912,-1.1264829259854474,7.813516483719752,1.0,751.1470191231008,0.0,1.0,93.05993557471498,4827.05443439784,1.0,1.0,-4.077496166815841,19.084631717870852,-0.09081719144687721,-44.07066009224958,1.0,751.4267589281601,1.0,-0.00609376476823051,0.13278403486418563,0.37375128886241993,1.0,1.4271034553982875,6.658942576460791
0.24,21.197850204522652,-0.20487920559941702,751.9528068374805,90.21875699218111,-0.7952034026712486,7.479572574002045,90.53176496432405,17.955808987832373,2.6190302533163936,6.389747874206394,-4.560086052913074,15.494996382184992,1.9198507754199052,-34.312488931082775,1.9539744950942035,-2.749123173019348,4938.281838902537,0.2759978974256659,93.12046412026467,1.9685678449857547,1.1389787051453053,92611.7914838396,283.2623067555564,-1.9014524007872344,10.882473555826179,0.4853091944782724,368.9,0.19798595314081988,0.85,nominal,11472.138226950583,nan,heading_hold,7.499999999999999,-2.0,0.0,-1.4534516604761576,1.8844383349228027,3.829005129126734,-1.43921049034806,1.6816736448497223,3.335326857658092,0.85,0.0,0.0,0.0,0.0,0.0,0.0,-0.02511896168581572,0.029350742046641436,0.058212435296329954,-0.02511896168581572,0.029350742046641436,0.058212435296329954,0.24,1.0,19.280891384312223,0.8068498907421768,1.6024044515094575,0.27838789448699924,0.036504365352456596,-0.6069375294275096,19.36418031691642,0.6687342918635617,1.0,0.0,19.547521810772086,0.525516396176074,749.453684435872,89.71799971521912,-1.1264829259854474,7.813516483719752,1.0,752.0396935445873,0.0,1.0,93.32130340609184,4987.771340293647,1.0,1.0,-4.264653709790767,19.181723077129302,-0.05431935235183673,-44.08390143712786,1.0,752.0301783319097,1.0,-0.0016977568545485412,0.10746451622126398,0.3733726609687663,1.0,2.534905841506681,6.248442823082312
0.27,23.921459201423495,-0.2293294837870099,752.1716785984504,90.7869665633615,-0.8150092729197623,7.2957253656649215,91.08328686703764,17.94986940923815,3.2644956392818254,6.2742989470363915,-5.7067583349452295,17.299946884229342,1.893538474885068,-38.13832240614171,2.0175851810241556,-1.634122693531655,4995.990423358276,0.27760952823291907,93.66398598140145,1.998833003732873,1.1389543598128478,92609.34680749266,283.26088408911005,-1.887372347521378,10.937480538323786,0.4921850672904733,374.6375,0.20106522775764138,0.85,nominal,11524.36696517903,nan,heading_hold,7.499999999999999,-2.0,0.0,-1.6528048251866267,2.21834911702438,4.614631252762733,-1.5673670912511999,2.0036789281545166,4.102909494720877,0.85,0.0,0.0,0.0,0.0,0.0,0.0,-0.02735571632973985,0.03497079444912723,0.0716092795942162,-0.02735571632973985,0.03497079444912723,0.0716092795942162,0.27,1.0,19.620799978689426,0.8632297705651504,1.6178561581359445,0.3056430265442686,0.030969285381996222,-0.6632133958678601,19.70630396570974,0.7309095462304422,1.0,0.0,19.547521810772086,0.525516396176074,749.453684435872,89.71799971521912,-1.1264829259854474,7.813516483719752,1.0,752.0396935445873,0.0,1.0,93.44086411554892,4954.170679163397,1.0,1.0,-4.264653709790767,19.181723077129302,-0.05431935235183673,-44.08390143712786,1.0,752.0301783319097,1.0,-0.0016977568545485412,0.10746451622126398,0.3733726609687663,1.0,2.534905841506681,6.248442823082312
0.3,26.662350210949633,-0.25491947547336624,752.3850822960153,91.36303365087126,-0.8529997228785442,7.113456585496165,91.64350926831209,17.943837452405422,3.969731819786603,6.151103783672603,-6.9560020073582916,19.00142297945218,1.486566023799467,-41.575649830303554,2.100216822553358,-0.4195243202481121,5055.429003066523,0.2792596351247464,94.22049261694234,2.0291336695442324,1.1389306230820506,92606.96325669791,283.25949696507587,-1.8775834091872559,10.975355869474885,0.49691948368436056,380.375,0.20414450237446288,0.85,nominal,11577.64356280382,nan,heading_hold,7.499999999999999,-2.0,0.0,-1.7871554226814643,2.564799771099932,5.412837302858636,-1.6992400901093585,2.3403514339217657,4.888866179603532,0.85,0.0,0.0,0.0,0.0,0.0,0.0,-0.02965733435429344,0.04084683817570532,0.08532681152347808,-0.02965733435429344,0.04084683817570532,0.08532681152347808,0.3,1.0,19.845994215358544,0.5480257525022434,1.7060011348170998,0.3357839417541332,0.029846159986547327,-0.7335762223118425,19.926722221515703,0.8073262802282603,1.0,0.0,19.547521810772086,0.525516396176074,749.453684435872,89.71799971521912,-1.1264829259854474,7.813516483719752,1.0,751.4255931564587,0.0,1.0,93.94475358737023,5079.6849726001765,1.0,1.0,-6.693675762726699,19.246369463161503,-0.1816448838993674,-43.98699265748064,1.0,752.1646453382887,1.0,-0.011492965775269178,0.12028191754674214,0.3730124314199873,1.0,3.5620825168573362,5.502129409491297
0.32999999999999996,29.42073496684746,-0.2822624454026679,752.5930726527633,91.94615852992753,-0.9114323309767227,6.933011891602316,92.21167730387303,17.937713117334187,4.729066591697262,6.02652714957931,-8.2942635356273,20.57949744798827,0.7764818831936348,-44.5468947302248,2.2140672218058244,0.8790372296285935,5116.568210896062,0.28094673524946107,94.78948367294026,2.0595541521599117,1.1389074888372102,92604.64021644676,283.258145027757,-1.8721267018073386,10.995934756854064,0.49949184460675794,386.1125,0.20722377699128441,0.85,nominal,11631.913571527028,nan,heading_hold,7.499999999999999,-2.0,0.0,-1.8693146775632303,2.920731260278484,6.212288093680798,-1.8012848425816816,2.6885793297357967,5.682919328049892,0.85,0.0,0.0,0.0,0.0,0.0,0.0,-0.0314383512693181,0.04692456150495194,0.09918565339969436,-0.0314383512693181,0.04692456150495194,0.09918565339969436,0.32999999999999996,1.0,20.20292167034203,0.285698898011691,1.6542328686362269,0.36476556137360233,0.01234897789766494,-0.7801537501301367,20.272546812425347,0.8613049900363007,1.0,0.0,19.547521810772086,0.525516396176074,749.453684435872,89.71799971521912,-1.1264829259854474,7.813516483719752,1.0,751.4255931564587,0.0,1.0,94.1785888809012,5105.017084225097,1.0,1.0,-6.693675762726699,19.246369463161503,-0.1816448838993674,-43.98699265748064,1.0,752.1646453382887,1.0,-0.011492965775269178,0.12028191754674214,0.3730124314199873,1.0,3.5620825168573362,5.502129409491297
0.36,32.19679346097933,-0.3120353402311573,752.7957261424484,92.53528313772897,-0.9924298276163126,6.755116322834426,92.78682632182995,17.93149640402445,5.536147134043371,5.899422457923422,-9.705403158831906,22.01610363425099,0.034320387223831614,-46.97804611619561,2.36270695983092,2.2436831954221255,5179.350481270693,0.28266859690878654,95.37020612465344,2.090184630017243,1.1388849485444632,92602.37682894578,283.25682778007405,-1.8710244949291694,10.999127663428633,0.4998909579285791,391.84999999999997,0.2103030516081059,0.85,nominal,11687.101777213558,nan,heading_hold,7.499999999999999,-2.0,0.0,-1.9625207977709171,3.282785734158689,6.99930832192171,-1.8980264156952231,3.045103172389532,6.472752724372984,0.85,0.0,0.0,0.0,0.0,0.0,0.0,-0.03312681024370822,0.05314707642112182,0.11297084670774157,-0.03312681024370822,0.05314707642112182,0.11297084670774157,0.36,1.0,20.33196717190023,0.04869057229963943,1.942687135368282,0.38436319759551246,-0.001044289621509533,-0.813845177451763,20.424624676037133,0.9000445161591465,1.0,0.0,19.547521810772086,0.525516396176074,749.453684435872,89.71799971521912,-1.1264829259854474,7.813516483719752,1.0,753.4438179083802,0.0,1.0,95.42000723980026,5237.402181842658,1.0,1.0,-8.390344722174225,19.27826299876551,-0.2330176342425091,-43.9208491794851,1.0,752.7353976218794,1.0,-0.023353978300431656,0.13518903560827564,0.37267022821462636,1.0,5.478116393860828,5.850232954327247
0.39,34.990669407204834,-0.34497284530941347,752.9931404361101,93.12919820751691,-1.0979168359418725,6.580476455390083,93.36785126869718,17.925187312476208,6.383894642075979,5.764850377606071,-11.17082502171471,23.294674119316053,-0.5845891089443495,-48.8011903437535,2.5447052072182443,3.6545854394391775,5243.695898275431,0.2844224230868604,95.96171620002235,2.121137116249714,1.138862991313548,92600.17199982298,283.2555445871653,-1.8742801150641282,10.984920697126826,0.4981150871408533,397.5875,0.2133823262249274,0.85,nominal,11743.118005924558,nan,heading_hold,7.499999999999999,-2.0,0.0,-2.101150491367491,3.647275638114289,7.759538143474316,-2.019900861098584,3.406406651824386,7.244823975833783,0.85,0.0,0.0,0.0,0.0,0.0,0.0,-0.035253920590038935,0.059453011736171645,0.1264460321057256,-0.035253920590038935,0.059453011736171645,0.1264460321057256,0.39,1.0,20.784638272147507,-0.13989394013157286,1.9707160461858388,0.4111969277999122,-0.003053590416318524,-0.8506829709104443,20.878325607030817,0.9448564731447505,1.0,0.0,19.547521810772086,0.525516396176074,749.453684435872,89.71799971521912,-1.1264829259854474,7.813516483719752,1.0,753.4438179083802,0.0,1.0,96.03187494672065,5314.3291860744575,1.0,1.0,-8.390344722174225,19.27826299876551,-0.2330176342425091,-43.9208491794851,1.0,752.7353976218794,1.0,-0.023353978300431656,0.13518903560827564,0.37267022821462636,1.0,5.478116393860828,5.850232954327247
0.42,37.80246782433054,-0.3818595369889674,753.1854280586175,93.72661390419016,-1.2295563893184647,6.409587416911321,93.95356711543566,17.91878584268946,7.264607070664708,5.618965472325983,-12.669993930921473,24.40091572557795,-1.0806256344103256,-49.955276645165966,2.7582544810465017,5.090256441222308,5309.507150396026,0.2862050050864937,96.5629312229702,2.130785166890967,1.1388416046034686,92598.02446899067,283.25429471761896,-1.8818779400918102,10.953375671281055,0.49417195891013177,399.47763157894735,0.21439674612793488,0.85,nominal,11799.862264928379,nan,heading_hold,7.499999999999999,-2.0,0.0,-2.278248200397009,4.0104665223805,8.479181208871745,-2.174909264677639,3.7688425741580547,7.985438315656562,0.85,0.0,0.0,0.0,0.0,0.0,0.0,-0.03795932760075361,0.06577871190839661,0.13937219082311725,-0.03795932760075361,0.06577871190839661,0.13937219082311725,0.42,1.0,20.901249633566287,-0.4602430040107365,2.3043962454509033,0.4250172979768263,-0.02134037795041344,-0.8716341550507197,21.03293374504479,0.9699696982697815,1.0,0.0,38.03280013914253,1.5485675707009359,751.9658926797125,93.61111565512793,-1.129490514063982,6.245477897338052,1.0,753.7197771364247,0.0,1.0,97.04731634078377,5369.40704413054,1.0,1.0,-11.57798291252801,19.189874217290143,-0.22568362465414923,-43.89127370366004,1.0,752.9514625570745,1.0,-0.04327453469090403,0.11328933509971874,0.3723454766178187,1.0,7.8400889685650315,6.148850844977502
0.44999999999999996,40.63206591542051,-0.4234783906121033,753.372693673547,94.31993636966563,-1.3872951207711965,6.242187164318567,94.53644739001075,17.91235394030562,8.170178719050705,5.460485229027789,-14.180869729657166,25.324018262257084,-1.4970442086959042,-50.38666732053729,3.0024467032682516,6.528154634408715,5375.963523260157,0.28799382799934065,97.1662548124768,2.1302303510618676,1.1388207767489493,92595.9330643381,283.2530774911219,-1.8937835005688748,10.904629835683219,0.4880787294604023,399.4440789473684,0.21437873867403534,0.85,nominal,11856.632268975824,nan,heading_hold,7.499999999999999,-2.0,0.0,-2.473181995657506,4.368848632311096,9.144967416417824,-2.353872903265559,4.12884620904988,8.68115577611332,0.85,0.0,0.0,0.0,0.0,0.0,0.0,-0.04108283233546199,0.07206196065640649,0.15151475117170113,-0.04108283233546199,0.07206196065640649,0.15151475117170113,0.44999999999999996,1.0,20.739258768347213,-0.8933582509174579,2.437410910240509,0.4410605657550493,-0.031812865247466876,-0.8742109862812912,20.901098420186162,0.9796894046555396,1.0,0.0,38.03280013914253,1.5485675707009359,751.9658926797125,93.61111565512793,-1.129490514063982,6.245477897338052,1.0,753.7197771364247,0.0,1.0,96.9417000742343,5372.753932795699,1.0,1.0,-11.57798291252801,19.189874217290143,-0.22568362465414923,-43.89127370366004,1.0,752.9514625570745,1.0,-0.04327453469090403,0.11328933509971874,0.3723454766178187,1.0,7.8400889685650315,6.148850844977502
0.48,43.47920913183116,-0.4706090107537908,753.5550444793618,94.90477388035497,-1.571020671389583,6.078360193825371,95.11220044703582,17.9059225781454,9.092333306002342,5.289492822363356,-15.680091963533986,26.057363098457298,-1.8321435702347335,-50.05022823552002,3.2754812965560265,7.944712902339017,5442.577376918891,0.289775794805546,97.7672681440037,2.1305465610948047,1.138800495804074,92593.89658561438,283.25189221088414,-1.9099436134253946,10.838895279422252,0.4798619099277814,399.41052631578947,0.2143607312201358,0.85,nominal,11913.015913882093,nan,heading_hold,7.499999999999999,-2.0,0.0,-2.6745320757480173,4.719240968686877,9.743564581689165,-2.546268406755034,4.483083064832078,9.318601059458826,0.85,0.0,0.0,0.0,0.0,0.0,0.0,-0.04444076733738557,0.07824456012171817,0.1626402701673884,-0.04444076733738557,0.07824456012171817,0.1626402701673884,0.48,1.0,20.751247117302174,-1.1449365803623734,2.6969788363165272,0.4523714106491948,-0.03289674683843954,-0.8767459258849467,20.957071158440364,0.9871198041175889,1.0,0.0,38.03280013914253,1.5485675707009359,751.9658926797125,93.61111565512793,-1.129490514063982,6.245477897338052,1.0,753.8546813517604,0.0,1.0,97.95494888165813,5419.02991411847,1.0,1.0,-14.292404403537954,19.153787322326988,-0.47885676349143896,-44.026588626466555,1.0,753.3589153349973,1.0,-0.031332009391561326,0.11942324658917029,0.3720374629338652,1.0,9.959018341086837,5.346654754782445
0.51,46.34360740348226,-0.5240348720828393,753.732600026257,95.47994238836989,-1.7808620443016172,5.918518229842968,95.6797769967314,17.899491756208796,10.022847326586856,5.10617372425771,-17.143122996020153,26.599214262355062,-2.038712029645495,-48.911430095791886,3.573157915312582,9.315528417807085,5509.209607788308,0.29154734980079106,98.36477154454023,2.131883289822687,1.1387807484504677,92591.91369479505,283.25073809982933,-1.9302865979350967,10.75645800810207,0.46955725101275875,399.3769736842105,0.21434272376623625,0.85,nominal,11968.901665119618,nan,heading_hold,7.499999999999999,-2.0,0.0,-2.881349495129498,5.058853265279591,10.26152774495826,-2.7473170597797125,4.8285451851005865,9.884357070758487,0.85,0.0,0.0,0.0,0.0,0.0,0.0,-0.04794972828936586,0.08427401156132427,0.1725145753275177,-0.04794972828936586,0.08427401156132427,0.1725145753275177,0.51,1.0,20.734958457282143,-1.4262839575681636,3.062259752370237,0.4703278412856526,-0.03747397580999443,-0.8609023949604643,21.00833698663031,0.9817155956793665,1.0,0.0,38.03280013914253,1.5485675707009359,751.9658926797125,93.61111565512793,-1.129490514063982,6.245477897338052,1.0,753.8546813517604,0.0,1.0,98.7214590717748,5548.806205422047,1.0,1.0,-14.292404403537954,19.153787322326988,-0.47885676349143896,-44.026588626466555,1.0,753.3589153349973,1.0,-0.031332009391561326,0.11942324658917029,0.3720374629338652,1.0,9.959018341086837,5.346654754782445
0.54,49.224939515904325,-0.5845312776845365,753.9054901859599,96.04440374740217,-2.016546853389909,5.763005323431487,96.23827815772587,17.89306147449581,10.953789766689999,4.910687711004534,-18.544553374496356,26.95338324970317,-2.06433113536338,-46.94813101009796,3.8887771698715166,10.615915054118348,5575.727240590642,0.2933051834376075,98.95764838518438,2.1343303525176043,1.1387615202231245,92589.9829387595,283.24961431379126,-1.9547225898573322,10.657676699454912,0.457209587431864,399.3434210526316,0.21432471631233674,0.85,nominal,12024.19036671405,nan,heading_hold,7.499999999999999,-2.0,0.0,-3.0937662094876184,5.385397151846753,10.685860093224946,-2.955186549604456,5.162656365148287,10.365258884238362,0.85,0.0,0.0,0.0,0.0,0.0,0.0,-0.05157773530124849,0.09010535172088023,0.1809078953515532,-0.05157773530124849,0.09010535172088023,0.1809078953515532,0.54,1.0,20.73209912726437,-1.7253680271809526,3.3897184246535503,0.46430199094452196,-0.03752543810982571,-0.8221893295834644,21.078117089777493,0.9449760795815352,1.0,0.0,38.03280013914253,1.5485675707009359,751.9658926797125,93.61111565512793,-1.129490514063982,6.245477897338052,1.0,754.1040611737162,0.0,1.0,98.73579093166195,5576.356249317993,1.0,1.0,-20.526548301746228,19.102934054173545,-0.7502752933525242,-43.94137361181313,1.0,754.1420716891861,1.0,-0.04148199828159055,0.11354384760266721,0.37174542484503337,1.0,10.551718232987556,5.259756483204476
0.57,52.12286012545658,-0.6528528341842932,754.0738509540389,96.59735365174186,-2.277385216658555,5.612025602630532,96.78703450002651,17.88663173300644,11.877798664047267,4.703711928305202,-19.858572779238003,27.129958677122154,-1.876587330626502,-44.15167570464865,4.213767830061382,11.821348259617674,5642.013030515511,0.29504647463899414,99.54494683774006,2.1378941992363614,1.1387427959772796,92588.10279617133,283.24851996879875,-1.983143937877876,10.542981142764262,0.4428726428455327,399.3098684210526,0.21430670885843717,0.85,nominal,12078.803354113086,nan,heading_hold,7.499999999999999,-2.0,0.0,-3.3070984993600376,5.6972443613453105,11.004652313257683,-3.166333719457805,5.483409162866501,10.748894941649954,0.85,0.0,0.0,0.0,0.0,0.0,0.0,-0.05526294862145714,0.09570354412604642,0.18760360768275547,-0.05526294862145714,0.09570354412604642,0.18760360768275547,0.57,1.0,20.542372125260467,-2.0083519206409144,3.804239207880308,0.4729136979713576,-0.025284694061783786,-0.7657452366575387,20.987967169799795,0.9003623986742518,1.0,0.0,38.03280013914253,1.5485675707009359,751.9658926797125,93.61111565512793,-1.129490514063982,6.245477897338052,1.0,754.1040611737162,0.0,1.0,99.38881217254176,5599.050621041837,1.0,1.0,-20.526548301746228,19.102934054173545,-0.7502752933525242,-43.94137361181313,1.0,754.1420716891861,1.0,-0.04148199828159055,0.11354384760266721,0.37174542484503337,1.0,10.551718232987556,5.259756483204476
0.6,55.03700916511008,-0.7297207615947622,754.2378192635555,97.13830132178316,-2.5622642470156327,5.465610317219217,97.32567840961997,17.880202531740686,12.788387110845191,4.486848125172635,-21.059492268831306,27.14615486469282,-1.4612335416710098,-40.527667200370914,4.538311657857432,12.907902883708147,5707.97484984463,0.2967691189038196,100.1259568381403,2.142478575522521,1.1387245604651903,92586.27173539353,283.24745417478687,-2.0154256788828393,10.41287036888731,0.4266087961109138,399.2763157894737,0.21428870140453765,0.85,nominal,12132.69014922733,nan,heading_hold,7.499999999999999,-2.0,0.0,-3.5127502905162284,5.99358290012567,11.207438725157983,-3.374183662092859,5.789513405222002,11.024021211754771,0.85,0.0,0.0,0.0,0.0,0.0,0.0,-0.05889061447052017,0.1010460710094726,0.19240546695481578,-0.05889061447052017,0.1010460710094726,0.19240546695481578,0.6,1.0,20.452456083254827,-2.3239765508981467,4.062935524848004,0.4725712218426541,-0.026248201159366123,-0.7066749007632704,20.981212355954643,0.8505303893140678,1.0,0.0,38.03280013914253,1.5485675707009359,751.9658926797125,93.61111565512793,-1.129490514063982,6.245477897338052,1.0,755.5157576779009,0.0,1.0,100.212091078419,5705.392229958519,1.0,1.0,-21.956410765180298,19.05313943678002,-1.1543939014518176,-43.981788798539846,1.0,754.8439225828456,1.0,-0.04689726647940166,0.12109454372018696,0.37146848394703713,1.0,12.38928533748818,3.8806165043178256
0.63,57.967023273520574,-0.8158103480119676,754.3975275812228,97.66713694701662,-2.8696528805735126,5.32361058891194,97.85420469650069,17.87377387069855,13.68025581381293,4.262629633394806,-22.122239169418688,27.027134655441966,-0.8111376483079358,-36.09659987717469,4.8517119587707525,13.852677033433572,5773.554227723359,0.29847192690795793,100.70027709531374,2.1478693572646526,1.1387067989370632,92584.48827482689,283.24641607072203,-2.051426088874896,10.267910479013079,0.4084888098766347,399.24276315789473,0.2142706939506381,0.85,nominal,12185.835202246726,nan,heading_hold,7.499999999999999,-2.0,0.0,-3.701544140175495,6.274537373114112,11.285332186055495,-3.5705999489424407,6.080527785957268,11.180807796335205,0.85,0.0,0.0,0.0,0.0,0.0,0.0,-0.06231872538058701,0.10612523012395535,0.1951419090787009,-0.06231872538058701,0.10612523012395535,0.1951419090787009,0.63,1.0,20.406367538867087,-2.7024720728537677,4.42314211205813,0.47195451407299505,-0.02039032692413308,-0.6283792813591851,21.05439093346908,0.7861407952952422,1.0,0.0,58.85255075270273,0.056064625574910876,755.3839708327073,97.75224947340854,-2.787602802286172,5.171576108159217,1.0,755.5157576779009,0.0,1.0,100.63183087998132,5834.574751361253,1.0,1.0,-21.956410765180298,19.05313943678002,-1.1543939014518176,-43.981788798539846,1.0,754.8439225828456,1.0,-0.04689726647940166,0.12109454372018696,0.37146848394703713,1.0,12.38928533748818,3.8806165043178256
0.6599999999999999,60.91254885608662,-0.9117387552586524,754.5530983717462,98.18418608553486,-3.1976135748894925,5.185693017445269,98.37301734685398,17.86734574988003,14.549596484950591,4.034335490490406,-23.022832433643146,26.806740077300933,0.07822894810717063,-30.89435366118029,5.142719712065531,14.634198300279404,5838.733689732381,0.3001547861399822,101.26786962829566,2.1537297388150645,1.1386894977565933,92582.75104471469,283.2454048605836,-2.0909873070416127,10.108732181603072,0.38859152270038405,399.20921052631576,0.21425268649673854,0.85,nominal,12238.263413109502,nan,heading_hold,7.499999999999999,-2.0,0.0,-3.8654320182957447,6.541259888295464,11.231171660062062,-3.7474991905544233,6.356967047360186,11.211026114571318,0.85,0.0,0.0,0.0,0.0,0.0,0.0,-0.06540619959099707,0.11095000541721754,0.19566931822633654,-0.06540619959099707,0.11095000541721754,0.19566931822633654,0.6599999999999999,1.0,20.457960936748744,-2.8939287812263,4.737944595373426,0.4717237556069471,0.0016999047412239623,-0.5316275241208248,21.197903397958388,0.7107418769728503,1.0,0.0,58.85255075270273,0.056064625574910876,755.3839708327073,97.75224947340854,-2.787602802286172,5.171576108159217,1.0,754.4140663259398,0.0,1.0,100.88933410821704,5712.103509188061,1.0,1.0,-22.013301412832515,19.111370644280928,-1.6957981170285659,-43.95822747185572,1.0,754.7433814845697,1.0,-0.03078877021798381,0.12461900724820069,0.37120575135687817,1.0,14.408114389679646,4.2075096948816135
0.69,63.873256278280955,-1.0180532996505745,754.7046383776557,98.6902474064778,-3.5438181463974017,5.051333530317174,98.88295884853486,17.860918169285128,15.394380806420811,3.8058404118470643,-23.73887336977961,26.52813975000868,1.2060835095403597,-24.972465164880603,5.400027843539529,15.23280680389744,5903.542363718629,0.30181877373979243,101.82909784003579,2.159613929934012,1.1386726450369968,92581.05885100346,283.2444198505452,-2.133936030375747,9.936028048231078,0.36700350602888476,399.17565789473684,0.21423467904283902,0.85,nominal,12290.044017266755,nan,heading_hold,7.499999999999999,-2.0,0.0,-3.997280222580243,6.796007151364321,11.039769311671291,-3.897367809769915,6.620391109762667,11.108272032831303,0.85,0.0,0.0,0.0,0.0,0.0,0.0,-0.06802190044172504,0.11554762263511985,0.19387592118010988,-0.06802190044172504,0.11554762263511985,0.19387592118010988,0.69,1.0,20.299344457973714,-3.0509166063032698,5.143935809072344,0.459603827035517,0.017888214312169685,-0.43703369884223214,21.162030932071286,0.634471528093022,1.0,0.0,58.85255075270273,0.056064625574910876,755.3839708327073,97.75224947340854,-2.787602802286172,5.171576108159217,1.0,754.4140663259398,0.0,1.0,101.52367260327804,5882.218614511507,1.0,1.0,-22.013301412832515,19.111370644280928,-1.6957981170285659,-43.95822747185572,1.0,754.7433814845697,1.0,-0.03078877021798381,0.12461900724820069,0.37120575135687817,1.0,14.408114389679646,4.2075096948816135
0.72,66.84885450021646,-1.1352203041001474,754.852232941051,99.18660739785014,-3.9055668149857667,4.919818779847664,99.38531660194135,17.854491128913843,16.214632310187685,3.581531070324785,-24.250054801129316,26.244403724348576,2.5632163821776004,-18.39815191299065,5.612915217301066,15.63101207331258,5968.059099300756,0.303466203478236,102.38474237143507,2.1650017376966035,1.1386562312723336,92579.41073873003,283.24346048588313,-2.1800842755230105,9.750549500261652,0.3438186875327065,399.1421052631579,0.21421667158893948,0.85,nominal,12341.292228205417,nan,heading_hold,7.499999999999999,-2.0,0.0,-4.090363392515018,7.0422071481771695,10.708173500073531,-4.013165159416976,6.873480732811369,10.86821291317664,0.85,0.0,0.0,0.0,0.0,0.0,0.0,-0.07004294545814936,0.11996486985995101,0.18968609914269696,-0.07004294545814936,0.11996486985995101,0.18968609914269696,0.72,1.0,20.243005653368286,-3.2033939440778103,5.353165766546229,0.4553702497862612,0.04157017399102945,-0.3192592438867522,21.182478475555623,0.5576886304768882,1.0,0.0,58.85255075270273,0.056064625574910876,755.3839708327073,97.75224947340854,-2.787602802286172,5.171576108159217,1.0,754.692483164529,0.0,1.0,101.99845697179225,5964.526105523576,1.0,1.0,-24.73772114794911,19.225012315271236,-2.4452153065715176,-43.93438896474098,1.0,754.7987441628221,1.0,-0.05504634918165856,0.10862751095062231,0.3709564725491241,1.0,16.667745555613823,3.879522359389791
0.75,69.83910529489636,-1.263614603273469,754.9959408266584,99.67502648932988,-4.279809972444052,4.7902628535772225,99.88180163200505,17.848064628766174,17.01267755773412,3.3662061362899243,-24.538661095467283,26.018988103348853,4.132437511535547,-11.254136037161517,5.771885493746359,15.813828222385954,6032.412420032237,0.3051005921096821,102.9359897528416,2.169348993569834,1.1386402499130572,92577.80604980752,283.2425263846267,-2.229230203890493,9.553103539478077,0.3191379424347595,399.10855263157896,0.21419866413503993,0.85,nominal,12392.168091735351,nan,heading_hold,7.499999999999999,-2.0,0.0,-4.13855556949732,7.284512557784306,10.235854444997486,-4.088399405465183,7.120099827795131,10.488797832269148,0.85,0.0,0.0,0.0,0.0,0.0,0.0,-0.07135603076194609,0.1242691850657063,0.18306405674914056,-0.07135603076194609,0.1242691850657063,0.18306405674914056,0.75,1.0,20.27320351165044,-3.3441809388505757,5.577236412011906,0.4572691550966243,0.08117855314234339,-0.19836562706339386,21.290652708924604,0.5050088709055697,1.0,0.0,58.85255075270273,0.056064625574910876,755.3839708327073,97.75224947340854,-2.787602802286172,5.171576108159217,1.0,754.692483164529,0.0,1.0,103.26477388097288,6121.217728723726,1.0,1.0,-24.73772114794911,19.225012315271236,-2.4452153065715176,-43.93438896474098,1.0,754.7987441628221,1.0,-0.05504634918165856,0.10862751095062231,0.3709564725491241,1.0,16.667745555613823,3.879522359389791
0.78,72.84383612677314,-1.403509751757425,755.1357899896271,100.157694395893,-4.66317161613187,4.6616387656250104,100.37449771831376,17.841638668842123,17.793375129364108,3.1649106995220486,-24.590033362099497,25.926104873347168,5.891508145440971,-3.6383142221205476,5.869167954500589,15.769098723456406,6096.776951971061,0.3067265388463065,103.48439174369868,2.172145473113354,1.1386246978364774,92576.24447025849,283.2416173650674,-2.2811590057944304,9.344549236884514,0.2930686546105642,399.075,0.2141806566811404,0.85,nominal,12442.872291003663,nan,heading_hold,7.499999999999999,-2.0,0.0,-4.1369695904430115,7.528843914660741,9.62480672310109,-4.1175415164518805,7.365346279914497,9.970403166768314,0.85,0.0,0.0,0.0,0.0,0.0,0.0,-0.07186465654964558,0.12854954313402386,0.17401636301137635,-0.07186465654964558,0.12854954313402386,0.17401636301137635,0.78,1.0,20.212758884976303,-3.49628861586526,5.778018342446908,0.44833069089907046,0.10375575419277759,-0.06392325229463156,21.311150879135326,0.4645985870771381,1.0,0.0,58.85255075270273,0.056064625574910876,755.3839708327073,97.75224947340854,-2.787602802286172,5.171576108159217,1.0,754.2105994569317,0.0,1.0,103.08533918746204,6065.143575566234,1.0,1.0,-24.27547792512936,19.45491414742312,-3.5473597061735878,-43.72778057559869,1.0,754.9228033674175,1.0,-0.05483469545801975,0.13149246032889622,0.37072017500864407,1.0,17.679559101826907,2.86429469559286
0.8099999999999999,75.86295080196844,-1.5550689486913825,755.271774564966,100.63715583984327,-5.051973231131912,4.532819177963027,100.86578219971868,17.835213249141688,18.564326241746063,2.982728001851549,-24.39299287181752,26.05096880797334,7.8160094411723335,4.336719777595309,5.899019390360971,15.48782456810319,6161.366340860874,0.3083495209534677,104.03179637221993,2.172972321922506,1.1386095756813548,92574.72606380541,283.2407334653277,-2.335643839412728,9.125793994959292,0.26572424936991146,399.0414473684211,0.21416264922724088,0.85,nominal,12493.638957418065,nan,heading_hold,7.499999999999999,-2.0,0.0,-4.082429438525953,7.782432705247742,8.879615698744736,-4.096474269696324,7.615598135114444,9.315930685954168,0.85,0.0,0.0,0.0,0.0,0.0,0.0,-0.07149696372943103,0.13291726196648704,0.16259366335747408,-0.07149696372943103,0.13291726196648704,0.16259366335747408,0.8099999999999999,1.0,20.20394061831247,-3.5496577771134175,5.8341948300679,0.456032992995894,0.13548131790250645,0.0732192418693963,21.326910609793188,0.4813339127687995,1.0,0.0,58.85255075270273,0.056064625574910876,755.3839708327073,97.75224947340854,-2.787602802286172,5.171576108159217,1.0,754.2105994569317,0.0,1.0,104.22628395688906,6263.522270449131,1.0,1.0,-24.27547792512936,19.45491414742312,-3.5473597061735878,-43.72778057559869,1.0,754.9228033674175,1.0,-0.05483469545801975,0.13149246032889622,0.37072017500864407,1.0,17.679559101826907,2.86429469559286
0.84,78.8964371052148,-1.7183366794996682,755.4038531836737,101.11621010821223,-5.442257693609527,4.402620623591088,101.3582220829028,17.82878836966487,19.336075676907083,2.8245777499078377,-23.940226934638016,26.489930162036178,9.881069158310737,12.544323950771837,5.857801768154439,14.964507717180954,6226.422966280304,0.3099756156092512,104.58025409728141,2.1715521264721227,1.1385948880349552,92573.25129064672,283.2398749543061,-2.392446820318999,8.897789599621962,0.23722369995274525,399.0078947368421,0.2141446417733413,0.85,nominal,12544.725788727195,nan,heading_hold,7.499999999999999,-2.0,0.0,-3.9735284519076983,8.053875545519185,8.007519480069275,-4.0227067790231485,7.878564581357289,8.530883962423232,0.85,0.0,0.0,0.0,0.0,0.0,0.0,-0.0702094781362499,0.13750689227569335,0.14889201324986562,-0.0702094781362499,0.13750689227569335,0.14889201324986562,0.84,1.0,20.18893088927569,-3.6148528882184605,5.863505557798011,0.46156806697656594,0.17045561279666718,0.2217176568707616,21.33168510178555,0.539684088847014,1.0,0.0,77.88726184371733,0.30629672292928123,754.7717598478448,101.1737413180746,-5.378343929323056,4.357970465398116,1.0,755.3199857455373,0.0,1.0,105.12334630036354,6202.018533474259,1.0,1.0,-22.526390710136894,19.874465109989195,-4.886903423419691,-43.47584585107265,1.0,755.0276590212178,1.0,-0.031072086932781528,0.1284106551466869,0.3704967890136053,1.0,20.208114843625363,2.8385898473075537
0.87,81.94437079400218,-1.8932310978799323,755.5319485818442,101.59778962624621,-5.829813946008804,4.269846605681887,101.85445094653504,17.82236403041167,20.122314068616866,2.6950539777335742,-23.22864012166691,27.350508214185986,12.06227882531153,20.84466194776707,5.743813795424618,14.197517015229314,6292.205003580342,0.3116111638287542,105.13190442355179,2.1677859774044346,1.1385806434763341,92571.821011797,283.23904233421797,-2.4513200573543137,8.66152807909168,0.20769100988646,398.9743421052632,0.2141266343194418,0.85,nominal,12596.401972370199,nan,heading_hold,7.499999999999999,-2.0,0.0,-3.8103907338600407,8.353207243532191,7.018464016510529,-3.8953171519252843,8.163350178662231,7.6234319948756095,0.85,0.0,0.0,0.0,0.0,0.0,0.0,-0.06798610971050438,0.14247733861092327,0.13305398861245887,-0.06798610971050438,0.14247733861092327,0.13305398861245887,0.87,1.0,20.151279743720224,-3.4044706761110266,5.881978104171092,0.47413750058548054,0.2158264840865338,0.3609689494169775,21.266456270665245,0.6337870487299324,1.0,0.0,77.88726184371733,0.30629672292928123,754.7717598478448,101.1737413180746,-5.378343929323056,4.357970465398116,1.0,755.3199857455373,0.0,1.0,105.18136774852218,6292.419811907162,1.0,1.0,-22.526390710136894,19.874465109989195,-4.886903423419691,-43.47584585107265,1.0,755.0276590212178,1.0,-0.031072086932781528,0.1284106551466869,0.3704967890136053,1.0,20.208114843625363,2.8385898473075537
0.8999999999999999,85.00691552637986,-2.079537219869205,755.6559483314342,102.08482441258936,-6.210204066309083,4.133324986334439,102.35703388305593,17.815940231382086,20.940092818767752,2.5983157694223635,-22.25966912688078,28.751341127977838,14.336214327696883,29.085802214859434,5.55686500438652,13.189477597872628,6358.971611595346,0.3132623974470714,105.68885005311816,2.1617743049238003,1.138566854494906,92570.43648090542,283.23823633584567,-2.51200673058918,8.418037387654675,0.17725467345683427,398.9407894736842,0.21410862686554225,0.85,nominal,12648.934598372987,nan,heading_hold,7.499999999999999,-2.0,0.0,-3.5942921088605684,8.691997070153525,5.925138380526864,-3.7147021260864546,8.480538313557007,6.604455826266363,0.85,0.0,0.0,0.0,0.0,0.0,0.0,-0.06483378283104217,0.14801331591309705,0.11526949947087062,-0.06483378283104217,0.14801331591309705,0.11526949947087062,0.8999999999999999,1.0,20.238320897344654,-3.2373001758710824,5.820367985662823,0.5051608826865975,0.24316213170270862,0.5093205680910012,21.306018601820497,0.7574449027958721,1.0,0.0,77.88726184371733,0.30629672292928123,754.7717598478448,101.1737413180746,-5.378343929323056,4.357970465398116,1.0,755.042734827811,0.0,1.0,105.61572054300599,6313.219749616559,1.0,1.0,-21.216455235657303,20.371028242185726,-6.799633997080606,-42.99974568217972,1.0,755.7839244218326,1.0,-0.026546358782341444,0.14603065457144943,0.37028670972380484,1.0,21.438401975256806,2.3301044586258683
0.9299999999999999,88.08431855007247,-2.2769010599761588,755.7757063707533,102.58010078975381,-6.578794670231794,3.9919346439684893,102.86832923475932,17.80951697257612,21.810061808892037,2.5380389418038436,-21.039558475956312,30.822067340281034,16.680432192473976,37.10511494508503,5.297612813366676,11.947678770690182,6426.967221169059,0.31493505449313375,106.25302712057182,2.153822105125407,1.1385535373200923,92569.09932714664,283.2374579085901,-2.5742422071637727,8.16837693312039,0.1460471166400488,398.90723684210525,0.21409061941164267,0.85,nominal,12702.574410656165,nan,heading_hold,7.499999999999999,-2.0,0.0,-3.32717946985602,9.083469949986004,4.7429861574364205,-3.482188532348194,8.842297295414406,5.4875740249683975,0.85,0.0,0.0,0.0,0.0,0.0,0.0,-0.06077565506466505,0.15432720124517108,0.09577623468261605,-0.06077565506466505,0.15432720124517108,0.09577623468261605,0.9299999999999999,1.0,20.241530493987018,-2.9693247685568545,5.496787639773438,0.5288833873020952,0.2883646258538767,0.6506373946851941,21.183746615670646,0.8866796570186559,1.0,0.0,77.88726184371733,0.30629672292928123,754.7717598478448,101.1737413180746,-5.378343929323056,4.357970465398116,1.0,755.042734827811,0.0,1.0,105.314935422386,6419.32537752744,1.0,1.0,-21.216455235657303,20.371028242185726,-6.799633997080606,-42.99974568217972,1.0,755.7839244218326,1.0,-0.026546358782341444,0.14603065457144943,0.37028670972380484,1.0,21.438401975256806,2.3301044586258683
0.96,91.17690225896547,-2.484824891229297,755.8910448776669,103.08612362976653,-6.9307943751046075,3.8446168971200567,103.39035677841098,17.80309425399377,22.75673785039984,2.517437311396773,-19.579595552355606,33.70315218390125,19.072569819503055,44.73103471733729,4.96672139785688,10.484491331329208,6496.406025154927,0.3166340107115258,106.8260808767222,2.1444330957894584,1.1385407117129147,92567.81153429096,283.23670820829517,-2.6377551908270167,7.913632967425933,0.1142041209282416,398.8736842105263,0.21407261195774313,0.85,nominal,12757.541852633127,nan,heading_hold,7.499999999999999,-2.0,0.0,-3.011079277068404,9.54265165015298,3.4901956690541507,-3.19952297918032,9.26250990825755,4.289147011419849,0.85,0.0,0.0,0.0,0.0,0.0,0.0,-0.05584221047991456,0.16166129489769215,0.07485973745135119,-0.05584221047991456,0.16166129489769215,0.07485973745135119,0.96,1.0,20.266676418341902,-2.915521547026781,5.279906092330731,0.5852930565801224,0.3265365829669099,0.7829791311759098,21.145114028559515,1.030655336159276,1.0,0.0,77.88726184371733,0.30629672292928123,754.7717598478448,101.1737413180746,-5.378343929323056,4.357970465398116,1.0,755.6779952061614,0.0,1.0,106.91485443023304,6555.573509694434,1.0,1.0,-17.56753835202187,20.757465905666027,-9.000705816152745,-42.27787398941014,1.0,756.1374533128081,1.0,-0.032173258190331636,0.1316669491974162,0.3700907959352776,1.0,22.632739899339107,2.5380298717227143
0.99,94.28505200526928,-2.702663839230864,756.0017559505176,103.60499154346043,-7.261298266718899,3.6903690950228585,103.92468209860573,17.796672075635037,23.808808669965185,2.5393567952802667,-17.896303666126776,37.54566867202548,21.4883431679961,51.78527175751498,4.5639294865584175,8.81778512546568,6567.457804498617,0.318362954993694,107.40925618755348,2.1343000509325445,1.1385284007789764,92566.57542192366,283.23598858632164,-2.7022689009632295,7.654913860443975,0.08186423255549694,398.84013157894736,0.21405460450384362,0.85,nominal,12814.014394640273,nan,heading_hold,7.499999999999999,-2.0,0.0,-2.647438132928548,10.086534400430034,2.1876691764963114,-2.868272071429257,9.75692460356104,3.028260310465727,0.85,0.0,0.0,0.0,0.0,0.0,0.0,-0.05006079148943851,0.17029045920098262,0.05285311302509263,-0.05006079148943851,0.17029045920098262,0.05285311302509263,0.99,1.0,20.28049776830217,-2.4162341612904554,4.95325153158894,0.6514998514990514,0.37979145451862095,0.9135966047737322,21.015981489987194,1.1846317409569722,1.0,0.0,77.88726184371733,0.30629672292928123,754.7717598478448,101.1737413180746,-5.378343929323056,4.357970465398116,1.0,755.6779952061614,0.0,1.0,107.03207057825595,6602.536221350554,1.0,1.0,-17.56753835202187,20.757465905666027,-9.000705816152745,-42.27787398941014,1.0,756.1374533128081,1.0,-0.032173258190331636,0.1316669491974162,0.3700907959352776,1.0,22.632739899339107,2.5380298717227143
1.02,97.40920082115788,-2.929624001988772,756.1076025683307,104.13829386295329,-7.56533875859692,3.5282205937701296,104.4723261910897,17.79025043749992,24.999473887147342,2.6064334691619595,-16.011590744463728,42.51103386785102,23.898438855843345,58.085574352776305,4.087130293632976,6.971341910940056,6640.236171524157,0.3201241341856199,108.00331144089095,2.1242998399415383,1.1385166308616284,92565.3936347159,283.23530058330584,-2.76750227675817,7.393345277557336,0.04916815969466701,398.8065789473684,0.21403659704994404,0.85,nominal,12872.116090615444,nan,heading_hold,7.499999999999999,-2.0,0.0,-2.2365014188216246,10.734257889138487,0.8589669882400055,-2.4892096798646777,10.34332457490751,1.726684317130294,0.85,0.0,0.0,0.0,0.0,0.0,0.0,-0.04344490468615262,0.18052506943457888,0.030136326476473557,-0.04344490468615262,0.18052506943457888,0.030136326476473557,1.02,1.0,20.351475290055248,-1.9939977334826455,4.471975635437933,0.7400061213234485,0.41884236828711846,1.0154905205306772,20.93220340830878,1.3244844228439239,1.0,0.0,77.88726184371733,0.30629672292928123,754.7717598478448,101.1737413180746,-5.378343929323056,4.357970465398116,1.0,755.1275624435152,0.0,1.0,108.0434242249491,6597.6091293305235,1.0,1.0,-15.64707761156946,21.104723228240765,-12.058086871644328,-41.43474693583386,1.0,756.1390569386979,1.0,-0.01533479752510959,0.13620666621211006,0.36991033119305783,1.0,25.530567913820345,3.3015002845420507
1.05,100.54981193336938,-3.1647621961715466,756.2083184084727,104.68703707371671,-7.8379398060925,3.3571946714010545,105.03370786437728,17.783829339588422,26.366821993063965,2.7212933331738416,-13.95285075262022,48.77069439955218,26.26431659060408,63.44917767634809,3.531579083677449,4.975266224093547,6714.790171949834,0.3219181882342158,108.60846293322821,2.115501924239694,1.1385054315622023,92564.26914445519,283.2346459303449,-2.8331712018917363,7.130065281982219,0.016258160247777338,398.7730263157895,0.21401858959604453,0.85,nominal,12931.910199590122,nan,heading_hold,7.499999999999999,-2.0,0.0,-1.7768538678902055,11.507301207433441,-0.4697759954822013,-2.0617961926799944,11.041710554423068,0.4088081295627968,0.85,0.0,0.0,0.0,0.0,0.0,0.0,-0.03598513206734931,0.19271420422689106,0.00713504786979037,-0.03598513206734931,0.19271420422689106,0.00713504786979037,1.05,1.0,20.341001065354487,-1.5051646227718352,3.863966351891364,0.8506210105905843,0.457277322933551,1.113677378598701,20.759385367850967,1.4740881782749282,1.0,0.0,101.92437772316349,-2.223104175003187,757.1147622731622,104.67830242447863,-7.715936021038556,3.3441725940305176,1.0,755.1275624435152,0.0,1.0,108.03845276938937,6699.145096338356,1.0,1.0,-15.64707761156946,21.104723228240765,-12.058086871644328,-41.43474693583386,1.0,756.1390569386979,1.0,-0.01533479752510959,0.13620666621211006,0.36991033119305783,1.0,25.530567913820345,3.3015002845420507
1.08,103.70736012435677,-3.4069872465286406,756.3036063271136,105.25160636624615,-8.074168345236467,3.1762639546981473,105.60862412631064,17.77740878190054,27.954241717266925,2.8867601179929947,-11.753016790316373,56.50574892336305,28.532857193271244,67.69712712909075,2.8893614019602727,2.86640472800888,6791.09994390088,0.32374408961744167,109.22436444138523,2.109198226710102,1.1384948359089597,92563.2052670083,283.2340265588737,-2.8989897447219435,6.866219383149544,-0.016722577106306955,398.7394736842105,0.21400058214214498,0.85,nominal,12993.39550591397,nan,heading_hold,7.499999999999999,-2.0,0.0,-1.2652360722598592,12.429684141381697,-1.7699568475440837,-1.5838601204279132,11.874494706598245,-0.8984508567013314,0.85,0.0,0.0,0.0,0.0,0.0,0.0,-0.027643573992500985,0.2072490296407774,-0.015680925616801993,-0.027643573992500985,0.2072490296407774,-0.015680925616801993,1.08,1.0,20.425654871182655,-0.9109794551925314,3.2314969453830242,0.983805652807662,0.49950420317776256,1.1859214315921345,20.699754418651214,1.619810993109412,1.0,0.0,101.92437772316349,-2.223104175003187,757.1147622731622,104.67830242447863,-7.715936021038556,3.3441725940305176,1.0,756.7674278600974,0.0,1.0,109.29427861459678,6728.731845375339,1.0,1.0,-11.255963390301924,21.3420317855376,-15.640365599437374,-39.94032705368001,1.0,756.7280776171089,1.0,-0.00044382034578631553,0.1406408011056895,0.36974699472740535,1.0,27.879821779404523,2.4880589790615644
1.1099999999999999,106.88231307190703,-3.655062459416826,756.3931356935689,105.83176491834237,-8.269173762939511,2.9843122151768733,106.19627027278607,17.770988764436275,29.81086792853917,3.106026625073658,-9.450568812024025,65.90649477896045,30.62978396423808,70.65974097181284,2.149283495233091,0.688786964391857,6869.076759851883,0.32559919107603036,109.85012333399293,2.106959179833641,1.138484880653504,92562.20569208317,283.2334446179918,-2.9646714082875505,6.602955552688385,-0.04963055591395179,398.7059210526316,0.21398257468824547,0.85,nominal,13056.506654074648,nan,heading_hold,7.499999999999999,-2.0,0.0,-0.6967521934739673,13.528180793775778,-3.010622374396114,-1.0515953642555458,12.866706358904766,-2.165753767318201,0.85,0.0,0.0,0.0,0.0,0.0,0.0,-0.01835380150496836,0.22456638985017938,-0.037799534027173766,-0.01835380150496836,0.22456638985017938,-0.037799534027173766,1.1099999999999999,1.0,20.52019241496034,-0.47629328004795973,2.3987463694397353,1.149078251410696,0.5290953731597227,1.2294118359585073,20.665409170411195,1.7640227334586582,1.0,0.0,101.92437772316349,-2.223104175003187,757.1147622731622,104.67830242447863,-7.715936021038556,3.3441725940305176,1.0,756.7674278600974,0.0,1.0,109.61378899077134,6792.549402223135,1.0,1.0,-11.255963390301924,21.3420317855376,-15.640365599437374,-39.94032705368001,1.0,756.7280776171089,1.0,-0.00044382034578631553,0.1406408011056895,0.36974699472740535,1.0,27.879821779404523,2.4880589790615644
1.14,110.07511374866809,-3.9076085945665398,756.4765393716027,106.4266892253684,-8.418204504990467,2.7801226011299303,106.7952968451247,17.764569287195627,31.992066538996205,3.3827317625046227,-7.089503770609117,77.17189614597119,32.45192606360682,72.18357694635515,1.2973885103466518,-1.5059108227456282,6948.567270773755,0.3274793729912231,110.4843503013088,2.1107123569757578,1.138475606606459,92561.27451693386,283.23290249408456,-3.0299303835184506,6.341419229696583,-0.0823225962879272,398.6723684210526,0.2139645672343459,0.85,nominal,13121.118368947678,nan,heading_hold,7.499999999999999,-2.0,0.0,-0.06561242453588809,14.32394487827058,-4.158581860117267,-0.4600056004237512,13.741049470524255,-3.36145062299764,0.85,0.0,0.0,0.0,0.0,0.0,0.0,-0.008028612305007881,0.23982655594007174,-0.058668381014523444,-0.008028612305007881,0.23982655594007174,-0.058668381014523444,1.14,1.0,20.763894542046472,0.03665838370689217,1.5728903308651456,1.343881414551241,0.5662633271423074,1.2636580793650725,20.82341577127183,1.929638088758393,1.0,0.0,101.92437772316349,-2.223104175003187,757.1147622731622,104.67830242447863,-7.715936021038556,3.3441725940305176,1.0,756.8326601499483,0.0,1.0,110.5936262407504,7016.172781344334,1.0,1.0,-7.05949491821591,21.31957404370385,-20.191548324438664,-37.99283360241259,1.0,756.7244596745767,1.0,0.0077413663132419284,0.15379650457692381,0.3696028838569977,1.0,31.487035866295127,3.0554622354269574
1.17,113.28616475384116,-4.163106377967937,756.5534120307027,107.03503350576908,-8.516592780046564,2.5624219699985256,107.40389544385522,17.758150350178596,34.55148994592308,3.720692976570843,-4.7192509729318255,90.22612873588963,33.858662185130186,72.14038175180166,0.3187373137077093,-3.657791454509194,7029.36118089545,0.32937926781449745,111.12523507825304,2.1228148440636323,1.1384670588252959,92560.41626522089,283.2324028218004,-3.09448279769639,6.0827483370302255,-0.1146564578712218,398.6388157894737,0.21394655978044638,0.85,nominal,13187.052896348181,nan,heading_hold,7.499999999999999,-2.0,0.0,0.6318455764209921,14.32394487827058,-5.1785887185080925,0.19510510568309486,14.09078671517205,-4.451733480303911,0.85,0.0,0.0,0.0,0.0,0.0,0.0,0.0034052264816215056,0.2459306223760287,-0.07769740665256938,0.0034052264816215056,0.2459306223760287,-0.07769740665256938,1.17,1.0,20.84964654218654,0.6414124235484577,0.43858359913424744,1.5763967862357784,0.5868214797437402,1.2598497423606883,20.864120551909757,2.101572661144367,1.0,0.0,101.92437772316349,-2.223104175003187,757.1147622731622,104.67830242447863,-7.715936021038556,3.3441725940305176,1.0,756.8326601499483,0.0,1.0,111.78436235723466,7053.031911168504,1.0,1.0,-7.05949491821591,21.31957404370385,-20.191548324438664,-37.99283360241259,1.0,756.7244596745767,1.0,0.0077413663132419284,0.15379650457692381,0.3696028838569977,1.0,31.487035866295127,3.0554622354269574
1.2,116.51581500583207,-4.419897670804798,756.6233128306601,107.65500839969658,-8.559709761228715,2.3300266652449144,108.01989857890058,17.751731953385182,37.52914326898455,4.123262408761644,-2.3945612106276855,104.58212465524535,34.65340423874934,70.44207890936964,-0.7974601155177323,-5.699230894768031,7111.200794349559,0.33129252134995546,111.77063459418548,2.120997868526261,1.1384592863159033,92559.63585704967,283.23194846660067,-3.158047948180102,5.828068330295633,-0.14649145871304595,398.60526315789474,0.21392855232654684,0.85,nominal,13254.089255268776,nan,heading_hold,7.499999999999999,-2.0,0.0,1.3936602335978923,14.32394487827058,-6.033456991014111,0.9142381824319735,14.23068161303117,-5.400767586730031,0.85,0.0,0.0,0.0,0.0,0.0,0.0,0.015956466430886516,0.2483722489504115,-0.09426117652342744,0.015956466430886516,0.2483722489504115,-0.09426117652342744,1.2,1.0,20.881127678543194,1.204978268771495,-0.7238950775181403,1.8196936427353707,0.6051460324315753,1.225802251008915,20.92838956630656,2.2759784341152542,1.0,0.0,101.92437772316349,-2.223104175003187,757.1147622731622,104.67830242447863,-7.715936021038556,3.3441725940305176,1.0,756.7786664981109,0.0,1.0,111.6574064069999,7068.585672704622,1.0,1.0,-2.480787299603346,20.969560332093526,-25.565061246823312,-34.82518240344858,1.0,756.5912905469398,1.0,0.02923573504966783,0.15104138077883053,0.36948057264111656,1.0,37.478236179222506,4.801760230372225
