time_s,x_m,y_m,altitude_m,vx_mps,vy_mps,vz_mps,speed_mps,mass_kg,roll_deg,pitch_deg,yaw_deg,p_dps,q_dps,r_dps,alpha_deg,beta_deg,qbar_pa,mach,airspeed_mps,load_factor_g,density_kgpm3,pressure_pa,temperature_k,wind_x_mps,wind_y_mps,wind_z_mps,thrust_n,mass_flow_kgps,propulsion_throttle_actual,propulsion_health,energy_j_per_kg,target_distance_m,guidance_mode,pitch_command_deg,heading_command_deg,roll_command_deg
0.0,0.0,0.0,750.0,86.0,-1.0,9.0,86.47543003651384,18.0,0.0,7.000000000000002,0.0,0.0,0.0,0.0,1.4016805444688731,-6.99563488160828,4536.612575246487,0.2645041814014108,89.24453490674894,1.7205257729526313,1.139195935492775,92633.60556773993,283.275,-2.1576439091004773,9.86942436359809,0.3586780454497614,323.0,0.17335175620624782,0.85,nominal,11093.9875,nan,heading_hold,7.499999999999999,-2.0,0.0
0.03,2.5949261975140976,-0.02888807630962151,750.2637386433568,86.49753991713659,-0.9629358769873837,8.791288111891413,86.94848132018241,17.994799447313813,0.06895755966087255,7.193403095234845,-0.10556200241299275,1.8638651003683908,-6.448876764840874,-3.487902836132251,1.7642640975343076,-6.948368298312302,4581.590222390552,0.2658163708117686,89.6870003205539,1.7526481209161868,1.139166595339428,92630.65919778285,283.27328569881814,-2.1128780731609975,10.04690527549587,0.38086315943698384,328.7375,0.17643103082306932,0.85,nominal,11137.593094509928,nan,heading_hold,7.499999999999999,-2.0,0.0
0.06,5.2049498231078575,-0.05659110793627645,750.5218075140677,87.000787519792,-0.9234343875551645,8.602295690364565,87.4299105070832,17.98950651638912,0.21120598162575846,7.227259422469903,-0.3362640247549001,3.7764172744386064,-1.1471941075127436,-7.626487178837396,1.945559247383967,-6.768020141885336,4627.801294710238,0.2671577103227577,90.13930419300752,1.7839859667332247,1.1391378864913169,92627.77624144037,283.2716082511585,-2.071434949935458,10.211129355173762,0.40139116939672026,334.47499999999997,0.17951030543989083,0.85,nominal,11182.099309296122,nan,heading_hold,7.499999999999999,-2.0,0.0
0.09,7.830312065698946,-0.08313699601875785,750.7744150004075,87.51207475303627,-0.8848629360827132,8.42024954466027,87.92068478117658,17.984121207225925,0.42847513154751327,7.071556727770143,-0.7004286134214744,5.731539980392566,5.122782252382888,-12.07328909986775,1.9253281453559306,-6.447251567500614,4675.412287952368,0.2685325484487548,90.60291349775314,1.814710042160174,1.13910978573048,92624.95436604808,283.2699663024973,-2.0334928581799616,10.361382077277707,0.42017275965971335,340.2125,0.18258958005671233,0.85,nominal,11227.605323059253,nan,heading_hold,7.499999999999999,-2.0,0.0
0.12,10.471318960104849,-0.10863458610492897,751.0214662355188,88.03356314686344,-0.8499196695390374,8.235041170375396,88.4219797723125,17.978643519824224,0.7205772575988566,6.8576351578074854,-1.2017829458603986,7.710324226919084,6.96404435825328,-16.65933273923027,1.844067084422396,-5.983013439259871,4724.606692865597,0.2699456147954078,91.07942408786704,1.8457134403437214,1.1390823035754702,92622.19462680738,283.2683604694691,-1.9992153744787178,10.497009704672017,0.4371262130840022,345.95,0.18566885467353383,0.85,nominal,11274.22791528617,nan,heading_hold,7.499999999999999,-2.0,0.0
0.15,13.12828917961547,-0.13326609941171574,751.2628231160605,88.56567398368738,-0.8210504435595595,8.045229351392342,88.93412420062488,17.973073454184018,1.0868911390999516,6.688882052936692,-1.8417030684193696,9.694704762096716,5.290330356912849,-21.268190848840337,1.8097090522782742,-5.37589732441992,4775.475789896686,0.2713989050151087,91.56950941955733,1.8768222556430214,1.1390554553543533,92619.49856188307,283.2667916497456,-1.9687502321270465,10.61742213279545,0.45217776659943126,351.6875,0.18874812929035537,0.85,nominal,11322.0107879772,nan,heading_hold,7.499999999999999,-2.0,0.0
0.18,15.801520574874532,-0.15728616910496004,751.4984533650961,89.1077131753021,-0.80066898977481,7.854341634519081,89.45678454245287,17.96741101030531,1.5266742122049262,6.578358476671712,-2.618623290240115,11.667763959135499,3.0965138862632364,-25.801808932106525,1.8376252845624326,-4.629808746970552,4828.0399759912225,0.2728923535470092,92.0731473902662,1.907677307817442,1.1390292446232033,92616.86652731137,283.26526005312684,-1.9422284556630498,10.722095457157224,0.46526193214465283,357.425,0.19182740390717687,0.85,nominal,11370.940458030236,nan,heading_hold,7.499999999999999,-2.0,0.0
0.21,18.49128749475722,-0.18102310351927958,751.7284196602604,89.65889732942297,-0.7912311471439846,7.6655431721449405,89.98946865706141,17.961656188188094,2.0383636055591423,6.4891208399928075,-3.5274226828243727,13.609274419555582,2.0369635640997226,-30.17534090547462,1.8943050991364265,-3.7513084278876594,4882.303880204076,0.2744254368838327,92.5901612933949,1.9382271157878495,1.139003664376502,92614.29781857821,283.2637652722083,-1.9197638073091063,10.810574252802013,0.47632178160025157,363.16249999999997,0.19490667852399834,0.85,nominal,11420.989741251411,nan,heading_hold,7.499999999999999,-2.0,0.0
0.24,21.197850204522652,-0.20487920559941702,751.9528068374805,90.21875699218111,-0.7952034026712486,7.479572574002045,90.53176496432405,17.955808987832373,2.6190302533163936,6.389747874206394,-4.560086052913074,15.494996382184992,1.9198507754199052,-34.312488931082775,1.9539744950942035,-2.749123173019348,4938.281838902537,0.2759978974256659,93.12046412026467,1.9685678449857547,1.1389787051453053,92611.7914838396,283.2623067555564,-1.9014524007872344,10.882473555826179,0.4853091944782724,368.9,0.19798595314081988,0.85,nominal,11472.138226950583,nan,heading_hold,7.499999999999999,-2.0,0.0
0.27,23.921459201423495,-0.2293294837870099,752.1716785984504,90.7869665633615,-0.8150092729197623,7.2957253656649215,91.08328686703764,17.94986940923815,3.2644956392818254,6.2742989470363915,-5.7067583349452295,17.299946884229342,1.893538474885068,-38.13832240614171,2.0175851810241556,-1.634122693531655,4995.990423358276,0.27760952823291907,93.66398598140145,1.998833003732873,1.1389543598128478,92609.34680749266,283.26088408911005,-1.887372347521378,10.937480538323786,0.4921850672904733,374.6375,0.20106522775764138,0.85,nominal,11524.36696517903,nan,heading_hold,7.499999999999999,-2.0,0.0
0.3,26.662350210949633,-0.25491947547336624,752.3850822960153,91.36303365087126,-0.8529997228785442,7.113456585496165,91.64350926831209,17.943837452405422,3.969731819786603,6.151103783672603,-6.9560020073582916,19.00142297945218,1.486566023799467,-41.575649830303554,2.100216822553358,-0.4195243202481121,5055.429003066523,0.2792596351247464,94.22049261694234,2.0291336695442324,1.1389306230820506,92606.96325669791,283.25949696507587,-1.8775834091872559,10.975355869474885,0.49691948368436056,380.375,0.20414450237446288,0.85,nominal,11577.64356280382,nan,heading_hold,7.499999999999999,-2.0,0.0
0.32999999999999996,29.42073496684746,-0.2822624454026679,752.5930726527633,91.94615852992753,-0.9114323309767227,6.933011891602316,92.21167730387303,17.937713117334187,4.729066591697262,6.02652714957931,-8.2942635356273,20.57949744798827,0.7764818831936348,-44.5468947302248,2.2140672218058244,0.8790372296285935,5116.568210896062,0.28094673524946107,94.78948367294026,2.0595541521599117,1.1389074888372102,92604.64021644676,283.258145027757,-1.8721267018073386,10.995934756854064,0.49949184460675794,386.1125,0.20722377699128441,0.85,nominal,11631.913571527028,nan,heading_hold,7.499999999999999,-2.0,0.0
0.36,32.19679346097933,-0.3120353402311573,752.7957261424484,92.53528313772897,-0.9924298276163126,6.755116322834426,92.78682632182995,17.93149640402445,5.536147134043371,5.899422457923422,-9.705403158831906,22.01610363425099,0.034320387223831614,-46.97804611619561,2.36270695983092,2.2436831954221255,5179.350481270693,0.28266859690878654,95.37020612465344,2.090184630017243,1.1388849485444632,92602.37682894578,283.25682778007405,-1.8710244949291694,10.999127663428633,0.4998909579285791,391.84999999999997,0.2103030516081059,0.85,nominal,11687.101777213558,nan,heading_hold,7.499999999999999,-2.0,0.0
0.39,34.990669407204834,-0.34497284530941347,752.9931404361101,93.12919820751691,-1.0979168359418725,6.580476455390083,93.36785126869718,17.925187312476208,6.383894642075979,5.764850377606071,-11.17082502171471,23.294674119316053,-0.5845891089443495,-48.8011903437535,2.5447052072182443,3.6545854394391775,5243.695898275431,0.2844224230868604,95.96171620002235,2.121137116249714,1.138862991313548,92600.17199982298,283.2555445871653,-1.8742801150641282,10.984920697126826,0.4981150871408533,397.5875,0.2133823262249274,0.85,nominal,11743.118005924558,nan,heading_hold,7.499999999999999,-2.0,0.0
0.42,37.80246782433054,-0.3818595369889674,753.1854280586175,93.72661390419016,-1.2295563893184647,6.409587416911321,93.95356711543566,17.91878584268946,7.264607070664708,5.618965472325983,-12.669993930921473,24.40091572557795,-1.0806256344103256,-49.955276645165966,2.7582544810465017,5.090256441222308,5309.507150396026,0.2862050050864937,96.5629312229702,2.130785166890967,1.1388416046034686,92598.02446899067,283.25429471761896,-1.8818779400918102,10.953375671281055,0.49417195891013177,399.47763157894735,0.21439674612793488,0.85,nominal,11799.862264928379,nan,heading_hold,7.499999999999999,-2.0,0.0
0.44999999999999996,40.63206591542051,-0.4234783906121033,753.372693673547,94.31993636966563,-1.3872951207711965,6.242187164318567,94.53644739001075,17.91235394030562,8.170178719050705,5.460485229027789,-14.180869729657166,25.324018262257084,-1.4970442086959042,-50.38666732053729,3.0024467032682516,6.528154634408715,5375.963523260157,0.28799382799934065,97.1662548124768,2.1302303510618676,1.1388207767489493,92595.9330643381,283.2530774911219,-1.8937835005688748,10.904629835683219,0.4880787294604023,399.4440789473684,0.21437873867403534,0.85,nominal,11856.632268975824,nan,heading_hold,7.499999999999999,-2.0,0.0
0.48,43.47920913183116,-0.4706090107537908,753.5550444793618,94.90477388035497,-1.571020671389583,6.078360193825371,95.11220044703582,17.9059225781454,9.092333306002342,5.289492822363356,-15.680091963533986,26.057363098457298,-1.8321435702347335,-50.05022823552002,3.2754812965560265,7.944712902339017,5442.577376918891,0.289775794805546,97.7672681440037,2.1305465610948047,1.138800495804074,92593.89658561438,283.25189221088414,-1.9099436134253946,10.838895279422252,0.4798619099277814,399.41052631578947,0.2143607312201358,0.85,nominal,11913.015913882093,nan,heading_hold,7.499999999999999,-2.0,0.0
0.51,46.34360740348226,-0.5240348720828393,753.732600026257,95.47994238836989,-1.7808620443016172,5.918518229842968,95.6797769967314,17.899491756208796,10.022847326586856,5.10617372425771,-17.143122996020153,26.599214262355062,-2.038712029645495,-48.911430095791886,3.573157915312582,9.315528417807085,5509.209607788308,0.29154734980079106,98.36477154454023,2.131883289822687,1.1387807484504677,92591.91369479505,283.25073809982933,-1.9302865979350967,10.75645800810207,0.46955725101275875,399.3769736842105,0.21434272376623625,0.85,nominal,11968.901665119618,nan,heading_hold,7.499999999999999,-2.0,0.0
0.54,49.224939515904325,-0.5845312776845365,753.9054901859599,96.04440374740217,-2.016546853389909,5.763005323431487,96.23827815772587,17.89306147449581,10.953789766689999,4.910687711004534,-18.544553374496356,26.95338324970317,-2.06433113536338,-46.94813101009796,3.8887771698715166,10.615915054118348,5575.727240590642,0.2933051834376075,98.95764838518438,2.1343303525176043,1.1387615202231245,92589.9829387595,283.24961431379126,-1.9547225898573322,10.657676699454912,0.457209587431864,399.3434210526316,0.21432471631233674,0.85,nominal,12024.19036671405,nan,heading_hold,7.499999999999999,-2.0,0.0
0.57,52.12286012545658,-0.6528528341842932,754.0738509540389,96.59735365174186,-2.277385216658555,5.612025602630532,96.78703450002651,17.88663173300644,11.877798664047267,4.703711928305202,-19.858572779238003,27.129958677122154,-1.876587330626502,-44.15167570464865,4.213767830061382,11.821348259617674,5642.013030515511,0.29504647463899414,99.54494683774006,2.1378941992363614,1.1387427959772796,92588.10279617133,283.24851996879875,-1.983143937877876,10.542981142764262,0.4428726428455327,399.3098684210526,0.21430670885843717,0.85,nominal,12078.803354113086,nan,heading_hold,7.499999999999999,-2.0,0.0
0.6,55.03700916511008,-0.7297207615947622,754.2378192635555,97.13830132178316,-2.5622642470156327,5.465610317219217,97.32567840961997,17.880202531740686,12.788387110845191,4.486848125172635,-21.059492268831306,27.14615486469282,-1.4612335416710098,-40.527667200370914,4.538311657857432,12.907902883708147,5707.97484984463,0.2967691189038196,100.1259568381403,2.142478575522521,1.1387245604651903,92586.27173539353,283.24745417478687,-2.0154256788828393,10.41287036888731,0.4266087961109138,399.2763157894737,0.21428870140453765,0.85,nominal,12132.69014922733,nan,heading_hold,7.499999999999999,-2.0,0.0
0.63,57.967023273520574,-0.8158103480119676,754.3975275812228,97.66713694701662,-2.8696528805735126,5.32361058891194,97.85420469650069,17.87377387069855,13.68025581381293,4.262629633394806,-22.122239169418688,27.027134655441966,-0.8111376483079358,-36.09659987717469,4.8517119587707525,13.852677033433572,5773.554227723359,0.29847192690795793,100.70027709531374,2.1478693572646526,1.1387067989370632,92584.48827482689,283.24641607072203,-2.051426088874896,10.267910479013079,0.4084888098766347,399.24276315789473,0.2142706939506381,0.85,nominal,12185.835202246726,nan,heading_hold,7.499999999999999,-2.0,0.0
0.6599999999999999,60.91254885608662,-0.9117387552586524,754.5530983717462,98.18418608553486,-3.1976135748894925,5.185693017445269,98.37301734685398,17.86734574988003,14.549596484950591,4.034335490490406,-23.022832433643146,26.806740077300933,0.07822894810717063,-30.89435366118029,5.142719712065531,14.634198300279404,5838.733689732381,0.3001547861399822,101.26786962829566,2.1537297388150645,1.1386894977565933,92582.75104471469,283.2454048605836,-2.0909873070416127,10.108732181603072,0.38859152270038405,399.20921052631576,0.21425268649673854,0.85,nominal,12238.263413109502,nan,heading_hold,7.499999999999999,-2.0,0.0
0.69,63.873256278280955,-1.0180532996505745,754.7046383776557,98.6902474064778,-3.5438181463974017,5.051333530317174,98.88295884853486,17.860918169285128,15.394380806420811,3.8058404118470643,-23.73887336977961,26.52813975000868,1.2060835095403597,-24.972465164880603,5.400027843539529,15.23280680389744,5903.542363718629,0.30181877373979243,101.82909784003579,2.159613929934012,1.1386726450369968,92581.05885100346,283.2444198505452,-2.133936030375747,9.936028048231078,0.36700350602888476,399.17565789473684,0.21423467904283902,0.85,nominal,12290.044017266755,nan,heading_hold,7.499999999999999,-2.0,0.0
0.72,66.84885450021646,-1.1352203041001474,754.852232941051,99.18660739785014,-3.9055668149857667,4.919818779847664,99.38531660194135,17.854491128913843,16.214632310187685,3.581531070324785,-24.250054801129316,26.244403724348576,2.5632163821776004,-18.39815191299065,5.612915217301066,15.63101207331258,5968.059099300756,0.303466203478236,102.38474237143507,2.1650017376966035,1.1386562312723336,92579.41073873003,283.24346048588313,-2.1800842755230105,9.750549500261652,0.3438186875327065,399.1421052631579,0.21421667158893948,0.85,nominal,12341.292228205417,nan,heading_hold,7.499999999999999,-2.0,0.0
0.75,69.83910529489636,-1.263614603273469,754.9959408266584,99.67502648932988,-4.279809972444052,4.7902628535772225,99.88180163200505,17.848064628766174,17.01267755773412,3.3662061362899243,-24.538661095467283,26.018988103348853,4.132437511535547,-11.254136037161517,5.771885493746359,15.813828222385954,6032.412420032237,0.3051005921096821,102.9359897528416,2.169348993569834,1.1386402499130572,92577.80604980752,283.2425263846267,-2.229230203890493,9.553103539478077,0.3191379424347595,399.10855263157896,0.21419866413503993,0.85,nominal,12392.168091735351,nan,heading_hold,7.499999999999999,-2.0,0.0
0.78,72.84383612677314,-1.403509751757425,755.1357899896271,100.157694395893,-4.66317161613187,4.6616387656250104,100.37449771831376,17.841638668842123,17.793375129364108,3.1649106995220486,-24.590033362099497,25.926104873347168,5.891508145440971,-3.6383142221205476,5.869167954500589,15.769098723456406,6096.776951971061,0.3067265388463065,103.48439174369868,2.172145473113354,1.1386246978364774,92576.24447025849,283.2416173650674,-2.2811590057944304,9.344549236884514,0.2930686546105642,399.075,0.2141806566811404,0.85,nominal,12442.872291003663,nan,heading_hold,7.499999999999999,-2.0,0.0
0.8099999999999999,75.86295080196844,-1.5550689486913825,755.271774564966,100.63715583984327,-5.051973231131912,4.532819177963027,100.86578219971868,17.835213249141688,18.564326241746063,2.982728001851549,-24.39299287181752,26.05096880797334,7.8160094411723335,4.336719777595309,5.899019390360971,15.48782456810319,6161.366340860874,0.3083495209534677,104.03179637221993,2.172972321922506,1.1386095756813548,92574.72606380541,283.2407334653277,-2.335643839412728,9.125793994959292,0.26572424936991146,399.0414473684211,0.21416264922724088,0.85,nominal,12493.638957418065,nan,heading_hold,7.499999999999999,-2.0,0.0
0.84,78.8964371052148,-1.7183366794996682,755.4038531836737,101.11621010821223,-5.442257693609527,4.402620623591088,101.3582220829028,17.82878836966487,19.336075676907083,2.8245777499078377,-23.940226934638016,26.489930162036178,9.881069158310737,12.544323950771837,5.857801768154439,14.964507717180954,6226.422966280304,0.3099756156092512,104.58025409728141,2.1715521264721227,1.1385948880349552,92573.25129064672,283.2398749543061,-2.392446820318999,8.897789599621962,0.23722369995274525,399.0078947368421,0.2141446417733413,0.85,nominal,12544.725788727195,nan,heading_hold,7.499999999999999,-2.0,0.0
0.87,81.94437079400218,-1.8932310978799323,755.5319485818442,101.59778962624621,-5.829813946008804,4.269846605681887,101.85445094653504,17.82236403041167,20.122314068616866,2.6950539777335742,-23.22864012166691,27.350508214185986,12.06227882531153,20.84466194776707,5.743813795424618,14.197517015229314,6292.205003580342,0.3116111638287542,105.13190442355179,2.1677859774044346,1.1385806434763341,92571.821011797,283.23904233421797,-2.4513200573543137,8.66152807909168,0.20769100988646,398.9743421052632,0.2141266343194418,0.85,nominal,12596.401972370199,nan,heading_hold,7.499999999999999,-2.0,0.0
0.8999999999999999,85.00691552637986,-2.079537219869205,755.6559483314342,102.08482441258936,-6.210204066309083,4.133324986334439,102.35703388305593,17.815940231382086,20.940092818767752,2.5983157694223635,-22.25966912688078,28.751341127977838,14.336214327696883,29.085802214859434,5.55686500438652,13.189477597872628,6358.971611595346,0.3132623974470714,105.68885005311816,2.1617743049238003,1.138566854494906,92570.43648090542,283.23823633584567,-2.51200673058918,8.418037387654675,0.17725467345683427,398.9407894736842,0.21410862686554225,0.85,nominal,12648.934598372987,nan,heading_hold,7.499999999999999,-2.0,0.0
0.9299999999999999,88.08431855007247,-2.2769010599761588,755.7757063707533,102.58010078975381,-6.578794670231794,3.9919346439684893,102.86832923475932,17.80951697257612,21.810061808892037,2.5380389418038436,-21.039558475956312,30.822067340281034,16.680432192473976,37.10511494508503,5.297612813366676,11.947678770690182,6426.967221169059,0.31493505449313375,106.25302712057182,2.153822105125407,1.1385535373200923,92569.09932714664,283.2374579085901,-2.5742422071637727,8.16837693312039,0.1460471166400488,398.90723684210525,0.21409061941164267,0.85,nominal,12702.574410656165,nan,heading_hold,7.499999999999999,-2.0,0.0
0.96,91.17690225896547,-2.484824891229297,755.8910448776669,103.08612362976653,-6.9307943751046075,3.8446168971200567,103.39035677841098,17.80309425399377,22.75673785039984,2.517437311396773,-19.579595552355606,33.70315218390125,19.072569819503055,44.73103471733729,4.96672139785688,10.484491331329208,6496.406025154927,0.3166340107115258,106.8260808767222,2.1444330957894584,1.1385407117129147,92567.81153429096,283.23670820829517,-2.6377551908270167,7.913632967425933,0.1142041209282416,398.8736842105263,0.21407261195774313,0.85,nominal,12757.541852633127,nan,heading_hold,7.499999999999999,-2.0,0.0
0.99,94.28505200526928,-2.702663839230864,756.0017559505176,103.60499154346043,-7.261298266718899,3.6903690950228585,103.92468209860573,17.796672075635037,23.808808669965185,2.5393567952802667,-17.896303666126776,37.54566867202548,21.4883431679961,51.78527175751498,4.5639294865584175,8.81778512546568,6567.457804498617,0.318362954993694,107.40925618755348,2.1343000509325445,1.1385284007789764,92566.57542192366,283.23598858632164,-2.7022689009632295,7.654913860443975,0.08186423255549694,398.84013157894736,0.21405460450384362,0.85,nominal,12814.014394640273,nan,heading_hold,7.499999999999999,-2.0,0.0
1.02,97.40920082115788,-2.929624001988772,756.1076025683307,104.13829386295329,-7.56533875859692,3.5282205937701296,104.4723261910897,17.79025043749992,24.999473887147342,2.6064334691619595,-16.011590744463728,42.51103386785102,23.898438855843345,58.085574352776305,4.087130293632976,6.971341910940056,6640.236171524157,0.3201241341856199,108.00331144089095,2.1242998399415383,1.1385166308616284,92565.3936347159,283.23530058330584,-2.76750227675817,7.393345277557336,0.04916815969466701,398.8065789473684,0.21403659704994404,0.85,nominal,12872.116090615444,nan,heading_hold,7.499999999999999,-2.0,0.0
1.05,100.54981193336938,-3.1647621961715466,756.2083184084727,104.68703707371671,-7.8379398060925,3.3571946714010545,105.03370786437728,17.783829339588422,26.366821993063965,2.7212933331738416,-13.95285075262022,48.77069439955218,26.26431659060408,63.44917767634809,3.531579083677449,4.975266224093547,6714.790171949834,0.3219181882342158,108.60846293322821,2.115501924239694,1.1385054315622023,92564.26914445519,283.2346459303449,-2.8331712018917363,7.130065281982219,0.016258160247777338,398.7730263157895,0.21401858959604453,0.85,nominal,12931.910199590122,nan,heading_hold,7.499999999999999,-2.0,0.0
1.08,103.70736012435677,-3.4069872465286406,756.3036063271136,105.25160636624615,-8.074168345236467,3.1762639546981473,105.60862412631064,17.77740878190054,27.954241717266925,2.8867601179929947,-11.753016790316373,56.50574892336305,28.532857193271244,67.69712712909075,2.8893614019602727,2.86640472800888,6791.09994390088,0.32374408961744167,109.22436444138523,2.109198226710102,1.1384948359089597,92563.2052670083,283.2340265588737,-2.8989897447219435,6.866219383149544,-0.016722577106306955,398.7394736842105,0.21400058214214498,0.85,nominal,12993.39550591397,nan,heading_hold,7.499999999999999,-2.0,0.0
1.1099999999999999,106.88231307190703,-3.655062459416826,756.3931356935689,105.83176491834237,-8.269173762939511,2.9843122151768733,106.19627027278607,17.770988764436275,29.81086792853917,3.106026625073658,-9.450568812024025,65.90649477896045,30.62978396423808,70.65974097181284,2.149283495233091,0.688786964391857,6869.076759851883,0.32559919107603036,109.85012333399293,2.106959179833641,1.138484880653504,92562.20569208317,283.2334446179918,-2.9646714082875505,6.602955552688385,-0.04963055591395179,398.7059210526316,0.21398257468824547,0.85,nominal,13056.506654074648,nan,heading_hold,7.499999999999999,-2.0,0.0
1.14,110.07511374866809,-3.9076085945665398,756.4765393716027,106.4266892253684,-8.418204504990467,2.7801226011299303,106.7952968451247,17.764569287195627,31.992066538996205,3.3827317625046227,-7.089503770609117,77.17189614597119,32.45192606360682,72.18357694635515,1.2973885103466518,-1.5059108227456282,6948.567270773755,0.3274793729912231,110.4843503013088,2.1107123569757578,1.138475606606459,92561.27451693386,283.23290249408456,-3.0299303835184506,6.341419229696583,-0.0823225962879272,398.6723684210526,0.2139645672343459,0.85,nominal,13121.118368947678,nan,heading_hold,7.499999999999999,-2.0,0.0
1.17,113.28616475384116,-4.163106377967937,756.5534120307027,107.03503350576908,-8.516592780046564,2.5624219699985256,107.40389544385522,17.758150350178596,34.55148994592308,3.720692976570843,-4.7192509729318255,90.22612873588963,33.858662185130186,72.14038175180166,0.3187373137077093,-3.657791454509194,7029.36118089545,0.32937926781449745,111.12523507825304,2.1228148440636323,1.1384670588252959,92560.41626522089,283.2324028218004,-3.09448279769639,6.0827483370302255,-0.1146564578712218,398.6388157894737,0.21394655978044638,0.85,nominal,13187.052896348181,nan,heading_hold,7.499999999999999,-2.0,0.0
1.2,116.51581500583207,-4.419897670804798,756.6233128306601,107.65500839969658,-8.559709761228715,2.3300266652449144,108.01989857890058,17.751731953385182,37.52914326898455,4.123262408761644,-2.3945612106276855,104.58212465524535,34.65340423874934,70.44207890936964,-0.7974601155177323,-5.699230894768031,7111.200794349559,0.33129252134995546,111.77063459418548,2.120997868526261,1.1384592863159033,92559.63585704967,283.23194846660067,-3.158047948180102,5.828068330295633,-0.14649145871304595,398.60526315789474,0.21392855232654684,0.85,nominal,13254.089255268776,nan,heading_hold,7.499999999999999,-2.0,0.0
1.23,119.76412249312702,-4.67621285409143,756.6858441785776,108.27691624316498,-8.543839442887732,2.084378263916131,108.63347741972682,17.745314096815385,40.95893682533818,4.579554849960791,-0.16473568090344723,120.00614853369585,35.13008452449332,67.06045879445358,-2.0698685631890696,-7.556465363108356,7192.854155168439,0.33319035896370347,112.41084159970724,2.1175438433314464,1.1384523332755296,92558.93772971362,283.2315420128392,-3.2203494084607973,5.578487301085346,-0.17768908736433178,398.57171052631577,0.21391054487264727,0.85,nominal,13321.169441964994,nan,heading_hold,7.499999999999999,-2.0,0.0
1.26,123.03093786902511,-4.930158494602315,756.7406181225558,108.89384586326946,-8.464854683696155,1.8257981326087194,109.23761701232144,17.738896780469204,44.87253421360582,5.083597474185518,1.9132643059346195,136.34592595616124,34.720567216083325,62.033568192387705,-3.492121764259512,-9.151892924629392,7273.417740669781,0.33505221976712896,113.03892000034287,2.1263459997841796,1.1384462428298978,92558.32621293353,283.2311859822034,-3.281116283875296,5.335091155763481,-0.20811360552956487,398.5381578947368,0.21389253741874772,0.85,nominal,13387.51886797687,nan,heading_hold,7.499999999999999,-2.0,0.0
1.29,126.31598712369185,-5.17971763472436,756.787266926363,109.50164182222468,-8.31863800406817,1.5549601269061823,109.82817125401743,17.73248000434664,49.30022786740397,5.635941645221514,3.7702273867686245,153.45475291668154,32.62964221953,55.495433484668645,-5.021809164562735,-10.40933876190137,7352.336909234989,0.336865981203189,113.65078059632536,2.1505327386321142,1.1384410558576576,92557.80541083416,283.2308827649786,-3.3400843769161646,5.0989388907771644,-0.23763263865285444,398.5046052631579,0.2138745299648482,0.85,nominal,13452.661451704309,nan,heading_hold,7.499999999999999,-2.0,0.0
1.3199999999999998,129.6188710712325,-5.422796192183576,756.8255252102609,110.0961315846882,-8.102618581973838,1.2752761299304645,110.40125428184906,17.726063768447695,54.27013957827922,6.230842468195751,5.333317812415609,171.16456036992727,28.48227256421587,47.68956958086064,-6.59020479031818,-11.261285063612627,7429.087055905072,0.33862044917981293,114.24264730702141,2.1614222973405983,1.1384368018573228,92557.37828494183,283.2306340861333,-3.3969972159219037,4.87105798505082,-0.26611775186864745,398.4710526315789,0.21385652251094864,0.85,nominal,13516.141510305953,nan,heading_hold,7.499999999999999,-2.0,0.0
1.3499999999999999,132.93885681390498,-5.657435460909655,756.8554358018897,110.66619142241638,-7.821308957535985,0.9970197209577267,110.94671174070963,17.719648072772365,59.81050595565335,6.868439989531106,6.503379021969697,189.28253607175736,20.97562638313946,38.96210456374133,-8.07573610066549,-11.658096788734369,7502.351514008322,0.34028667671777946,114.80475424056587,2.185391772495862,1.1384334760588337,92557.04435606916,283.23043966728767,-3.4516068639195305,4.652439929510539,-0.29344500881118263,398.4375,0.21383851505704912,0.85,nominal,13576.802782544659,nan,heading_hold,7.499999999999999,-2.0,0.0
1.38,136.27517499935186,-5.881845119504066,756.8773240078817,111.2106061815633,-7.480321953147065,0.7296068664014104,111.46428338249433,17.713232917320653,65.94434579236832,7.514505993326418,7.204411706224933,207.590735719902,10.832954523930304,29.78117084450588,-9.359985638192718,-11.578347797580172,7572.078974306882,0.3418647966530824,115.33714597437242,2.2176065182270515,1.1384310422847916,92556.79999161296,283.2302973939488,-3.503675035690855,4.444035913189289,-0.3194955108513388,398.40394736842103,0.21382050760314958,0.85,nominal,13634.574244468393,nan,heading_hold,7.499999999999999,-2.0,0.0
1.41,139.62710374096932,-6.094537891524381,756.8918410115848,111.7309580539149,-7.089759067343816,0.483900123436841,111.95671409347516,17.706818302092557,72.68963232185234,8.112345832611464,7.373150207374175,225.87026319458403,-1.8284443751169785,20.647970392088915,-10.316569529598459,-11.034159346639143,7638.626479978108,0.343364056983628,115.8429418688826,2.250249654794964,1.13842942812515,92556.63792107088,283.2302030334247,-3.55297406731205,4.246752684682293,-0.3441559144147134,398.3703947368421,0.21380250014925004,0.85,nominal,13689.726287960326,nan,heading_hold,7.499999999999999,-2.0,0.0
1.44,142.99406553764638,-6.294481365893171,756.8999649475971,112.2320598892356,-6.664782478959665,0.27079786707765596,112.43010239236477,17.70040422708808,80.05961809935123,8.58822803841283,6.942608061800498,243.91270615567697,-17.572394753331167,12.095983684780212,-10.797694408211118,-10.077648502267245,7702.812519381269,0.3448038220723555,116.32867383931156,2.273405597631914,1.1384285248176333,92556.54722403137,283.23015022784057,-3.5992879008388385,4.061448606959062,-0.36731892413011724,398.33684210526314,0.2137844926953505,0.85,nominal,13742.917003232167,nan,heading_hold,7.499999999999999,-2.0,0.0
1.47,146.3757374814495,-6.481287047920367,756.9029549814557,112.7223981267711,-6.226856067573192,0.09966779528500802,112.89429883570727,17.693990692307217,88.06184847073192,8.843127132584252,5.831582435533091,261.5365506238655,-37.377719359865665,4.6739939823782874,-10.63077092945892,-8.808109555168647,7765.979794846781,0.3462147878262947,116.80469638505673,2.2778690981785252,1.1384281923533044,92556.51384278966,283.2301307926205,-3.6424130868534896,3.8889299226973084,-0.38888375966283645,398.30328947368423,0.21376648524145098,0.85,nominal,13795.24371827188,nan,heading_hold,7.499999999999999,-2.0,0.0
1.5,149.7721664086716,-6.655430643557691,756.9022291113797,113.21429757407034,-5.804786521244123,-0.024195669199483877,113.36301560552178,17.687577697749973,96.69522049997349,8.732503425986176,3.9342857332207584,278.60868660552234,-62.771842471767954,-1.093068604754363,-9.612033218009119,-7.379673432129141,7830.019038794728,0.34763930720776004,117.28529657289296,2.260166611672133,1.13842827306339,92556.52194652459,283.230135510776,-3.6821598447359585,3.7299472463878893,-0.40875659420151383,398.2697368421052,0.21374847778755138,0.85,nominal,13848.261898703999,nan,heading_hold,7.499999999999999,-2.0,0.0
1.53,153.1838704420036,-6.818486265933444,756.8991336997315,113.72346777773342,-5.435187412525128,-0.10318038827564714,113.85332244513098,17.681165243416345,105.93952899614148,8.031416472161137,1.1237417642488012,295.06894027015016,-95.77184247176795,-4.736836618765149,-7.50351805246015,-6.010368970456096,7897.3096758305255,0.3491298403268273,117.78817144845218,2.217179403664382,1.1384286172447826,92556.55650422437,283.23015563095174,-3.7183532248320543,3.5851922984733933,-0.42685096269082584,398.2361842105263,0.21373047033365186,0.85,nominal,13903.934405393955,nan,heading_hold,7.499999999999999,-2.0,0.0
1.56,156.6119092648198,-6.973555250417169,756.8944480684829,114.2679607605388,-5.1689661494575025,-0.1561877082843733,114.38491798321355,17.674753329306334,115.69952788166638,6.5107089989689975,-2.4446342261692617,310.9571785825503,-128.77184247176794,-5.447419390774211,-4.339668651797948,-4.9810615609212965,7970.65255524599,0.3507471914343437,118.33383391794885,2.172560596719873,1.1384291382441643,92556.60881542481,283.23018608755484,-3.750834603964811,3.4552948957298595,-0.44308813803376756,398.2026315789473,0.21371246287975232,0.85,nominal,13964.553670164034,nan,heading_hold,7.499999999999999,-2.0,0.0
1.5899999999999999,160.05754861357406,-7.125214085291961,756.8877409430917,114.85464495847526,-5.055294495826392,-0.22357084637644692,114.96606218750075,17.66834195541994,125.84433289045981,3.9518522472935698,-6.562964067355704,326.42641122798653,-161.77184247176794,-3.321487759965532,-0.20714298452900662,-4.583678741817162,8051.318276558493,0.35251742149990334,118.93107696413331,2.135954433113416,1.1384298840155413,92556.68369497835,283.2302296838699,-3.779463335838813,3.3408202109861977,-0.4573974736267253,398.1690789473684,0.21369445542585278,0.85,nominal,14031.130892169715,nan,heading_hold,7.499999999999999,-2.0,0.0
1.6199999999999999,163.52136729114565,-7.279361231770412,756.8765359611696,115.4606225857198,-5.138238215948382,-0.37349939740334115,115.57550069822636,17.661931121757164,136.2278145695077,0.19422261060938745,-10.932614296547728,341.7493548873004,-192.9381196882821,1.1544969135934633,4.688627862806629,-5.088029655956328,8136.549780649956,0.35437815007933604,119.55885834277733,2.1081441943535753,1.1384311299085152,92556.80878952025,283.2303025162524,-3.804118617532228,3.242266314104071,-0.4697167107369911,398.13552631578943,0.21367644797195323,0.85,nominal,14101.271462206465,nan,heading_hold,7.499999999999999,-2.0,0.0
1.65,167.00155191984877,-7.442314232940131,756.855605700879,116.00615429010347,-5.431766705657292,-0.6976753430206568,116.13534635763669,17.655520828318004,146.75790956502243,-4.618609658363235,-15.026018102070532,357.3137613669158,-211.5339781265982,6.9208788276968285,9.767790204695945,-6.670474488325698,8215.676268425173,0.35609666352251357,120.13867323930691,2.3311191452432163,1.1384334571675607,92557.04245927975,283.23043856294424,-3.8247010902193748,3.160062004917228,-0.4799922493853465,398.1019736842105,0.21365844051805372,0.85,nominal,14165.927362450642,nan,heading_hold,7.499999999999999,-2.0,0.0
1.68,170.49486701951633,-7.618775500593243,756.8175796566101,116.44383665558584,-5.882042255103731,-1.267534808963851,116.59919451117798,17.64911107510246,157.4935725469854,-10.180176144567813,-18.411109821983803,373.59285497818314,-217.42843130357738,12.37619848765516,14.436181406441381,-9.355616786264013,8281.940996925017,0.35752903412861636,120.62197416276531,2.430787366241551,1.1384376853352562,92557.4669911336,283.230685732232,-3.84113239362534,3.0945649475589807,-0.4881793815551274,398.06842105263155,0.21364043306415414,0.85,nominal,14219.531197867254,nan,heading_hold,7.499999999999999,-2.0,0.0
1.71,173.99653141932455,-7.8095103099299426,756.7570610309509,116.72214666027362,-6.357826977889996,-2.017287521972282,116.91257816766131,17.642701862110535,168.61515633766916,-16.486404579786594,-20.88312172904306,391.1121585508463,-225.8644610420237,15.577168448780933,18.604970466117287,-13.050211004296168,8327.267224281333,0.35850475082793204,120.95124225882961,2.6213125767134837,1.1384444145085113,92558.14263879771,283.2310791032988,-3.85334937987977,3.046060114295215,-0.49424248571309815,398.03486842105264,0.21362242561025463,0.85,nominal,14255.527099463932,nan,heading_hold,7.499999999999999,-2.0,0.0
1.74,177.50155523538794,-8.013488789802262,756.6690482634278,116.83412720211271,-6.79928266241062,-2.933758917435185,117.0685716372607,17.636293189342226,-179.54197717531804,-23.529027167895997,-22.111721190802058,410.3692402118422,-239.01919168494516,16.09359504892076,22.187081137066087,-17.632904390798025,8350.353998746285,0.3589994661272705,121.11827012149529,2.6861242958123444,1.1384542008584384,92559.1252462426,283.2316511862877,-3.861306791196436,3.014758545633688,-0.498155181795789,398.00131578947367,0.21360441815635509,0.85,nominal,14272.913754746765,nan,heading_hold,7.499999999999999,-2.0,0.0
1.77,181.0069033268753,-8.228259517989732,756.5511052876096,116.84493638291124,-7.159024272915672,-3.9314325272741617,117.13004289499463,17.629885056797534,-166.48571832402345,-31.164991147188225,-21.57601573621071,428.77474646816455,-256.55113840435166,15.321550145618223,25.108652096428795,-22.981400671452537,8359.697125936214,0.3591976954111568,121.18531218896135,2.7502763146898994,1.1384673153206537,92560.4420189677,283.2324178156305,-3.8649742340425153,3.00079643210428,-0.499900445986965,397.96776315789475,0.21358641070245554,0.85,nominal,14278.955370960377,nan,heading_hold,7.499999999999999,-2.0,0.0
1.7999999999999998,184.51023651251427,-8.450817340624264,756.4014359511064,116.7777728546324,-7.418594087817713,-4.988977883442129,117.1194845935099,17.62347746447646,-151.34305093054098,-38.98702266094736,-18.447727458150336,446.70193648271186,-276.27226791908396,14.212433949739669,27.14614660063291,-28.960830708934218,8358.356574791367,0.3591656519852477,121.17470955561697,2.8750401753050445,1.1384839577062584,92562.11302204651,283.2333906663178,-3.864339215647018,3.0042345217052913,-0.4994706847868386,397.9342105263158,0.213568403248556,0.85,nominal,14276.250977594616,nan,heading_hold,7.499999999999999,-2.0,0.0
1.8299999999999998,188.0089438920564,-8.6773291186285,756.2183081625053,116.62357931807104,-7.550392600141191,-6.104259620034082,117.02704673229796,17.617070412379,-132.77998544822367,-46.148441566417894,-11.521462307688495,464.4508013926998,-295.29706328018796,12.509607054263405,27.86951582520462,-29.999999999999996,8344.91404540231,0.3588727538223359,121.07614648066345,2.9311269444660923,1.1385043207361023,92564.15760966211,283.2345809969437,-3.8594080738577583,3.025057855593936,-0.496867768050758,397.9006578947368,0.21355039579465646,0.85,nominal,14263.633105183559,nan,heading_hold,7.499999999999999,-2.0,0.0
1.8599999999999999,191.5014686137957,-8.901701373974701,756.0013273384309,116.41749072464376,-7.479075178206701,-7.2326941358139685,116.88148089670159,17.61066390050516,-109.66863151417617,-51.41238486028127,0.14730772069463718,479.5559897983576,-312.711112713036,16.767850551922198,26.739088086768735,-29.999999999999996,8323.151329003227,0.3583998058732604,120.9168848074624,2.988342308934654,1.1385284484399125,92566.5802074418,283.2359913723002,-3.8502040506995967,3.063175833171029,-0.4921030208536214,397.8671052631579,0.2135323883407569,0.85,nominal,14244.480705046433,nan,heading_hold,7.499999999999999,-2.0,0.0
1.89,194.98701209427128,-9.116866237449948,755.7518133426335,116.18478268251876,-7.172162115841567,-8.317133193248551,116.70269208957546,17.604257928854935,-82.5184302123252,-53.286878144015695,15.856071933347312,492.09578405739325,-327.48057762954625,28.02824776346254,22.954707356787242,-29.999999999999996,8295.752500077295,0.35780403051408244,120.71622780192675,3.0793332601761305,1.138556194231432,92569.3661025796,283.2376132132729,-3.8367666284168793,3.11842260627668,-0.485197174215415,397.8335526315789,0.21351438088685737,0.85,nominal,14221.152690793664,nan,heading_hold,7.499999999999999,-2.0,0.0
1.92,198.4655336594639,-9.315258480232744,755.4732758637391,115.95071883975346,-6.6130747594265555,-9.284582629810053,116.50967956285476,17.597852497428327,-54.691494015023075,-50.86357757555736,31.914065766262222,507.1468894312385,-338.75228637930167,45.72923821558274,15.21399939340595,-29.999999999999996,8265.30073946966,0.3571407201017249,120.49282467293511,2.9558723893050365,1.1385871680261368,92572.47613340526,283.23942370688565,-3.8191506360089194,3.190557800781887,-0.4761802749022641,397.8,0.21349637343295785,0.85,nominal,14195.914716668683,nan,heading_hold,7.499999999999999,-2.0,0.0
1.95,201.94045226829945,-9.49270786339811,755.1707809450216,115.83062029451908,-5.914979438845534,-10.083163957246965,116.4190266879248,17.591447606225337,-29.94461653474353,-44.730448497777644,44.350696526421224,520.0,-341.8245258940472,69.66595302534061,2.4538398963338293,-29.999999999999996,8248.11855687257,0.356762800546727,120.36573922558173,2.478352039887953,1.1386208066550663,92575.85375863282,283.24138992385735,-3.7974269379733583,3.279267562436437,-0.4650915546954454,397.76644736842104,0.21347836597905828,0.85,nominal,14182.39042643637,nan,heading_hold,7.499999999999999,-2.0,0.0
1.98,205.4162208896098,-9.656256111304666,754.8425949115046,115.85895404367855,-5.451608263551859,-10.939534450565823,116.50189130975325,17.585043255245964,-9.017922737117214,-35.210530374529576,52.7531061962158,520.0,-374.8245258940472,98.13780894933589,-12.332217979321587,-29.999999999999996,8255.010286150557,0.35690475236093055,120.41408481037777,3.0766609618348624,1.13865730309727,92579.51836090401,283.2435231330752,-3.7716946270270597,3.3841659224227327,-0.4519792596971584,397.7328947368421,0.21346035852515877,0.85,nominal,14188.822472763688,nan,heading_hold,7.499999999999999,-2.0,0.0
2.01,208.88711544470422,-9.810485529267867,754.4805495497225,115.69648516981354,-5.140980598773382,-12.0681787260715,116.43774001555619,17.578639444490207,8.683146976140467,-23.14165392470824,57.231852184654194,520.0,-407.82452589404716,131.1378089493359,-25.696187709302055,-29.999999999999996,8241.669205051861,0.35660844920826246,120.31461656473293,3.0511931157948626,1.1386975659573482,92583.56118064589,283.24587642792676,-3.7420800565068904,3.504796476674106,-0.4369004404157367,397.69934210526316,0.21344235107125922,0.85,nominal,14177.800331206912,nan,heading_hold,7.499999999999999,-2.0,0.0
2.04,212.3512527909788,-9.947527443748069,754.0900807273806,115.47124487581982,-4.568063816006715,-13.015627411395762,116.29222741486609,17.572236173958068,24.460642399644012,-9.25875515805962,58.20249263254295,520.0,-440.82452589404716,164.1378089493359,-35.0,-29.999999999999996,8215.956643964972,0.35604335265625814,120.12449921784952,2.833946020066933,1.1387409909951924,92587.92155434546,283.248414475272,-3.7087062859961586,3.640634371651082,-0.41992070354361477,397.66578947368424,0.2134243436173597,0.85,nominal,14157.038568720633,nan,heading_hold,7.499999999999999,-2.0,0.0
2.07,215.80904459253944,-10.061960590781867,753.6821742977063,115.25972671868799,-3.8144382344599332,-13.596880989143004,116.12161605379106,17.565833443649545,39.88638635908335,5.698080558550873,55.68353329930943,520.0,-473.8245258940472,197.13780894933586,-35.0,-29.999999999999996,8185.970798911062,0.3553842893025567,119.90270080412701,2.8117260904479413,1.1387863566670555,92592.4768317695,283.2510658670649,-3.671704591569542,3.791088587935594,-0.4011139265080508,397.6322368421052,0.2134063361634601,0.85,nominal,14133.212152048633,nan,heading_hold,7.499999999999999,-2.0,0.0
2.1,219.26152263851836,-10.152153074644552,753.2654690510379,115.08260153263085,-3.006416128756164,-13.890174888943926,115.95680519875917,17.559431253564643,56.91556754938047,20.565034786260064,49.036713556348936,520.0,-498.2842278333384,230.13780894933583,-35.0,-29.999999999999996,8156.2917702982995,0.35473054993281783,119.68270865033352,2.7928150395668814,1.1388327023347629,92597.13055699036,283.2537744511682,-3.631225668496571,3.9555045117074887,-0.3805619360365639,397.5986842105263,0.2133883287095606,0.85,nominal,14110.001148020852,nan,heading_hold,7.499999999999999,-2.0,0.0
2.13,222.71003535652898,-10.219825254289626,752.8491432913146,114.95042393368765,-2.255739321502486,-13.87752532411216,115.80705518897568,17.553029603703358,77.79511041986173,33.402702355958894,37.29788268617988,520.0,-494.41121681147223,263.1378089493358,-35.0,-29.999999999999996,8128.640728400987,0.3541198540090325,119.4772363825521,2.761149391994389,1.1388790072371744,92601.78023327161,283.25648056860643,-3.58743458933429,4.1331667829149525,-0.35835415213563093,397.56513157894733,0.21337032125566102,0.85,nominal,14088.565066829,nan,heading_hold,7.499999999999999,-2.0,0.0
2.16,226.15606001899508,-10.270259438318023,752.4410392026379,114.8674887488697,-1.6811394676132099,-13.60346962255802,115.68241260949364,17.54662849406569,104.13266480764983,41.993705175381976,19.71886665880521,520.0,-465.92530842315733,296.1378089493358,-35.0,-29.999999999999996,8104.911416464791,0.3535938967145632,119.30034116924526,2.728623754365427,1.1389243991005613,92606.33827045596,283.25913324518285,-3.540512839259339,4.323302407746816,-0.334587199031648,397.5315789473684,0.2133523138017615,0.85,nominal,14070.136210673114,nan,heading_hold,7.499999999999999,-2.0,0.0
2.19,229.60071406576267,-10.311385856914358,752.0462802911145,114.82180155891973,-1.3708806198778323,-13.158630384112074,115.58146469263822,17.54022792465164,134.66993778981148,44.21857176195138,-2.133531807912102,520.0,-432.92530842315733,329.1378089493358,-35.0,-29.999999999999996,8085.367728618653,0.353158914876784,119.15412073371179,2.701589160986158,1.1389683079476278,92610.74743074027,283.26169917810773,-3.4906595490972023,4.525084121864502,-0.30936448476693723,397.49802631578945,0.21333430634786196,0.85,nominal,14054.592144864646,nan,heading_hold,7.499999999999999,-2.0,0.0
2.2199999999999998,233.04452887584134,-10.352479557596368,751.6665268717535,114.79382700262212,-1.3697900227336963,-12.658447312033868,115.49777197403357,17.533827895461204,163.92945478143267,39.46103587280968,-22.614751335497655,520.0,-399.92530842315733,362.1378089493358,-35.0,-29.999999999999996,8069.459183518872,0.35280323158572774,119.0346335426049,2.717997142212893,1.1390105489630356,92614.98915137326,283.2641675753336,-3.4380917122522208,4.737633989760596,-0.2827957512799255,397.46447368421053,0.21331629889396245,0.85,nominal,14041.198211229808,nan,heading_hold,7.499999999999999,-2.0,0.0
2.25,236.48710404780377,-10.402445330280488,751.3002031349882,114.75250573208059,-1.6655257561373449,-12.210791225509647,115.41236922526342,17.527428406494387,-171.9992155590524,29.40512923445019,-37.648100446127295,520.0,-366.9253084231574,395.13780894933575,-35.0,-29.2688063554011,8054.714012028658,0.35247296253872296,118.92370169794039,2.7325392577459904,1.1390512972936353,92619.0810159401,283.26654867962253,-3.38304288915166,4.960027224583431,-0.25499659692707105,397.43092105263156,0.21329829144006288,0.85,nominal,14027.745622167997,nan,heading_hold,7.499999999999999,-2.0,0.0
2.28,239.9275070877106,-10.468864347225665,750.9425546188378,114.68010133022774,-2.2139672315058943,-11.921617205014531,115.31934897837563,17.521029457751187,-152.74276445984955,16.191741295231825,-47.24694116243687,520.0,-334.3718323002795,421.26568712857625,-35.0,-28.388720440770708,8040.27846571478,0.352149377469182,118.81501225919027,2.7547154773946665,1.1390910817046689,92623.07611884712,283.2688733949775,-3.325762115119743,5.191296211808001,-0.2260879735239999,397.39736842105265,0.21328028398616336,0.85,nominal,14013.506927651017,nan,heading_hold,7.499999999999999,-2.0,0.0
2.31,243.36434315337323,-10.557011982334586,750.586390916584,114.56120218875373,-2.9382545036307137,-11.872123408458796,115.21219423605426,17.514631049231603,-136.4670343051678,0.9074109699802203,-52.383955229258405,520.0,-321.70449144141435,440.236708636279,-35.0,-27.638390974849543,8025.023389215335,0.351807590814735,118.70017867009501,2.781622779645223,1.139130702003157,92627.05477435279,283.2711884590422,-3.2665117338134912,5.430434719246531,-0.19619566009418363,397.3638157894737,0.21326227653226382,0.85,nominal,13997.662880825264,nan,heading_hold,7.499999999999999,-2.0,0.0
2.34,246.79610064020173,-10.669131858374339,750.2229098801072,114.39191622761675,-3.737329201325091,-12.116034549227694,115.09246900203003,17.508233180935637,-121.0773717086564,-15.627737367534346,-53.27248602533705,520.0,-327.423947550352,455.4746791410745,-35.0,-27.01259001053272,8008.716228311419,0.35144226257215705,118.57741110715025,2.8073976661609903,1.1391711373822047,92631.11531346831,283.2735510857793,-3.2055650664095157,5.676402275081294,-0.16544971561483818,397.33026315789476,0.21324426907836427,0.85,nominal,13980.311709667374,nan,heading_hold,7.499999999999999,-2.0,0.0
2.37,250.221514617192,-10.80389940698954,749.8428078551407,114.18046589967598,-4.492251620506721,-12.670067498883308,114.96908161812581,17.501835852863287,-103.67721187584435,-32.39013643531437,-48.62589664251751,519.4429861517109,-349.7049488193858,470.1357343538187,-35.0,-26.76176438660313,7991.913186466111,0.35106534285539803,118.45075409577306,2.7992496691777324,1.1392134229344908,92635.36168404638,283.27602174894156,-3.143203614499481,5.928128694871233,-0.13398391314109595,397.29671052631574,0.2132262616244647,0.85,nominal,13962.390835710252,nan,heading_hold,7.499999999999999,-2.0,0.0
2.4,253.64012480400066,-10.956400478942221,749.4380824420665,113.9536728936212,-5.083369065089355,-13.490847102471136,114.86201792821063,17.495439065014555,-79.14635976783083,-47.222787068301436,-34.43393921738404,514.4499240175782,-382.7049488193858,490.7983845957673,-35.0,-27.44200909860537,7976.541794781683,0.35071900702714137,118.33444856524142,2.800167079116451,1.139258449107012,92639.88331201384,283.27865246412654,-3.0797131918779757,6.184518737835698,-0.1019351577705377,397.2631578947368,0.2132082541705652,0.85,nominal,13946.118552450782,nan,heading_hold,7.499999999999999,-2.0,0.0
2.4299999999999997,257.0519595276541,-11.11866501396265,749.0028637642613,113.72782412178132,-5.408817834014292,-14.507289260173962,114.77689110406648,17.48904281738944,-41.13994203194693,-54.56976055887655,-5.386312580255691,510.58201944089967,-415.7049488193858,518.2877453050354,-35.0,-29.39551084888489,7962.5744572801095,0.3504026130413061,118.22828589087521,2.830318216805518,1.139306869209843,92644.74581283715,283.2814813855323,-3.0153814863145305,6.444456872156311,-0.06944289098046108,397.22960526315785,0.21319024671666562,0.85,nominal,13932.076299691162,nan,heading_hold,7.499999999999999,-2.0,0.0
2.46,260.4572955555937,-11.280317613857598,748.5347087322846,113.51120093132054,-5.388419996498285,-15.605167732556993,114.70548839044507,17.48264710998794,-1.8929747397516992,-47.684120807593835,25.220292092597678,508.05139128475435,-448.7049488193857,520.0,-35.0,-29.999999999999996,7948.168089210502,0.350075602325415,118.11858460365124,2.806100498670633,1.1393589553929,92649.97652731561,283.28452439324013,-2.9504949047607285,6.706812128563379,-0.036648483929577653,397.19605263157894,0.2131722392627661,0.85,nominal,13919.292434834722,nan,heading_hold,7.499999999999999,-2.0,0.0
2.4899999999999998,263.85742249133745,-11.430820662019045,748.0362370651036,113.33756452479115,-5.016768272048229,-16.61572223936753,114.65885801734832,17.47625194281006,23.458971154584162,-30.77439283888088,41.156343100115194,507.07785959296115,-481.7049488193858,520.0,-35.0,-29.999999999999996,7934.548743445227,0.3497650299362638,118.01446963958637,2.7809141727964763,1.1394144165589775,92655.54623360852,283.2877644590768,-2.885334889129988,6.970443021089426,-0.0036946223638218215,397.16249999999997,0.21315423180886656,0.85,nominal,13909.056425135717,nan,heading_hold,7.499999999999999,-2.0,0.0
2.52,267.2538707152678,-11.561889317383576,747.5144089589744,113.21494079767744,-4.368955178817717,-17.394270204304636,114.62666018477765,17.469857315855794,40.576774900855675,-10.294145107595218,46.71805081632009,507.4202713469361,-495.70510105574317,520.0,-35.0,-29.999999999999996,7920.6794122321,0.34944821181715824,117.90827767862073,2.7699366287635274,1.13947247863184,92661.37720509477,283.2911563417666,-2.820177758166538,7.234202513580002,0.02927531419750026,397.12894736842105,0.213136224354967,0.85,nominal,13900.24779117577,nan,heading_hold,7.499999999999999,-2.0,0.0
2.55,270.64785985104436,-11.669081553246667,746.9791152000643,113.13297119255279,-3.573074528769671,-17.84312529700608,114.58714217925055,17.463463229125146,55.75315760846759,10.672848795970252,46.223993888836326,508.8017114205836,-488.18332891588227,520.0,-35.0,-29.999999999999996,7904.496985663355,0.3490797901717223,117.78469083759984,2.772398788698391,1.1395320413348247,92667.35895217468,283.29463575119956,-2.755295574611688,7.4969430103528625,0.062117876294107824,397.0953947368421,0.21311821690106747,0.85,nominal,13890.4693164806,nan,heading_hold,7.499999999999999,-2.0,0.0
2.58,274.03994325259754,-11.752649499150193,746.441080326186,113.06944671843992,-2.78559819678423,-17.934495795940336,114.51683491077918,17.457069682618116,73.13634947075106,30.35225743085963,40.21591420148807,511.1772847574725,-461.69786784244764,520.0,-35.0,-29.999999999999996,7884.084433771024,0.3486174576596724,117.62941905260523,2.8222424267821737,1.1395919114447728,92673.37164547441,283.2981329778798,-2.690958042187808,7.757521349291653,0.0946901686614566,397.06184210526317,0.21310020944716795,0.85,nominal,13877.139159372118,nan,heading_hold,7.499999999999999,-2.0,0.0
2.61,277.429501680107,-11.817300282735042,745.9102286384737,112.98528091698316,-2.1550261194949574,-17.695056257077173,114.38283462743189,17.4506766763347,97.63239595954718,46.727895933715935,25.74470827892452,515.0010648205904,-428.69786784244764,520.0,-35.0,-29.999999999999996,7856.380984743773,0.3479932861684059,117.41952811904201,2.866425257066629,1.1396509846003693,92679.30437422017,283.3015835138499,-2.627433713129922,8.014803775649469,0.12685047195618362,397.0282894736842,0.21308220199326838,0.85,nominal,13856.596972380703,nan,heading_hold,7.499999999999999,-2.0,0.0
2.6399999999999997,280.8152682718446,-11.871418699604545,745.3932407418657,112.85888639125373,-1.8039472289834662,-17.232929886931917,114.1812433614505,17.444284210274905,134.83404371999725,55.534250634322675,-1.8321364597953418,520.0,-395.6978678424477,520.0,-35.0,-29.999999999999996,7822.144196195163,0.34722338650335194,117.16044423621362,2.8932805320343635,1.1397085172454833,92685.0824586484,283.30494393517785,-2.5649924201567593,8.267670874921768,0.1584588593652209,396.9947368421052,0.21306419453936884,0.85,nominal,13828.48879210461,nan,heading_hold,7.499999999999999,-2.0,0.0
2.67,284.1957040951565,-11.92524367987233,744.8924006474027,112.68119411039523,-1.7941660089261557,-16.69466981543316,113.92533755955472,17.437892284438725,175.90035803937798,52.09230562669554,-33.21571505890003,520.0,-362.6978678424477,520.0,-35.0,-29.999999999999996,7783.995856072506,0.3463651936003705,116.8715434537249,2.9294518853216163,1.139764255012374,92690.68034629538,283.30819939579186,-2.5039057881973794,8.515022443326066,0.18937780541575827,396.9611842105263,0.21304618708546932,0.85,nominal,13794.390329838096,nan,heading_hold,7.499999999999999,-2.0,0.0
2.6999999999999997,287.5690484929,-11.988529730339575,744.4057300326988,112.44481325811626,-2.1095350155748505,-16.222353823465767,113.62856564354003,17.43150089882616,-154.76611072469024,39.5818750583518,-52.29363944240789,520.0,-329.6978678424477,520.0,-35.0,-25.066221476208213,7743.886800596303,0.34546153591216466,116.56727944529666,2.865259571972291,1.1398184178761253,92696.1201239825,283.3113627547874,-2.444445836276612,8.755782274697358,0.21947278433716985,396.92763157894734,0.21302817963156975,0.85,nominal,13755.851917529308,nan,heading_hold,7.499999999999999,-2.0,0.0
2.73,290.934729720258,-12.068204397591462,743.9279049459653,112.18937424526774,-2.655822241729525,-15.92750289111446,113.3454649894334,17.425110053437216,-134.6825065646859,23.461503695789236,-60.95331041192181,520.0,-300.3082136522901,520.0,-35.0,-18.696001094751878,7708.373098020255,0.3446585475314039,116.29696873556088,2.7749360989602514,1.1398715982133218,92701.46128197171,283.3144686178512,-2.38688243183807,8.988902842971928,0.24861285537149103,396.8940789473684,0.21301017217767024,0.85,nominal,13719.037805873786,nan,heading_hold,7.499999999999999,-2.0,0.0
2.76,294.29279758443994,-12.168494551406072,743.4520667750331,111.93559547273081,-3.343005127153652,-15.861272364406153,113.1031970287882,17.418719748271887,-118.59189697560606,5.9923539220570445,-63.231155007174834,520.0,-293.2570373612131,520.0,-35.0,-13.084681133090633,7680.276021057434,0.3440199628480786,116.08212689423785,2.6874592302208624,1.139924559299791,92706.78047774265,283.31756156596225,-2.331479434865857,9.213369859886374,0.2766712324857966,396.86052631578946,0.2129921647237707,0.85,nominal,13686.940799705819,nan,heading_hold,7.499999999999999,-2.0,0.0
2.79,297.6438001353038,-12.291224544506797,742.9704293233397,111.70008502879537,-4.0909997700241405,-16.05458172311415,112.92207432058004,17.412329983330174,-103.08959046035773,-11.551766244197095,-60.26861058451564,514.9834416879796,-305.7324641885977,520.0,-35.0,-9.232731246620647,7661.4927693703285,0.3435890520281053,115.93736586452096,2.6021028269564668,1.1399781677668845,92712.16475292355,283.32069220939826,-2.278492683999552,9.428206688061755,0.3035258360077193,396.82697368421054,0.21297415726987115,0.85,nominal,13661.74839515503,nan,heading_hold,7.499999999999999,-2.0,0.0
2.82,300.98892488927646,-12.435548120174575,742.4748093268045,111.50415846575453,-4.81078585559263,-16.52066655117402,112.82399318850379,17.40594075861208,-84.86940606667558,-27.574649240844717,-50.93357807859288,504.8212814050214,-336.115968468939,520.0,-35.0,-8.065427294280507,7653.934871511854,0.34340927700047374,115.87736311103959,2.5110890307435456,1.140033334569134,92717.70560477205,283.32391373937577,-2.228168138441831,9.63247859027185,0.32905982378398124,396.7934210526316,0.2129561498159716,0.85,nominal,13645.817308384481,nan,heading_hold,7.499999999999999,-2.0,0.0
2.85,304.3301709376077,-12.597689183314417,741.9577684229478,111.37486827770859,-5.404702104661386,-17.234696795222135,112.8299909702217,17.3995520741176,-60.27493577972008,-39.05238648847493,-33.018825586638535,490.9928205345646,-369.115968468939,520.0,-35.0,-10.148978184555745,7659.222718326769,0.34351717312968977,115.91445822204642,2.445057261648511,1.140090887880751,92723.4862203673,283.32727450525084,-2.180739148263746,9.82529679640733,0.35316209955091615,396.75986842105266,0.2129381423620721,0.85,nominal,13641.423580875056,nan,heading_hold,7.499999999999999,-2.0,0.0
2.88,307.66995389771125,-12.770644083503418,741.4132859042954,111.32609867011865,-5.765163339633355,-18.149417288411428,112.9430772617363,17.39316392984674,-29.45372746404565,-41.512771531912655,-7.727567636812564,479.4798853434954,-402.11596846893895,520.0,-28.774326806173463,-15.410294401146766,7676.440026269919,0.34389176681462674,116.04158371004574,2.660521615397192,1.1401514982003909,92729.57395390277,283.33081364162206,-2.136424478533359,10.005822370440791,0.37572779630509884,396.7263157894737,0.21292013490817252,0.85,nominal,13648.849950888627,nan,heading_hold,7.499999999999999,-2.0,0.0
2.9099999999999997,311.0097562974484,-12.945711334604473,740.836592946925,111.32674665790574,-5.83557503670182,-19.223098579015517,113.12482475752637,17.386776325799495,-1.3457742090861715,-33.086288385835935,15.16311639692244,471.7600723024555,-435.11596846893895,520.0,-21.99919991778675,-23.354946719174773,7699.766920550818,0.34440189924904546,116.21448969731958,2.9217790963828616,1.1402156967869657,92736.0221778526,283.334562145845,-2.095427645437644,10.173269860567874,0.3966587325709843,396.6927631578948,0.212902127454273,0.85,nominal,13663.738162433488,nan,heading_hold,7.499999999999999,-2.0,0.0
2.94,314.35076979052405,-13.111288857582718,740.2271286708025,111.36711643585492,-5.519250765941472,-20.315475870750717,113.33938111755185,17.380389261975868,18.82605251401733,-17.038921507963938,29.522282481261062,469.09187697920623,-468.115968468939,520.0,-17.285379567353154,-29.999999999999996,7723.2150399590155,0.344913231220068,116.3878464796356,3.1141429930391404,1.1402835465463745,92742.83722503201,283.33852366363976,-2.0579316278330637,10.32691071664293,0.41586383958036627,396.65921052631575,0.21288412000037343,0.85,nominal,13682.056027434359,nan,heading_hold,7.499999999999999,-2.0,0.0
