time_s,x_m,y_m,altitude_m,vx_mps,vy_mps,vz_mps,speed_mps,mass_kg,roll_deg,pitch_deg,yaw_deg,p_dps,q_dps,r_dps,alpha_deg,beta_deg,qbar_pa,mach,airspeed_mps,load_factor_g,density_kgpm3,pressure_pa,temperature_k,wind_x_mps,wind_y_mps,wind_z_mps,thrust_n,mass_flow_kgps,propulsion_throttle_actual,propulsion_health,energy_j_per_kg,target_distance_m,guidance_mode,pitch_command_deg,heading_command_deg,roll_command_deg,elevator_command_deg,aileron_command_deg,rudder_command_deg,elevator_deg,aileron_deg,rudder_deg,throttle,elevator_saturated,aileron_saturated,rudder_saturated,elevator_failed,aileron_failed,rudder_failed,elevator_raw_rad,aileron_raw_rad,rudder_raw_rad,elevator_effective_rad,aileron_effective_rad,rudder_effective_rad,sensor_time_s,imu_valid,imu_ax_mps2,imu_ay_mps2,imu_az_mps2,gyro_p_rps,gyro_q_rps,gyro_r_rps,imu_accel_norm_mps2,imu_gyro_norm_rps,gps_valid,gps_latency_s,gps_x_m,gps_y_m,gps_z_m,gps_vx_mps,gps_vy_mps,gps_vz_mps,baro_valid,baro_alt_m,baro_bias_m,pitot_valid,pitot_airspeed_mps,pitot_qbar_pa,pitot_compressibility_factor,mag_valid,mag_heading_deg,mag_x_ut,mag_y_ut,mag_z_ut,radar_valid,radar_agl_m,optical_flow_valid,horizon_valid,horizon_roll_deg,horizon_pitch_deg,optical_flow_x_radps,optical_flow_y_radps,optical_flow_quality
0.0,0.0,0.0,1000.0,84.0,2.0,15.0,85.35221145348257,19.0,-2.5157817934715475e-17,9.0,2.0,0.0,0.0,0.0,-0.7222147929914944,-7.13853957585605,4243.671980701213,0.2597188600228231,87.37824754723981,1.6251479458370872,1.1116425003060326,89874.56291621955,281.65,-1.7826439091004773,9.86942436359809,0.3586780454497614,319.2,0.17131232378029196,0.84,nominal,13449.15,nan,heading_hold,18.0,-5.0,0.0,-20.05352282957881,-0.0,-23.256492493402337,-2.6999999999999997,0.0,-2.6999999999999997,0.84,0.0,0.0,1.0,0.0,0.0,0.0,-0.047123889803846894,0.0,-0.047123889803846894,-0.047123889803846894,0.0,-0.047123889803846894,0.0,1.0,15.863658976337863,1.058966646731392,-0.6930371942163254,-0.001279898773872129,0.002068087163747687,0.0005281361201269382,15.914062555771283,0.0024887854768139554,1.0,0.0,0.5354505256823202,1.4183609496089247,1000.3550402325627,83.88261463530795,2.0393493499509656,15.053550255708195,1.0,1000.7418586383787,0.0,1.0,87.66706131630349,4205.12851111079,1.0,1.0,1.5022286437970536,17.21259347713176,-0.9087001158528836,-44.77701689197725,1.0,999.8945560890289,0.0,1.0,0.5051689769872049,8.977430989260586,,,
0.03,2.5341750666266845,0.06149453241160598,1000.4427801476453,84.47250222088948,2.049817747053533,14.759338254844302,85.77670691962489,18.994860630286592,0.0625806098799806,9.331007279175314,1.9069286083283399,1.5918500267886655,-11.035278524387659,-3.0567571876345423,-0.1796335364748719,-7.108609057614929,4281.236709253624,0.2608728406142633,87.76603739383036,1.6563148174277897,1.1115941567030745,89869.73605830262,281.6471219290403,-1.7376095109045648,10.04690527549587,0.38086315943698384,324.87,0.17435537163691558,0.84,nominal,13489.813914922517,nan,heading_hold,18.0,-5.0,0.0,-1.000615473727915,-1.3098417298136715,-11.702613608731967,-1.6803692842367488,-0.7859050378882029,-5.3999999999999995,0.84,0.0,0.0,0.0,0.0,0.0,0.0,-0.02932797665931172,-0.013716630519159924,-0.09424777960769379,-0.02932797665931172,-0.013716630519159924,-0.09424777960769379,0.03,1.0,16.260624050986934,0.9384493018016266,-0.2647824697144378,0.029777496839869723,-0.1910417237957281,-0.05549231635105134,16.289833988591006,0.20115426101103817,1.0,0.0,0.5354505256823202,1.4183609496089247,1000.3550402325627,83.88261463530795,2.0393493499509656,15.053550255708195,1.0,1000.7418586383787,0.0,1.0,87.968860584111,4283.4731383245935,1.0,1.0,1.5022286437970536,17.21259347713176,-0.9087001158528836,-44.77701689197725,1.0,999.8945560890289,0.0,1.0,0.5051689769872049,8.977430989260586,,,
0.06,5.0827551299344975,0.1242942999423158,1000.8788575080915,84.95266877692713,2.0933255843569945,14.535912014874306,86.21270603819707,18.989629969137486,0.17152375461052732,9.824881246113032,1.755043803062303,2.789030743653071,-16.472736125704984,-4.958659810185938,0.5085277656953562,-7.016429214014792,4320.391229700195,0.26206997720124464,88.16834908493101,1.6815435758603188,1.1115465464956096,89864.98247432846,281.64428742619737,-1.6958993749444224,10.211129355173762,0.40139116939672026,330.53999999999996,0.17739841949353916,0.84,nominal,13531.583989196017,nan,heading_hold,18.0,-5.0,0.0,1.1720170346566585,-2.2341750072940765,-12.339366102379888,0.031062507099295564,-1.6548670195317268,-8.099999999999998,0.84,0.0,0.0,0.0,0.0,0.0,0.0,0.0005421430228068208,-0.028882878173493942,-0.14137166941154067,0.0005421430228068208,-0.028882878173493942,-0.14137166941154067,0.06,1.0,16.42684340500186,0.7570429139314226,0.3124122382269845,0.048332495370258806,-0.28925844217125923,-0.08555513800520756,16.44724595890087,0.3054933028973793,1.0,0.0,0.5354505256823202,1.4183609496089247,1000.3550402325627,83.88261463530795,2.0393493499509656,15.053550255708195,1.0,1001.1287143118697,0.0,1.0,87.30243664986175,4350.689600554686,1.0,1.0,1.14565560663554,16.627758998219033,-0.8328664414665029,-45.01046284446567,1.0,1001.3172857068332,0.0,1.0,0.19500284284630043,9.369764784673755,,,
0.09,7.645858991556053,0.1881844141431466,1001.3089636738692,85.43679538738517,2.1296704733610263,14.336872192589825,86.65752942853656,18.984308016552678,0.30770718846414297,10.234447197049384,1.5813087247990951,3.530862993786019,-13.67599158123875,-5.645565477940249,1.092012802481526,-6.899421041691944,4360.904820403539,0.2633027324024064,88.58264595418892,1.7063010460098218,1.1114995897414865,89860.29418047899,281.6414917361198,-1.6576910351697691,10.361382077277707,0.42017275965971335,336.21,0.18044146735016278,0.84,nominal,13574.25025194119,nan,heading_hold,18.0,-5.0,0.0,0.4144733810411424,-2.743756142155519,-12.42085308187594,0.2611090314644037,-2.308200493106002,-10.692511849125562,0.84,0.0,0.0,0.0,0.0,0.0,0.0,0.004557212305747315,-0.04028569840085641,-0.18661953707574824,0.004557212305747315,-0.04028569840085641,-0.18661953707574824,0.09,1.0,16.68611953692761,0.4815037344442744,0.8157691728505527,0.06229315336201924,-0.236089135009402,-0.09505590033453823,16.71298627984521,0.26201935198317194,1.0,0.0,0.5354505256823202,1.4183609496089247,1000.3550402325627,83.88261463530795,2.0393493499509656,15.053550255708195,1.0,1001.1287143118697,0.0,1.0,88.46563931567104,4407.735510312953,1.0,1.0,1.14565560663554,16.627758998219033,-0.8328664414665029,-45.01046284446567,1.0,1001.3172857068332,0.0,1.0,0.19500284284630043,9.369764784673755,,,
0.12,10.223611130645658,0.25294391908023395,1001.733633273639,85.92507130298685,2.158650164569579,14.15565332565985,87.1100463209189,18.978894772532172,0.45356742170219927,10.493157098575152,1.4228936668619958,3.91205589570794,-8.657999891192926,-5.136966797923674,1.5100584503040697,-6.793274196148271,4402.697849496451,0.2645682280270297,89.00795905807614,1.7328323147746958,1.1114532280122933,89855.66534124271,281.63873138372134,-1.6231471239215374,10.497009704672017,0.4371262130840022,341.88,0.18348451520678638,0.84,nominal,13617.73121975925,nan,heading_hold,18.0,-5.0,0.0,-1.204086093937943,-2.951854293063154,-12.012377583958624,-0.6180080437770042,-2.6943927730802932,-11.4844312900254,0.84,0.0,0.0,0.0,0.0,0.0,0.0,-0.010786275167717976,-0.04702602523219156,-0.20044113873000305,-0.010786275167717976,-0.04702602523219156,-0.20044113873000305,0.12,1.0,16.981016313944927,0.3824173754304533,0.9926804450871559,0.06961550579117436,-0.1474208332631741,-0.0924368208129721,17.014304939360684,0.18741341085573124,1.0,0.0,0.5354505256823202,1.4183609496089247,1000.3550402325627,83.88261463530795,2.0393493499509656,15.053550255708195,1.0,1003.1250983375263,0.0,1.0,89.11524540928508,4500.058205395826,1.0,1.0,1.139378872215127,16.000708888883818,-0.9404493684535733,-45.28095660909732,1.0,1001.7204445572365,0.0,1.0,0.9071221999860154,10.612458973375077,,,
0.15,12.81618531700389,0.31847168022839384,1002.1531704234977,86.41913954527443,2.1842587049386633,13.984571661955142,87.5705824486972,18.973390237075968,0.5995066140367734,10.67229954458162,1.2925496096429134,4.066695210977361,-6.010419107753746,-4.2158537193456285,1.8399245535589717,-6.707229603872979,4445.783982546642,0.2658664135054095,89.44427098799757,1.7602299785329987,1.1114074280520045,89851.0926345807,281.63600439224723,-1.5924147111658904,10.61742213279545,0.45217776659943126,347.55,0.18652756306341,0.84,nominal,13662.06884393563,nan,heading_hold,18.0,-5.0,0.0,-2.035983152119066,-2.968247633329091,-11.462794734130872,-1.4687931087822412,-2.8587056892295717,-11.471449356488684,0.84,0.0,0.0,0.0,0.0,0.0,0.0,-0.02563527577885335,-0.049893826622549826,-0.20021456124651227,-0.02563527577885335,-0.049893826622549826,-0.20021456124651227,0.15,1.0,17.174880041196925,0.5086315771839447,1.1561239385140392,0.07000868848440729,-0.10904652692137672,-0.07047422258250452,17.221261076704526,0.14750924562728165,1.0,0.0,0.5354505256823202,1.4183609496089247,1000.3550402325627,83.88261463530795,2.0393493499509656,15.053550255708195,1.0,1003.1250983375263,0.0,1.0,89.29443677163474,4518.648516367488,1.0,1.0,1.139378872215127,16.000708888883818,-0.9404493684535733,-45.28095660909732,1.0,1001.7204445572365,0.0,1.0,0.9071221999860154,10.612458973375077,,,
0.18,15.42377297061763,0.3847280261221664,1002.5678118263813,86.9195884537913,2.2085448631257516,13.821380096119887,88.0393268667492,18.967794410184066,0.7417916038625395,10.842966740669905,1.1914828507365014,4.114013470909824,-5.727263431963436,-3.2428777676793263,2.15452912417545,-6.641130066575303,4490.180612383388,0.2671973371741278,89.89159767791601,1.78827564900716,1.1113621639684659,89846.57347380786,281.6333092231285,-1.5656244179711225,10.722095457157224,0.46526193214465283,353.21999999999997,0.18957061092003358,0.84,nominal,13707.293169422337,nan,heading_hold,18.0,-5.0,0.0,-2.043646392495849,-2.892823694990454,-10.924910489150982,-1.8137050790104057,-2.879176492686101,-11.143526036086064,0.84,0.0,0.0,0.0,0.0,0.0,0.0,-0.03165512528887548,-0.0502511095433949,-0.19449121961141425,-0.03165512528887548,-0.0502511095433949,-0.19449121961141425,0.18,1.0,17.41842882053549,0.47196271446029253,1.4423457466250564,0.07513081034351006,-0.10078455066872291,-0.0541527109116774,17.484415135563143,0.13687468873189285,1.0,0.0,0.5354505256823202,1.4183609496089247,1000.3550402325627,83.88261463530795,2.0393493499509656,15.053550255708195,1.0,1003.0686496949029,0.0,1.0,89.8885640601774,4448.523957787339,1.0,1.0,1.2328461352501172,15.891577326634309,-1.1245115632365097,-45.33771134549675,1.0,1002.9063104674648,0.0,1.0,1.3641261604842716,11.304702159147567,,,
0.21,18.046556946645836,0.4517033069576676,1002.9778332750295,87.4261325342735,2.2325093611833733,13.667381621608268,88.51615710331534,18.962107291856466,0.8800251280289985,11.01718821780569,1.1166160908482778,4.134600024876424,-5.841486657478867,-2.3678573315832008,2.465105186713928,-6.591179295503799,4535.883205286693,0.2685603860911252,90.34973255066579,1.8168249584063392,1.1113174056063355,89842.10484672664,281.6306440837123,-1.5428896868869524,10.810574252802013,0.47632178160025157,358.89,0.1926136587766572,0.84,nominal,13753.407602855968,nan,heading_hold,18.0,-5.0,0.0,-1.9092307210883503,-2.7946324979348818,-10.458825031230495,-1.8710204642571724,-2.8284500958353695,-10.732705433172722,0.84,0.0,0.0,0.0,0.0,0.0,0.0,-0.03265546747348054,-0.04936576690067635,-0.18732104745554823,-0.03265546747348054,-0.04936576690067635,-0.18732104745554823,0.21,1.0,17.702787862092833,0.5421089728156525,1.590815034844463,0.06867137164962488,-0.1054223952226224,-0.044087462044102285,17.78238658627564,0.13331670191017275,1.0,0.0,17.800225091732134,3.8799301265654615,1002.4424652343936,87.29736847370259,2.331425528248267,13.62791320246248,1.0,1003.0686496949029,0.0,1.0,90.37892634616655,4552.894088545373,1.0,1.0,1.2328461352501172,15.891577326634309,-1.1245115632365097,-45.33771134549675,1.0,1002.9063104674648,0.0,1.0,1.3641261604842716,11.304702159147567,,,
0.24,20.684712038673602,0.519401694629577,1003.3835410450893,87.93850306759221,2.2566129223969797,13.523592335323942,89.00089984546496,18.956328882093167,1.015294431777078,11.174417551365389,1.0638255099263938,4.170326384270584,-5.268826826156282,-1.6398775949530717,2.7504097266219882,-6.552549810427943,4582.8884326953985,0.2699549840944364,90.8184813723317,1.8456656038825314,1.1112731194871368,89837.6834094967,281.6280069832069,-1.5243062994758216,10.882473555826179,0.4853091944782724,364.56,0.19565670663328083,0.84,nominal,13800.411289441068,nan,heading_hold,18.0,-5.0,0.0,-2.024144823363673,-2.7096840468432806,-10.080647763654019,-1.9628950797210727,-2.7571904664401163,-10.341470831461502,0.84,0.0,0.0,0.0,0.0,0.0,0.0,-0.0342589820123293,-0.048122051743978246,-0.18049271550795878,-0.0342589820123293,-0.048122051743978246,-0.18049271550795878,0.24,1.0,18.00945991017545,0.5469025268774484,1.853157145665755,0.07413537221190188,-0.09202542476431308,-0.031938617085963156,18.112811489016654,0.12241244821264403,1.0,0.0,17.800225091732134,3.8799301265654615,1002.4424652343936,87.29736847370259,2.331425528248267,13.62791320246248,1.0,1003.9474830511937,0.0,1.0,90.46350427216305,4722.152041973435,1.0,1.0,1.3346399973107976,15.47248404098754,-1.2156633764816402,-45.35584241508809,1.0,1003.4558454427497,0.0,1.0,1.3849492752476862,11.416367831868149,,,
0.27,23.338417134675346,0.5878332605618135,1003.7852233195712,88.45683653339147,2.2810521977412184,13.389409149395249,89.49352717372285,18.950459180894168,1.1491552144480583,11.301398438840113,1.0289240627805265,4.23530400689705,-4.253497364371006,-1.0609291547108226,2.9975480127453586,-6.520582294083492,4631.212009039176,0.27138111343742594,91.29783778999789,1.8746393606805123,1.111229274111816,89833.30601603641,281.6253960484228,-1.5099520304396967,10.937480538323786,0.4921850672904733,370.22999999999996,0.1986997544899044,0.84,nominal,13848.316063263806,nan,heading_hold,18.0,-5.0,0.0,-2.3106580175346743,-2.649056736390384,-9.784622356030257,-2.1715528424092336,-2.692310228410277,-10.007361746202754,0.84,0.0,0.0,0.0,0.0,0.0,0.0,-0.03790074698108268,-0.04698967797087991,-0.1746614119093672,-0.03790074698108268,-0.04698967797087991,-0.1746614119093672,0.27,1.0,18.26827525284008,0.5525748837631907,2.0149164399489083,0.0717597346797934,-0.07597398944449608,-0.022019020380717045,18.387362724862736,0.10680048619717598,1.0,0.0,17.800225091732134,3.8799301265654615,1002.4424652343936,87.29736847370259,2.331425528248267,13.62791320246248,1.0,1003.9474830511937,0.0,1.0,90.38536014076243,4678.434623339482,1.0,1.0,1.3346399973107976,15.47248404098754,-1.2156633764816402,-45.35584241508809,1.0,1003.4558454427497,0.0,1.0,1.3849492752476862,11.416367831868149,,,
0.3,26.00786152490938,0.6570100034146223,1004.1831295915572,88.98147967446782,2.3058914284269605,13.263542399533565,89.99412434887984,18.94449818825947,1.2831216482870107,11.40229768109789,1.0079984100760155,4.328253984801169,-3.377068118040641,-0.6123397602016419,3.211523642276706,-6.491325458707775,4680.88362224885,0.2728391525846409,91.78792878094806,1.9037401416863393,1.111185842208519,89828.96994241903,281.62280965765484,-1.4998863382439434,10.975355869474885,0.49691948368436056,375.9,0.20174280234652803,0.84,nominal,13897.143696469868,nan,heading_hold,18.0,-5.0,0.0,-2.563103031368962,-2.6100030495461897,-9.555749895542329,-2.4064829557850707,-2.6429259210918246,-9.736394635806498,0.84,0.0,0.0,0.0,0.0,0.0,0.0,-0.042001050971574604,-0.04612775920935618,-0.1699321436683376,-0.042001050971574604,-0.04612775920935618,-0.1699321436683376,0.3,1.0,18.57212213991377,0.5812789615568769,2.159684118716009,0.07687822314900548,-0.054849629856226406,-0.010709551162854854,18.7063048596899,0.09504439792025163,1.0,0.0,17.800225091732134,3.8799301265654615,1002.4424652343936,87.29736847370259,2.331425528248267,13.62791320246248,1.0,1004.1330244197243,0.0,1.0,91.78632851020078,4686.051007162628,1.0,1.0,2.2430886379151094,15.358041623098119,-1.5298144568699896,-45.421920648313076,1.0,1004.5960859554926,0.0,1.0,1.4389683466952539,11.733960461117249,,,
0.32999999999999996,28.693242588423928,0.7269436446318102,1004.5774823521639,89.51270211715165,2.331121373906262,13.145092020224503,90.50277018629859,18.938445904189074,1.418414391769516,11.486944837681538,0.9977356158805448,4.441881738098047,-2.828694116039256,-0.26868499080741026,3.402785208697227,-6.461704475301745,4731.93347242143,0.2743294755365926,92.28887984431383,1.9330054206945582,1.1111427994561824,89824.67275942056,281.6202463647109,-1.4941500872582378,10.995934756854064,0.49949184460675794,381.57,0.20478585020315163,0.84,nominal,13946.915473005836,nan,heading_hold,18.0,-5.0,0.0,-2.7098799042642914,-2.5849783396549055,-9.377747810173458,-2.588521124872603,-2.608157372229673,-9.521206540426675,0.84,0.0,0.0,0.0,0.0,0.0,0.0,-0.04517821638645421,-0.045520933555571116,-0.16617640289286406,-0.04517821638645421,-0.045520933555571116,-0.16617640289286406,0.32999999999999996,1.0,18.807097420513454,0.6343368450121796,2.3391500712424227,0.07712416240750998,-0.053309339968234726,-0.004868629048937967,18.962619008813558,0.0938814449384167,1.0,0.0,17.800225091732134,3.8799301265654615,1002.4424652343936,87.29736847370259,2.331425528248267,13.62791320246248,1.0,1004.1330244197243,0.0,1.0,92.15755260838317,4733.619548008178,1.0,1.0,2.2430886379151094,15.358041623098119,-1.5298144568699896,-45.421920648313076,1.0,1004.5960859554926,0.0,1.0,1.4389683466952539,11.733960461117249,,,
0.36,31.39476150779989,0.7976444516755632,1004.9684935003487,90.05063064586531,2.3566935681251024,13.03370493949281,91.01948993892384,18.93230232868298,1.5558844526040696,11.56039387384745,0.9956375644731947,4.568366421077616,-2.449257053377983,-0.004962118375985205,3.5766855388007976,-6.429477423951765,4784.3868558363965,0.2758522956398749,92.80076243950634,1.9624137324843864,1.1111001226930068,89820.41215364914,281.6177047922477,-1.492765343892319,10.999127663428633,0.4998909579285791,387.24,0.20782889805977525,0.84,nominal,13997.648051156124,nan,heading_hold,18.0,-5.0,0.0,-2.8038735841010167,-2.566704022943759,-9.236644435454481,-2.717732600409651,-2.5832853626581245,-9.35046927744336,0.84,0.0,0.0,0.0,0.0,0.0,0.0,-0.04743338206593581,-0.04508683509696005,-0.16319647549796176,-0.04743338206593581,-0.04508683509696005,-0.16319647549796176,0.36,1.0,19.026623535505447,0.6556986967210006,2.6102711874412927,0.07563852890102833,-0.03971430592449255,-0.0024737981262646968,19.21603131800939,0.08546655969761151,1.0,0.0,17.800225091732134,3.8799301265654615,1002.4424652343936,87.29736847370259,2.331425528248267,13.62791320246248,1.0,1004.2581010444713,0.0,1.0,92.79413342694853,4883.531303100415,1.0,1.0,-0.8338946803862444,15.151505550579751,-1.6522504615565927,-45.48013885879719,1.0,1005.071551528677,0.0,1.0,1.1862834804901408,11.825209458308063,,,
0.39,34.112621812805614,0.8691208444180071,1005.356368992041,90.59534350019089,2.382546424748129,12.929183056410855,91.54428745634455,18.926067461741187,1.696064987300269,11.622703333668005,0.9999730192636754,4.701724795052252,-2.072130522362581,0.20044489126031864,3.733507867018791,-6.393106130735472,4838.267293477418,0.27740775938522233,93.32362553741129,1.9919014899799603,1.1110577894088187,89816.18587685897,281.61518360155173,-1.495735272230232,10.984920697126826,0.4981150871408533,392.90999999999997,0.21087194591639885,0.84,nominal,14049.356318920718,nan,heading_hold,18.0,-5.0,0.0,-2.9033491205806405,-2.5499458297150497,-9.121220342230023,-2.829102512512245,-2.5632816428922798,-9.212919916315357,0.84,0.0,0.0,0.0,0.0,0.0,0.0,-0.04937715371978275,-0.04473770432439979,-0.16079578626226343,-0.04937715371978275,-0.04473770432439979,-0.16079578626226343,0.39,1.0,19.27689857062694,0.6071945595535511,2.654138341278627,0.08543126504381084,-0.03644024848008394,0.0021929041104729445,19.468229351177154,0.09290426031519676,1.0,0.0,17.800225091732134,3.8799301265654615,1002.4424652343936,87.29736847370259,2.331425528248267,13.62791320246248,1.0,1004.2581010444713,0.0,1.0,92.95298688887225,4837.594124562057,1.0,1.0,-0.8338946803862444,15.151505550579751,-1.6522504615565927,-45.48013885879719,1.0,1005.071551528677,0.0,1.0,1.1862834804901408,11.825209458308063,,,
0.42,36.847030220917894,0.9413794933436388,1005.7413053429706,91.14694693707591,2.408621630854389,12.831211697654279,92.07718168873748,18.919741303363697,1.8392758332147112,11.673345178683865,1.0095679388527636,4.838270918710184,-1.6775970761237273,0.36516669286292275,3.873038589441435,-6.351622577004067,4893.6002139295015,0.2789960529775792,93.85753147603455,2.0011514018112466,1.1110157781265926,89811.99178403377,281.61268151527065,-1.5030441241652805,10.953375671281055,0.49417195891013177,394.7778947368421,0.21187443146760623,0.84,nominal,14102.056665912027,nan,heading_hold,18.0,-5.0,0.0,-3.0154691482609857,-2.53159331021901,-9.022444989212456,-2.9409224939614895,-2.544268643288318,-9.098634960053618,0.84,0.0,0.0,0.0,0.0,0.0,0.0,-0.051328780565591044,-0.04440586488063027,-0.15880113748999836,-0.051328780565591044,-0.04440586488063027,-0.15880113748999836,0.42,1.0,19.478786149751826,0.6389128532370237,2.743579612092811,0.080824174611292,-0.031127691636686362,0.006678225205438631,19.681426487673257,0.08686817069629019,1.0,0.0,35.87512020328112,4.56008048738334,1000.8811075027552,90.98592294755179,2.768294080852223,12.875532981488332,1.0,1005.1181186820022,0.0,1.0,93.39807921637845,4932.575311357279,1.0,1.0,1.6989628050151206,15.122777730062158,-1.940529721859927,-45.52258318990192,1.0,1005.8489660005085,0.0,1.0,1.262730677446215,11.87759195404754,,,
0.44999999999999996,39.59802026130876,1.0144224618653783,1006.1234505180973,91.69966801302884,2.43476561739132,12.738172504227194,92.61219269652774,18.913385070419668,1.9857131067010343,11.713464826531022,1.0236235467098107,4.976202418860236,-1.3212663510415357,0.5031721565154728,3.9970508530546813,-6.304917640234655,4949.786029892441,0.28059963101656765,94.39657754974077,2.0003217991808286,1.1109740726705268,89807.82825946795,281.61019757163234,-1.5146573653020492,10.904629835683219,0.4880787294604023,394.7447368421052,0.2118566358661055,0.84,nominal,14155.20965405269,nan,heading_hold,18.0,-5.0,0.0,-3.12009211548488,-2.5102002577921927,-8.933540573971234,-3.0484242668755237,-2.523827611990643,-8.999578328404189,0.84,0.0,0.0,0.0,0.0,0.0,0.0,-0.053205040454672205,-0.044049101581982636,-0.1570722731217806,-0.053205040454672205,-0.044049101581982636,-0.1570722731217806,0.44999999999999996,1.0,19.390215929143686,0.6171950300332596,2.950461230888858,0.08419950925989443,-0.02294419764303415,0.006636679439754153,19.62311455806375,0.08752164920221578,1.0,0.0,35.87512020328112,4.56008048738334,1000.8811075027552,90.98592294755179,2.768294080852223,12.875532981488332,1.0,1005.1181186820022,0.0,1.0,93.80672911199514,5024.523141917135,1.0,1.0,1.6989628050151206,15.122777730062158,-1.940529721859927,-45.52258318990192,1.0,1005.8489660005085,0.0,1.0,1.262730677446215,11.87759195404754,,,
0.48,42.365540515752,1.0882489067163374,1006.5029231527296,92.25067514810799,2.460881495031974,12.64908782107647,93.14634950291743,18.907029371343686,2.1355039853853417,11.745052823465706,1.041626919247367,5.115027598614646,-1.031125837345676,0.6250621286686201,4.108027730834528,-6.253021310187898,5006.525834393894,0.28220981240402226,94.9378432154845,1.9995581626453696,1.1109326600676301,89803.69400725653,281.6077309995072,-1.5305217954153427,10.838895279422252,0.4798619099277814,394.7115789473684,0.2118388402646048,0.84,nominal,14208.543104195538,nan,heading_hold,18.0,-5.0,0.0,-3.2062669478139654,-2.4855059017156287,-8.849522392168103,-3.143129875438589,-2.500834585825634,-8.909544766662536,0.84,0.0,0.0,0.0,0.0,0.0,0.0,-0.054857965144202624,-0.04364779757040603,-0.15550089103209117,-0.054857965144202624,-0.04364779757040603,-0.15550089103209117,0.48,1.0,19.33217879780431,0.5978151822857662,3.010057932132253,0.09149632529537517,-0.020984495994664485,0.006027182936312823,19.57424248386737,0.09406515587004032,1.0,0.0,35.87512020328112,4.56008048738334,1000.8811075027552,90.98592294755179,2.768294080852223,12.875532981488332,1.0,1007.5165041625078,0.0,1.0,95.0944004460057,5006.4642220077685,1.0,1.0,0.7510382697056801,15.06133253353532,-2.118908580041955,-45.54052057001826,1.0,1006.7754270956714,0.0,1.0,2.6509522178496514,11.911294758233018,,,
0.51,45.149542421706464,1.162856794184121,1006.8798334989648,92.80006353181531,2.4869295822594557,12.563678207840155,93.67968093650956,18.900674206135747,2.288732457959456,11.769622493848297,1.0633106109926518,5.254899862151619,-0.7910657081474644,0.738710819449451,4.207788997683577,-6.196032689073376,5063.8291249137965,0.28382675342165137,95.48138094701834,1.998852956868166,1.1108915282614085,89799.58782303896,281.6052810822567,-1.550565747726035,10.75645800810207,0.46955725101275875,394.67842105263156,0.21182104466310406,0.84,nominal,14262.059429365738,nan,heading_hold,18.0,-5.0,0.0,-3.278738226424218,-2.457849932064769,-8.766957286921695,-3.2244948860299667,-2.4750437935691147,-8.823992278818032,0.84,0.0,0.0,0.0,0.0,0.0,0.0,-0.056278052474942226,-0.04319766332883191,-0.15400771843593214,-0.056278052474942226,-0.04319766332883191,-0.15400771843593214,0.51,1.0,19.314661327645098,0.6774458919041212,3.0863216155731648,0.08986572881519779,-0.016547438822616903,0.007347143024306529,19.571419372463538,0.09167141025256749,1.0,0.0,35.87512020328112,4.56008048738334,1000.8811075027552,90.98592294755179,2.768294080852223,12.875532981488332,1.0,1007.5165041625078,0.0,1.0,95.9246050625375,5046.816275826768,1.0,1.0,0.7510382697056801,15.06133253353532,-2.118908580041955,-45.54052057001826,1.0,1006.7754270956714,0.0,1.0,2.6509522178496514,11.911294758233018,,,
0.54,47.94997977893872,1.2382431087092653,1007.2542849881999,93.34791190774179,2.512877150838145,12.481716307834633,94.21220967103993,18.894319574795855,2.4454541065027926,11.78799446073852,1.088601400296932,5.396148872298377,-0.5777915803694975,0.8498645355308158,4.297420455958273,-6.134258767584676,5121.703998096178,0.28545056728703166,96.02722873535092,1.9981906964099354,1.1108506659412016,89795.50857695723,281.60284714757665,-1.5746993976539723,10.657676699454912,0.457209587431864,394.6452631578947,0.21180324906160333,0.84,nominal,14315.760459429526,nan,heading_hold,18.0,-5.0,0.0,-3.3451520701700574,-2.4277070564402132,-8.68367649730913,-3.2968891965140212,-2.446641751291774,-8.73980280991269,0.84,0.0,0.0,0.0,0.0,0.0,0.0,-0.05754157155260003,-0.042701954176801685,-0.15253833500802855,-0.05754157155260003,-0.042701954176801685,-0.15253833500802855,0.54,1.0,19.368415511316282,0.6655424271913488,3.3371368862090507,0.09468759727846414,-0.0122260898493229,0.010784506402504971,19.665069253340704,0.0960808197806305,1.0,0.0,35.87512020328112,4.56008048738334,1000.8811075027552,90.98592294755179,2.768294080852223,12.875532981488332,1.0,1006.2394132903739,0.0,1.0,95.82382883225031,5176.638519852066,1.0,1.0,1.7360940817884412,15.010346790099785,-2.3384813183122772,-45.6118342531609,1.0,1006.9645979825242,0.0,1.0,2.4706035558075725,11.19747689169666,,,
0.57,50.76680859331802,1.31440409950496,1007.6263746001583,93.89429381264334,2.538699693189818,12.402987065282387,94.74395756378746,18.887965477324006,2.605708385345338,11.800782230051695,1.1175548781011828,5.5390830506417865,-0.38421496152792545,0.9626064808533843,4.377784286667572,-6.068161415704144,5180.15757675493,0.287081337164033,96.57541446561233,1.997558625350179,1.1108100625017914,89791.4552096196,281.6004285650989,-1.6028151524086969,10.542981142764262,0.4428726428455327,394.6121052631579,0.21178545346010264,0.84,nominal,14369.64793389702,nan,heading_hold,18.0,-5.0,0.0,-3.4076030917094915,-2.3954718780381326,-8.59837712329991,-3.3633175336313035,-2.415939827339589,-8.654947397945023,0.84,0.0,0.0,0.0,0.0,0.0,0.0,-0.05870096475192136,-0.04216610451713915,-0.15105732868105654,-0.05870096475192136,-0.04216610451713915,-0.15105732868105654,0.57,1.0,19.298038968787342,0.6095037885852005,3.3779426062201527,0.0963526265411373,-0.005327809167907021,0.020472859590486545,19.60092597710761,0.09864761614817302,1.0,0.0,35.87512020328112,4.56008048738334,1000.8811075027552,90.98592294755179,2.768294080852223,12.875532981488332,1.0,1006.2394132903739,0.0,1.0,97.14233181369028,5229.937421367716,1.0,1.0,1.7360940817884412,15.010346790099785,-2.3384813183122772,-45.6118342531609,1.0,1006.9645979825242,0.0,1.0,2.4706035558075725,11.19747689169666,,,
0.6,53.59998695644463,1.39133552523752,1007.9961931601924,94.43927877088717,2.5643808577519973,12.32728533447007,95.27494627480189,18.881611913720203,2.769527156894263,11.808704297854616,1.1503040130812117,5.683954008122972,-0.21367375752743498,1.0797583892782188,4.449832569229402,-5.998317483160134,5239.195927617608,0.2887191147157639,97.12595543033129,1.9969510404996402,1.1107697080108336,89787.4267288462,281.5980247444587,-1.6347881180378838,10.41287036888731,0.4266087961109138,394.57894736842104,0.2117676578586019,0.84,nominal,14423.723561487594,nan,heading_hold,18.0,-5.0,0.0,-3.46448314414674,-2.361433264902735,-8.510390814744447,-3.424016899940565,-2.3832358898774766,-8.568213448024677,0.84,0.0,0.0,0.0,0.0,0.0,0.0,-0.059760368547892094,-0.041595313130058965,-0.14954353568168666,-0.059760368547892094,-0.041595313130058965,-0.14954353568168666,0.6,1.0,19.286760198594877,0.691554849064232,3.483056816324352,0.10072412547595223,-0.005114008608791805,0.023119355742273407,19.610942145983483,0.10346983689406279,1.0,0.0,35.87512020328112,4.56008048738334,1000.8811075027552,90.98592294755179,2.768294080852223,12.875532981488332,1.0,1008.1530490527912,0.0,1.0,97.00502752171107,5275.730353693901,1.0,1.0,1.0180819377298906,14.995742588504068,-2.620421877219961,-45.55649567837217,1.0,1007.9590708565927,0.0,1.0,2.79868926476189,12.494550807163344,,,
0.63,56.449474814291065,1.469032873259607,1008.3638260393911,94.98292859488106,2.5899116007362335,12.254429306622132,95.80519507934265,18.875258883984444,2.936939469325717,11.812515586551783,1.1870319020098157,5.830993806660657,-0.06723465359988523,1.2031844976339492,4.514530155280248,-5.925388389809069,5298.823669736278,0.2903639102487457,97.67885501353388,1.996365519438578,1.1107295931323637,89783.42220202902,281.5956351307439,-1.6704766411876435,10.267910479013079,0.4084888098766347,394.54578947368424,0.2117498622571012,0.84,nominal,14477.988816724646,nan,heading_hold,18.0,-5.0,0.0,-3.514961716064985,-2.325832869946069,-8.419570311619644,-3.4785837896152167,-2.3487940779186323,-8.479027566181657,0.84,0.0,0.0,0.0,0.0,0.0,0.0,-0.060712740435287266,-0.04099419011102437,-0.1479869483972313,-0.060712740435287266,-0.04099419011102437,-0.1479869483972313,0.63,1.0,19.24165969963268,0.6248221029871805,3.613274014742329,0.10143529205304848,-0.001026600787504827,0.01964738329295752,19.587945776994122,0.10332566018818623,1.0,0.0,57.64441116610896,3.245047634841435,1008.4169997542855,95.00498164917728,2.5684252374339884,12.398494615484843,1.0,1008.1530490527912,0.0,1.0,97.52712242188052,5286.263309702212,1.0,1.0,1.0180819377298906,14.995742588504068,-2.620421877219961,-45.55649567837217,1.0,1007.9590708565927,0.0,1.0,2.79868926476189,12.494550807163344,,,
0.6599999999999999,59.31523369667171,1.5474915592852907,1008.7293539711669,95.5252960793549,2.6152895341894613,12.184264392527615,96.33471974933583,18.86890638811673,3.1079752301440338,11.812856568456594,1.227956883351301,5.9804591509644265,0.05905540622797109,1.3340194025581587,4.572701036801352,-5.850096190642505,5359.043693328225,0.2920156862115677,98.23410050321283,1.9957989306631267,1.1106897090375956,89779.44074722464,281.5932591991874,-1.7097229236424814,10.108732181603072,0.38859152270038405,394.5126315789473,0.21173206665560043,0.84,nominal,14532.444833712882,nan,heading_hold,18.0,-5.0,0.0,-3.560031281509726,-2.2889165094996295,-8.326183852516397,-3.5274522847519223,-2.312867536867231,-8.387321337982502,0.84,0.0,0.0,0.0,0.0,0.0,0.0,-0.061565656575917616,-0.04036715368082451,-0.1463863727705708,-0.061565656575917616,-0.04036715368082451,-0.1463863727705708,0.6599999999999999,1.0,19.265066048761256,0.6663836893715606,3.7030278571207376,0.10820269441295005,-0.0009274692763705013,0.02525004295120671,19.6290410462459,0.11111367128539426,1.0,0.0,57.64441116610896,3.245047634841435,1008.4169997542855,95.00498164917728,2.5684252374339884,12.398494615484843,1.0,1009.9253600156266,0.0,1.0,97.96616848777411,5435.864352020583,1.0,1.0,1.9735234748836743,14.945591297245604,-2.963218733407539,-45.562554084543955,1.0,1008.3669058637755,0.0,1.0,3.2226247052877333,11.701233935968519,,,
0.69,62.197226500866456,1.626707120287839,1009.0928536667191,96.06642680649148,2.640518700084941,12.116656518403623,96.86353319778014,18.86255442611706,3.2826696643847426,11.810234152790603,1.2733179980187472,6.1326569589124675,0.16977456748036723,1.472850086345282,4.625012983529042,-5.7732047449676775,5419.8570698109415,0.293674356103961,98.79166272410447,1.9952474039750097,1.110650047337681,89775.48152643941,281.5908964511663,-1.7523537074421518,9.936028048231078,0.36700350602888476,394.4794736842105,0.21171427105409973,0.84,nominal,14587.092465189458,nan,heading_hold,18.0,-5.0,0.0,-3.6009805896728855,-2.250952901755549,-8.230791283154208,-3.5715692677045006,-2.275718755800222,-8.293403305085524,0.84,0.0,0.0,0.0,0.0,0.0,0.0,-0.06233564318448631,-0.039718785138102675,-0.1447471938695222,-0.06233564318448631,-0.039718785138102675,-0.1447471938695222,0.69,1.0,19.1464338305509,0.6267003886748784,3.8121337871105494,0.10800151935239465,-0.001498471412120281,0.029699688873295847,19.53230774423901,0.11202073521526802,1.0,0.0,57.64441116610896,3.245047634841435,1008.4169997542855,95.00498164917728,2.5684252374339884,12.398494615484843,1.0,1009.9253600156266,0.0,1.0,98.46178195577107,5512.050703001201,1.0,1.0,1.9735234748836743,14.945591297245604,-2.963218733407539,-45.562554084543955,1.0,1008.3669058637755,0.0,1.0,3.2226247052877333,11.701233935968519,,,
0.72,65.09541733329885,1.7066754025694384,1009.4543982370575,96.60636108108014,2.665609409386646,12.051485677946923,97.39164636608832,18.856202997985438,3.4610680906000275,11.805088071434227,1.323360159158112,6.287952378346251,0.2672731972045984,1.6198622622600882,4.672047542997348,-5.695505226162187,5481.262992211095,0.29533978425455704,99.35149596289224,1.9947080342609391,1.1106106000375962,89771.54374102382,281.5885464114591,-1.798181027579001,9.750549500261652,0.3438186875327065,394.44631578947366,0.211696475452599,0.84,nominal,14641.932365420042,nan,heading_hold,18.0,-5.0,0.0,-3.6383597527818177,-2.212235563759153,-8.134140742821826,-3.611643558750891,-2.23762884057558,-8.197845767727305,0.84,0.0,0.0,0.0,0.0,0.0,0.0,-0.0630350715086483,-0.039053990705627165,-0.14307940021752377,-0.0630350715086483,-0.039053990705627165,-0.14307940021752377,0.72,1.0,19.131972840362454,0.6191041361021427,3.830993814426584,0.10823712828403126,0.004315736610596838,0.029125126148836604,19.521582628001248,0.11217029238997075,1.0,0.0,57.64441116610896,3.245047634841435,1008.4169997542855,95.00498164917728,2.5684252374339884,12.398494615484843,1.0,1007.8609105651182,0.0,1.0,99.2589289941016,5428.1610142698855,1.0,1.0,1.2285069330468301,15.007439155130887,-3.3646356833328097,-45.49819011006009,1.0,1009.7167716907294,0.0,1.0,3.277215243263356,12.118652448911982,,,
0.75,68.00977136854547,1.787392739659435,1009.8140575700656,97.14513450822045,2.6905779029998866,11.988644433604566,97.91906843627422,18.84985210372186,3.6432297670505185,11.797830856050865,1.3783233943093973,6.446766532654164,0.3525554295190339,1.7749504848440507,4.714340617514981,-5.61780497866498,5543.258647852642,0.29701178380780124,99.91353729101114,1.9941793688671132,1.1105713594949338,89767.62662755717,281.58620862579454,-1.847003028775382,9.553103539478077,0.3191379424347595,394.4131578947368,0.21167867985109828,0.84,nominal,14696.965009383359,nan,heading_hold,18.0,-5.0,0.0,-3.6722661016726303,-2.173081871813491,-8.037108144221062,-3.6480170845039344,-2.1989006593183267,-8.10140319362356,0.84,0.0,0.0,0.0,0.0,0.0,0.0,-0.06366990929359786,-0.03837805642937893,-0.14139615976031478,-0.06366990929359786,-0.03837805642937893,-0.14139615976031478,0.75,1.0,19.172234453135026,0.5904717571338501,3.8596446466069376,0.1138925608928975,0.005609936725882553,0.028963736319688037,19.565788704267252,0.11765153988965545,1.0,0.0,57.64441116610896,3.245047634841435,1008.4169997542855,95.00498164917728,2.5684252374339884,12.398494615484843,1.0,1007.8609105651182,0.0,1.0,100.05309858565153,5582.536292422405,1.0,1.0,1.2285069330468301,15.007439155130887,-3.3646356833328097,-45.49819011006009,1.0,1009.7167716907294,0.0,1.0,3.277215243263356,12.118652448911982,,,
0.78,70.94025470798023,1.8688561175639453,1010.1718987191244,97.68277798115865,2.7154459301503455,11.928038301961157,98.44580670830503,18.84350174332633,3.82923046994294,11.788840403084443,1.4384370447322237,6.60956872117398,0.42686270686876054,1.937796607792078,4.7523744838989685,-5.540918661303148,5605.839062399826,0.29869011403122037,100.47770565880796,1.9936606317173695,1.110532318377449,89763.72945360774,281.58388265832565,-1.8986048427001851,9.344549236884514,0.2930686546105642,394.38,0.21166088424959756,0.84,nominal,14752.19067979838,nan,heading_hold,18.0,-5.0,0.0,-3.7029018253525035,-2.1338293824968684,-7.940662667694661,-3.6809479290130755,-2.1598578932254515,-8.004958878066219,0.84,0.0,0.0,0.0,0.0,0.0,0.0,-0.06424466095574467,-0.03769663161197226,-0.13971288890900682,-0.06424466095574467,-0.03769663161197226,-0.13971288890900682,0.78,1.0,19.162703699898493,0.5656437586906172,3.9488542721777713,0.11492899155726058,0.006443187264917877,0.037621486340610834,19.573518232927512,0.12110146158067804,1.0,0.0,57.64441116610896,3.245047634841435,1008.4169997542855,95.00498164917728,2.5684252374339884,12.398494615484843,1.0,1009.3174186546128,0.0,1.0,100.46529000880949,5614.63702337722,1.0,1.0,1.3342632413445912,15.040914127625037,-3.6696611015397584,-45.47361523271708,1.0,1010.3904982942965,0.0,1.0,3.9206667404085205,11.885598611448247,,,
0.8099999999999999,73.88683424857885,1.9510633296876436,1010.5279862631176,98.21931801995389,2.74024040412328,11.869584799771529,98.97186667480914,18.83715191679884,4.019164305072794,11.778446907286014,1.5039162420497374,6.77686630727227,0.49186298863830347,2.107926611575176,4.786565015621046,-5.465660952506927,5668.996976677246,0.3003744785958249,101.04390131709525,1.9931510967608541,1.1104934696237267,89759.85151380519,281.5815680892897,-1.952759521865501,9.125793994959292,0.26572424936991146,394.34684210526314,0.21164308864809683,0.84,nominal,14807.6094730353,nan,heading_hold,18.0,-5.0,0.0,-3.7306471666321728,-2.094827406893808,-7.845836195025972,-3.7107674715845334,-2.120839601426465,-7.909485268242071,0.84,0.0,0.0,0.0,0.0,0.0,0.0,-0.06476511015505523,-0.037015633951576046,-0.13804656006881103,-0.06476511015505523,-0.037015633951576046,-0.13804656006881103,0.8099999999999999,1.0,19.06709378638298,0.6288829784793022,4.1652370468794215,0.11533297404958011,0.005245355539051111,0.03740344419022669,19.526872737743805,0.12135990398456804,1.0,0.0,57.64441116610896,3.245047634841435,1008.4169997542855,95.00498164917728,2.5684252374339884,12.398494615484843,1.0,1009.3174186546128,0.0,1.0,101.61898603451789,5673.617383377678,1.0,1.0,1.3342632413445912,15.040914127625037,-3.6696611015397584,-45.47361523271708,1.0,1010.3904982942965,0.0,1.0,3.9206667404085205,11.885598611448247,,,
0.84,76.84947757203079,2.034013123991173,1010.882382603948,98.75477744839823,2.764993143450981,11.81321136101669,99.49725231696627,18.830802624139398,4.213145197896607,11.766937793292463,1.5749586255050916,6.949195536840173,0.5490505800624464,2.284753620298692,4.817267625138276,-5.392840444191006,5732.722762372605,0.30206452495166375,101.6120056071747,1.99265013237372,1.1104548064106803,89755.99212659463,281.5792645130743,-2.0092290261885872,8.897789599621962,0.23722369995274525,394.31368421052633,0.21162529304659614,0.84,nominal,14863.22132667603,nan,heading_hold,18.0,-5.0,0.0,-3.7558476852277813,-2.0564272757898836,-7.753693354287686,-3.7378155997704825,-2.082192206044516,-7.816010119869439,0.84,0.0,0.0,0.0,0.0,0.0,0.0,-0.06523718904840152,-0.03634110965484098,-0.13641511096091838,-0.06523718904840152,-0.03634110965484098,-0.13641511096091838,0.84,1.0,19.114779912670016,0.7154672506502524,4.089033273983422,0.12326222263321342,0.012537012024164886,0.04301645855639144,19.560339915561535,0.1311532230092256,1.0,0.0,77.77261120525394,0.9266374914468904,1009.7249452715006,98.61840650639192,2.859942617440424,11.844373459861329,1.0,1011.9038994072654,0.0,1.0,100.67665673505724,5683.068925881482,1.0,1.0,1.9138459764845306,15.081979609027918,-4.035945799003382,-45.48888983229818,1.0,1010.8698559144771,0.0,1.0,4.505284470214009,12.169028878973585,,,
0.87,79.82815285167011,2.117705342525781,1011.2351482122277,99.28917598797742,2.7897406178202564,11.758853609321807,100.02196638384854,18.824453865348,4.411308116619681,11.75457015942384,1.6517414187595127,7.127115364673159,0.5994956501183487,2.467610269927139,4.844790533211494,-5.3232544763386365,5797.004353317202,0.3037598441443832,102.18188089926194,1.9921574125538872,1.1104163221267116,89752.15063155642,281.5769715366205,-2.0677652579087384,8.66152807909168,0.20769100988646,394.2805263157895,0.2116074974450954,0.84,nominal,14919.026045861305,nan,heading_hold,18.0,-5.0,0.0,-3.7787196573962643,-2.0189758663514312,-7.665308923264119,-3.7623580343459517,-2.044262402228665,-7.725589401906248,0.84,0.0,0.0,0.0,0.0,0.0,0.0,-0.06566553533819876,-0.03567910969361887,-0.1348369717204435,-0.06566553533819876,-0.03567910969361887,-0.1348369717204435,0.87,1.0,19.039945970494212,0.6311933675300248,4.260041568033537,0.12228088586326999,0.010124352062391402,0.042810932389212075,19.520909348386574,0.12995342813570945,1.0,0.0,77.77261120525394,0.9266374914468904,1009.7249452715006,98.61840650639192,2.859942617440424,11.844373459861329,1.0,1011.9038994072654,0.0,1.0,103.09868578910634,5847.299236248217,1.0,1.0,1.9138459764845306,15.081979609027918,-4.035945799003382,-45.48888983229818,1.0,1010.8698559144771,0.0,1.0,4.505284470214009,12.169028878973585,,,
0.8999999999999999,82.82282877088389,2.2021410524311524,1011.5863418429551,99.82253064045905,2.8145236635123823,11.706454357580208,100.54601056503418,18.818105640424648,4.6138099794647465,11.741577140080846,1.7344195193115968,7.311204176431284,0.6440477224321227,2.655772058302329,4.8694015228112795,-5.257684673125466,5861.827184720484,0.3054599708553993,102.75337060615657,1.991672877470485,1.1103780103481418,89748.3263870522,281.57468877802074,-2.1281111403218986,8.418037387654675,0.17725467345683427,394.2473684210526,0.21158970184359466,0.84,nominal,14975.0233195062,nan,heading_hold,18.0,-5.0,0.0,-3.799417554795468,-1.9828129385659654,-7.581754039464923,-3.7845937466156614,-2.007392724031045,-7.639288184441454,0.84,0.0,0.0,0.0,0.0,0.0,0.0,-0.0660536217288313,-0.035035612414919634,-0.13333073132720322,-0.0660536217288313,-0.035035612414919634,-0.13333073132720322,0.8999999999999999,1.0,19.037934125962572,0.5778275808354385,4.323393938719094,0.12989033037077788,0.01240657652795094,0.04699707212041836,19.531220024540644,0.13868722310604364,1.0,0.0,77.77261120525394,0.9266374914468904,1009.7249452715006,98.61840650639192,2.859942617440424,11.844373459861329,1.0,1010.5037492537945,0.0,1.0,103.10520524563188,5742.086014252814,1.0,1.0,1.2605201908281087,15.112582550040582,-4.443969406031003,-45.44466415215195,1.0,1011.6977667192776,0.0,1.0,4.611211498960148,12.108700563213874,,,
0.9299999999999999,85.83347445112817,2.2873226682235055,1011.9360207263288,100.3548560081425,2.839387193078433,11.65596277912285,101.06938563361078,18.81175794936934,4.820830326124045,11.728168752420384,1.8231244679892187,7.502058040640712,0.6835203765502217,2.84847406623222,4.891329063876593,-5.196892985925332,5927.174151125465,0.3071643839335301,103.32629936225123,1.9911965507333826,1.1103398648183673,89744.51876814355,281.57241586527886,-2.190001735630409,8.16837693312039,0.1460471166400488,394.21421052631575,0.21157190624209393,0.84,nominal,15031.212733833618,nan,heading_hold,18.0,-5.0,0.0,-3.8180980186913636,-1.9482699223187205,-7.504086511152591,-3.804696309861083,-1.9719190430036506,-7.558167180468136,0.84,0.0,0.0,0.0,0.0,0.0,0.0,-0.0664044776455543,-0.034416479883189355,-0.13191490271534542,-0.0664044776455543,-0.034416479883189355,-0.13191490271534542,0.9299999999999999,1.0,19.049199805366317,0.7058305216306204,4.31432155192332,0.13008397008596023,0.01257030256317245,0.047034306967462025,19.544400231355873,0.13889592438860163,1.0,0.0,77.77261120525394,0.9266374914468904,1009.7249452715006,98.61840650639192,2.859942617440424,11.844373459861329,1.0,1010.5037492537945,0.0,1.0,103.87758164485776,6003.520246123912,1.0,1.0,1.2605201908281087,15.112582550040582,-4.443969406031003,-45.44466415215195,1.0,1011.6977667192776,0.0,1.0,4.611211498960148,12.108700563213874,,,
0.96,88.86005939076384,2.373254065843142,1012.2842407286273,100.88616465452236,2.86437992065454,11.607333409947952,101.59209162094724,18.805410792182077,5.032571884533055,11.714533392391603,1.9179637439712311,7.70028939539644,0.7186699168142775,3.0449235168030264,4.910764180385379,-5.141618129651328,5993.025592044629,0.3088725076269779,103.90047343815019,1.9907284418150126,1.1103018794302761,89740.7271648357,281.5701524352639,-2.2531653970505756,7.913632967425933,0.1142041209282416,394.1810526315789,0.2115541106405932,0.84,nominal,15087.593789300863,nan,heading_hold,18.0,-5.0,0.0,-3.8349114907008515,-1.9156685057224185,-7.433341738591793,-3.8228254183649444,-1.9381687206349114,-7.483271915342329,0.84,0.0,0.0,0.0,0.0,0.0,0.0,-0.06672089027939798,-0.033827425634245366,-0.13060773374474602,-0.06672089027939798,-0.033827425634245366,-0.13060773374474602,0.96,1.0,19.01590731987482,0.6370900440861322,4.458255374635647,0.13140490921340509,0.010941355204185021,0.053795802279096,19.541920476447807,0.14241120658831233,1.0,0.0,77.77261120525394,0.9266374914468904,1009.7249452715006,98.61840650639192,2.859942617440424,11.844373459861329,1.0,1013.2162146131869,0.0,1.0,103.3031554501068,6018.377827947684,1.0,1.0,2.7290381340048815,15.04840033609754,-4.790504157735849,-45.33962551028058,1.0,1012.217959896141,0.0,1.0,4.553493845990469,12.211650356558929,,,
0.99,91.90255341488214,2.4599406886712116,1012.6310564822571,101.4164674706101,2.88955409426899,11.560525120992088,102.11412800466992,18.79906416886286,5.249261082845665,11.70084145938671,2.019020150427642,7.906525819671921,0.7501244688203282,3.2443096102986746,4.927864458978958,-5.092572353112969,6059.359305013831,0.31058371347863906,104.47568137844037,1.9902685461854928,1.110264048212045,89736.95098065912,281.5678981328653,-2.31732495016562,7.654913860443975,0.08186423255549694,394.1478947368421,0.2115363150390925,0.84,nominal,15144.165919128784,nan,heading_hold,18.0,-5.0,0.0,-3.8499753649765354,-1.8853190747754345,-7.370524535076807,-3.8391153863318994,-1.9064589331192252,-7.415623487183017,0.84,0.0,0.0,0.0,0.0,0.0,0.0,-0.06700520385546575,-0.03327398543698885,-0.12942704593956716,-0.06700520385546575,-0.03327398543698885,-0.12942704593956716,0.99,1.0,18.955247546156954,0.697843679992991,4.585361737740932,0.14283451571314298,0.016843622994250507,0.061284894477785554,19.514454581251663,0.1563369591802714,1.0,0.0,77.77261120525394,0.9266374914468904,1009.7249452715006,98.61840650639192,2.859942617440424,11.844373459861329,1.0,1013.2162146131869,0.0,1.0,104.25117214800856,5982.8768050334465,1.0,1.0,2.7290381340048815,15.04840033609754,-4.790504157735849,-45.33962551028058,1.0,1012.217959896141,0.0,1.0,4.553493845990469,12.211650356558929,,,
1.02,94.96092663473017,2.5473896452830327,1012.9765214893852,101.94577399493443,2.9149652203940373,11.515500237602273,102.6354938770432,18.792718079411685,5.471148486679737,11.687248843404866,2.1263513918601804,8.12140886393795,0.778388757116293,3.4458112500329023,4.942757822900299,-5.050438499680828,6126.15058375012,0.3122973227967185,105.05169483299491,1.9898168376589158,1.1102263653158,89733.18963153707,281.565652610319,-2.3821988983765885,7.393345277557336,0.04916815969466701,394.11473684210523,0.21151851943759178,0.84,nominal,15200.928506156164,nan,heading_hold,18.0,-5.0,0.0,-3.8633736675907806,-1.857519416313714,-7.316602879812704,-3.853670355087228,-1.8770952230359186,-7.35621112276083,0.84,0.0,0.0,0.0,0.0,0.0,0.0,-0.06725923598277114,-0.03276149201543409,-0.12839010456400526,-0.06725923598277114,-0.03276149201543409,-0.12839010456400526,1.02,1.0,18.886933636481867,0.7347488200417471,4.578259291132523,0.14541804204381675,0.016320779278650305,0.05831100258295895,19.447791035340344,0.15752126145492082,1.0,0.0,77.77261120525394,0.9266374914468904,1009.7249452715006,98.61840650639192,2.859942617440424,11.844373459861329,1.0,1013.8903735657415,0.0,1.0,104.86352308575552,6188.003821672589,1.0,1.0,2.837985567442657,15.088648555452757,-5.231981280790982,-45.27775559833551,1.0,1012.4149152570211,0.0,1.0,5.858089913179585,11.707428759308224,,,
1.05,98.03514941549432,2.6356097986833182,1013.3206882027937,102.474092692138,2.9406717800095215,11.472223780282794,103.15618809387793,18.786372523828557,5.698509149976601,11.673899120729452,2.2399899079360748,8.345592889612588,0.8038874735711549,3.6486031673463577,4.955544926192496,-5.015867321866806,6193.3722823819235,0.31401260969935285,105.62826958136557,1.9893732193075142,1.1101888250087855,89729.44254490316,281.5634155266818,-2.4475026472002543,7.130065281982219,0.016258160247777338,394.0815789473684,0.21150072383609106,0.84,nominal,15257.880897993688,nan,heading_hold,18.0,-5.0,0.0,-3.875170933575361,-1.8325535913171875,-7.272503187849563,-3.866570702180108,-1.8503702440046799,-7.30598636181407,0.84,0.0,0.0,0.0,0.0,0.0,0.0,-0.06748438951419197,-0.03229505313881253,-0.12751351711945724,-0.06748438951419197,-0.03229505313881253,-0.12751351711945724,1.05,1.0,19.006246346220536,0.6119494335734407,4.666561961682341,0.14534590311551768,0.011939433226019059,0.05887776935358112,19.580313654910967,0.15727229044646585,1.0,0.0,94.85762792362493,1.9516202403168579,1016.166241205,102.69188648975303,3.0015173520445124,11.247462120101146,1.0,1013.8903735657415,0.0,1.0,105.62212108932746,6204.791027349768,1.0,1.0,2.837985567442657,15.088648555452757,-5.231981280790982,-45.27775559833551,1.0,1012.4149152570211,0.0,1.0,5.858089913179585,11.707428759308224,,,
1.08,101.12519235199755,2.72461184696551,1013.6636080848239,103.00143121677466,2.9667349427397247,11.430662734338242,103.67620941889524,18.780027502113473,5.931642897331337,11.660925220198953,2.3599428799158835,8.579743872949361,0.8269831549152927,3.851861011351751,4.966300982625099,-4.989475027756698,6260.994908027559,0.31572880476483034,106.20514676088501,1.9889374735389533,1.1101514216669088,89725.70915905671,281.56118654744864,-2.512949742085378,6.866219383149544,-0.016722577106306955,394.04842105263157,0.21148292823459033,0.84,nominal,15315.022421960348,nan,heading_hold,18.0,-5.0,0.0,-3.8854174796672947,-1.8106907339179779,-7.239106119615956,-3.8778787686724194,-1.8265625379526587,-7.265858216495202,0.84,0.0,0.0,0.0,0.0,0.0,0.0,-0.06768175250651726,-0.03187953028085778,-0.12681314886092424,-0.06768175250651726,-0.03187953028085778,-0.12681314886092424,1.08,1.0,18.876135357589625,0.6059600042613,4.772656503202967,0.15010570703371193,0.015825030857826078,0.06852143417362833,19.479577091466208,0.16576290847759814,1.0,0.0,94.85762792362493,1.9516202403168579,1016.166241205,102.69188648975303,3.0015173520445124,11.247462120101146,1.0,1014.120860507844,0.0,1.0,106.91413400341003,6320.663179463976,1.0,1.0,2.7661491437223398,15.093571450271485,-5.62556883871443,-45.28271243049887,1.0,1013.5607434930891,0.0,1.0,6.14053238492217,11.604587970573393,,,
1.1099999999999999,104.2310262520537,2.81440839539938,1014.0053316447837,103.52779666853812,2.993218281129006,11.390785331994751,104.19555666726026,18.773683014266435,6.170874556075654,11.648451258873589,2.4861923247988713,8.824538222565788,0.84797064403312,4.054765797260051,4.97507773781169,-4.971841050081211,6328.986742339607,0.3174450992760879,106.78205429466604,1.9885092354557758,1.1101141497706397,89721.98892275261,281.5589653443089,-2.578253114360728,6.602955552688385,-0.04963055591395179,394.0152631578947,0.2114651326330896,0.84,nominal,15372.352400174439,nan,heading_hold,18.0,-5.0,0.0,-3.8941464161229074,-1.792183808477005,-7.217242648231322,-3.887639357142712,-1.8059353002672665,-7.236688875536873,0.84,0.0,0.0,0.0,0.0,0.0,0.0,-0.06785210691225606,-0.03151951706765623,-0.12630404782056456,-0.06785210691225606,-0.03151951706765623,-0.12630404782056456,1.1099999999999999,1.0,18.806565551648116,0.6839459482091341,4.721786292047413,0.15440345773833997,0.017904795224802334,0.06817959524608819,19.40231830726102,0.16973351661212305,1.0,0.0,94.85762792362493,1.9516202403168579,1016.166241205,102.69188648975303,3.0015173520445124,11.247462120101146,1.0,1014.120860507844,0.0,1.0,106.72721838447183,6403.494210543263,1.0,1.0,2.7661491437223398,15.093571450271485,-5.62556883871443,-45.28271243049887,1.0,1013.5607434930891,0.0,1.0,6.14053238492217,11.604587970573393,,,
1.14,107.35262212698379,2.905014019892814,1014.3459084561114,104.05319583100324,3.020187483114459,11.352560377587265,104.71422884309962,18.767339060287444,6.416554141597869,11.63659438502685,2.6186952739834957,9.080661693138964,0.867076933835504,4.256507874633478,4.981905403126143,-4.963506033040785,6397.313991185949,0.31916065001280874,107.3587085037921,1.9880879751031282,1.1100770039031251,89718.28129501278,281.5567515950353,-2.6431263298916874,6.341419229696583,-0.0823225962879272,393.9821052631579,0.2114473370315889,0.84,nominal,15429.87016426364,nan,heading_hold,18.0,-5.0,0.0,-3.901372542171006,-1.777268500641901,-7.207690616384361,-3.895879268159688,-1.788735220492047,-7.219289920045366,0.84,0.0,0.0,0.0,0.0,0.0,0.0,-0.06799592048957365,-0.031219319043972966,-0.1260003787608298,-0.06799592048957365,-0.031219319043972966,-0.1260003787608298,1.14,1.0,18.919439602971917,0.6413511717619681,4.829177206244343,0.15686069860669277,0.016977662913411483,0.07596931357374287,19.536567730932997,0.17511383843159514,1.0,0.0,94.85762792362493,1.9516202403168579,1016.166241205,102.69188648975303,3.0015173520445124,11.247462120101146,1.0,1013.9284860350007,0.0,1.0,107.36729739360403,6496.3829893905495,1.0,1.0,2.774095260603979,15.078438688117329,-6.121406909344038,-45.16988110746479,1.0,1014.0437493679826,0.0,1.0,6.109772180897085,11.442090616480565,,,
1.17,110.48995118874507,2.996445321770975,1014.685387154799,104.57763539204242,3.047710062605355,11.31595662291927,105.23222526920382,18.760995640176496,6.669056995823373,11.625466323255846,2.7573840567338634,9.348808423379257,0.8844711998068618,4.456290493680352,4.98679424001958,-4.9649700318151915,6465.940961585673,0.32087458454554946,107.93481588836393,1.9876729742918529,1.1100399787503379,89714.58574514031,281.55454498349377,-2.7072848350102454,6.0827483370302255,-0.1146564578712218,393.94894736842105,0.21142954143008816,0.84,nominal,15487.575069495837,nan,heading_hold,18.0,-5.0,0.0,-3.907094969601684,-1.7661622947495261,-7.211171842262461,-3.902608689024886,-1.7751914650465346,-7.214419073375622,0.84,0.0,0.0,0.0,0.0,0.0,0.0,-0.06811337104042375,-0.03098293591836386,-0.125915366449083,-0.06811337104042375,-0.03098293591836386,-0.125915366449083,1.17,1.0,18.81709552906351,0.6841570705761236,4.885621863571549,0.16351285512119978,0.02168756959652886,0.07852745734430709,19.453032052637184,0.18268378697041707,1.0,0.0,94.85762792362493,1.9516202403168579,1016.166241205,102.69188648975303,3.0015173520445124,11.247462120101146,1.0,1013.9284860350007,0.0,1.0,108.5014483010493,6536.384080535469,1.0,1.0,2.774095260603979,15.078438688117329,-6.121406909344038,-45.16988110746479,1.0,1014.0437493679826,0.0,1.0,6.109772180897085,11.442090616480565,,,
1.2,113.64298485328584,3.088720973895012,1015.0238154200582,105.10112215135914,3.0758550708012486,11.280942175308208,105.74954571180973,18.754652753933595,6.928783884628059,11.61517466605429,2.902166678326289,9.629680077699529,0.9002733160610095,4.653333057247,4.989735848914135,-4.976690920051765,6534.830265141047,0.32258600699186335,108.51007506393213,1.9872633019175576,1.110003069103173,89710.90175292821,281.5523451997696,-2.7704471942960045,5.828068330295633,-0.14649145871304595,393.91578947368424,0.21141174582858746,0.84,nominal,15545.46650861618,nan,heading_hold,18.0,-5.0,0.0,-3.9112993663815545,-1.759063673781964,-7.2283495942734595,-3.907823095438887,-1.7655147902877923,-7.222777385914325,0.84,0.0,0.0,0.0,0.0,0.0,0.0,-0.06820437960088518,-0.03081404608317918,-0.12606124652279407,-0.06820437960088518,-0.03081404608317918,-0.12606124652279407,1.2,1.0,18.84242935492306,0.660230213119307,4.955657894909024,0.166030179852353,0.016072763474171133,0.08187123058914066,19.49439901871704,0.1858151036532864,1.0,0.0,94.85762792362493,1.9516202403168579,1016.166241205,102.69188648975303,3.0015173520445124,11.247462120101146,1.0,1014.8011678689592,0.0,1.0,109.09180500683388,6648.985932968422,1.0,1.0,3.9810793809043212,15.078282600451653,-6.720611093314939,-45.11932734922211,1.0,1014.9147365132802,0.0,1.0,6.7459175197781756,11.388445187088283,,,
1.23,116.81169474985555,3.181861758219704,1015.361239937888,105.62366321899034,3.1046928108230665,11.247483927656116,106.2661905026766,18.748310401558737,7.196161062012124,11.605824073609057,3.0529272689978137,9.923985073545852,0.9145569052685375,4.846874126478775,4.990704332162194,-4.999083001348461,6603.943046728684,0.3242940041850944,109.0841788367198,1.9868577949093789,1.109966269861398,89707.22880905317,281.5501519404037,-2.8323363148218315,5.578487301085346,-0.17768908736433178,393.8826315789473,0.2113939502270867,0.84,nominal,15603.543925612465,nan,heading_hold,18.0,-5.0,0.0,-3.913958356324961,-1.7561514014832036,-7.2598263237375456,-3.911504251970532,-1.759896757005039,-7.245006748608256,0.84,0.0,0.0,0.0,0.0,0.0,0.0,-0.06826862790264368,-0.03071599290490851,-0.12644922209242318,-0.06826862790264368,-0.03071599290490851,-0.12644922209242318,1.23,1.0,18.86070346929697,0.6509274090958568,5.102115088536166,0.17664384499258956,0.01740559984058407,0.09052876832698542,19.54946086789432,0.19925225412621447,1.0,0.0,94.85762792362493,1.9516202403168579,1016.166241205,102.69188648975303,3.0015173520445124,11.247462120101146,1.0,1014.8011678689592,0.0,1.0,108.74093254429856,6626.477188918926,1.0,1.0,3.9810793809043212,15.078282600451653,-6.720611093314939,-45.11932734922211,1.0,1014.9147365132802,0.0,1.0,6.7459175197781756,11.388445187088283,,,
1.26,119.9960527360057,3.275890594936553,1015.6977063482618,106.14526620500469,3.13429455722829,11.215547012464162,106.7821606584713,18.741968583051925,7.471640305905389,11.597517405230057,3.209526593480729,10.232437894886923,0.9273515460562898,5.036174200157861,4.989657355728246,-5.0325158201158855,6673.239236571227,0.3259976521937971,109.65681639676203,1.9864550440495976,1.1099295760393988,89703.56641564847,281.5479649087363,-2.8926806515367374,5.335091155763481,-0.20811360552956487,393.8494736842105,0.211376154625586,0.84,nominal,15661.806829405969,nan,heading_hold,18.0,-5.0,0.0,-3.915031677033885,-1.7575838998154825,-7.306141688836187,-3.9136207070085436,-1.758509042691305,-7.281687712745016,0.84,0.0,0.0,0.0,0.0,0.0,0.0,-0.0683055670115274,-0.0306917727210568,-0.12708942568941559,-0.0683055670115274,-0.0306917727210568,-0.12708942568941559,1.26,1.0,18.772489122842234,0.8629995145192475,5.068170821753697,0.17691040754515158,0.015701844328627396,0.09094685941526334,19.463747622381614,0.19953739361486045,1.0,0.0,119.67356485899037,3.190386297892051,1014.6990630474633,106.11012843869491,3.345172924469007,11.185778399147113,1.0,1015.6406837261615,0.0,1.0,108.50429280791886,6721.085250190629,1.0,1.0,4.466994411546446,15.08830083649756,-7.233257210479368,-45.0213946682878,1.0,1015.790762827306,0.0,1.0,6.692926235252715,11.982908537644846,,,
