time_s,sensor_time_s,imu_valid,imu_ax_mps2,imu_ay_mps2,imu_az_mps2,gyro_p_rps,gyro_q_rps,gyro_r_rps,imu_accel_norm_mps2,imu_gyro_norm_rps,gps_valid,gps_latency_s,gps_x_m,gps_y_m,gps_z_m,gps_vx_mps,gps_vy_mps,gps_vz_mps,baro_valid,baro_alt_m,baro_bias_m,pitot_valid,pitot_airspeed_mps,pitot_qbar_pa,pitot_compressibility_factor,mag_valid,mag_heading_deg,mag_x_ut,mag_y_ut,mag_z_ut,radar_valid,radar_agl_m,optical_flow_valid,horizon_valid,horizon_roll_deg,horizon_pitch_deg,optical_flow_x_radps,optical_flow_y_radps,optical_flow_quality
0.0,0.0,1.0,15.863658976337863,1.058966646731392,-0.6930371942163254,-0.001279898773872129,0.002068087163747687,0.0005281361201269382,15.914062555771283,0.0024887854768139554,1.0,0.0,0.5354505256823202,1.4183609496089247,1000.3550402325627,83.88261463530795,2.0393493499509656,15.053550255708195,1.0,1000.7418586383787,0.0,1.0,87.66706131630349,4205.12851111079,1.0,1.0,1.5022286437970536,17.21259347713176,-0.9087001158528836,-44.77701689197725,1.0,999.8945560890289,0.0,1.0,0.5051689769872049,8.977430989260586,,,
0.03,0.03,1.0,16.260624050986934,0.9384493018016266,-0.2647824697144378,0.029777496839869723,-0.1910417237957281,-0.05549231635105134,16.289833988591006,0.20115426101103817,1.0,0.0,0.5354505256823202,1.4183609496089247,1000.3550402325627,83.88261463530795,2.0393493499509656,15.053550255708195,1.0,1000.7418586383787,0.0,1.0,87.968860584111,4283.4731383245935,1.0,1.0,1.5022286437970536,17.21259347713176,-0.9087001158528836,-44.77701689197725,1.0,999.8945560890289,0.0,1.0,0.5051689769872049,8.977430989260586,,,
0.06,0.06,1.0,16.42684340500186,0.7570429139314226,0.3124122382269845,0.048332495370258806,-0.28925844217125923,-0.08555513800520756,16.44724595890087,0.3054933028973793,1.0,0.0,0.5354505256823202,1.4183609496089247,1000.3550402325627,83.88261463530795,2.0393493499509656,15.053550255708195,1.0,1001.1287143118697,0.0,1.0,87.30243664986175,4350.689600554686,1.0,1.0,1.14565560663554,16.627758998219033,-0.8328664414665029,-45.01046284446567,1.0,1001.3172857068332,0.0,1.0,0.19500284284630043,9.369764784673755,,,
0.09,0.09,1.0,16.68611953692761,0.4815037344442744,0.8157691728505527,0.06229315336201924,-0.236089135009402,-0.09505590033453823,16.71298627984521,0.26201935198317194,1.0,0.0,0.5354505256823202,1.4183609496089247,1000.3550402325627,83.88261463530795,2.0393493499509656,15.053550255708195,1.0,1001.1287143118697,0.0,1.0,88.46563931567104,4407.735510312953,1.0,1.0,1.14565560663554,16.627758998219033,-0.8328664414665029,-45.01046284446567,1.0,1001.3172857068332,0.0,1.0,0.19500284284630043,9.369764784673755,,,
0.12,0.12,1.0,16.981016313944927,0.3824173754304533,0.9926804450871559,0.06961550579117436,-0.1474208332631741,-0.0924368208129721,17.014304939360684,0.18741341085573124,1.0,0.0,0.5354505256823202,1.4183609496089247,1000.3550402325627,83.88261463530795,2.0393493499509656,15.053550255708195,1.0,1003.1250983375263,0.0,1.0,89.11524540928508,4500.058205395826,1.0,1.0,1.139378872215127,16.000708888883818,-0.9404493684535733,-45.28095660909732,1.0,1001.7204445572365,0.0,1.0,0.9071221999860154,10.612458973375077,,,
0.15,0.15,1.0,17.174880041196925,0.5086315771839447,1.1561239385140392,0.07000868848440729,-0.10904652692137672,-0.07047422258250452,17.221261076704526,0.14750924562728165,1.0,0.0,0.5354505256823202,1.4183609496089247,1000.3550402325627,83.88261463530795,2.0393493499509656,15.053550255708195,1.0,1003.1250983375263,0.0,1.0,89.29443677163474,4518.648516367488,1.0,1.0,1.139378872215127,16.000708888883818,-0.9404493684535733,-45.28095660909732,1.0,1001.7204445572365,0.0,1.0,0.9071221999860154,10.612458973375077,,,
0.18,0.18,1.0,17.41842882053549,0.47196271446029253,1.4423457466250564,0.07513081034351006,-0.10078455066872291,-0.0541527109116774,17.484415135563143,0.13687468873189285,1.0,0.0,0.5354505256823202,1.4183609496089247,1000.3550402325627,83.88261463530795,2.0393493499509656,15.053550255708195,1.0,1003.0686496949029,0.0,1.0,89.8885640601774,4448.523957787339,1.0,1.0,1.2328461352501172,15.891577326634309,-1.1245115632365097,-45.33771134549675,1.0,1002.9063104674648,0.0,1.0,1.3641261604842716,11.304702159147567,,,
0.21,0.21,1.0,17.702787862092833,0.5421089728156525,1.590815034844463,0.06867137164962488,-0.1054223952226224,-0.044087462044102285,17.78238658627564,0.13331670191017275,1.0,0.0,17.800225091732134,3.8799301265654615,1002.4424652343936,87.29736847370259,2.331425528248267,13.62791320246248,1.0,1003.0686496949029,0.0,1.0,90.37892634616655,4552.894088545373,1.0,1.0,1.2328461352501172,15.891577326634309,-1.1245115632365097,-45.33771134549675,1.0,1002.9063104674648,0.0,1.0,1.3641261604842716,11.304702159147567,,,
0.24,0.24,1.0,18.00945991017545,0.5469025268774484,1.853157145665755,0.07413537221190188,-0.09202542476431308,-0.031938617085963156,18.112811489016654,0.12241244821264403,1.0,0.0,17.800225091732134,3.8799301265654615,1002.4424652343936,87.29736847370259,2.331425528248267,13.62791320246248,1.0,1003.9474830511937,0.0,1.0,90.46350427216305,4722.152041973435,1.0,1.0,1.3346399973107976,15.47248404098754,-1.2156633764816402,-45.35584241508809,1.0,1003.4558454427497,0.0,1.0,1.3849492752476862,11.416367831868149,,,
0.27,0.27,1.0,18.26827525284008,0.5525748837631907,2.0149164399489083,0.0717597346797934,-0.07597398944449608,-0.022019020380717045,18.387362724862736,0.10680048619717598,1.0,0.0,17.800225091732134,3.8799301265654615,1002.4424652343936,87.29736847370259,2.331425528248267,13.62791320246248,1.0,1003.9474830511937,0.0,1.0,90.38536014076243,4678.434623339482,1.0,1.0,1.3346399973107976,15.47248404098754,-1.2156633764816402,-45.35584241508809,1.0,1003.4558454427497,0.0,1.0,1.3849492752476862,11.416367831868149,,,
0.3,0.3,1.0,18.57212213991377,0.5812789615568769,2.159684118716009,0.07687822314900548,-0.054849629856226406,-0.010709551162854854,18.7063048596899,0.09504439792025163,1.0,0.0,17.800225091732134,3.8799301265654615,1002.4424652343936,87.29736847370259,2.331425528248267,13.62791320246248,1.0,1004.1330244197243,0.0,1.0,91.78632851020078,4686.051007162628,1.0,1.0,2.2430886379151094,15.358041623098119,-1.5298144568699896,-45.421920648313076,1.0,1004.5960859554926,0.0,1.0,1.4389683466952539,11.733960461117249,,,
0.32999999999999996,0.32999999999999996,1.0,18.807097420513454,0.6343368450121796,2.3391500712424227,0.07712416240750998,-0.053309339968234726,-0.004868629048937967,18.962619008813558,0.0938814449384167,1.0,0.0,17.800225091732134,3.8799301265654615,1002.4424652343936,87.29736847370259,2.331425528248267,13.62791320246248,1.0,1004.1330244197243,0.0,1.0,92.15755260838317,4733.619548008178,1.0,1.0,2.2430886379151094,15.358041623098119,-1.5298144568699896,-45.421920648313076,1.0,1004.5960859554926,0.0,1.0,1.4389683466952539,11.733960461117249,,,
0.36,0.36,1.0,19.026623535505447,0.6556986967210006,2.6102711874412927,0.07563852890102833,-0.03971430592449255,-0.0024737981262646968,19.21603131800939,0.08546655969761151,1.0,0.0,17.800225091732134,3.8799301265654615,1002.4424652343936,87.29736847370259,2.331425528248267,13.62791320246248,1.0,1004.2581010444713,0.0,1.0,92.79413342694853,4883.531303100415,1.0,1.0,-0.8338946803862444,15.151505550579751,-1.6522504615565927,-45.48013885879719,1.0,1005.071551528677,0.0,1.0,1.1862834804901408,11.825209458308063,,,
0.39,0.39,1.0,19.27689857062694,0.6071945595535511,2.654138341278627,0.08543126504381084,-0.03644024848008394,0.0021929041104729445,19.468229351177154,0.09290426031519676,1.0,0.0,17.800225091732134,3.8799301265654615,1002.4424652343936,87.29736847370259,2.331425528248267,13.62791320246248,1.0,1004.2581010444713,0.0,1.0,92.95298688887225,4837.594124562057,1.0,1.0,-0.8338946803862444,15.151505550579751,-1.6522504615565927,-45.48013885879719,1.0,1005.071551528677,0.0,1.0,1.1862834804901408,11.825209458308063,,,
0.42,0.42,1.0,19.478786149751826,0.6389128532370237,2.743579612092811,0.080824174611292,-0.031127691636686362,0.006678225205438631,19.681426487673257,0.08686817069629019,1.0,0.0,35.87512020328112,4.56008048738334,1000.8811075027552,90.98592294755179,2.768294080852223,12.875532981488332,1.0,1005.1181186820022,0.0,1.0,93.39807921637845,4932.575311357279,1.0,1.0,1.6989628050151206,15.122777730062158,-1.940529721859927,-45.52258318990192,1.0,1005.8489660005085,0.0,1.0,1.262730677446215,11.87759195404754,,,
0.44999999999999996,0.44999999999999996,1.0,19.390215929143686,0.6171950300332596,2.950461230888858,0.08419950925989443,-0.02294419764303415,0.006636679439754153,19.62311455806375,0.08752164920221578,1.0,0.0,35.87512020328112,4.56008048738334,1000.8811075027552,90.98592294755179,2.768294080852223,12.875532981488332,1.0,1005.1181186820022,0.0,1.0,93.80672911199514,5024.523141917135,1.0,1.0,1.6989628050151206,15.122777730062158,-1.940529721859927,-45.52258318990192,1.0,1005.8489660005085,0.0,1.0,1.262730677446215,11.87759195404754,,,
0.48,0.48,1.0,19.33217879780431,0.5978151822857662,3.010057932132253,0.09149632529537517,-0.020984495994664485,0.006027182936312823,19.57424248386737,0.09406515587004032,1.0,0.0,35.87512020328112,4.56008048738334,1000.8811075027552,90.98592294755179,2.768294080852223,12.875532981488332,1.0,1007.5165041625078,0.0,1.0,95.0944004460057,5006.4642220077685,1.0,1.0,0.7510382697056801,15.06133253353532,-2.118908580041955,-45.54052057001826,1.0,1006.7754270956714,0.0,1.0,2.6509522178496514,11.911294758233018,,,
0.51,0.51,1.0,19.314661327645098,0.6774458919041212,3.0863216155731648,0.08986572881519779,-0.016547438822616903,0.007347143024306529,19.571419372463538,0.09167141025256749,1.0,0.0,35.87512020328112,4.56008048738334,1000.8811075027552,90.98592294755179,2.768294080852223,12.875532981488332,1.0,1007.5165041625078,0.0,1.0,95.9246050625375,5046.816275826768,1.0,1.0,0.7510382697056801,15.06133253353532,-2.118908580041955,-45.54052057001826,1.0,1006.7754270956714,0.0,1.0,2.6509522178496514,11.911294758233018,,,
0.54,0.54,1.0,19.368415511316282,0.6655424271913488,3.3371368862090507,0.09468759727846414,-0.0122260898493229,0.010784506402504971,19.665069253340704,0.0960808197806305,1.0,0.0,35.87512020328112,4.56008048738334,1000.8811075027552,90.98592294755179,2.768294080852223,12.875532981488332,1.0,1006.2394132903739,0.0,1.0,95.82382883225031,5176.638519852066,1.0,1.0,1.7360940817884412,15.010346790099785,-2.3384813183122772,-45.6118342531609,1.0,1006.9645979825242,0.0,1.0,2.4706035558075725,11.19747689169666,,,
0.57,0.57,1.0,19.298038968787342,0.6095037885852005,3.3779426062201527,0.0963526265411373,-0.005327809167907021,0.020472859590486545,19.60092597710761,0.09864761614817302,1.0,0.0,35.87512020328112,4.56008048738334,1000.8811075027552,90.98592294755179,2.768294080852223,12.875532981488332,1.0,1006.2394132903739,0.0,1.0,97.14233181369028,5229.937421367716,1.0,1.0,1.7360940817884412,15.010346790099785,-2.3384813183122772,-45.6118342531609,1.0,1006.9645979825242,0.0,1.0,2.4706035558075725,11.19747689169666,,,
0.6,0.6,1.0,19.286760198594877,0.691554849064232,3.483056816324352,0.10072412547595223,-0.005114008608791805,0.023119355742273407,19.610942145983483,0.10346983689406279,1.0,0.0,35.87512020328112,4.56008048738334,1000.8811075027552,90.98592294755179,2.768294080852223,12.875532981488332,1.0,1008.1530490527912,0.0,1.0,97.00502752171107,5275.730353693901,1.0,1.0,1.0180819377298906,14.995742588504068,-2.620421877219961,-45.55649567837217,1.0,1007.9590708565927,0.0,1.0,2.79868926476189,12.494550807163344,,,
0.63,0.63,1.0,19.24165969963268,0.6248221029871805,3.613274014742329,0.10143529205304848,-0.001026600787504827,0.01964738329295752,19.587945776994122,0.10332566018818623,1.0,0.0,57.64441116610896,3.245047634841435,1008.4169997542855,95.00498164917728,2.5684252374339884,12.398494615484843,1.0,1008.1530490527912,0.0,1.0,97.52712242188052,5286.263309702212,1.0,1.0,1.0180819377298906,14.995742588504068,-2.620421877219961,-45.55649567837217,1.0,1007.9590708565927,0.0,1.0,2.79868926476189,12.494550807163344,,,
0.6599999999999999,0.6599999999999999,1.0,19.265066048761256,0.6663836893715606,3.7030278571207376,0.10820269441295005,-0.0009274692763705013,0.02525004295120671,19.6290410462459,0.11111367128539426,1.0,0.0,57.64441116610896,3.245047634841435,1008.4169997542855,95.00498164917728,2.5684252374339884,12.398494615484843,1.0,1009.9253600156266,0.0,1.0,97.96616848777411,5435.864352020583,1.0,1.0,1.9735234748836743,14.945591297245604,-2.963218733407539,-45.562554084543955,1.0,1008.3669058637755,0.0,1.0,3.2226247052877333,11.701233935968519,,,
0.69,0.69,1.0,19.1464338305509,0.6267003886748784,3.8121337871105494,0.10800151935239465,-0.001498471412120281,0.029699688873295847,19.53230774423901,0.11202073521526802,1.0,0.0,57.64441116610896,3.245047634841435,1008.4169997542855,95.00498164917728,2.5684252374339884,12.398494615484843,1.0,1009.9253600156266,0.0,1.0,98.46178195577107,5512.050703001201,1.0,1.0,1.9735234748836743,14.945591297245604,-2.963218733407539,-45.562554084543955,1.0,1008.3669058637755,0.0,1.0,3.2226247052877333,11.701233935968519,,,
0.72,0.72,1.0,19.131972840362454,0.6191041361021427,3.830993814426584,0.10823712828403126,0.004315736610596838,0.029125126148836604,19.521582628001248,0.11217029238997075,1.0,0.0,57.64441116610896,3.245047634841435,1008.4169997542855,95.00498164917728,2.5684252374339884,12.398494615484843,1.0,1007.8609105651182,0.0,1.0,99.2589289941016,5428.1610142698855,1.0,1.0,1.2285069330468301,15.007439155130887,-3.3646356833328097,-45.49819011006009,1.0,1009.7167716907294,0.0,1.0,3.277215243263356,12.118652448911982,,,
0.75,0.75,1.0,19.172234453135026,0.5904717571338501,3.8596446466069376,0.1138925608928975,0.005609936725882553,0.028963736319688037,19.565788704267252,0.11765153988965545,1.0,0.0,57.64441116610896,3.245047634841435,1008.4169997542855,95.00498164917728,2.5684252374339884,12.398494615484843,1.0,1007.8609105651182,0.0,1.0,100.05309858565153,5582.536292422405,1.0,1.0,1.2285069330468301,15.007439155130887,-3.3646356833328097,-45.49819011006009,1.0,1009.7167716907294,0.0,1.0,3.277215243263356,12.118652448911982,,,
0.78,0.78,1.0,19.162703699898493,0.5656437586906172,3.9488542721777713,0.11492899155726058,0.006443187264917877,0.037621486340610834,19.573518232927512,0.12110146158067804,1.0,0.0,57.64441116610896,3.245047634841435,1008.4169997542855,95.00498164917728,2.5684252374339884,12.398494615484843,1.0,1009.3174186546128,0.0,1.0,100.46529000880949,5614.63702337722,1.0,1.0,1.3342632413445912,15.040914127625037,-3.6696611015397584,-45.47361523271708,1.0,1010.3904982942965,0.0,1.0,3.9206667404085205,11.885598611448247,,,
0.8099999999999999,0.8099999999999999,1.0,19.06709378638298,0.6288829784793022,4.1652370468794215,0.11533297404958011,0.005245355539051111,0.03740344419022669,19.526872737743805,0.12135990398456804,1.0,0.0,57.64441116610896,3.245047634841435,1008.4169997542855,95.00498164917728,2.5684252374339884,12.398494615484843,1.0,1009.3174186546128,0.0,1.0,101.61898603451789,5673.617383377678,1.0,1.0,1.3342632413445912,15.040914127625037,-3.6696611015397584,-45.47361523271708,1.0,1010.3904982942965,0.0,1.0,3.9206667404085205,11.885598611448247,,,
0.84,0.84,1.0,19.114779912670016,0.7154672506502524,4.089033273983422,0.12326222263321342,0.012537012024164886,0.04301645855639144,19.560339915561535,0.1311532230092256,1.0,0.0,77.77261120525394,0.9266374914468904,1009.7249452715006,98.61840650639192,2.859942617440424,11.844373459861329,1.0,1011.9038994072654,0.0,1.0,100.67665673505724,5683.068925881482,1.0,1.0,1.9138459764845306,15.081979609027918,-4.035945799003382,-45.48888983229818,1.0,1010.8698559144771,0.0,1.0,4.505284470214009,12.169028878973585,,,
0.87,0.87,1.0,19.039945970494212,0.6311933675300248,4.260041568033537,0.12228088586326999,0.010124352062391402,0.042810932389212075,19.520909348386574,0.12995342813570945,1.0,0.0,77.77261120525394,0.9266374914468904,1009.7249452715006,98.61840650639192,2.859942617440424,11.844373459861329,1.0,1011.9038994072654,0.0,1.0,103.09868578910634,5847.299236248217,1.0,1.0,1.9138459764845306,15.081979609027918,-4.035945799003382,-45.48888983229818,1.0,1010.8698559144771,0.0,1.0,4.505284470214009,12.169028878973585,,,
0.8999999999999999,0.8999999999999999,1.0,19.037934125962572,0.5778275808354385,4.323393938719094,0.12989033037077788,0.01240657652795094,0.04699707212041836,19.531220024540644,0.13868722310604364,1.0,0.0,77.77261120525394,0.9266374914468904,1009.7249452715006,98.61840650639192,2.859942617440424,11.844373459861329,1.0,1010.5037492537945,0.0,1.0,103.10520524563188,5742.086014252814,1.0,1.0,1.2605201908281087,15.112582550040582,-4.443969406031003,-45.44466415215195,1.0,1011.6977667192776,0.0,1.0,4.611211498960148,12.108700563213874,,,
0.9299999999999999,0.9299999999999999,1.0,19.049199805366317,0.7058305216306204,4.31432155192332,0.13008397008596023,0.01257030256317245,0.047034306967462025,19.544400231355873,0.13889592438860163,1.0,0.0,77.77261120525394,0.9266374914468904,1009.7249452715006,98.61840650639192,2.859942617440424,11.844373459861329,1.0,1010.5037492537945,0.0,1.0,103.87758164485776,6003.520246123912,1.0,1.0,1.2605201908281087,15.112582550040582,-4.443969406031003,-45.44466415215195,1.0,1011.6977667192776,0.0,1.0,4.611211498960148,12.108700563213874,,,
0.96,0.96,1.0,19.01590731987482,0.6370900440861322,4.458255374635647,0.13140490921340509,0.010941355204185021,0.053795802279096,19.541920476447807,0.14241120658831233,1.0,0.0,77.77261120525394,0.9266374914468904,1009.7249452715006,98.61840650639192,2.859942617440424,11.844373459861329,1.0,1013.2162146131869,0.0,1.0,103.3031554501068,6018.377827947684,1.0,1.0,2.7290381340048815,15.04840033609754,-4.790504157735849,-45.33962551028058,1.0,1012.217959896141,0.0,1.0,4.553493845990469,12.211650356558929,,,
0.99,0.99,1.0,18.955247546156954,0.697843679992991,4.585361737740932,0.14283451571314298,0.016843622994250507,0.061284894477785554,19.514454581251663,0.1563369591802714,1.0,0.0,77.77261120525394,0.9266374914468904,1009.7249452715006,98.61840650639192,2.859942617440424,11.844373459861329,1.0,1013.2162146131869,0.0,1.0,104.25117214800856,5982.8768050334465,1.0,1.0,2.7290381340048815,15.04840033609754,-4.790504157735849,-45.33962551028058,1.0,1012.217959896141,0.0,1.0,4.553493845990469,12.211650356558929,,,
1.02,1.02,1.0,18.886933636481867,0.7347488200417471,4.578259291132523,0.14541804204381675,0.016320779278650305,0.05831100258295895,19.447791035340344,0.15752126145492082,1.0,0.0,77.77261120525394,0.9266374914468904,1009.7249452715006,98.61840650639192,2.859942617440424,11.844373459861329,1.0,1013.8903735657415,0.0,1.0,104.86352308575552,6188.003821672589,1.0,1.0,2.837985567442657,15.088648555452757,-5.231981280790982,-45.27775559833551,1.0,1012.4149152570211,0.0,1.0,5.858089913179585,11.707428759308224,,,
1.05,1.05,1.0,19.006246346220536,0.6119494335734407,4.666561961682341,0.14534590311551768,0.011939433226019059,0.05887776935358112,19.580313654910967,0.15727229044646585,1.0,0.0,94.85762792362493,1.9516202403168579,1016.166241205,102.69188648975303,3.0015173520445124,11.247462120101146,1.0,1013.8903735657415,0.0,1.0,105.62212108932746,6204.791027349768,1.0,1.0,2.837985567442657,15.088648555452757,-5.231981280790982,-45.27775559833551,1.0,1012.4149152570211,0.0,1.0,5.858089913179585,11.707428759308224,,,
1.08,1.08,1.0,18.876135357589625,0.6059600042613,4.772656503202967,0.15010570703371193,0.015825030857826078,0.06852143417362833,19.479577091466208,0.16576290847759814,1.0,0.0,94.85762792362493,1.9516202403168579,1016.166241205,102.69188648975303,3.0015173520445124,11.247462120101146,1.0,1014.120860507844,0.0,1.0,106.91413400341003,6320.663179463976,1.0,1.0,2.7661491437223398,15.093571450271485,-5.62556883871443,-45.28271243049887,1.0,1013.5607434930891,0.0,1.0,6.14053238492217,11.604587970573393,,,
1.1099999999999999,1.1099999999999999,1.0,18.806565551648116,0.6839459482091341,4.721786292047413,0.15440345773833997,0.017904795224802334,0.06817959524608819,19.40231830726102,0.16973351661212305,1.0,0.0,94.85762792362493,1.9516202403168579,1016.166241205,102.69188648975303,3.0015173520445124,11.247462120101146,1.0,1014.120860507844,0.0,1.0,106.72721838447183,6403.494210543263,1.0,1.0,2.7661491437223398,15.093571450271485,-5.62556883871443,-45.28271243049887,1.0,1013.5607434930891,0.0,1.0,6.14053238492217,11.604587970573393,,,
1.14,1.14,1.0,18.919439602971917,0.6413511717619681,4.829177206244343,0.15686069860669277,0.016977662913411483,0.07596931357374287,19.536567730932997,0.17511383843159514,1.0,0.0,94.85762792362493,1.9516202403168579,1016.166241205,102.69188648975303,3.0015173520445124,11.247462120101146,1.0,1013.9284860350007,0.0,1.0,107.36729739360403,6496.3829893905495,1.0,1.0,2.774095260603979,15.078438688117329,-6.121406909344038,-45.16988110746479,1.0,1014.0437493679826,0.0,1.0,6.109772180897085,11.442090616480565,,,
1.17,1.17,1.0,18.81709552906351,0.6841570705761236,4.885621863571549,0.16351285512119978,0.02168756959652886,0.07852745734430709,19.453032052637184,0.18268378697041707,1.0,0.0,94.85762792362493,1.9516202403168579,1016.166241205,102.69188648975303,3.0015173520445124,11.247462120101146,1.0,1013.9284860350007,0.0,1.0,108.5014483010493,6536.384080535469,1.0,1.0,2.774095260603979,15.078438688117329,-6.121406909344038,-45.16988110746479,1.0,1014.0437493679826,0.0,1.0,6.109772180897085,11.442090616480565,,,
1.2,1.2,1.0,18.84242935492306,0.660230213119307,4.955657894909024,0.166030179852353,0.016072763474171133,0.08187123058914066,19.49439901871704,0.1858151036532864,1.0,0.0,94.85762792362493,1.9516202403168579,1016.166241205,102.69188648975303,3.0015173520445124,11.247462120101146,1.0,1014.8011678689592,0.0,1.0,109.09180500683388,6648.985932968422,1.0,1.0,3.9810793809043212,15.078282600451653,-6.720611093314939,-45.11932734922211,1.0,1014.9147365132802,0.0,1.0,6.7459175197781756,11.388445187088283,,,
1.23,1.23,1.0,18.86070346929697,0.6509274090958568,5.102115088536166,0.17664384499258956,0.01740559984058407,0.09052876832698542,19.54946086789432,0.19925225412621447,1.0,0.0,94.85762792362493,1.9516202403168579,1016.166241205,102.69188648975303,3.0015173520445124,11.247462120101146,1.0,1014.8011678689592,0.0,1.0,108.74093254429856,6626.477188918926,1.0,1.0,3.9810793809043212,15.078282600451653,-6.720611093314939,-45.11932734922211,1.0,1014.9147365132802,0.0,1.0,6.7459175197781756,11.388445187088283,,,
1.26,1.26,1.0,18.772489122842234,0.8629995145192475,5.068170821753697,0.17691040754515158,0.015701844328627396,0.09094685941526334,19.463747622381614,0.19953739361486045,1.0,0.0,119.67356485899037,3.190386297892051,1014.6990630474633,106.11012843869491,3.345172924469007,11.185778399147113,1.0,1015.6406837261615,0.0,1.0,108.50429280791886,6721.085250190629,1.0,1.0,4.466994411546446,15.08830083649756,-7.233257210479368,-45.0213946682878,1.0,1015.790762827306,0.0,1.0,6.692926235252715,11.982908537644846,,,
1.29,1.29,1.0,18.775751227286595,0.7155879685475197,5.169572288332397,0.18592362350746547,0.016672866740282555,0.089452650527484,19.48756983140736,0.20699602641084,1.0,0.0,119.67356485899037,3.190386297892051,1014.6990630474633,106.11012843869491,3.345172924469007,11.185778399147113,1.0,1015.6406837261615,0.0,1.0,109.93436617236493,6698.811330725205,1.0,1.0,4.466994411546446,15.08830083649756,-7.233257210479368,-45.0213946682878,1.0,1015.790762827306,0.0,1.0,6.692926235252715,11.982908537644846,,,
1.3199999999999998,1.3199999999999998,1.0,18.81305624471788,0.7221378915335288,5.2039429716506085,0.19150208381673062,0.015017309261157736,0.09557188444004373,19.532884857426943,0.2145519815313213,1.0,0.0,119.67356485899037,3.190386297892051,1014.6990630474633,106.11012843869491,3.345172924469007,11.185778399147113,1.0,1015.0637074408246,0.0,1.0,110.53446172209492,6917.637255208645,1.0,1.0,2.64362631964941,15.13861544622432,-7.839815652330337,-44.90826575465951,1.0,1016.3466181844555,0.0,1.0,8.331142184090982,12.326276059545897,,,
1.3499999999999999,1.3499999999999999,1.0,18.753647893773916,0.7839599756384632,5.1801851761092,0.19249115692250732,0.01215279436326706,0.09798468682440749,19.471728763153912,0.21633662370546142,1.0,0.0,119.67356485899037,3.190386297892051,1014.6990630474633,106.11012843869491,3.345172924469007,11.185778399147113,1.0,1015.0637074408246,0.0,1.0,110.964733912759,6976.547773274394,1.0,1.0,2.64362631964941,15.13861544622432,-7.839815652330337,-44.90826575465951,1.0,1016.3466181844555,0.0,1.0,8.331142184090982,12.326276059545897,,,
1.38,1.38,1.0,18.66061236808614,0.8583117853264575,5.189940593852516,0.20274555423634938,0.01567137809000727,0.10274911112359568,19.38789922710859,0.22783487812565806,1.0,0.0,119.67356485899037,3.190386297892051,1014.6990630474633,106.11012843869491,3.345172924469007,11.185778399147113,1.0,1015.9962803448993,0.0,1.0,111.75696185875037,6929.094299437752,1.0,1.0,3.815846668905741,15.115768257109053,-8.43808062196366,-44.72386810473297,1.0,1016.9999661848644,0.0,1.0,8.727209769508631,11.718737461929454,,,
1.41,1.41,1.0,18.67734664404485,0.7155567239334095,5.274543008305197,0.21010323386900864,0.015652426504732187,0.10044613679951991,19.421022193320333,0.23340478516013602,1.0,0.0,119.67356485899037,3.190386297892051,1014.6990630474633,106.11012843869491,3.345172924469007,11.185778399147113,1.0,1015.9962803448993,0.0,1.0,112.76643593600231,7108.859505919786,1.0,1.0,3.815846668905741,15.115768257109053,-8.43808062196366,-44.72386810473297,1.0,1016.9999661848644,0.0,1.0,8.727209769508631,11.718737461929454,,,
1.44,1.44,1.0,18.693961848448566,0.8906092399565346,5.338707854698785,0.21602192613870044,0.018179909407157933,0.10666998542244902,19.461736715087095,0.241608086513577,1.0,0.0,119.67356485899037,3.190386297892051,1014.6990630474633,106.11012843869491,3.345172924469007,11.185778399147113,1.0,1017.173110206538,0.0,1.0,112.98163441379306,7169.279552103318,1.0,1.0,3.804593087805381,15.113834572857833,-9.119919082279846,-44.59335618758717,1.0,1017.7810784343427,0.0,1.0,9.756873155434938,11.42296654760616,,,
1.47,1.47,1.0,18.650946995668544,0.8120273531360126,5.372174806677633,0.2234611410129484,0.017064367881306046,0.11208593878853469,19.42620586761554,0.25057799557843163,1.0,0.0,142.61141199682214,2.8911514727952152,1017.4988998592528,109.80061305774413,3.506457885443736,11.053616959768028,1.0,1017.173110206538,0.0,1.0,113.70291784143524,7210.748362063628,1.0,1.0,3.804593087805381,15.113834572857833,-9.119919082279846,-44.59335618758717,1.0,1017.7810784343427,0.0,1.0,9.756873155434938,11.42296654760616,,,
1.5,1.5,1.0,18.668622020523987,0.929089198525241,5.4356263693692926,0.22928005459146228,0.01551711189213065,0.11049793137574154,19.46603937403272,0.25499003320376057,1.0,0.0,142.61141199682214,2.8911514727952152,1017.4988998592528,109.80061305774413,3.506457885443736,11.053616959768028,1.0,1017.3713587467964,0.0,1.0,114.6575839607231,7151.678764476633,1.0,1.0,6.366421661019521,15.105073872282725,-9.816152237751183,-44.534878132396145,1.0,1018.2984058515854,0.0,1.0,10.546982521200471,12.308014683145133,,,
1.53,1.53,1.0,18.568201081604407,0.8727821378929066,5.488558725540738,0.24031674537916276,0.01567580849008332,0.11307875845992961,19.38205657175805,0.2660538943452815,1.0,0.0,142.61141199682214,2.8911514727952152,1017.4988998592528,109.80061305774413,3.506457885443736,11.053616959768028,1.0,1017.3713587467964,0.0,1.0,114.34195084841441,7353.568448574514,1.0,1.0,6.366421661019521,15.105073872282725,-9.816152237751183,-44.534878132396145,1.0,1018.2984058515854,0.0,1.0,10.546982521200471,12.308014683145133,,,
1.56,1.56,1.0,18.586188593990574,0.9686963923978127,5.510983409346938,0.24813066704217474,0.01658126869606088,0.11358415553941034,19.410196219773955,0.2733955500515078,1.0,0.0,142.61141199682214,2.8911514727952152,1017.4988998592528,109.80061305774413,3.506457885443736,11.053616959768028,1.0,1018.7018669318621,0.0,1.0,116.03688765217503,7429.433831691028,1.0,1.0,6.7158540026031766,15.0540448689197,-10.575466599570966,-44.32434847934091,1.0,1019.1201210968505,0.0,1.0,11.38943217328841,11.709939645018848,,,
1.5899999999999999,1.5899999999999999,1.0,18.656839247408943,1.063362037260808,5.448479744235334,0.25738528531252014,0.013726064737040234,0.11680888874276237,19.465207963165685,0.2829839331797688,1.0,0.0,142.61141199682214,2.8911514727952152,1017.4988998592528,109.80061305774413,3.506457885443736,11.053616959768028,1.0,1018.7018669318621,0.0,1.0,115.78891321987747,7456.252185847084,1.0,1.0,6.7158540026031766,15.0540448689197,-10.575466599570966,-44.32434847934091,1.0,1019.1201210968505,0.0,1.0,11.38943217328841,11.709939645018848,,,
1.6199999999999999,1.6199999999999999,1.0,18.616596100933226,1.0716810856329555,5.4866289755380935,0.2672895908704192,0.016979995716031378,0.11712231326184958,19.437830338023836,0.29231777555598526,1.0,0.0,142.61141199682214,2.8911514727952152,1017.4988998592528,109.80061305774413,3.506457885443736,11.053616959768028,1.0,1018.8883355728956,0.0,1.0,116.04767512902214,7559.6868632143105,1.0,1.0,5.674604611766807,14.984648226001454,-11.41976147652713,-44.11036211104965,1.0,1019.4837425808549,0.0,1.0,11.211532313447837,11.67334556938707,,,
1.65,1.65,1.0,18.56225528375411,1.072647828088173,5.487578204750544,0.28166551132921447,0.016238082050972758,0.11937896528724888,19.386113822414558,0.30635024552641726,1.0,0.0,142.61141199682214,2.8911514727952152,1017.4988998592528,109.80061305774413,3.506457885443736,11.053616959768028,1.0,1018.8883355728956,0.0,1.0,117.21062230202891,7564.896504993315,1.0,1.0,5.674604611766807,14.984648226001454,-11.41976147652713,-44.11036211104965,1.0,1019.4837425808549,0.0,1.0,11.211532313447837,11.67334556938707,,,
1.68,1.68,1.0,18.576629430785477,1.1217235845779536,5.536386293236795,0.29190504827743874,0.013232322186245447,0.12013824292500598,19.41651353865734,0.3159380460998678,1.0,0.0,166.2204373205963,3.248505755875448,1019.350377681634,113.5152957941879,3.4814816442002305,11.140504347471015,1.0,1021.8622983511874,0.0,1.0,117.38580432698407,7666.287234268531,1.0,1.0,6.314129286947995,14.972858956633901,-12.23944919501174,-44.007514588626755,1.0,1020.1044948792568,0.0,1.0,12.245333251572871,11.807267582742993,,,
1.71,1.71,1.0,18.5239761539493,1.1403384438800754,5.453849212485736,0.2963524054015885,0.014291221250951247,0.1187811254543712,19.343798374445605,0.3195902735634459,1.0,0.0,166.2204373205963,3.248505755875448,1019.350377681634,113.5152957941879,3.4814816442002305,11.140504347471015,1.0,1021.8622983511874,0.0,1.0,117.52723208891494,7659.186805101891,1.0,1.0,6.314129286947995,14.972858956633901,-12.23944919501174,-44.007514588626755,1.0,1020.1044948792568,0.0,1.0,12.245333251572871,11.807267582742993,,,
1.74,1.74,1.0,18.54502977738758,1.183989303884324,5.474608004520231,0.3053221187179834,0.014513186942612243,0.11828015611001375,19.372436421861384,0.3277536027308911,1.0,0.0,166.2204373205963,3.248505755875448,1019.350377681634,113.5152957941879,3.4814816442002305,11.140504347471015,1.0,1020.3388525837595,0.0,1.0,118.54955283468836,7894.8767810905365,1.0,1.0,6.085327032958789,14.931165091793158,-13.135100229249002,-43.69103327887314,1.0,1020.4131404232733,0.0,1.0,13.509767337981067,11.362280341902295,,,
1.77,1.77,1.0,18.548351355763828,1.2455650982556523,5.4535994940806045,0.31665281072556556,0.014618339666473782,0.12154243412727063,19.373552020027063,0.3394926533646747,1.0,0.0,166.2204373205963,3.248505755875448,1019.350377681634,113.5152957941879,3.4814816442002305,11.140504347471015,1.0,1020.3388525837595,0.0,1.0,118.33040745377964,7734.9316985394,1.0,1.0,6.085327032958789,14.931165091793158,-13.135100229249002,-43.69103327887314,1.0,1020.4131404232733,0.0,1.0,13.509767337981067,11.362280341902295,,,
1.7999999999999998,1.7999999999999998,1.0,18.610659584428614,1.2435427291382857,5.434814391980679,0.3323525446911981,0.013480324181167886,0.11904477940546764,19.42782170398827,0.35328684182465764,1.0,0.0,166.2204373205963,3.248505755875448,1019.350377681634,113.5152957941879,3.4814816442002305,11.140504347471015,1.0,1022.3330230937411,0.0,1.0,119.530997936472,7918.659583480366,1.0,1.0,6.99988112344207,14.838711059518552,-14.090798582561074,-43.4000573990316,1.0,1021.7134062210157,0.0,1.0,14.073617769757831,11.553327848901919,,,
1.8299999999999998,1.8299999999999998,1.0,18.55480373249626,1.372072421750127,5.40007076416812,0.3451687666264449,0.01238169878478405,0.12528743338062762,19.373282853972057,0.3674122002360884,1.0,0.0,166.2204373205963,3.248505755875448,1019.350377681634,113.5152957941879,3.4814816442002305,11.140504347471015,1.0,1022.3330230937411,0.0,1.0,119.9960234097908,7906.169553498791,1.0,1.0,6.99988112344207,14.838711059518552,-14.090798582561074,-43.4000573990316,1.0,1021.7134062210157,0.0,1.0,14.073617769757831,11.553327848901919,,,
1.8599999999999999,1.8599999999999999,1.0,18.524428074624733,1.3496096442533951,5.401682925160738,0.3584387561791958,0.010195140231118671,0.12295666346908023,19.34306232497274,0.3790786513470124,1.0,0.0,166.2204373205963,3.248505755875448,1019.350377681634,113.5152957941879,3.4814816442002305,11.140504347471015,1.0,1021.5599702313443,0.0,1.0,120.5280436228162,7988.255413271054,1.0,1.0,7.579207109325085,14.799348710706157,-15.145217655288972,-43.07306006561156,1.0,1022.2225072301325,0.0,1.0,15.083488461342236,12.329753960201934,,,
1.89,1.89,1.0,18.61371581553813,1.5226392049793334,5.38105775445072,0.3670880837275494,0.009102061996368063,0.12008698309989947,19.43565355646392,0.3863384426346744,1.0,0.0,190.29891441816721,4.989357809167336,1023.674978482555,117.06361691125996,4.152580273298171,10.69572531849956,1.0,1021.5599702313443,0.0,1.0,121.03356313468224,8148.895502553117,1.0,1.0,7.579207109325085,14.799348710706157,-15.145217655288972,-43.07306006561156,1.0,1022.2225072301325,0.0,1.0,15.083488461342236,12.329753960201934,,,
1.92,1.92,1.0,18.501572692759304,1.5881933755888822,5.345250958345263,0.38231530668711255,0.006670528244090407,0.12280694316162544,19.323619177354228,0.4016105513591729,1.0,0.0,190.29891441816721,4.989357809167336,1023.674978482555,117.06361691125996,4.152580273298171,10.69572531849956,1.0,1023.1021113043789,0.0,1.0,122.56635043344185,8232.536345182036,1.0,1.0,7.523566121595576,14.748698555208808,-16.22236164615912,-42.71287849422296,1.0,1023.2742564921507,0.0,1.0,16.973534163017014,11.723109584200142,,,
1.95,1.95,1.0,18.485174196166966,1.6103401661419274,5.250375538423302,0.38530191018850446,0.004427955575017297,0.11716762645556127,19.283705655495805,0.40274734198342593,1.0,0.0,190.29891441816721,4.989357809167336,1023.674978482555,117.06361691125996,4.152580273298171,10.69572531849956,1.0,1023.1021113043789,0.0,1.0,121.75161370382274,8197.033081947222,1.0,1.0,7.523566121595576,14.748698555208808,-16.22236164615912,-42.71287849422296,1.0,1023.2742564921507,0.0,1.0,16.973534163017014,11.723109584200142,,,
1.98,1.98,1.0,18.584322338438103,1.6829758339389738,5.09546689922905,0.3799163559309568,0.0055078321757379865,0.11742638282886458,19.343557774042782,0.39768797958123475,1.0,0.0,190.29891441816721,4.989357809167336,1023.674978482555,117.06361691125996,4.152580273298171,10.69572531849956,1.0,1022.3900991760901,0.0,1.0,122.10075092045207,8213.323590100492,1.0,1.0,8.697270502154357,14.618343234293963,-17.40682252283496,-42.30624875222983,1.0,1023.5170436704157,0.0,1.0,18.49978003194235,12.055505468709777,,,
2.01,2.01,1.0,18.64072747747241,1.7481396971285692,5.188885607946943,0.3827109078709589,0.008831536041538073,0.12419462416310188,19.428258983821237,0.402454891513671,1.0,0.0,190.29891441816721,4.989357809167336,1023.674978482555,117.06361691125996,4.152580273298171,10.69572531849956,1.0,1022.3900991760901,0.0,1.0,122.49599997983654,8352.549576368543,1.0,1.0,8.697270502154357,14.618343234293963,-17.40682252283496,-42.30624875222983,1.0,1023.5170436704157,0.0,1.0,18.49978003194235,12.055505468709777,,,
2.04,2.04,1.0,18.61138927706587,1.832242007007898,5.044185697507054,0.3861048753422174,0.004214683786269197,0.1187034449068086,19.369685876277437,0.4039619365177754,1.0,0.0,190.29891441816721,4.989357809167336,1023.674978482555,117.06361691125996,4.152580273298171,10.69572531849956,1.0,1024.0713640535553,0.0,1.0,123.84872086729406,8375.979895881708,1.0,1.0,9.194903014346476,14.48169689856595,-18.379722361066666,-41.87549703421512,1.0,1023.7235597468717,0.0,1.0,19.60666728103638,12.22843119179476,,,
2.07,2.07,1.0,18.497471294527998,1.8838838670604758,4.923735887371662,0.383377298812469,-0.0008337990833370281,0.11755839493312152,19.23404891865074,0.4009972876278695,1.0,0.0,190.29891441816721,4.989357809167336,1023.674978482555,117.06361691125996,4.152580273298171,10.69572531849956,1.0,1024.0713640535553,0.0,1.0,123.00322803869729,8478.53626654609,1.0,1.0,9.194903014346476,14.48169689856595,-18.379722361066666,-41.87549703421512,1.0,1023.7235597468717,0.0,1.0,19.60666728103638,12.22843119179476,,,
2.1,2.1,1.0,18.514293677668483,1.9081636505058102,4.848175473551574,0.38968648330076616,-0.00323236631234178,0.1145526518316715,19.23343350321034,0.4061875348911677,1.0,0.0,211.98364573081858,6.07498998128881,1025.446425477411,120.4632501464791,4.409882497602835,10.804047989775077,1.0,1025.4916586262636,0.0,1.0,123.84184918709079,8510.403770480212,1.0,1.0,9.555706168458979,14.31740102722117,-19.403998005315902,-41.41584403287117,1.0,1024.8479256080416,0.0,1.0,20.504717558680746,12.692421523004276,,,
2.13,2.13,1.0,18.6074319608293,2.0179245468044473,4.7905110418835655,0.39364048051771794,-0.0040486836970247565,0.11934723209526223,19.31987421532283,0.41135505533626154,1.0,0.0,211.98364573081858,6.07498998128881,1025.446425477411,120.4632501464791,4.409882497602835,10.804047989775077,1.0,1025.4916586262636,0.0,1.0,125.22282376021107,8586.919462664815,1.0,1.0,9.555706168458979,14.31740102722117,-19.403998005315902,-41.41584403287117,1.0,1024.8479256080416,0.0,1.0,20.504717558680746,12.692421523004276,,,
2.16,2.16,1.0,18.56909459569163,2.0646477044744342,4.664369450049412,0.3939556852196209,-0.006126059078843017,0.1081946432028332,19.25695683678732,0.4085886578632438,1.0,0.0,211.98364573081858,6.07498998128881,1025.446425477411,120.4632501464791,4.409882497602835,10.804047989775077,1.0,1025.2403387285174,0.0,1.0,124.8621664623938,8620.955883685247,1.0,1.0,9.110342787339336,14.214966752850433,-20.553829773139128,-40.979538264390655,1.0,1025.4310771389826,0.0,1.0,21.83478216829755,12.64606157192976,,,
2.19,2.19,1.0,18.583459909213357,2.135371138969336,4.5496981173235715,0.39108127930638925,-0.008900892874670541,0.1052980106406105,19.251092048433534,0.4051067315692971,1.0,0.0,211.98364573081858,6.07498998128881,1025.446425477411,120.4632501464791,4.409882497602835,10.804047989775077,1.0,1025.2403387285174,0.0,1.0,125.8010705502608,8692.483255283609,1.0,1.0,9.110342787339336,14.214966752850433,-20.553829773139128,-40.979538264390655,1.0,1025.4310771389826,0.0,1.0,21.83478216829755,12.64606157192976,,,
2.2199999999999998,2.2199999999999998,1.0,18.613954265302144,2.225713284700436,4.438576513239813,0.39702507954254146,-0.007976532246260312,0.10874317952869318,19.264839850887316,0.41172517283552945,1.0,0.0,211.98364573081858,6.07498998128881,1025.446425477411,120.4632501464791,4.409882497602835,10.804047989775077,1.0,1026.266610630559,0.0,1.0,125.62972585922248,8762.094034122965,1.0,1.0,11.30413655992065,14.022074517632003,-21.596807882592323,-40.49472269750849,1.0,1026.0174808596646,0.0,1.0,22.551849678045265,12.531961191366584,,,
2.25,2.25,1.0,18.51989187609871,2.2098084938104634,4.306149217418772,0.40164581488689005,-0.009625026864838106,0.1054908777402224,19.141906116277454,0.41537973836563735,1.0,0.0,211.98364573081858,6.07498998128881,1025.446425477411,120.4632501464791,4.409882497602835,10.804047989775077,1.0,1026.266610630559,0.0,1.0,125.93652253918857,9012.741214302723,1.0,1.0,11.30413655992065,14.022074517632003,-21.596807882592323,-40.49472269750849,1.0,1026.0174808596646,0.0,1.0,22.551849678045265,12.531961191366584,,,
2.28,2.28,1.0,18.637938500118512,2.3821567927486367,4.168520984210929,0.405718113733571,-0.00778894114556521,0.10420303437768243,19.246401994015535,0.41895838431664356,1.0,0.0,211.98364573081858,6.07498998128881,1025.446425477411,120.4632501464791,4.409882497602835,10.804047989775077,1.0,1027.4709815392641,0.0,1.0,127.32411719093976,9075.206297395962,1.0,1.0,9.500176097674837,13.966312748589974,-22.672589146575724,-40.040253680541056,1.0,1026.5071954724074,0.0,1.0,24.97217053963809,12.07945586657293,,,
2.31,2.31,1.0,18.642273785113964,2.4356266803533972,4.0917311562148,0.40556405907087284,-0.015424860524504645,0.0996800224415772,19.24081373175094,0.4179189385588983,1.0,0.0,237.6548157965621,10.0205887752736,1026.5907856708664,124.31862675332418,5.270909383361187,10.372622441811997,1.0,1027.4709815392641,0.0,1.0,126.83964932359487,9090.769571816074,1.0,1.0,9.500176097674837,13.966312748589974,-22.672589146575724,-40.040253680541056,1.0,1026.5071954724074,0.0,1.0,24.97217053963809,12.07945586657293,,,
2.34,2.34,1.0,18.67334215002474,2.449877014342502,3.9196649889768618,0.40865931341850587,-0.015496801120839137,0.0999396280279949,19.2369274590072,0.42098754677429284,1.0,0.0,237.6548157965621,10.0205887752736,1026.5907856708664,124.31862675332418,5.270909383361187,10.372622441811997,1.0,1028.453388194431,0.0,1.0,128.11431069238844,9055.068505266008,1.0,1.0,9.296659805842129,13.659480095454555,-23.67356987259152,-39.43821174643048,1.0,1028.176008952993,0.0,1.0,26.27892810162045,12.765999642710558,,,
2.37,2.37,1.0,18.676068425352042,2.559029897122742,3.8275838879321458,0.4039074260889373,-0.01436370087361885,0.09716929941490907,19.23524276587008,0.41567944079706587,1.0,0.0,237.6548157965621,10.0205887752736,1026.5907856708664,124.31862675332418,5.270909383361187,10.372622441811997,1.0,1028.453388194431,0.0,1.0,128.1006070287894,8984.947395555675,1.0,1.0,9.296659805842129,13.659480095454555,-23.67356987259152,-39.43821174643048,1.0,1028.176008952993,0.0,1.0,26.27892810162045,12.765999642710558,,,
2.4,2.4,1.0,18.62641265578938,2.5286708338237203,3.5634034333536238,0.4086245080845613,-0.019077065483510368,0.09459362097166814,19.132048208135426,0.4198641163082926,1.0,0.0,237.6548157965621,10.0205887752736,1026.5907856708664,124.31862675332418,5.270909383361187,10.372622441811997,1.0,1029.183924703476,0.0,1.0,128.68179069310827,9162.973798487605,1.0,1.0,9.848207197371465,13.544089305518122,-24.724768966079086,-38.941621518114175,1.0,1027.9895858630678,0.0,1.0,26.986883482543195,14.109225482296653,,,
2.4299999999999997,2.4299999999999997,1.0,18.70606101207699,2.653838738137681,3.5071982772792065,0.4105513622187541,-0.025191631116550584,0.08920453986995185,19.21613952883714,0.42088536352716854,1.0,0.0,237.6548157965621,10.0205887752736,1026.5907856708664,124.31862675332418,5.270909383361187,10.372622441811997,1.0,1029.183924703476,0.0,1.0,128.81972132576888,9212.49474750589,1.0,1.0,9.848207197371465,13.544089305518122,-24.724768966079086,-38.941621518114175,1.0,1027.9895858630678,0.0,1.0,26.986883482543195,14.109225482296653,,,
2.46,2.46,1.0,18.59217955541691,2.7262164184845146,3.346788462644896,0.4157880359470661,-0.02479940600843723,0.09349897478015903,19.086707143846734,0.4268919765702219,1.0,0.0,237.6548157965621,10.0205887752736,1026.5907856708664,124.31862675332418,5.270909383361187,10.372622441811997,1.0,1027.9330726181925,0.0,1.0,130.248187305698,9248.08781111289,1.0,1.0,10.55051896217455,13.347381082025576,-25.770092486154596,-38.30172960365586,1.0,1028.6781267287492,0.0,1.0,28.959114662478434,13.669054513825202,,,
2.4899999999999998,2.4899999999999998,1.0,18.68675756240455,2.8638660417593176,3.1846944986062473,0.41252729113295045,-0.028185918014750302,0.08671454339124232,19.171304492670256,0.42248387417672634,1.0,0.0,237.6548157965621,10.0205887752736,1026.5907856708664,124.31862675332418,5.270909383361187,10.372622441811997,1.0,1027.9330726181925,0.0,1.0,128.98188336717345,9379.847118275196,1.0,1.0,10.55051896217455,13.347381082025576,-25.770092486154596,-38.30172960365586,1.0,1028.6781267287492,0.0,1.0,28.959114662478434,13.669054513825202,,,
2.52,2.52,1.0,18.746707852674046,2.8170441152964765,3.0315307731876806,0.4162063364517634,-0.028049125292894585,0.08124611829240981,19.198046038329554,0.4249887053438941,1.0,0.0,268.0027478584385,6.980432178562081,1028.1090692427297,127.37563446278774,6.024897942513489,10.230061520474308,1.0,1028.7552250552503,0.0,1.0,129.10069825222695,9462.617637232132,1.0,1.0,9.831190458928594,13.136624226515199,-26.786498391147326,-37.70266709425065,1.0,1029.0801473881659,0.0,1.0,29.71611838547208,13.590153904304321,,,
2.55,2.55,1.0,18.739669940301876,2.9452891115059074,2.875340575578038,0.4179739535325212,-0.032037187033857085,0.08653849401934287,19.1863894687712,0.4280391549049974,1.0,0.0,268.0027478584385,6.980432178562081,1028.1090692427297,127.37563446278774,6.024897942513489,10.230061520474308,1.0,1028.7552250552503,0.0,1.0,130.36188539179517,9463.26492089586,1.0,1.0,9.831190458928594,13.136624226515199,-26.786498391147326,-37.70266709425065,1.0,1029.0801473881659,0.0,1.0,29.71611838547208,13.590153904304321,,,
2.58,2.58,1.0,18.834400595090525,2.917480930667708,2.6831989700041348,0.4196682003154948,-0.0339330199078538,0.07761211094968848,19.246971124563657,0.42813139100301884,1.0,0.0,268.0027478584385,6.980432178562081,1028.1090692427297,127.37563446278774,6.024897942513489,10.230061520474308,1.0,1030.3804788930834,0.0,1.0,130.9996837235217,9522.129063760474,1.0,1.0,11.667988555445525,12.91867445991595,-27.70145218422025,-36.95390961364349,1.0,1029.936996242146,0.0,1.0,31.485460032002273,13.87971593826044,,,
2.61,2.61,1.0,18.785134744358693,3.115305018413636,2.603965849970824,0.4254106056637882,-0.028062406844507594,0.08159210590755236,19.21892429011779,0.4340725214011675,1.0,0.0,268.0027478584385,6.980432178562081,1028.1090692427297,127.37563446278774,6.024897942513489,10.230061520474308,1.0,1030.3804788930834,0.0,1.0,131.52432322690558,9626.871938270291,1.0,1.0,11.667988555445525,12.91867445991595,-27.70145218422025,-36.95390961364349,1.0,1029.936996242146,0.0,1.0,31.485460032002273,13.87971593826044,,,
2.6399999999999997,2.6399999999999997,1.0,18.801043424258587,3.0652906374476654,2.394848005446373,0.4239667118257972,-0.04064456961322144,0.07625718767146845,19.19923273211906,0.4326833859151333,1.0,0.0,268.0027478584385,6.980432178562081,1028.1090692427297,127.37563446278774,6.024897942513489,10.230061520474308,1.0,1030.928545999277,0.0,1.0,131.84269457367205,9547.864513271606,1.0,1.0,11.516584260534323,12.749034149745222,-28.71156407765519,-36.273610823415105,1.0,1030.6779621719168,0.0,1.0,32.580914563644626,13.744487340522983,,,
2.67,2.67,1.0,18.80541803118938,3.147191585639448,2.2357481153135943,0.4254896448279326,-0.04341842629035984,0.0686656219440112,19.19758140599046,0.4331761365014115,1.0,0.0,268.0027478584385,6.980432178562081,1028.1090692427297,127.37563446278774,6.024897942513489,10.230061520474308,1.0,1030.928545999277,0.0,1.0,132.84684363868928,9796.629764009323,1.0,1.0,11.516584260534323,12.749034149745222,-28.71156407765519,-36.273610823415105,1.0,1030.6779621719168,0.0,1.0,32.580914563644626,13.744487340522983,,,
2.6999999999999997,2.6999999999999997,1.0,18.780410795353045,3.320878888860598,2.1663913205479073,0.4275803583818528,-0.043573710747853274,0.06472237850950222,19.19440849806106,0.4346407912543628,1.0,0.0,268.0027478584385,6.980432178562081,1028.1090692427297,127.37563446278774,6.024897942513489,10.230061520474308,1.0,1031.7792150962607,0.0,1.0,133.10900391945847,9641.917625712986,1.0,1.0,11.565464615607805,12.529518611958654,-29.655611535181382,-35.59301213160671,1.0,1031.0073308241033,0.0,1.0,33.97412998072331,14.107572451987258,,,
2.73,2.73,1.0,18.867956077869948,3.3166266277998546,1.974232081307957,0.4269690535804301,-0.049112741942419935,0.06362249639779431,19.25869598533416,0.4344680151453709,1.0,0.0,294.27820660392774,9.09050791908694,1030.8939778175677,130.90537739437192,6.826260232298303,9.785549227127524,1.0,1031.7792150962607,0.0,1.0,133.4184247120653,10017.975671698388,1.0,1.0,11.565464615607805,12.529518611958654,-29.655611535181382,-35.59301213160671,1.0,1031.0073308241033,0.0,1.0,33.97412998072331,14.107572451987258,,,
2.76,2.76,1.0,18.796884252496532,3.3938374420413577,1.7704245786299286,0.4333221254503041,-0.04947155026620565,0.0652638603848464,19.182684727987656,0.44099305001648664,1.0,0.0,294.27820660392774,9.09050791908694,1030.8939778175677,130.90537739437192,6.826260232298303,9.785549227127524,1.0,1030.587420243854,0.0,1.0,134.5576517450298,9940.316800744438,1.0,1.0,12.440211292141743,12.33995815801647,-30.61440621654512,-34.79847934062608,1.0,1031.3841016695912,0.0,1.0,35.49506276588124,14.1669695227789,,,
2.79,2.79,1.0,18.942897263773197,3.509546666878639,1.6053070016001334,0.42915750656474244,-0.04815492986803984,0.05303653651791731,19.332027444690105,0.43509531934655327,1.0,0.0,294.27820660392774,9.09050791908694,1030.8939778175677,130.90537739437192,6.826260232298303,9.785549227127524,1.0,1030.587420243854,0.0,1.0,134.05508112377993,9836.056073467264,1.0,1.0,12.440211292141743,12.33995815801647,-30.61440621654512,-34.79847934062608,1.0,1031.3841016695912,0.0,1.0,35.49506276588124,14.1669695227789,,,
2.82,2.82,1.0,18.807403985344497,3.467998473326057,1.480045052139609,0.4314619545766437,-0.053619796340990816,0.04991440278873947,19.1816576821532,0.43763677680526764,1.0,0.0,294.27820660392774,9.09050791908694,1030.8939778175677,130.90537739437192,6.826260232298303,9.785549227127524,1.0,1032.0410004066034,0.0,1.0,135.606676178756,10147.726427896616,1.0,1.0,12.992733722913336,12.169547121535263,-31.63932851404815,-33.99360897136635,1.0,1032.681179553314,0.0,1.0,37.10563301557713,14.467961572521913,,,
2.85,2.85,1.0,18.964131526069025,3.6011410734354707,1.3509179445719888,0.4310605097533002,-0.05636417092885806,0.04022506103208775,19.350232062220744,0.4365869196028526,1.0,0.0,294.27820660392774,9.09050791908694,1030.8939778175677,130.90537739437192,6.826260232298303,9.785549227127524,1.0,1032.0410004066034,0.0,1.0,134.97685933710483,10211.379333259878,1.0,1.0,12.992733722913336,12.169547121535263,-31.63932851404815,-33.99360897136635,1.0,1032.681179553314,0.0,1.0,37.10563301557713,14.467961572521913,,,
2.88,2.88,1.0,18.891140728466773,3.6086042358690578,1.2821947005852068,0.4332893945699012,-0.061826371740923605,0.02481061704148232,19.275405204666306,0.43838084630533014,1.0,0.0,294.27820660392774,9.09050791908694,1030.8939778175677,130.90537739437192,6.826260232298303,9.785549227127524,1.0,1032.7746629761532,0.0,1.0,135.30474624359212,10108.181061766456,1.0,1.0,13.062260744066043,11.973607053926326,-32.41821536467667,-33.21247672563746,1.0,1032.9464005614968,0.0,1.0,38.51609988374742,15.821339343364857,,,
2.9099999999999997,2.9099999999999997,1.0,18.99270557404495,3.638872780260274,1.1446268004081808,0.43481597474322564,-0.07005360886802824,0.005088443160826567,19.37200120394096,0.4404524177038163,1.0,0.0,294.27820660392774,9.09050791908694,1030.8939778175677,130.90537739437192,6.826260232298303,9.785549227127524,1.0,1032.7746629761532,0.0,1.0,136.05458980405726,10390.558026035511,1.0,1.0,13.062260744066043,11.973607053926326,-32.41821536467667,-33.21247672563746,1.0,1032.9464005614968,0.0,1.0,38.51609988374742,15.821339343364857,,,
2.94,2.94,1.0,18.903299415493677,3.690297721436999,1.147722809069468,0.4345670115251615,-0.07938524937728228,-0.01317151544324159,19.2943072876718,0.4419547421893725,1.0,0.0,324.6371215090435,12.828661274493042,1031.55115707601,134.56365263475712,7.746401615704876,9.614862158778777,1.0,1033.6573981933095,0.0,1.0,136.1776475126866,10434.334614666122,1.0,1.0,11.627104604579541,11.77897479809482,-33.34854422240205,-32.47340658799503,1.0,1033.5367840405006,0.0,1.0,39.837566378781396,14.803703555346692,,,
2.9699999999999998,2.9699999999999998,1.0,18.94818087708092,3.765866411698709,0.9578763132371396,0.435216575335007,-0.08686843399312134,-0.030117296412214733,19.342513678754276,0.44482203611549004,1.0,0.0,324.6371215090435,12.828661274493042,1031.55115707601,134.56365263475712,7.746401615704876,9.614862158778777,1.0,1033.6573981933095,0.0,1.0,137.24025969256132,10171.995881132452,1.0,1.0,11.627104604579541,11.77897479809482,-33.34854422240205,-32.47340658799503,1.0,1033.5367840405006,0.0,1.0,39.837566378781396,14.803703555346692,,,
3.0,3.0,1.0,18.852619589826343,3.7607836389587184,0.9366565530302582,0.4321393268888325,-0.09861269200573115,-0.04841102893810449,19.246872069926013,0.44588394071932713,1.0,0.0,324.6371215090435,12.828661274493042,1031.55115707601,134.56365263475712,7.746401615704876,9.614862158778777,1.0,1034.6157875131648,0.0,1.0,136.98850342671338,10436.765309348932,1.0,1.0,11.329238554297373,11.6918715805164,-34.115541505653354,-31.608507839606407,1.0,1033.4755107550056,0.0,1.0,41.631605344373305,15.254782024008616,,,
3.03,3.03,1.0,18.85301729680842,3.6192719382760763,1.0974863094408829,0.43182208401116384,-0.10385114567947222,-0.06121404578659682,19.228621031066172,0.44833305934343853,1.0,0.0,324.6371215090435,12.828661274493042,1031.55115707601,134.56365263475712,7.746401615704876,9.614862158778777,1.0,1034.6157875131648,0.0,1.0,137.90069810423694,10562.380421697499,1.0,1.0,11.329238554297373,11.6918715805164,-34.115541505653354,-31.608507839606407,1.0,1033.4755107550056,0.0,1.0,41.631605344373305,15.254782024008616,,,
3.06,3.06,1.0,18.9204500861709,3.7149751530595894,1.1392872936042682,0.4296706230556146,-0.10747890918597036,-0.07319221017704719,19.315342279869196,0.4489160944624364,1.0,0.0,324.6371215090435,12.828661274493042,1031.55115707601,134.56365263475712,7.746401615704876,9.614862158778777,1.0,1034.1972471912147,0.0,1.0,138.0121144080044,10771.82035703285,1.0,1.0,10.6341511201638,11.629499705859219,-34.94217013395375,-30.801326931946896,1.0,1034.9376768518614,0.0,1.0,43.21335023865133,15.672266665029,,,
3.09,3.09,1.0,18.77860416974993,3.657770497780082,1.2118711286910568,0.4278378814794211,-0.11236951800999456,-0.0834313521526446,19.16986935821772,0.45014770012587674,1.0,0.0,324.6371215090435,12.828661274493042,1031.55115707601,134.56365263475712,7.746401615704876,9.614862158778777,1.0,1034.1972471912147,0.0,1.0,138.80594876913526,10696.311403142476,1.0,1.0,10.6341511201638,11.629499705859219,-34.94217013395375,-30.801326931946896,1.0,1034.9376768518614,0.0,1.0,43.21335023865133,15.672266665029,,,
3.12,3.12,1.0,18.840856767588477,3.548884652941202,1.2297135417918137,0.4267109383120453,-0.11493197235448768,-0.08972221712971495,19.21157623443564,0.45093420738629997,1.0,0.0,324.6371215090435,12.828661274493042,1031.55115707601,134.56365263475712,7.746401615704876,9.614862158778777,1.0,1034.6530132765383,0.0,1.0,138.93089109497907,10818.05866472033,1.0,1.0,10.901420833131313,11.585324625168882,-35.58508473935693,-30.031066165631447,1.0,1035.1908321174624,0.0,1.0,44.68127335894218,15.10617390799588,,,
3.15,3.15,1.0,18.812257756130975,3.5402924990132716,1.3149167428127615,0.4268031902395107,-0.12125005143088025,-0.09581867893908602,19.187592837617988,0.4539204306971066,1.0,0.0,350.05893653453467,12.359785346931535,1035.1522637365933,137.76663134610754,9.153881687076638,9.11035084404706,1.0,1034.6530132765383,0.0,1.0,139.42269077532012,11011.638908300185,1.0,1.0,10.901420833131313,11.585324625168882,-35.58508473935693,-30.031066165631447,1.0,1035.1908321174624,0.0,1.0,44.68127335894218,15.10617390799588,,,
3.1799999999999997,3.1799999999999997,1.0,18.77561194055929,3.448964889009973,1.4822610366644355,0.4319835182483641,-0.11654218470765709,-0.09120227956440397,19.147220694631105,0.456628620053991,1.0,0.0,350.05893653453467,12.359785346931535,1035.1522637365933,137.76663134610754,9.153881687076638,9.11035084404706,1.0,1035.329488023629,0.0,1.0,140.53060690116482,10793.672740250173,1.0,1.0,8.360273635922418,11.589988489288185,-36.24397685935288,-29.15650943567098,1.0,1035.4500525868052,0.0,1.0,46.41696055691224,15.123912852593001,,,
3.21,3.21,1.0,18.705481358923212,3.3475552628047365,1.4907785520500143,0.42520349469971064,-0.11894768199789876,-0.08832731299604384,19.061048759126763,0.450275779027277,1.0,0.0,350.05893653453467,12.359785346931535,1035.1522637365933,137.76663134610754,9.153881687076638,9.11035084404706,1.0,1035.329488023629,0.0,1.0,140.44302699206213,10985.217524124731,1.0,1.0,8.360273635922418,11.589988489288185,-36.24397685935288,-29.15650943567098,1.0,1035.4500525868052,0.0,1.0,46.41696055691224,15.123912852593001,,,
3.2399999999999998,3.2399999999999998,1.0,18.69251584687243,3.2970364609432954,1.7378743190303891,0.4211506756202697,-0.10938921627065692,-0.0724993284131311,19.060451339333802,0.44112361627107793,1.0,0.0,350.05893653453467,12.359785346931535,1035.1522637365933,137.76663134610754,9.153881687076638,9.11035084404706,1.0,1035.1476451660933,0.0,1.0,141.05844041235932,11105.560598916814,1.0,1.0,8.603771223691744,11.599799853894364,-37.020624175612504,-28.334509990433475,1.0,1036.090789597012,0.0,1.0,48.093776830420346,15.993922140638075,,,
3.27,3.27,1.0,18.61689042966062,3.497305800071821,1.7494489255712138,0.4293439434255337,-0.1025602549503351,-0.06419566313165855,19.02315243781607,0.44606715953607146,1.0,0.0,350.05893653453467,12.359785346931535,1035.1522637365933,137.76663134610754,9.153881687076638,9.11035084404706,1.0,1035.1476451660933,0.0,1.0,142.33999100430228,11073.190899744719,1.0,1.0,8.603771223691744,11.599799853894364,-37.020624175612504,-28.334509990433475,1.0,1036.090789597012,0.0,1.0,48.093776830420346,15.993922140638075,,,
3.3,3.3,1.0,18.611183383511165,3.420818911358339,1.8648071204597496,0.42420112839636986,-0.09228408081533038,-0.04464644669928105,19.014616865861544,0.43641293989472363,1.0,0.0,350.05893653453467,12.359785346931535,1035.1522637365933,137.76663134610754,9.153881687076638,9.11035084404706,1.0,1035.8011032115862,0.0,1.0,141.9416082739476,11154.059229021801,1.0,1.0,8.661874886150676,11.555140154211838,-37.696260040689076,-27.440033356058446,1.0,1036.6427891873193,0.0,1.0,49.66356386186264,15.528209619540458,,,
3.33,3.33,1.0,18.610203103477808,3.4080212699710724,1.9343477562402305,0.419518088506251,-0.07834945374096655,-0.02946493468815708,19.018306175139305,0.42778761770488855,1.0,0.0,350.05893653453467,12.359785346931535,1035.1522637365933,137.76663134610754,9.153881687076638,9.11035084404706,1.0,1035.8011032115862,0.0,1.0,142.71768802666105,11211.347869554196,1.0,1.0,8.661874886150676,11.555140154211838,-37.696260040689076,-27.440033356058446,1.0,1036.6427891873193,0.0,1.0,49.66356386186264,15.528209619540458,,,
3.36,3.36,1.0,18.666596261868662,3.3107265395754535,1.755921886227718,0.4222689612700237,-0.06620503394916603,-0.0084615956580482,19.039064785172403,0.42751114695801246,1.0,0.0,381.1752772298079,14.129306065027178,1035.542195182671,141.58253999663452,9.98877561156936,8.826831284053487,1.0,1035.1887324120573,0.0,1.0,142.86943442366376,11047.33892789948,1.0,1.0,6.9525963165523486,11.470425081781334,-38.29077097660649,-26.473784510142575,1.0,1037.3987422663981,0.0,1.0,50.42417338418635,15.996103091926804,,,
3.3899999999999997,3.3899999999999997,1.0,18.627565727981857,3.533941109961768,1.7090224875792779,0.4222843675466502,-0.050826618272004166,0.013617322667560662,19.03669358323587,0.42555007187859206,1.0,0.0,381.1752772298079,14.129306065027178,1035.542195182671,141.58253999663452,9.98877561156936,8.826831284053487,1.0,1035.1887324120573,0.0,1.0,143.87549328346768,11443.631237843158,1.0,1.0,6.9525963165523486,11.470425081781334,-38.29077097660649,-26.473784510142575,1.0,1037.3987422663981,0.0,1.0,50.42417338418635,15.996103091926804,,,
3.42,3.42,1.0,18.549718889048748,3.6726240624410504,1.6169393739903601,0.4243325179423691,-0.035816269131820656,0.024906434678204224,18.978796887735356,0.4265691285198844,1.0,0.0,381.1752772298079,14.129306065027178,1035.542195182671,141.58253999663452,9.98877561156936,8.826831284053487,1.0,1038.638594098674,0.0,1.0,144.89513117317384,11390.9421693044,1.0,1.0,9.381875814000644,11.320194401003228,-39.010179017930426,-25.608177299004694,1.0,1037.7636937591567,0.0,1.0,52.36088955719979,16.08567081829253,,,
