time_s,x_m,y_m,altitude_m,vx_mps,vy_mps,vz_mps,speed_mps,mass_kg,roll_deg,pitch_deg,yaw_deg,p_dps,q_dps,r_dps,alpha_deg,beta_deg,qbar_pa,mach,airspeed_mps,load_factor_g,density_kgpm3,pressure_pa,temperature_k,wind_x_mps,wind_y_mps,wind_z_mps,thrust_n,mass_flow_kgps,propulsion_throttle_actual,propulsion_health,energy_j_per_kg,target_distance_m,guidance_mode,pitch_command_deg,heading_command_deg,roll_command_deg
0.0,0.0,0.0,1000.0,84.0,2.0,15.0,85.35221145348257,19.0,-2.5157817934715475e-17,9.0,2.0,0.0,0.0,0.0,-0.7222147929914944,-7.13853957585605,4243.671980701213,0.2597188600228231,87.37824754723981,1.6251479458370872,1.1116425003060326,89874.56291621955,281.65,-1.7826439091004773,9.86942436359809,0.3586780454497614,319.2,0.17131232378029196,0.84,nominal,13449.15,nan,heading_hold,18.0,-5.0,0.0
0.03,2.5341750666266845,0.06149453241160598,1000.4427801476453,84.47250222088948,2.049817747053533,14.759338254844302,85.77670691962489,18.994860630286592,0.0625806098799806,9.331007279175314,1.9069286083283399,1.5918500267886655,-11.035278524387659,-3.0567571876345423,-0.1796335364748719,-7.108609057614929,4281.236709253624,0.2608728406142633,87.76603739383036,1.6563148174277897,1.1115941567030745,89869.73605830262,281.6471219290403,-1.7376095109045648,10.04690527549587,0.38086315943698384,324.87,0.17435537163691558,0.84,nominal,13489.813914922517,nan,heading_hold,18.0,-5.0,0.0
0.06,5.0827551299344975,0.1242942999423158,1000.8788575080915,84.95266877692713,2.0933255843569945,14.535912014874306,86.21270603819707,18.989629969137486,0.17152375461052732,9.824881246113032,1.755043803062303,2.789030743653071,-16.472736125704984,-4.958659810185938,0.5085277656953562,-7.016429214014792,4320.391229700195,0.26206997720124464,88.16834908493101,1.6815435758603188,1.1115465464956096,89864.98247432846,281.64428742619737,-1.6958993749444224,10.211129355173762,0.40139116939672026,330.53999999999996,0.17739841949353916,0.84,nominal,13531.583989196017,nan,heading_hold,18.0,-5.0,0.0
0.09,7.645858991556053,0.1881844141431466,1001.3089636738692,85.43679538738517,2.1296704733610263,14.336872192589825,86.65752942853656,18.984308016552678,0.30770718846414297,10.234447197049384,1.5813087247990951,3.530862993786019,-13.67599158123875,-5.645565477940249,1.092012802481526,-6.899421041691944,4360.904820403539,0.2633027324024064,88.58264595418892,1.7063010460098218,1.1114995897414865,89860.29418047899,281.6414917361198,-1.6576910351697691,10.361382077277707,0.42017275965971335,336.21,0.18044146735016278,0.84,nominal,13574.25025194119,nan,heading_hold,18.0,-5.0,0.0
0.12,10.223611130645658,0.25294391908023395,1001.733633273639,85.92507130298685,2.158650164569579,14.15565332565985,87.1100463209189,18.978894772532172,0.45356742170219927,10.493157098575152,1.4228936668619958,3.91205589570794,-8.657999891192926,-5.136966797923674,1.5100584503040697,-6.793274196148271,4402.697849496451,0.2645682280270297,89.00795905807614,1.7328323147746958,1.1114532280122933,89855.66534124271,281.63873138372134,-1.6231471239215374,10.497009704672017,0.4371262130840022,341.88,0.18348451520678638,0.84,nominal,13617.73121975925,nan,heading_hold,18.0,-5.0,0.0
0.15,12.81618531700389,0.31847168022839384,1002.1531704234977,86.41913954527443,2.1842587049386633,13.984571661955142,87.5705824486972,18.973390237075968,0.5995066140367734,10.67229954458162,1.2925496096429134,4.066695210977361,-6.010419107753746,-4.2158537193456285,1.8399245535589717,-6.707229603872979,4445.783982546642,0.2658664135054095,89.44427098799757,1.7602299785329987,1.1114074280520045,89851.0926345807,281.63600439224723,-1.5924147111658904,10.61742213279545,0.45217776659943126,347.55,0.18652756306341,0.84,nominal,13662.06884393563,nan,heading_hold,18.0,-5.0,0.0
0.18,15.42377297061763,0.3847280261221664,1002.5678118263813,86.9195884537913,2.2085448631257516,13.821380096119887,88.0393268667492,18.967794410184066,0.7417916038625395,10.842966740669905,1.1914828507365014,4.114013470909824,-5.727263431963436,-3.2428777676793263,2.15452912417545,-6.641130066575303,4490.180612383388,0.2671973371741278,89.89159767791601,1.78827564900716,1.1113621639684659,89846.57347380786,281.6333092231285,-1.5656244179711225,10.722095457157224,0.46526193214465283,353.21999999999997,0.18957061092003358,0.84,nominal,13707.293169422337,nan,heading_hold,18.0,-5.0,0.0
0.21,18.046556946645836,0.4517033069576676,1002.9778332750295,87.4261325342735,2.2325093611833733,13.667381621608268,88.51615710331534,18.962107291856466,0.8800251280289985,11.01718821780569,1.1166160908482778,4.134600024876424,-5.841486657478867,-2.3678573315832008,2.465105186713928,-6.591179295503799,4535.883205286693,0.2685603860911252,90.34973255066579,1.8168249584063392,1.1113174056063355,89842.10484672664,281.6306440837123,-1.5428896868869524,10.810574252802013,0.47632178160025157,358.89,0.1926136587766572,0.84,nominal,13753.407602855968,nan,heading_hold,18.0,-5.0,0.0
0.24,20.684712038673602,0.519401694629577,1003.3835410450893,87.93850306759221,2.2566129223969797,13.523592335323942,89.00089984546496,18.956328882093167,1.015294431777078,11.174417551365389,1.0638255099263938,4.170326384270584,-5.268826826156282,-1.6398775949530717,2.7504097266219882,-6.552549810427943,4582.8884326953985,0.2699549840944364,90.8184813723317,1.8456656038825314,1.1112731194871368,89837.6834094967,281.6280069832069,-1.5243062994758216,10.882473555826179,0.4853091944782724,364.56,0.19565670663328083,0.84,nominal,13800.411289441068,nan,heading_hold,18.0,-5.0,0.0
0.27,23.338417134675346,0.5878332605618135,1003.7852233195712,88.45683653339147,2.2810521977412184,13.389409149395249,89.49352717372285,18.950459180894168,1.1491552144480583,11.301398438840113,1.0289240627805265,4.23530400689705,-4.253497364371006,-1.0609291547108226,2.9975480127453586,-6.520582294083492,4631.212009039176,0.27138111343742594,91.29783778999789,1.8746393606805123,1.111229274111816,89833.30601603641,281.6253960484228,-1.5099520304396967,10.937480538323786,0.4921850672904733,370.22999999999996,0.1986997544899044,0.84,nominal,13848.316063263806,nan,heading_hold,18.0,-5.0,0.0
0.3,26.00786152490938,0.6570100034146223,1004.1831295915572,88.98147967446782,2.3058914284269605,13.263542399533565,89.99412434887984,18.94449818825947,1.2831216482870107,11.40229768109789,1.0079984100760155,4.328253984801169,-3.377068118040641,-0.6123397602016419,3.211523642276706,-6.491325458707775,4680.88362224885,0.2728391525846409,91.78792878094806,1.9037401416863393,1.111185842208519,89828.96994241903,281.62280965765484,-1.4998863382439434,10.975355869474885,0.49691948368436056,375.9,0.20174280234652803,0.84,nominal,13897.143696469868,nan,heading_hold,18.0,-5.0,0.0
0.32999999999999996,28.693242588423928,0.7269436446318102,1004.5774823521639,89.51270211715165,2.331121373906262,13.145092020224503,90.50277018629859,18.938445904189074,1.418414391769516,11.486944837681538,0.9977356158805448,4.441881738098047,-2.828694116039256,-0.26868499080741026,3.402785208697227,-6.461704475301745,4731.93347242143,0.2743294755365926,92.28887984431383,1.9330054206945582,1.1111427994561824,89824.67275942056,281.6202463647109,-1.4941500872582378,10.995934756854064,0.49949184460675794,381.57,0.20478585020315163,0.84,nominal,13946.915473005836,nan,heading_hold,18.0,-5.0,0.0
0.36,31.39476150779989,0.7976444516755632,1004.9684935003487,90.05063064586531,2.3566935681251024,13.03370493949281,91.01948993892384,18.93230232868298,1.5558844526040696,11.56039387384745,0.9956375644731947,4.568366421077616,-2.449257053377983,-0.004962118375985205,3.5766855388007976,-6.429477423951765,4784.3868558363965,0.2758522956398749,92.80076243950634,1.9624137324843864,1.1111001226930068,89820.41215364914,281.6177047922477,-1.492765343892319,10.999127663428633,0.4998909579285791,387.24,0.20782889805977525,0.84,nominal,13997.648051156124,nan,heading_hold,18.0,-5.0,0.0
0.39,34.112621812805614,0.8691208444180071,1005.356368992041,90.59534350019089,2.382546424748129,12.929183056410855,91.54428745634455,18.926067461741187,1.696064987300269,11.622703333668005,0.9999730192636754,4.701724795052252,-2.072130522362581,0.20044489126031864,3.733507867018791,-6.393106130735472,4838.267293477418,0.27740775938522233,93.32362553741129,1.9919014899799603,1.1110577894088187,89816.18587685897,281.61518360155173,-1.495735272230232,10.984920697126826,0.4981150871408533,392.90999999999997,0.21087194591639885,0.84,nominal,14049.356318920718,nan,heading_hold,18.0,-5.0,0.0
0.42,36.847030220917894,0.9413794933436388,1005.7413053429706,91.14694693707591,2.408621630854389,12.831211697654279,92.07718168873748,18.919741303363697,1.8392758332147112,11.673345178683865,1.0095679388527636,4.838270918710184,-1.6775970761237273,0.36516669286292275,3.873038589441435,-6.351622577004067,4893.6002139295015,0.2789960529775792,93.85753147603455,2.0011514018112466,1.1110157781265926,89811.99178403377,281.61268151527065,-1.5030441241652805,10.953375671281055,0.49417195891013177,394.7778947368421,0.21187443146760623,0.84,nominal,14102.056665912027,nan,heading_hold,18.0,-5.0,0.0
0.44999999999999996,39.59802026130876,1.0144224618653783,1006.1234505180973,91.69966801302884,2.43476561739132,12.738172504227194,92.61219269652774,18.913385070419668,1.9857131067010343,11.713464826531022,1.0236235467098107,4.976202418860236,-1.3212663510415357,0.5031721565154728,3.9970508530546813,-6.304917640234655,4949.786029892441,0.28059963101656765,94.39657754974077,2.0003217991808286,1.1109740726705268,89807.82825946795,281.61019757163234,-1.5146573653020492,10.904629835683219,0.4880787294604023,394.7447368421052,0.2118566358661055,0.84,nominal,14155.20965405269,nan,heading_hold,18.0,-5.0,0.0
0.48,42.365540515752,1.0882489067163374,1006.5029231527296,92.25067514810799,2.460881495031974,12.64908782107647,93.14634950291743,18.907029371343686,2.1355039853853417,11.745052823465706,1.041626919247367,5.115027598614646,-1.031125837345676,0.6250621286686201,4.108027730834528,-6.253021310187898,5006.525834393894,0.28220981240402226,94.9378432154845,1.9995581626453696,1.1109326600676301,89803.69400725653,281.6077309995072,-1.5305217954153427,10.838895279422252,0.4798619099277814,394.7115789473684,0.2118388402646048,0.84,nominal,14208.543104195538,nan,heading_hold,18.0,-5.0,0.0
0.51,45.149542421706464,1.162856794184121,1006.8798334989648,92.80006353181531,2.4869295822594557,12.563678207840155,93.67968093650956,18.900674206135747,2.288732457959456,11.769622493848297,1.0633106109926518,5.254899862151619,-0.7910657081474644,0.738710819449451,4.207788997683577,-6.196032689073376,5063.8291249137965,0.28382675342165137,95.48138094701834,1.998852956868166,1.1108915282614085,89799.58782303896,281.6052810822567,-1.550565747726035,10.75645800810207,0.46955725101275875,394.67842105263156,0.21182104466310406,0.84,nominal,14262.059429365738,nan,heading_hold,18.0,-5.0,0.0
0.54,47.94997977893872,1.2382431087092653,1007.2542849881999,93.34791190774179,2.512877150838145,12.481716307834633,94.21220967103993,18.894319574795855,2.4454541065027926,11.78799446073852,1.088601400296932,5.396148872298377,-0.5777915803694975,0.8498645355308158,4.297420455958273,-6.134258767584676,5121.703998096178,0.28545056728703166,96.02722873535092,1.9981906964099354,1.1108506659412016,89795.50857695723,281.60284714757665,-1.5746993976539723,10.657676699454912,0.457209587431864,394.6452631578947,0.21180324906160333,0.84,nominal,14315.760459429526,nan,heading_hold,18.0,-5.0,0.0
0.57,50.76680859331802,1.31440409950496,1007.6263746001583,93.89429381264334,2.538699693189818,12.402987065282387,94.74395756378746,18.887965477324006,2.605708385345338,11.800782230051695,1.1175548781011828,5.5390830506417865,-0.38421496152792545,0.9626064808533843,4.377784286667572,-6.068161415704144,5180.15757675493,0.287081337164033,96.57541446561233,1.997558625350179,1.1108100625017914,89791.4552096196,281.6004285650989,-1.6028151524086969,10.542981142764262,0.4428726428455327,394.6121052631579,0.21178545346010264,0.84,nominal,14369.64793389702,nan,heading_hold,18.0,-5.0,0.0
0.6,53.59998695644463,1.39133552523752,1007.9961931601924,94.43927877088717,2.5643808577519973,12.32728533447007,95.27494627480189,18.881611913720203,2.769527156894263,11.808704297854616,1.1503040130812117,5.683954008122972,-0.21367375752743498,1.0797583892782188,4.449832569229402,-5.998317483160134,5239.195927617608,0.2887191147157639,97.12595543033129,1.9969510404996402,1.1107697080108336,89787.4267288462,281.5980247444587,-1.6347881180378838,10.41287036888731,0.4266087961109138,394.57894736842104,0.2117676578586019,0.84,nominal,14423.723561487594,nan,heading_hold,18.0,-5.0,0.0
0.63,56.449474814291065,1.469032873259607,1008.3638260393911,94.98292859488106,2.5899116007362335,12.254429306622132,95.80519507934265,18.875258883984444,2.936939469325717,11.812515586551783,1.1870319020098157,5.830993806660657,-0.06723465359988523,1.2031844976339492,4.514530155280248,-5.925388389809069,5298.823669736278,0.2903639102487457,97.67885501353388,1.996365519438578,1.1107295931323637,89783.42220202902,281.5956351307439,-1.6704766411876435,10.267910479013079,0.4084888098766347,394.54578947368424,0.2117498622571012,0.84,nominal,14477.988816724646,nan,heading_hold,18.0,-5.0,0.0
0.6599999999999999,59.31523369667171,1.5474915592852907,1008.7293539711669,95.5252960793549,2.6152895341894613,12.184264392527615,96.33471974933583,18.86890638811673,3.1079752301440338,11.812856568456594,1.227956883351301,5.9804591509644265,0.05905540622797109,1.3340194025581587,4.572701036801352,-5.850096190642505,5359.043693328225,0.2920156862115677,98.23410050321283,1.9957989306631267,1.1106897090375956,89779.44074722464,281.5932591991874,-1.7097229236424814,10.108732181603072,0.38859152270038405,394.5126315789473,0.21173206665560043,0.84,nominal,14532.444833712882,nan,heading_hold,18.0,-5.0,0.0
0.69,62.197226500866456,1.626707120287839,1009.0928536667191,96.06642680649148,2.640518700084941,12.116656518403623,96.86353319778014,18.86255442611706,3.2826696643847426,11.810234152790603,1.2733179980187472,6.1326569589124675,0.16977456748036723,1.472850086345282,4.625012983529042,-5.7732047449676775,5419.8570698109415,0.293674356103961,98.79166272410447,1.9952474039750097,1.110650047337681,89775.48152643941,281.5908964511663,-1.7523537074421518,9.936028048231078,0.36700350602888476,394.4794736842105,0.21171427105409973,0.84,nominal,14587.092465189458,nan,heading_hold,18.0,-5.0,0.0
0.72,65.09541733329885,1.7066754025694384,1009.4543982370575,96.60636108108014,2.665609409386646,12.051485677946923,97.39164636608832,18.856202997985438,3.4610680906000275,11.805088071434227,1.323360159158112,6.287952378346251,0.2672731972045984,1.6198622622600882,4.672047542997348,-5.695505226162187,5481.262992211095,0.29533978425455704,99.35149596289224,1.9947080342609391,1.1106106000375962,89771.54374102382,281.5885464114591,-1.798181027579001,9.750549500261652,0.3438186875327065,394.44631578947366,0.211696475452599,0.84,nominal,14641.932365420042,nan,heading_hold,18.0,-5.0,0.0
0.75,68.00977136854547,1.787392739659435,1009.8140575700656,97.14513450822045,2.6905779029998866,11.988644433604566,97.91906843627422,18.84985210372186,3.6432297670505185,11.797830856050865,1.3783233943093973,6.446766532654164,0.3525554295190339,1.7749504848440507,4.714340617514981,-5.61780497866498,5543.258647852642,0.29701178380780124,99.91353729101114,1.9941793688671132,1.1105713594949338,89767.62662755717,281.58620862579454,-1.847003028775382,9.553103539478077,0.3191379424347595,394.4131578947368,0.21167867985109828,0.84,nominal,14696.965009383359,nan,heading_hold,18.0,-5.0,0.0
0.78,70.94025470798023,1.8688561175639453,1010.1718987191244,97.68277798115865,2.7154459301503455,11.928038301961157,98.44580670830503,18.84350174332633,3.82923046994294,11.788840403084443,1.4384370447322237,6.60956872117398,0.42686270686876054,1.937796607792078,4.7523744838989685,-5.540918661303148,5605.839062399826,0.29869011403122037,100.47770565880796,1.9936606317173695,1.110532318377449,89763.72945360774,281.58388265832565,-1.8986048427001851,9.344549236884514,0.2930686546105642,394.38,0.21166088424959756,0.84,nominal,14752.19067979838,nan,heading_hold,18.0,-5.0,0.0
0.8099999999999999,73.88683424857885,1.9510633296876436,1010.5279862631176,98.21931801995389,2.74024040412328,11.869584799771529,98.97186667480914,18.83715191679884,4.019164305072794,11.778446907286014,1.5039162420497374,6.77686630727227,0.49186298863830347,2.107926611575176,4.786565015621046,-5.465660952506927,5668.996976677246,0.3003744785958249,101.04390131709525,1.9931510967608541,1.1104934696237267,89759.85151380519,281.5815680892897,-1.952759521865501,9.125793994959292,0.26572424936991146,394.34684210526314,0.21164308864809683,0.84,nominal,14807.6094730353,nan,heading_hold,18.0,-5.0,0.0
0.84,76.84947757203079,2.034013123991173,1010.882382603948,98.75477744839823,2.764993143450981,11.81321136101669,99.49725231696627,18.830802624139398,4.213145197896607,11.766937793292463,1.5749586255050916,6.949195536840173,0.5490505800624464,2.284753620298692,4.817267625138276,-5.392840444191006,5732.722762372605,0.30206452495166375,101.6120056071747,1.99265013237372,1.1104548064106803,89755.99212659463,281.5792645130743,-2.0092290261885872,8.897789599621962,0.23722369995274525,394.31368421052633,0.21162529304659614,0.84,nominal,14863.22132667603,nan,heading_hold,18.0,-5.0,0.0
0.87,79.82815285167011,2.117705342525781,1011.2351482122277,99.28917598797742,2.7897406178202564,11.758853609321807,100.02196638384854,18.824453865348,4.411308116619681,11.75457015942384,1.6517414187595127,7.127115364673159,0.5994956501183487,2.467610269927139,4.844790533211494,-5.3232544763386365,5797.004353317202,0.3037598441443832,102.18188089926194,1.9921574125538872,1.1104163221267116,89752.15063155642,281.5769715366205,-2.0677652579087384,8.66152807909168,0.20769100988646,394.2805263157895,0.2116074974450954,0.84,nominal,14919.026045861305,nan,heading_hold,18.0,-5.0,0.0
0.8999999999999999,82.82282877088389,2.2021410524311524,1011.5863418429551,99.82253064045905,2.8145236635123823,11.706454357580208,100.54601056503418,18.818105640424648,4.6138099794647465,11.741577140080846,1.7344195193115968,7.311204176431284,0.6440477224321227,2.655772058302329,4.8694015228112795,-5.257684673125466,5861.827184720484,0.3054599708553993,102.75337060615657,1.991672877470485,1.1103780103481418,89748.3263870522,281.57468877802074,-2.1281111403218986,8.418037387654675,0.17725467345683427,394.2473684210526,0.21158970184359466,0.84,nominal,14975.0233195062,nan,heading_hold,18.0,-5.0,0.0
0.9299999999999999,85.83347445112817,2.2873226682235055,1011.9360207263288,100.3548560081425,2.839387193078433,11.65596277912285,101.06938563361078,18.81175794936934,4.820830326124045,11.728168752420384,1.8231244679892187,7.502058040640712,0.6835203765502217,2.84847406623222,4.891329063876593,-5.196892985925332,5927.174151125465,0.3071643839335301,103.32629936225123,1.9911965507333826,1.1103398648183673,89744.51876814355,281.57241586527886,-2.190001735630409,8.16837693312039,0.1460471166400488,394.21421052631575,0.21157190624209393,0.84,nominal,15031.212733833618,nan,heading_hold,18.0,-5.0,0.0
0.96,88.86005939076384,2.373254065843142,1012.2842407286273,100.88616465452236,2.86437992065454,11.607333409947952,101.59209162094724,18.805410792182077,5.032571884533055,11.714533392391603,1.9179637439712311,7.70028939539644,0.7186699168142775,3.0449235168030264,4.910764180385379,-5.141618129651328,5993.025592044629,0.3088725076269779,103.90047343815019,1.9907284418150126,1.1103018794302761,89740.7271648357,281.5701524352639,-2.2531653970505756,7.913632967425933,0.1142041209282416,394.1810526315789,0.2115541106405932,0.84,nominal,15087.593789300863,nan,heading_hold,18.0,-5.0,0.0
0.99,91.90255341488214,2.4599406886712116,1012.6310564822571,101.4164674706101,2.88955409426899,11.560525120992088,102.11412800466992,18.79906416886286,5.249261082845665,11.70084145938671,2.019020150427642,7.906525819671921,0.7501244688203282,3.2443096102986746,4.927864458978958,-5.092572353112969,6059.359305013831,0.31058371347863906,104.47568137844037,1.9902685461854928,1.110264048212045,89736.95098065912,281.5678981328653,-2.31732495016562,7.654913860443975,0.08186423255549694,394.1478947368421,0.2115363150390925,0.84,nominal,15144.165919128784,nan,heading_hold,18.0,-5.0,0.0
1.02,94.96092663473017,2.5473896452830327,1012.9765214893852,101.94577399493443,2.9149652203940373,11.515500237602273,102.6354938770432,18.792718079411685,5.471148486679737,11.687248843404866,2.1263513918601804,8.12140886393795,0.778388757116293,3.4458112500329023,4.942757822900299,-5.050438499680828,6126.15058375012,0.3122973227967185,105.05169483299491,1.9898168376589158,1.1102263653158,89733.18963153707,281.565652610319,-2.3821988983765885,7.393345277557336,0.04916815969466701,394.11473684210523,0.21151851943759178,0.84,nominal,15200.928506156164,nan,heading_hold,18.0,-5.0,0.0
1.05,98.03514941549432,2.6356097986833182,1013.3206882027937,102.474092692138,2.9406717800095215,11.472223780282794,103.15618809387793,18.786372523828557,5.698509149976601,11.673899120729452,2.2399899079360748,8.345592889612588,0.8038874735711549,3.6486031673463577,4.955544926192496,-5.015867321866806,6193.3722823819235,0.31401260969935285,105.62826958136557,1.9893732193075142,1.1101888250087855,89729.44254490316,281.5634155266818,-2.4475026472002543,7.130065281982219,0.016258160247777338,394.0815789473684,0.21150072383609106,0.84,nominal,15257.880897993688,nan,heading_hold,18.0,-5.0,0.0
1.08,101.12519235199755,2.72461184696551,1013.6636080848239,103.00143121677466,2.9667349427397247,11.430662734338242,103.67620941889524,18.780027502113473,5.931642897331337,11.660925220198953,2.3599428799158835,8.579743872949361,0.8269831549152927,3.851861011351751,4.966300982625099,-4.989475027756698,6260.994908027559,0.31572880476483034,106.20514676088501,1.9889374735389533,1.1101514216669088,89725.70915905671,281.56118654744864,-2.512949742085378,6.866219383149544,-0.016722577106306955,394.04842105263157,0.21148292823459033,0.84,nominal,15315.022421960348,nan,heading_hold,18.0,-5.0,0.0
1.1099999999999999,104.2310262520537,2.81440839539938,1014.0053316447837,103.52779666853812,2.993218281129006,11.390785331994751,104.19555666726026,18.773683014266435,6.170874556075654,11.648451258873589,2.4861923247988713,8.824538222565788,0.84797064403312,4.054765797260051,4.97507773781169,-4.971841050081211,6328.986742339607,0.3174450992760879,106.78205429466604,1.9885092354557758,1.1101141497706397,89721.98892275261,281.5589653443089,-2.578253114360728,6.602955552688385,-0.04963055591395179,394.0152631578947,0.2114651326330896,0.84,nominal,15372.352400174439,nan,heading_hold,18.0,-5.0,0.0
1.14,107.35262212698379,2.905014019892814,1014.3459084561114,104.05319583100324,3.020187483114459,11.352560377587265,104.71422884309962,18.767339060287444,6.416554141597869,11.63659438502685,2.6186952739834957,9.080661693138964,0.867076933835504,4.256507874633478,4.981905403126143,-4.963506033040785,6397.313991185949,0.31916065001280874,107.3587085037921,1.9880879751031282,1.1100770039031251,89718.28129501278,281.5567515950353,-2.6431263298916874,6.341419229696583,-0.0823225962879272,393.9821052631579,0.2114473370315889,0.84,nominal,15429.87016426364,nan,heading_hold,18.0,-5.0,0.0
1.17,110.48995118874507,2.996445321770975,1014.685387154799,104.57763539204242,3.047710062605355,11.31595662291927,105.23222526920382,18.760995640176496,6.669056995823373,11.625466323255846,2.7573840567338634,9.348808423379257,0.8844711998068618,4.456290493680352,4.98679424001958,-4.9649700318151915,6465.940961585673,0.32087458454554946,107.93481588836393,1.9876729742918529,1.1100399787503379,89714.58574514031,281.55454498349377,-2.7072848350102454,6.0827483370302255,-0.1146564578712218,393.94894736842105,0.21142954143008816,0.84,nominal,15487.575069495837,nan,heading_hold,18.0,-5.0,0.0
1.2,113.64298485328584,3.088720973895012,1015.0238154200582,105.10112215135914,3.0758550708012486,11.280942175308208,105.74954571180973,18.754652753933595,6.928783884628059,11.61517466605429,2.902166678326289,9.629680077699529,0.9002733160610095,4.653333057247,4.989735848914135,-4.976690920051765,6534.830265141047,0.32258600699186335,108.51007506393213,1.9872633019175576,1.110003069103173,89710.90175292821,281.5523451997696,-2.7704471942960045,5.828068330295633,-0.14649145871304595,393.91578947368424,0.21141174582858746,0.84,nominal,15545.46650861618,nan,heading_hold,18.0,-5.0,0.0
1.23,116.81169474985555,3.181861758219704,1015.361239937888,105.62366321899034,3.1046928108230665,11.247483927656116,106.2661905026766,18.748310401558737,7.196161062012124,11.605824073609057,3.0529272689978137,9.923985073545852,0.9145569052685375,4.846874126478775,4.990704332162194,-4.999083001348461,6603.943046728684,0.3242940041850944,109.0841788367198,1.9868577949093789,1.109966269861398,89707.22880905317,281.5501519404037,-2.8323363148218315,5.578487301085346,-0.17768908736433178,393.8826315789473,0.2113939502270867,0.84,nominal,15603.543925612465,nan,heading_hold,18.0,-5.0,0.0
1.26,119.9960527360057,3.275890594936553,1015.6977063482618,106.14526620500469,3.13429455722829,11.215547012464162,106.7821606584713,18.741968583051925,7.471640305905389,11.597517405230057,3.209526593480729,10.232437894886923,0.9273515460562898,5.036174200157861,4.989657355728246,-5.0325158201158855,6673.239236571227,0.3259976521937971,109.65681639676203,1.9864550440495976,1.1099295760393988,89703.56641564847,281.5479649087363,-2.8926806515367374,5.335091155763481,-0.20811360552956487,393.8494736842105,0.211376154625586,0.84,nominal,15661.806829405969,nan,heading_hold,18.0,-5.0,0.0
1.29,123.19603091802486,3.3708325634013057,1016.0332591766933,106.66593940063863,3.1647322821584223,11.185094281048942,107.29745799744933,18.735627298413156,7.755698928825473,11.590356733488049,3.3718026197742614,10.55575849517306,0.9386465578693638,5.220518265084775,4.986537062974429,-5.077313165567941,6742.6778234402145,0.32769602312433954,110.22767560627322,1.9860533814301091,1.1098929827736208,89699.91408704617,281.54578381535146,-2.951215388540669,5.0989388907771644,-0.23763263865285444,393.81631578947366,0.21135835902408526,0.84,nominal,15720.25480746232,nan,heading_hold,18.0,-5.0,0.0
1.3199999999999998,126.41160167660038,3.4667149151206194,1016.3679417508173,107.18569195251769,3.1960783906437844,11.156085804132633,107.81208525433651,18.729286547642435,8.048839767748529,11.584444241739776,3.539571140430522,10.894671788279734,0.9483946932328334,5.399218119326085,4.981270847762238,-5.133752261131183,6812.217146514577,0.3293881921376547,110.79644536001871,1.9856508697929194,1.1098564853316506,89696.27135068289,281.54360837861964,-3.007683591111069,4.87105798505082,-0.26611775186864745,393.7831578947368,0.21134056342258453,0.84,nominal,15778.887539414813,nan,heading_hold,18.0,-5.0,0.0
1.3499999999999999,129.64273769754672,3.5635670791560834,1016.7017961025248,107.70453403154465,3.228405467848803,11.12847839024946,108.32604619434444,18.722946330739756,8.351591158549658,11.579883040188108,3.7126264346549003,11.249907227202048,0.956514570677943,5.571614472462818,4.973772029875953,-5.202063130471309,6881.81520312578,0.3310732446080308,111.36281799343399,1.9852452956447368,1.1098200791228667,89692.6377481622,281.54143832533356,-3.061837323468578,4.652439929510539,-0.29344500881118263,393.75,0.21132276782108383,0.84,nominal,15837.704810798448,nan,heading_hold,18.0,-5.0,0.0
1.38,132.88941200746225,3.6614206603842945,1017.0348628561611,108.22247699718451,3.261786040940362,11.102225121210836,108.83934572674097,18.716606647705124,8.664506900111101,11.57677791494754,3.890741961250647,11.622198474141499,0.9628925330768296,5.737078820931359,4.963940454692114,-5.2824281302431855,6951.429969303699,0.3327502833483321,111.9264917130578,1.9848341667056193,1.1097837597106084,89689.01283646861,281.5392733914349,-3.113438727418436,4.444035913189289,-0.3194955108513388,393.71684210526314,0.2113049722195831,0.84,nominal,15896.706526940896,nan,heading_hold,18.0,-5.0,0.0
1.41,136.15159801418994,3.760309431135386,1017.3671811032964,108.73953355758934,3.2962923583697186,11.07727490450948,109.35199001821604,18.710267498538535,8.988166212914239,11.575236006151338,4.07367107450327,12.01228316523231,0.9673845436337393,5.8950150940005495,4.951663021320597,-5.374981638572675,7021.019729802113,0.3344184358246045,112.48717302336364,1.9844147135260863,1.1097475228258125,89685.39618932782,281.53711332282853,-3.162261057174482,4.246752684682293,-0.3441559144147134,393.68368421052634,0.2112871766180824,0.84,nominal,15955.892727038652,nan,heading_hold,18.0,-5.0,0.0
1.44,139.42926955197282,3.8602693168247453,1017.6987882645533,109.25571792609601,3.331996189645313,11.053572041895924,109.86398660634818,18.703928883239993,9.32317369721861,11.575367417222312,4.261147754035508,12.420902770284995,0.9698179083684473,6.0448610694093565,4.9368141511417525,-5.479809887415818,7090.543414124876,0.33607686128340447,113.04457912420324,1.9839838958079112,1.1097113643820515,89681.78739870695,281.5349578762804,-3.2080896658634046,4.061448606959062,-0.36731892413011724,393.6505263157895,0.21126938101658166,0.84,nominal,16015.263598454505,nan,heading_hold,18.0,-5.0,0.0
1.47,142.72240093120706,3.961338376290544,1018.0297199389615,109.7710459744745,3.3689686488599673,11.031055813606468,110.37534451339256,18.697590801809493,9.670159296222693,11.577285763896253,4.4528873383434995,12.84880254677205,0.9699926003317803,6.186089560725558,4.919256216286187,-5.596950926369882,7159.960934949133,0.33772475771619426,113.59844025341437,1.9835384144614967,1.1096752804919405,89678.18607645112,281.53280682039673,-3.250722939417231,3.8889299226973084,-0.38888375966283645,393.6173684210526,0.21125158541508093,0.84,nominal,16074.819491264465,nan,heading_hold,18.0,-5.0,0.0
1.5,146.03096699269588,4.063556777650108,1018.3600097413192,110.2855353829602,3.4072800453187844,11.009660078590745,110.88607436039707,18.69125325424704,10.029778269593491,11.581108667422008,4.648587251951341,13.296731587656637,0.9676823186587137,6.318209379002802,4.89883994415396,-5.7263947051435835,7229.233525253205,0.33936136858679383,114.1485019497007,1.9830747302638014,1.1096392674848354,89674.59185604917,281.5306599366814,-3.289973173791049,3.7299472463878893,-0.40875659420151383,393.58421052631576,0.2112337898135802,0.84,nominal,16134.560933059462,nan,heading_hold,18.0,-5.0,0.0
1.53,149.35494316630133,4.16696677059185,1018.6896891280672,110.79920578684857,3.4469997647247412,10.989312891601694,111.3961884814914,18.684916240552635,10.402711182717097,11.586958191902633,4.847927716575367,13.765442962664196,0.9626354260842521,6.440766071975514,4.8754048104847625,-5.86808326171234,7298.324070427422,0.3409859892506273,114.69452721181536,1.9825890898893659,1.1096033219257972,89671.00439452527,281.52851702066755,-3.3256673916895507,3.5851922984733933,-0.42685096269082584,393.5510526315789,0.21121599421207948,0.84,nominal,16194.488643989738,nan,heading_hold,18.0,-5.0,0.0
1.56,152.69430553387878,4.271612656127316,1019.0187872122156,111.31207891924828,3.4881961845155187,10.969936138275557,111.90570103808147,18.678579760726272,10.78966391712055,11.59496122600065,5.050572436490718,14.25569395223493,0.9545757493955983,6.553342445598642,4.848779434796187,-6.021911003225685,7367.197431675221,0.34259797299826733,115.23629853134736,1.9820775602966556,1.109567440635734,89667.42337444826,281.5263778831206,-3.3576480952492114,3.4552948957298595,-0.44308813803376756,393.5178947368421,0.21119819861057876,0.84,nominal,16254.603552026909,nan,heading_hold,18.0,-5.0,0.0
1.5899999999999999,156.0490308963595,4.377540754938425,1019.3473305679092,111.82417874935811,3.530936627036958,10.951445189787876,112.41462813254098,18.672243814767956,11.191367707628478,11.60524980963523,5.256169248059634,14.768246373486791,0.9432032215603743,6.655558873782363,4.818781993362264,-6.1877250669944015,7435.820757089989,0.3441967366602564,115.77361977791611,1.9815360726142708,1.1095316207126773,89663.84850605394,281.52424235130854,-3.3857739514015863,3.3408202109861977,-0.4573974736267253,393.48473684210524,0.21118040300907803,0.84,nominal,16314.906808402524,nan,heading_hold,18.0,-5.0,0.0
1.6199999999999999,159.41909684482044,4.484799375566788,1019.6753430252876,112.3355316153643,3.575287354278769,10.933748579279646,112.92298792082627,18.665908402677683,11.60857921188176,11.617961404711359,5.4643507235074535,15.30386699798069,0.9281944106905216,6.747073402277406,4.785220664166912,-6.365325749329614,7504.1637769186245,0.34578176571530356,116.30631791730167,1.980960476685398,1.1094958595541107,89660.27952947258,281.5221102703356,-3.4099204069360507,3.242266314104071,-0.4697167107369911,393.45157894736843,0.21116260740757734,0.84,nominal,16375.399803162474,nan,heading_hold,18.0,-5.0,0.0
1.65,162.80448183534457,4.593438783804098,1020.0028454563721,112.84616635080458,3.6213136079103343,10.916747702817114,113.43080072329235,18.659573524455457,12.042080617925517,11.633239107400724,5.674734719198774,15.863328061484667,0.9092029776242074,6.827581652502738,4.7478941176254965,-6.554466990616197,7572.199079697986,0.3473526188497316,116.83424454498113,1.9803466074520184,1.1094601548802758,89656.71621705346,281.5199815045336,-3.429980230586135,3.160062004917228,-0.4799922493853465,393.4184210526316,0.2111448118060766,0.84,nominal,16436.08418075836,nan,heading_hold,18.0,-5.0,0.0
1.68,166.20516526743486,4.703511174753965,1020.3298555528186,113.35611440300957,3.669079698328887,10.900336548212731,113.93808913284963,18.653239180101274,12.49267979570626,11.651231798873495,5.8869248586906515,16.44740786633601,0.8858600718341381,6.896816530844323,4.706592067163662,-6.754856905772066,7639.902366172187,0.34890893192238437,117.35727721967356,1.9796903644253008,1.1094245047583575,89653.15837577729,281.5178559389067,-3.4458639797810267,3.0945649475589807,-0.4881793815551274,393.3852631578947,0.21112701620457588,0.84,nominal,16496.96185557964,nan,heading_hold,18.0,-5.0,0.0
1.71,169.62112756569456,4.815070649144298,1020.656387596489,113.86540994198985,3.718649146344421,10.884401455681886,114.44487811946614,18.646905369615137,12.961210498478398,11.672094230698043,6.100510940871837,17.056891477619782,0.8577746752631763,6.9545477482847,4.661095893965517,-6.96615835015565,7707.252678161438,0.350450421295967,117.87532058377018,1.978987805513697,1.1093889076274532,89649.60584974695,281.51573348062277,-3.4575003900314627,3.046060114295215,-0.49424248571309815,393.3521052631579,0.21110922060307516,0.84,nominal,16558.03502731284,nan,heading_hold,18.0,-5.0,0.0
1.74,173.05235026443142,4.928173195573277,1020.9824522239398,114.37408995789508,3.770084880965958,10.868820915026095,114.95119512988664,18.640572092997044,13.448532620302064,11.695987040078936,6.315069263601094,17.692571515181058,0.8245339134262775,7.000581154146995,4.61117936006095,-7.187989512015073,7774.232599852959,0.3519768865028966,118.38830725991662,1.9782352564483408,1.1093533623242018,89646.05852274357,281.51361406054434,-3.464836685255668,3.014758545633688,-0.498155181795789,393.31894736842105,0.21109142500157443,0.84,nominal,16619.306195996534,nan,heading_hold,18.0,-5.0,0.0
1.77,176.4988160947797,5.042876680468773,1021.3080561860835,114.88219434494282,3.823449496516515,10.853465404787046,115.45707018132121,18.634239350246997,13.955532516038538,11.723076689129703,6.530162853347292,18.355249044364225,0.7857033474755845,7.0347578864420655,4.556609423885122,-7.419924523708259,7840.828429317597,0.35348821222112164,118.89619851549642,1.9774294369846854,1.1093178681089306,89642.51632083445,281.51149763479043,-3.467838807694805,3.00079643210428,-0.499900445986965,393.28578947368425,0.21107362940007374,0.84,nominal,16680.77817662452,nan,heading_hold,18.0,-5.0,0.0
1.7999999999999998,179.96050907386467,5.159240847627977,1021.6332021044722,115.38976596949882,3.878805571973496,10.83819727962233,115.96253594774863,18.627907141364993,14.483123390524534,11.753535321547345,6.745341591382338,19.045734569351836,0.7408272521921718,7.0569533398431314,4.49714717258743,-7.661494085149426,7907.030318416753,0.35498436954292173,119.39898468930586,1.9765676049620489,1.109282424692172,89638.97921501764,281.5093841863209,-3.4664915664169693,3.0042345217052913,-0.4994706847868386,393.25263157894733,0.21105583379857298,0.84,nominal,16742.45411313427,nan,heading_hold,18.0,-5.0,0.0
1.8299999999999998,183.43741459545828,5.277327329277617,1021.957888225863,115.89685071978703,3.9362160549879976,10.822870713030044,116.4676278373828,18.621575466351036,15.032245763928895,11.787540529159124,6.960142227122786,19.76484913408403,0.6894288826151169,7.0670759506368,4.432548885478606,-7.91218609424018,7972.832379647527,0.3564654165273526,119.89668537728383,1.9756477191430697,1.1092470322613588,89635.44722388445,281.5072737265319,-3.4607987037627215,3.025057855593936,-0.496867768050758,393.21947368421047,0.21103803819707223,0.84,nominal,16804.337491603714,nan,heading_hold,18.0,-5.0,0.0
1.8599999999999999,186.92951952149392,5.397199670651523,1022.2821081769678,116.40349753452105,3.995744712463541,10.807331703489922,116.97238405976724,18.615244325205122,15.603868020667937,11.825275019835644,7.1740882692598476,20.513425536961172,0.6310107294891435,7.065065796166746,4.362567243079126,-8.171446280407851,8038.232758873585,0.35793149803465063,120.38934937673334,1.9746686215234073,1.109211691507501,89631.92041627974,281.50516629684967,-3.450782879441791,3.063175833171029,-0.4921030208536214,393.18631578947367,0.21102024259557153,0.84,nominal,16866.432152466507,nan,heading_hold,18.0,-5.0,0.0
1.89,190.43681227372147,5.5189233701171,1022.6058507215604,116.90975840758529,4.057456648852549,10.791418153088468,117.47684568089187,18.608913717927255,16.198987049685293,11.866926177285267,7.386689745338789,21.292309666831017,0.5650547576862683,7.050893004360133,4.2869526963596565,-8.438678838789356,8103.2336733002885,0.3593828448485062,120.87705439102514,1.9736302394922014,1.109176403651601,89628.3989139361,281.50306197030983,-3.436485572348489,3.11842260627668,-0.485197174215415,393.1531578947368,0.2110024469940708,0.84,nominal,16928.742301544633,nan,heading_hold,18.0,-5.0,0.0
1.92,193.95928292469412,5.642565936890101,1022.929099522423,117.41568836575486,4.121418892433384,10.774960028756547,117.98105666467083,18.602583644517434,16.809356625029263,11.912668835788027,7.597446695153188,21.79329873036699,0.4910226154956277,7.0245559669351945,4.206855005369036,-8.712565849783827,8167.841414468548,0.36081977209956434,121.35990649927899,1.9725606604747181,1.1091411704705323,89624.88289405436,281.50096085310423,-3.4179669005208937,3.190557800781887,-0.4761802749022641,393.12,0.2109846513925701,0.84,nominal,16991.272519687704,nan,heading_hold,18.0,-5.0,0.0
1.95,197.49692268563925,5.768197037902937,1023.2518344891901,117.92132536483794,4.187703367094527,10.757832225569063,118.4850488014595,18.596254104975657,17.42411520476516,11.962465234661824,7.805929446233238,21.929654063081657,0.4147677012070515,6.986637848772545,4.123770780943641,-8.991619802465925,8232.064274043276,0.36224263210838126,121.83802429310417,1.9714864430794758,1.1091059941500665,89621.37257463504,281.4988630758202,-3.3953053576571053,3.279267562436437,-0.4650915546954454,393.08684210526314,0.21096685579106939,0.84,nominal,17054.025997435536,nan,heading_hold,18.0,-5.0,0.0
1.98,201.04972329970556,5.895888711104662,1023.5740332505455,118.42668713554336,4.25638910672416,10.739958711848017,118.9888389188663,18.589925099301926,18.03848225601776,12.016136579418864,8.011782858699991,21.904534454538485,0.3401442849096769,6.938224669911211,4.038270733551381,-9.274834699185893,8295.912047527809,0.36365180294906546,122.31153502785486,1.9704147697911167,1.1090708771243754,89617.8681984603,281.4967687838714,-3.3685974695184986,3.3841659224227327,-0.4519792596971584,393.0536842105263,0.21094906018956863,0.84,nominal,17117.004186806418,nan,heading_hold,18.0,-5.0,0.0
2.01,204.61767684735742,6.0257155285792035,1023.8956715235901,118.93178492172872,4.327560582484736,10.721275768150639,119.49243908867268,18.583596627496238,18.653369518884983,12.073600938503088,8.214653125834651,21.907633390489675,0.263495730855516,6.880349847995229,3.950186437066531,-9.561624439744046,8359.397277525532,0.36504771524981255,122.78058363612767,1.9693476952248459,1.1090358220357392,89614.37002907255,281.49467813509665,-3.3379573735460886,3.504796476674106,-0.4369004404157367,393.0205263157895,0.21093126458806793,0.84,nominal,17180.20798682689,nan,heading_hold,18.0,-5.0,0.0
2.04,208.20077581721128,6.15775460195978,1024.216722935554,119.4366323284624,4.4013024460192245,10.701713732129798,119.99586360366801,18.577268689558597,19.271476126031576,12.134876869034786,8.414169360780964,21.998356298578877,0.18135265330988454,6.813632148090519,3.8591594996328036,-9.851513584690691,8422.536080134487,0.3664308693231298,123.24533848931411,1.9682880363672421,1.1090008317539533,89610.87835271018,281.4925913009189,-3.3035163226838984,3.640634371651082,-0.41992070354361477,392.9873684210526,0.2109134689865672,0.84,nominal,17243.638566970996,nan,heading_hold,18.0,-5.0,0.0
2.07,211.79901323618867,6.292085507473376,1024.5371587665516,119.9412472992462,4.477696850453193,10.681194366590685,120.49913064367054,18.570941285489,19.89449541474734,12.199976936293275,8.609964470048745,22.14314442518213,0.09388066808369067,6.738302808039079,3.764985694005452,-10.143931842364516,8485.34823543199,0.367801835988626,123.70599167432368,1.9672393985994694,1.1089659094043394,89607.39348110203,281.49050846801737,-3.265422114866274,3.791088587935594,-0.4011139265080508,392.95421052631576,0.21089567338506648,0.84,nominal,17307.29757095819,nan,heading_hold,18.0,-5.0,0.0
2.1,215.41238275466733,6.428790224903358,1024.8569477817457,120.44565061595588,4.556823914332745,10.659633839806325,121.00226109493116,18.564614415287448,20.522637428678543,12.268885095143133,8.80167895697272,22.292542465837865,0.0018432356552921458,6.654462578701387,3.667705087195342,-10.438187889586708,8547.856858295943,0.36916124834589575,124.16275622636023,1.9662083044795546,1.1089310583860075,89603.91575328886,281.48842983941864,-3.2238384504005095,3.9555045117074887,-0.3805619360365639,392.9210526315789,0.21087787778356573,0.84,nominal,17371.186982006802,nan,heading_hold,18.0,-5.0,0.0
2.13,219.0408786451567,6.567953072134912,1025.1760562758452,120.94986301631245,4.638761574385124,10.636949803316115,121.50527632052447,18.55828807895394,21.155426920644842,12.341570492313288,8.9889586676539,22.42367420347222,-0.0945861090164977,6.562279930287445,3.567502004795582,-10.733533981363898,8610.087904188811,0.3705097902037705,124.61586223687645,1.9652037838812642,1.1088962823669728,89600.44553513486,281.486355634207,-3.1789442198574944,4.1331667829149525,-0.35835415213563093,392.8878947368421,0.21086008218206503,0.84,nominal,17435.30885914102,nan,heading_hold,18.0,-5.0,0.0
2.16,222.6844957459505,6.709660609261197,1025.494448275858,121.45390335979347,4.723584570876139,10.613066667095804,122.00819675992466,18.551962276488478,21.792488796557727,12.417986247539929,9.171459542201175,22.53987463178462,-0.19517245277448791,6.46203853330617,3.4645663785842458,-11.029224775923648,8672.069771042703,0.3718481868379522,125.06555374450373,1.9642348096302142,1.1088615852620318,89596.98321711943,281.4842860862069,-3.130932725649509,4.323302407746816,-0.334587199031648,392.85473684210524,0.2108422865805643,0.84,nominal,17499.66516948869,nan,heading_hold,18.0,-5.0,0.0
2.19,226.34322940792032,6.854001529289466,1025.812085744423,121.95778873232717,4.811364000942324,10.587915618829351,122.51104200511872,18.54563700789106,22.433795441604502,12.49807389257013,9.348849218792434,22.652731101740763,-0.2997658426976317,6.354107257508491,3.359046105441562,-11.324536219389051,8733.83308770379,0.3731771999385483,125.51208703525029,1.9633097122613996,1.1088269712105754,89593.52921212206,281.4822214426612,-3.0800108409172395,4.525084121864502,-0.30936448476693723,392.8215789473684,0.21082449097906358,0.84,nominal,17564.257797255526,nan,heading_hold,18.0,-5.0,0.0
2.2199999999999998,230.01707546270262,7.001066545094107,1026.1289287365964,122.46153515941043,4.902167193488052,10.561433072444615,123.0138313578443,18.539312273161688,23.079522843649908,12.581771445919866,9.520805413274319,22.76902093707673,-0.40844428387025916,6.238898202104342,3.2510767468006416,-11.618758335362678,8795.410559747561,0.3744976238858331,125.95572938952654,1.9624369242848656,1.1087924445594828,89590.08395371481,281.4801619632121,-3.0263981094549566,4.737633989760596,-0.2827957512799255,392.7884210526316,0.21080669537756289,0.84,nominal,17629.08861166282,nan,heading_hold,18.0,-5.0,0.0
2.25,233.70603019766412,7.150948265024397,1026.444935554599,122.96515783205021,4.996057331009651,10.533560600083698,123.51658402186887,18.532988072300363,23.729843919891987,12.669010523898308,9.687017685964726,22.88864312991734,-0.5211529571402093,6.116838251880799,3.1408165708048847,-11.91118513990476,8856.836761922412,0.3758102809684022,126.3967574734928,1.9616251217465652,1.1087580098462335,89586.6478944765,281.4781079188951,-2.970325790522244,4.960027224583431,-0.25499659692707105,392.7552631578947,0.21078889977606213,0.84,nominal,17694.1594914722,nan,heading_hold,18.0,-5.0,0.0
2.28,237.41009032500997,7.303741053869832,1026.760062929806,123.46867091152853,5.093092961514509,10.504245840236178,124.01931895171043,18.52666440530708,24.384839485743246,12.759710321318005,9.847190657521653,23.0085509590146,-0.6376054631427096,5.988362288850647,3.028458693421983,-12.201112772269298,8918.147881587462,0.3771160156578932,126.83545541309499,1.9608829873901663,1.108723671779059,89583.2215040114,281.47605959095625,-2.9120358526532906,5.191296211808001,-0.2260879735239999,392.7221052631579,0.21077110417456144,0.84,nominal,17759.472307753622,nan,heading_hold,18.0,-5.0,0.0
2.31,241.1292529419784,7.4595408792185065,1027.0742662355517,123.9720872322803,5.193327511622482,10.473443524851698,124.52205460334868,18.520341272181845,25.04452022003832,12.853776709324356,10.001045475673887,23.126440142031825,-0.7574649515318475,5.853918462589362,2.9142266934352725,-12.487844455551334,8979.381449242717,0.3784156887193186,127.27211281280705,1.9602190486355597,1.1086894352137358,89579.80526663324,281.4740172694689,-2.85177992083504,5.430434719246531,-0.19619566009418363,392.68894736842105,0.2107533085730607,0.84,nominal,17825.02889429855,nan,heading_hold,18.0,-5.0,0.0
2.34,244.86351548357308,7.618445141511652,1027.3874997279786,124.47541805315643,5.2968087431048385,10.441116414232845,125.02480871548917,18.514018672924653,25.708878709357506,12.951103055089305,10.148320668687361,23.241748007398293,-0.8803985798736758,5.713970969214027,2.7983643234371893,-12.770696838922268,9040.576077460859,0.37971017160451503,127.70702286959128,1.959641459842885,1.1086553051273307,89576.3996787449,281.4719812517681,-2.789818181637709,5.676402275081294,-0.16544971561483818,392.6557894736842,0.21073551297155999,0.84,nominal,17890.83102137971,nan,heading_hold,18.0,-5.0,0.0
2.37,248.61287567141358,7.78055248815695,1027.699716806193,124.97867292801637,5.4035782215099495,10.407235940484064,125.5275981781097,18.507696607535507,26.377916713407796,13.051570254018754,10.288773304193475,23.354830772245037,-1.0060435066564393,5.568997471093658,2.681128308752641,-13.04900454342888,9101.771218926679,0.38100034134279404,128.14048065408943,1.959157766531593,1.1086212865898444,89573.00524600859,281.46995184075973,-2.7264182510729023,5.928128694871233,-0.13398391314109595,392.62263157894733,0.21071771737005923,0.84,nominal,17956.880379999937,nan,heading_hold,18.0,-5.0,0.0
2.4,252.37733146147025,7.94596261364562,1028.0108702831835,125.4818596685556,5.513670849622364,10.371782566348825,126.03043896504,18.501375076014405,27.05164267772402,13.15504686493467,10.422180017836174,23.465971828775768,-1.134009082263392,5.419485141205742,2.562787350796387,-13.322122932817267,9163.006942811586,0.3822870758985394,128.5727815488764,1.9587747592946885,1.1085873847346843,89569.62248039956,281.4679293431593,-2.6618540101162997,6.184518737835698,-0.1019351577705377,392.5894736842105,0.2106999217685585,0.84,nominal,18023.178573922916,nan,heading_hold,18.0,-5.0,0.0
2.4299999999999997,256.15688099084554,8.11477604578431,1028.3209126661195,125.98498431250917,5.627114404622987,10.334746097869155,126.53334606202951,18.49505407836135,27.730058749701836,13.261389224599062,10.548338000741659,23.57503258184971,-1.2638762983274272,5.2659273670719084,2.443623492326266,-13.589430342969726,9224.323722484427,0.3835712498378113,129.0042197906549,1.9584983461894336,1.1085536047281228,89566.25189715835,281.4659140676702,-2.5964044129617427,6.444456872156311,-0.06944289098046108,392.5563157894737,0.2106821261670578,0.84,nominal,18089.727111023858,nan,heading_hold,18.0,-5.0,0.0
2.46,259.9515225228016,8.287093917140863,1028.6297964471892,126.48805106520156,5.7439290452184135,10.296126035656886,127.03633336369431,18.488733614576336,28.413152843333705,13.37044124790335,10.667066151167077,23.681623050265625,-1.3951857404131216,5.1088214806430905,2.3239319613180074,-13.850330565987292,9285.762232873589,0.3848537302610662,129.4350871019612,1.9583333942952086,1.1085199517376139,89562.8940116296,281.4639063230932,-2.530352273188372,6.706812128563379,-0.036648483929577653,392.5231578947368,0.21066433056555708,0.84,nominal,18156.52739057466,nan,heading_hold,18.0,-5.0,0.0
2.4899999999999998,263.76125438992165,8.46301772160792,1028.9374744037357,126.9910622373342,5.8641268155685955,10.255931884880443,127.53941355637036,18.48241368465937,29.10089856623764,13.482034448051687,10.778206155185044,23.785364507150554,-1.527444171657713,4.948667461411599,2.2040192189090284,-14.104255635549993,9347.363161227866,0.38613537307299234,129.86567143625996,1.9582835777540673,1.1084864308990965,89559.54933599965,281.4619064163757,-2.4639830331220405,6.970443021089426,-0.0036946223638218215,392.49,0.2106465349640564,0.84,nominal,18223.580688512826,nan,heading_hold,18.0,-5.0,0.0
2.52,267.5860749358637,8.642649056613617,1029.2438999049152,127.4940181980677,5.987711166856561,10.214183372651553,128.0425980026845,18.476094288610447,29.79325842307879,13.595988349754176,10.881623383366962,23.885998366696988,-1.6601373696234514,4.785966836400714,2.084200342174734,-14.350668620407355,9409.167034513544,0.38741701964860875,130.29625585632056,1.9583512502920914,1.1084530472835898,89556.21837596383,281.45991465061803,-2.397583521747627,7.234202513580002,0.02927531419750026,392.45684210526315,0.21062873936255563,0.84,nominal,18290.88814264107,nan,heading_hold,18.0,-5.0,0.0
2.55,271.4259824562699,8.826089351731481,1029.5490272219079,127.99691734687316,6.114676503928781,10.170910566421604,128.54589663151495,18.46977542642957,30.490185970235277,13.712111030243,10.977207710044931,23.983351662324043,-1.7927334816680986,4.621221152317,1.9647964771363169,-14.589066198304135,9471.214064632637,0.3886994939115741,130.72711755123942,1.958537336581766,1.1084198058634205,89552.90162735696,281.45793132305755,-2.331440706578922,7.4969430103528625,0.062117876294107824,392.4236842105263,0.2106109437610549,0.84,nominal,18358.450738205785,nan,heading_hold,18.0,-5.0,0.0
2.58,275.28097513933204,9.013439584677014,1029.8528118386766,128.49975610207284,6.24500776485113,10.126153892295568,129.04931783208198,18.463457098116738,31.19162592910582,13.830199720586897,11.064874275386074,24.077269538594027,-1.9246843124642832,4.4549301475819645,1.8461326000046074,-14.818980964581948,9533.544011498538,0.38998359981714215,131.15852698956468,1.9588412456706843,1.1083867114783765,89549.59957277695,281.4559567230486,-2.265840444919072,7.757521349291653,0.0946901686614566,392.3905263157895,0.2105931481595542,0.84,nominal,18426.269293680612,nan,heading_hold,18.0,-5.0,0.0
2.61,279.1510510063741,9.204799985771071,1030.1552107605012,129.00252890140035,6.37868003646859,10.079964060818966,129.55286834891646,18.45713930367195,31.897513398112466,13.95004152292621,11.144564150414462,24.167585362255647,-2.0554290661470964,4.2875899106564,1.728535421628489,-15.039983519892186,9596.19606331046,0.3912701192185204,131.59074720137912,1.959260810217317,1.1083537688021183,89546.31267823391,281.4539911300567,-2.201066239946881,8.014803775649469,0.12685047195618362,392.3573684210526,0.21057535255805349,0.84,nominal,18494.344446320305,nan,heading_hold,18.0,-5.0,0.0
2.6399999999999997,283.0362078527158,9.400269731999312,1030.4561828177382,129.50522821138964,6.515658207608015,10.032401907900692,130.0565531759324,18.45082204309521,32.60777333031529,14.071414238485364,11.216244899387833,24.254129593408805,-2.1843981290659125,4.119691112466048,1.6123311506974247,-15.251684367032833,9659.2087331661,0.3925598100920579,132.02403318107693,1.9597922519164577,1.108320982309117,89543.04138985222,281.45203481168465,-2.137398007042951,8.267670874921768,0.1584588593652209,392.32421052631577,0.21055755695655273,0.84,nominal,18562.676637231638,nan,heading_hold,18.0,-5.0,0.0
2.67,286.9364431891081,9.599946632021622,1030.755688962161,130.00784454641075,6.655896667410287,9.983538147425353,130.5603754513292,18.444505316386515,33.32232057848619,14.19408730937585,11.279911027704022,24.336748512604977,-2.3110171813446225,3.9517173291579475,1.4978430507238572,-15.453735606398977,9722.619771211626,0.3938534050986665,132.4586314032359,1.9604301759506668,1.1082883562423957,89539.78613065278,281.45008802174596,-2.075110855725242,8.515022443326066,0.18937780541575827,392.2910526315789,0.210539761355052,0.84,nominal,18631.266096156796,nan,heading_hold,18.0,-5.0,0.0
2.6999999999999997,290.85175418408204,9.803926803778912,1031.0536925530703,130.51036649913053,6.7993390585763684,9.933453030306547,131.0643363561429,18.438189123545865,34.04106022364675,14.317822888553572,11.335584293141721,24.415313171478548,-2.4347121542358736,3.7841434365529687,1.3853889030124216,-15.645832401507976,9786.46609129536,0.3951516104548213,132.8947794426218,1.9611675971472435,1.108255894582394,89536.5472974474,281.448150998405,-2.014473892496055,8.755782274697358,0.21947278433716985,392.2578947368421,0.2105219657535513,0.84,nominal,18700.112826313645,nan,heading_hold,18.0,-5.0,0.0
2.73,294.78213760756637,10.01230434657869,1031.3501596303804,131.01278078281138,6.945918093325918,9.882235910340702,131.56843501840328,18.431873464573258,34.76388787675433,14.442377021904973,11.383313874817949,24.489717803897182,-2.5549139337643347,3.6174340283894093,1.2752784718926675,-15.827714190765299,9850.783710644313,0.3964551050781836,133.3327056865705,1.9619959978673425,1.108223601017263,89533.32525787604,281.4462239624025,-1.9557490498114474,8.988902842971928,0.24861285537149103,392.22473684210524,0.21050417015205058,0.84,nominal,18769.21658953517,nan,heading_hold,18.0,-5.0,0.0
2.76,298.72758977612074,10.225171009740784,1031.6450591719802,131.51507228514524,7.095555438736484,9.82998471998872,132.07266842441842,18.425558339468697,35.49068987506878,14.567500922133098,11.423176397637171,24.559875441003364,-2.6710626646489906,3.4520418468626333,1.1678110085116806,-15.999165632982558,9915.607700734845,0.3977645399667806,133.77262912593847,1.9632806025673326,1.1081914789148628,89530.12034761425,281.4443071153821,-1.8991899462704367,9.213369859886374,0.2766712324857966,392.1915789473684,0.21048637455054983,0.84,nominal,18838.576891902085,nan,heading_hold,18.0,-5.0,0.0
2.79,302.6881006917784,10.44263053711706,1031.9383740550231,132.01703052192167,7.248650912542541,9.77716276809712,132.57689165036177,18.41924374823218,36.222147092687884,14.69071985762125,11.452096241100756,24.625716048527245,-2.7826121836349578,3.161918073022107,1.0632813018630858,-16.15596247012165,9980.945984294567,0.39908001497387857,134.21458337242555,1.9647636607942507,1.1081595301288756,89526.93275125802,281.4424005686423,-1.8450407669020268,9.428206688061755,0.3035258360077193,392.1584210526316,0.21046857894904913,0.84,nominal,18908.174555762576,nan,heading_hold,18.0,-5.0,0.0
2.82,306.66365820277707,10.664789525869157,1032.230092465254,132.5185836999551,7.405299625069884,9.72394700769971,133.0810603872227,18.41292969086371,36.9596717089843,14.810932975192285,11.463940156211214,24.685019209113126,-2.989834149153276,2.6952221442391955,0.9651113194075229,-16.292558962297228,10046.823410442928,0.40040196578788956,134.6587149739167,1.9662510099484634,1.1081277559346747,89523.76259570177,281.4405043989758,-1.7935352137341565,9.63247859027185,0.32905982378398124,392.1252631578947,0.2104507833475484,0.84,nominal,18978.00355316819,nan,heading_hold,18.0,-5.0,0.0
2.85,310.6542498809351,10.891744669431727,1032.5202082527069,133.01972260526694,7.56517145208564,9.67052624842661,133.5851694575529,18.406616167363282,37.70461131030487,14.926812342129518,11.452562421193559,24.734345200943352,-3.2936825693861853,2.051022346370229,0.8767502261885006,-16.40359304587124,10113.274344242685,0.40173101125270455,135.1052320645607,1.9675782034172928,1.1080961569906438,89520.60994628105,281.4386186463574,-1.7448954885191075,9.82529679640733,0.35316209955091615,392.0921052631579,0.2104329877460477,0.84,nominal,19048.063049762968,nan,heading_hold,18.0,-5.0,0.0
2.88,314.6598639944278,11.123573512127653,1032.8087220745056,133.52047044975694,7.7276280898641785,9.617127393286356,134.08922926289932,18.4003031777309,38.45791706185544,15.036381651701143,11.413139195394658,24.770830450514577,-3.657908899453435,1.2534705257606096,0.8005629082764543,-16.484579921942522,10180.33832486226,0.40306786437034686,135.55437443144524,1.9685980344955711,1.1080647332137763,89517.47479436334,281.43674330651567,-1.699331324278044,10.005822370440791,0.37572779630509884,392.05894736842106,0.210415192144547,0.84,nominal,19118.354356491138,nan,heading_hold,18.0,-5.0,0.0
2.9099999999999997,318.6804904520809,11.360328863058955,1033.095640730969,134.02088192177084,7.891845031043423,9.563955215448988,134.59326598476744,18.393990721966563,39.22024539730801,15.138135110098649,11.341865405625404,24.792897686964228,-4.08056749080119,0.34036974922914454,0.7388793850704425,-16.53228678390553,10248.059016065365,0.4044133099191097,136.0064059878346,1.9691890587204222,1.108033483852068,89514.35706457299,281.4348783352487,-1.6570390737615779,10.173269860567874,0.3966587325709843,392.0257894736842,0.21039739654304623,0.84,nominal,19188.880989397534,nan,heading_hold,18.0,-5.0,0.0
2.94,322.71612120404484,11.602033520658733,1033.3809778909206,134.52102506546402,8.05682191999257,9.511238665051303,135.09730650556006,18.387678800070272,39.99186551227264,15.230950068208198,11.23637516640695,24.799987274979422,-4.547150657321547,-0.6422466421823482,0.693567375704472,-16.544957233940405,10316.481876167074,0.4057681573246818,136.4615989218657,1.9692541697993295,1.1080024074055883,89511.25660691879,281.433023643709,-1.618200854002887,10.32691071664293,0.41586383958036627,391.99263157894734,0.2103796009415455,0.84,nominal,19259.646679362617,nan,heading_hold,18.0,-5.0,0.0
2.9699999999999998,326.76675033631307,11.848676174986903,1033.664754875115,135.0209710756079,8.221421810939015,9.459232806482971,135.6013698016387,18.381367412042025,40.77255509520232,15.31387171248396,11.096154716392961,24.79215775496618,-5.026871385199164,-1.6438962884645392,0.6655186167919893,-16.52241849392479,10385.65238444167,0.4071332053396013,136.9202218166227,1.9687302917587863,1.107971501541243,89508.17318829261,281.43117909331175,-1.5829837526772574,10.46607646004028,0.43325955750503514,391.9594736842105,0.21036180534004478,0.84,nominal,19330.65421443643,nan,heading_hold,18.0,-5.0,0.0
