time_s,x_m,y_m,altitude_m,vx_mps,vy_mps,vz_mps,speed_mps,mass_kg,roll_deg,pitch_deg,yaw_deg,p_dps,q_dps,r_dps,alpha_deg,beta_deg,qbar_pa,mach,airspeed_mps,load_factor_g,density_kgpm3,pressure_pa,temperature_k,wind_x_mps,wind_y_mps,wind_z_mps,thrust_n,mass_flow_kgps,propulsion_throttle_actual,propulsion_health,energy_j_per_kg,target_distance_m,guidance_mode,pitch_command_deg,heading_command_deg,roll_command_deg,elevator_command_deg,aileron_command_deg,rudder_command_deg,elevator_deg,aileron_deg,rudder_deg,throttle,elevator_saturated,aileron_saturated,rudder_saturated,elevator_failed,aileron_failed,rudder_failed,elevator_raw_rad,aileron_raw_rad,rudder_raw_rad,elevator_effective_rad,aileron_effective_rad,rudder_effective_rad,sensor_time_s,imu_valid,imu_ax_mps2,imu_ay_mps2,imu_az_mps2,gyro_p_rps,gyro_q_rps,gyro_r_rps,imu_accel_norm_mps2,imu_gyro_norm_rps,gps_valid,gps_latency_s,gps_x_m,gps_y_m,gps_z_m,gps_vx_mps,gps_vy_mps,gps_vz_mps,baro_valid,baro_alt_m,baro_bias_m,pitot_valid,pitot_airspeed_mps,pitot_qbar_pa,pitot_compressibility_factor,mag_valid,mag_heading_deg,mag_x_ut,mag_y_ut,mag_z_ut,radar_valid,radar_agl_m,optical_flow_valid,optical_flow_x_radps,optical_flow_y_radps,optical_flow_quality,horizon_valid,horizon_roll_deg,horizon_pitch_deg
0.0,0.0,0.0,20.0,85.0,0.0,8.0,85.37564055396598,18.0,0.0,6.000000000000002,0.0,0.0,0.0,0.0,0.623294571949261,0.0,4455.946741876431,0.2509445034436674,85.37564055396597,1.7460191153368827,1.2226496753673843,101084.96761777384,288.02,0.0,0.0,0.0,326.8,0.17539118863220368,0.86,nominal,3840.633,nan,pitch_program,13.0,0.0,0.0,-20.05352282957881,-0.0,0.0,-2.6999999999999997,0.0,0.0,0.86,0.0,0.0,0.0,0.0,0.0,0.0,-0.047123889803846894,0.0,0.0,-0.047123889803846894,0.0,0.0,0.0,1.0,17.089474510188992,-0.04331266066330364,0.17662148382067971,0.0016677683591043149,0.0011681274632859406,0.0012765720485123657,17.090442070628836,0.00240324973008537,1.0,0.0,-1.885154541229685,1.8645638091475825,21.162662438547994,85.32748210022089,0.18147237523479218,7.846341299741817,1.0,20.771163472887363,0.0,1.0,85.6269982596741,4465.519226242078,1.0,1.0,-0.8198733225718878,19.523475325297145,-0.00615746722134172,-43.81279554351524,1.0,20.39618647858491,1.0,-0.0077448575321814855,4.273240466216326,0.95,1.0,0.17459483210835952,5.697481511065039
0.03,2.5653075616539396,0.0,20.23295089060798,85.51025205513132,0.0,7.765029686932638,85.86209229090004,17.994738264341034,0.0,6.265582975204377,0.0,0.0,-8.852781691043555,0.0,1.0768889448804941,0.0,4506.768587835821,0.25237499376300476,85.86209229090004,1.7743108870921553,1.222622319986844,101082.17454514331,288.01848581921104,0.0,0.0,0.0,332.605,0.1785066900092231,0.86,nominal,3884.5669141368985,nan,pitch_program,12.985,0.0,0.0,-0.5455355549596735,-0.0,0.0,-1.407321332975804,0.0,0.0,0.86,0.0,0.0,0.0,0.0,0.0,0.0,-0.024562390893983228,0.0,0.0,-0.024562390893983228,0.0,0.0,0.03,1.0,17.3962452862122,-0.024205067786461216,0.688627239720865,0.001972178925766813,-0.15518944895900577,0.0016995476198838452,17.409886370067216,0.15521128509237772,1.0,0.0,-1.885154541229685,1.8645638091475825,21.162662438547994,85.32748210022089,0.18147237523479218,7.846341299741817,1.0,20.771163472887363,0.0,1.0,85.44841255458797,4493.766976450421,1.0,1.0,-0.8198733225718878,19.523475325297145,-0.00615746722134172,-43.81279554351524,1.0,20.39618647858491,1.0,-0.0077448575321814855,4.273240466216326,0.95,1.0,0.17459483210835952,5.697481511065039
0.06,5.146102795330778,0.0,20.45939294282564,86.02650778922796,0.0,7.54806840725539,86.35701117506734,17.98938306364076,0.0,6.5771317070121285,0.0,0.0,-10.384983314638712,0.0,1.56277306685444,0.0,4558.774230517912,0.2538303605667935,86.35701117506736,1.803494440501083,1.2225957293868015,101079.45957314344,288.0170139458716,0.0,0.0,0.0,338.40999999999997,0.18162219138624247,0.86,nominal,3929.404795348114,nan,pitch_program,12.97,0.0,0.0,0.16976414793137107,-0.0,0.0,-0.46107004443149896,0.0,0.0,0.86,0.0,0.0,0.0,0.0,0.0,0.0,-0.008047190357646204,0.0,0.0,-0.008047190357646204,0.0,0.0,0.06,1.0,17.704006294798113,-0.048625240197861,1.2236148678348648,-0.003446139225741984,-0.18272111010679384,-0.00034689119184351384,17.74630769047528,0.18275393371339851,1.0,0.0,-1.885154541229685,1.8645638091475825,21.162662438547994,85.32748210022089,0.18147237523479218,7.846341299741817,1.0,20.526029304428423,0.0,1.0,85.93804450466565,4525.838509978779,1.0,1.0,0.07665381874344163,19.051633640018895,-0.026858555853548426,-44.01670154844924,1.0,20.44437918505562,1.0,0.00018197912592243334,4.2191320580192055,0.9488515176429358,1.0,-0.15907090264631085,6.398144082080089
0.09,7.742554552548879,0.0,20.679880257210876,86.54839190727003,0.0,7.349577146174434,86.85988962669694,17.983934397899173,0.0,6.769857648755731,0.0,0.0,-6.424204115338793,0.0,1.9160193511248047,0.0,4611.924913418138,0.2553091133813042,86.85988962669694,1.833254469128029,1.222569838463865,101076.81605339547,288.0155807783281,0.0,0.0,0.0,344.215,0.18473769276326188,0.86,nominal,3975.120560705364,nan,pitch_program,12.955,0.0,0.0,-1.1038882472344203,-0.0,0.0,-0.8467609661132517,0.0,0.0,0.86,0.0,0.0,0.0,0.0,0.0,0.0,-0.014778766836044373,0.0,0.0,-0.014778766836044373,0.0,0.0,0.09,1.0,17.977928727385894,-0.01094183278357201,1.4143958341450533,0.0004011470069548937,-0.11381451894947815,0.0025448602353110453,18.03348431741128,0.11384367332548426,1.0,0.0,-1.885154541229685,1.8645638091475825,21.162662438547994,85.32748210022089,0.18147237523479218,7.846341299741817,1.0,20.526029304428423,0.0,1.0,87.23038722860076,4643.928202436921,1.0,1.0,0.07665381874344163,19.051633640018895,-0.026858555853548426,-44.01670154844924,1.0,20.44437918505562,1.0,0.00018197912592243334,4.2191320580192055,0.9488515176429358,1.0,-0.15907090264631085,6.398144082080089
0.12,10.354871071123615,0.0,20.894721375606967,87.0772172858245,0.0,7.161370613203007,87.3712023455231,17.978392267116273,0.0,6.867809169033811,0.0,0.0,-3.2650514711533876,0.0,2.1662927738951416,0.0,4666.285902245958,0.2568126482753906,87.37120234552309,1.8633095735303018,1.2225446109541038,101074.2402822338,288.01418431105856,0.0,0.0,0.0,350.02,0.1878531941402813,0.86,nominal,4021.7707190292667,nan,pitch_program,12.94,0.0,0.0,-2.1499808203415998,-0.0,0.0,-1.6286928786502606,0.0,0.0,0.86,0.0,0.0,0.0,0.0,0.0,0.0,-0.028426053236231506,0.0,0.0,-0.028426053236231506,0.0,0.0,0.12,1.0,18.243749351799643,-0.01413003862604277,1.5290865305656438,0.0017811967641120853,-0.05630955554400065,-0.0028376729027249836,18.307722296540298,0.05640914017230042,1.0,0.0,-1.885154541229685,1.8645638091475825,21.162662438547994,85.32748210022089,0.18147237523479218,7.846341299741817,1.0,20.835296551368934,0.0,1.0,87.26350873265253,4712.60400698869,1.0,1.0,-1.8951218293581098,18.840834155859998,-0.005790965511073151,-44.081409544691695,1.0,20.159613391730442,1.0,-0.013840283315854317,4.181138701960757,0.9477631965609826,1.0,0.28335723464815654,7.474549068298338
0.15,12.983287111814269,0.0,21.104092345727974,87.61386802302182,0.0,6.979032337366907,87.89139185563907,17.972756671292064,0.0,6.952659786171766,0.0,0.0,-2.8283544215113765,0.0,2.3982831362847694,0.0,4721.920495956509,0.2583422663816928,87.89139185563906,1.8938985924963303,1.2225200261543614,101071.73014486139,288.01282339975273,0.0,0.0,0.0,355.825,0.1909686955173007,0.86,nominal,4069.4088283629826,nan,pitch_program,12.925,0.0,0.0,-2.2504917766714114,-0.0,0.0,-2.001772217462951,0.0,0.0,0.86,0.0,0.0,0.0,0.0,0.0,0.0,-0.034937516069676426,0.0,0.0,-0.034937516069676426,0.0,0.0,0.15,1.0,18.542976454613253,-0.03605765477427094,1.68967948224919,-0.00013304420042076212,-0.049497236971823344,-0.0016289172586783655,18.61983600098409,0.04952421165490392,1.0,0.0,-1.885154541229685,1.8645638091475825,21.162662438547994,85.32748210022089,0.18147237523479218,7.846341299741817,1.0,20.835296551368934,0.0,1.0,87.53960925208372,4739.75326123941,1.0,1.0,-1.8951218293581098,18.840834155859998,-0.005790965511073151,-44.081409544691695,1.0,20.159613391730442,1.0,-0.013840283315854317,4.181138701960757,0.9477631965609826,1.0,0.28335723464815654,7.474549068298338
0.18,15.628035020914421,0.0,21.30819810597334,88.15826363667178,0.0,6.8035253415122385,88.42040151744123,17.967027610426545,0.0,7.050154030887685,0.0,0.0,-3.2498089413295848,0.0,2.637157007443903,0.0,4778.839424101712,0.25989780171960997,88.42040151744125,1.9249648951541611,1.2224960599712198,101069.28318039863,288.01149671231116,0.0,0.0,0.0,361.63,0.19408419689432013,0.86,nominal,4118.045743208706,nan,pitch_program,12.91,0.0,0.0,-2.043501892080273,-0.0,0.0,-2.026810022233344,0.0,0.0,0.86,0.0,0.0,0.0,0.0,0.0,0.0,-0.03537450820039133,0.0,0.0,-0.03537450820039133,0.0,0.0,0.18,1.0,18.748352535464466,-0.04780444576139571,1.9094903084461845,0.00013974800767314763,-0.059288645402648284,-0.0008869940367906495,18.84540159553893,0.059295444695253934,1.0,0.0,-1.885154541229685,1.8645638091475825,21.162662438547994,85.32748210022089,0.18147237523479218,7.846341299741817,1.0,20.0823052968037,0.0,1.0,88.03081168945901,4843.1409969445385,1.0,1.0,-0.5428950996559269,18.72998768441606,0.02966309435753329,-44.221196232889284,1.0,21.36183192733054,1.0,0.006974051956994979,4.138845238767417,0.9467295047350667,1.0,-0.5040599611879599,6.692412068389966
0.21,18.2893387682678,0.0,21.50729297766976,88.71012491177933,0.0,6.636495723214,88.95802008446303,17.961205084519715,0.0,7.1388448882073625,0.0,0.0,-2.9563625009777796,0.0,2.8604583918585416,0.0,4837.036718594321,0.2614786340142686,88.95802008446306,1.956226719167011,1.2224726825150012,101066.89633623611,288.0102025956451,0.0,0.0,0.0,367.435,0.19719969827133954,0.86,nominal,4167.679163353329,nan,pitch_program,12.895,0.0,0.0,-2.091594910719071,-0.0,0.0,-2.06568095532478,0.0,0.0,0.86,0.0,0.0,0.0,0.0,0.0,0.0,-0.03605293396615931,0.0,0.0,-0.03605293396615931,0.0,0.0,0.21,1.0,19.039183827716847,0.06045326675660328,2.1094659377036757,-0.0011844703614280934,-0.04988825422240432,0.0010356537480328346,19.15578299014134,0.04991305899343536,1.0,0.0,18.15849798223063,-0.8507156713177079,22.528518510000584,88.79108600883337,-0.10696639449047544,6.69607322486291,1.0,20.0823052968037,0.0,1.0,88.81116166963318,4833.558087321833,1.0,1.0,-0.5428950996559269,18.72998768441606,0.02966309435753329,-44.221196232889284,1.0,21.36183192733054,1.0,0.006974051956994979,4.138845238767417,0.9467295047350667,1.0,-0.5040599611879599,6.692412068389966
0.24,20.967424075221082,0.0,21.701621623163867,89.269510231776,0.0,6.477621516470243,89.50421798737642,17.955289093571576,0.0,7.202145676246589,0.0,0.0,-2.1100264825988035,0.0,3.051892892992989,0.0,4896.526013452999,0.2630846769795173,89.50421798737642,1.987505677373272,1.222449865032572,101064.56667588095,288.00893945944944,0.0,0.0,0.0,373.24,0.20031519964835895,0.86,nominal,4218.322726456699,nan,pitch_program,12.88,0.0,0.0,-2.347370694519531,-0.0,0.0,-2.234694798841631,0.0,0.0,0.86,0.0,0.0,0.0,0.0,0.0,0.0,-0.03900278201697882,0.0,0.0,-0.03900278201697882,0.0,0.0,0.24,1.0,19.340020882448126,-0.05931437453800777,2.311370495688182,0.0004014737785476082,-0.036782937998071294,0.0011573760834501412,19.477740102406496,0.036803331756287506,1.0,0.0,18.15849798223063,-0.8507156713177079,22.528518510000584,88.79108600883337,-0.10696639449047544,6.69607322486291,1.0,22.18547230163528,0.0,1.0,89.4571820283734,4891.12171085949,1.0,1.0,-0.9874075351661772,18.642365238577856,-0.01105574941250553,-44.295505313039946,1.0,21.597930179006728,1.0,0.015553992101837083,4.126186188410609,0.9457459459420904,1.0,-0.5929147826834491,7.158880621929557
0.27,23.662524766079883,0.0,21.89138905779154,89.83668969529339,0.0,6.325581154255717,90.05911276682393,17.949279637582126,0.0,7.244949753675297,0.0,0.0,-1.4268026473171347,0.0,3.2172866308002472,0.0,4957.337345563058,0.26471627662883895,90.05911276682392,2.0188620647577595,1.2224275834281781,101062.29173842544,288.0077059711243,0.0,0.0,0.0,379.045,0.20343070102537836,0.86,nominal,4270.003086677345,nan,pitch_program,12.865,0.0,0.0,-2.557500746589745,-0.0,0.0,-2.4283783674904993,0.0,0.0,0.86,0.0,0.0,0.0,0.0,0.0,0.0,-0.04238319799691404,0.0,0.0,-0.04238319799691404,0.0,0.0,0.27,1.0,19.55241013583741,-0.02835453910261265,2.4549108241171047,0.0019072580176267414,-0.022790394621487586,-0.002090558849283284,19.70594157238503,0.02296541217682035,1.0,0.0,18.15849798223063,-0.8507156713177079,22.528518510000584,88.79108600883337,-0.10696639449047544,6.69607322486291,1.0,22.18547230163528,0.0,1.0,90.12867658811003,4961.80565607893,1.0,1.0,-0.9874075351661772,18.642365238577856,-0.01105574941250553,-44.295505313039946,1.0,21.597930179006728,1.0,0.015553992101837083,4.126186188410609,0.9457459459420904,1.0,-0.5929147826834491,7.158880621929557
0.3,26.374880403211414,0.0,22.076776224256214,90.41185457105098,0.0,6.1795722154892125,90.62279271653085,17.943176716551363,0.0,7.277690426303068,0.0,0.0,-1.0913557839561392,0.0,3.3676545021171953,0.0,5019.498113821448,0.26637369294601315,90.62279271653087,2.0503817206300243,1.2224058164344074,101060.06935179132,288.00650095454233,0.0,0.0,0.0,384.84999999999997,0.20654620240239774,0.86,nominal,4322.744497431261,nan,pitch_program,12.850000000000001,0.0,0.0,-2.6515157486730443,-0.0,0.0,-2.562260796200026,0.0,0.0,0.86,0.0,0.0,0.0,0.0,0.0,0.0,-0.04471988718846187,0.0,0.0,-0.04471988718846187,0.0,0.0,0.3,1.0,19.93320480856912,-0.023144794989114953,2.596322958732041,-0.0006483740193760299,-0.02130486512718926,0.0011196854561373627,20.10159402952754,0.021344117748864962,1.0,0.0,18.15849798223063,-0.8507156713177079,22.528518510000584,88.79108600883337,-0.10696639449047544,6.69607322486291,1.0,22.08313854321062,0.0,1.0,90.39901006174803,5033.646704045028,1.0,1.0,-0.032100222264470346,18.477136413847127,-0.006038005167106243,-44.293761672141954,1.0,21.913765604767796,1.0,0.0042634016461290366,4.091608988231679,0.9448080594393594,1.0,0.49262759900427344,7.872066178603733
0.32999999999999996,29.104732386767928,0.0,22.257959823558302,90.99506611855047,0.0,6.039453310069586,91.19526881480137,17.93698033047929,0.0,7.303487866736451,0.0,0.0,-0.8599146956399193,0.0,3.5062664593677413,0.0,5083.027622042671,0.26805695865106877,91.19526881480137,2.0820328417083953,1.2223845432835354,101057.89739497,288.0053232611468,0.0,0.0,0.0,390.655,0.20966170377941715,0.86,nominal,4376.56454880564,nan,pitch_program,12.835,0.0,0.0,-2.71299246642845,-0.0,0.0,-2.6526997983370806,0.0,0.0,0.86,0.0,0.0,0.0,0.0,0.0,0.0,-0.04629834554797166,0.0,0.0,-0.04629834554797166,0.0,0.0,0.32999999999999996,1.0,20.1726103381906,-0.05396740755448139,2.788681326210101,-0.0008335127957680589,-0.014515459212089802,0.0009767482210283772,20.364524641560024,0.014572142491954774,1.0,0.0,18.15849798223063,-0.8507156713177079,22.528518510000584,88.79108600883337,-0.10696639449047544,6.69607322486291,1.0,22.08313854321062,0.0,1.0,90.88954237753045,5073.143555770167,1.0,1.0,-0.032100222264470346,18.477136413847127,-0.006038005167106243,-44.293761672141954,1.0,21.913765604767796,1.0,0.0042634016461290366,4.091608988231679,0.9448080594393594,1.0,0.49262759900427344,7.872066178603733
0.36,31.852323385447562,0.0,22.435113787201974,91.58636662265451,0.0,5.9051321214557,91.77653913997374,17.930690479365907,0.0,7.320499398763066,0.0,0.0,-0.5670510717194943,0.0,3.6313971640678586,0.0,5147.944040143616,0.26976606854395146,91.77653913997375,2.113736933754971,1.2223637435345824,101055.77378036235,288.00417176038314,0.0,0.0,0.0,396.46,0.21277720515643656,0.86,nominal,4431.4798768768305,nan,pitch_program,12.82,0.0,0.0,-2.8008679746361356,-0.0,0.0,-2.7416007041165136,0.0,0.0,0.86,0.0,0.0,0.0,0.0,0.0,0.0,-0.04784995906182802,0.0,0.0,-0.04784995906182802,0.0,0.0,0.36,1.0,20.561912914183203,0.04056869726443273,2.87625530702923,-0.0017116473741721086,-0.010409411093186986,0.0002472742290717788,20.762147121645814,0.01055209555419385,1.0,0.0,18.15849798223063,-0.8507156713177079,22.528518510000584,88.79108600883337,-0.10696639449047544,6.69607322486291,1.0,22.998145062383625,0.0,1.0,91.39166828439694,5125.455088274733,1.0,1.0,0.24703569469091746,18.559120186840172,0.05777323077028381,-44.33059107617996,1.0,22.233176215361368,1.0,0.008474791280591054,4.087009805030356,0.9439122155319951,1.0,-0.12522865530984933,7.106563010808354
0.39,34.6178985816038,0.0,22.60840246373549,92.18583987187449,0.0,5.7762892177839165,92.36663136658373,17.924307163211214,0.0,7.328209812428511,0.0,0.0,-0.2570137892359981,0.0,3.74279062118687,0.0,5214.269160214867,0.27150110439609804,92.36663136658373,2.1454644074196327,1.2223433978731821,101053.69653544045,288.0030453839857,0.0,0.0,0.0,402.265,0.21589270653345596,0.86,nominal,4487.509985026177,nan,pitch_program,12.805,0.0,0.0,-2.899949265020807,-0.0,0.0,-2.8366098406590896,0.0,0.0,0.86,0.0,0.0,0.0,0.0,0.0,0.0,-0.04950818131397283,0.0,0.0,-0.04950818131397283,0.0,0.0,0.39,1.0,20.830869612003703,-0.03998306635079582,3.0277103011390483,-0.004200210305302578,-0.0043742695198172935,0.0021403138457621635,21.049792329272933,0.006430936463621283,1.0,0.0,18.15849798223063,-0.8507156713177079,22.528518510000584,88.79108600883337,-0.10696639449047544,6.69607322486291,1.0,22.998145062383625,0.0,1.0,91.5437532049669,5181.324990676532,1.0,1.0,0.24703569469091746,18.559120186840172,0.05777323077028381,-44.33059107617996,1.0,22.233176215361368,1.0,0.008474791280591054,4.087009805030356,0.9439122155319951,1.0,-0.12522865530984933,7.106563010808354
0.42,37.401706054280346,0.0,22.777978925469696,92.79358242255162,0.0,5.652548724473485,92.96558635265755,17.91783038201521,0.0,7.3284497754851765,0.0,0.0,-0.007998768555572236,0.0,3.8425676917195424,0.0,5282.026640315771,0.2732621867022447,92.96558635265757,2.1553247085572536,1.222323488310257,101051.66382302795,288.00194313698444,0.0,0.0,0.0,404.1773684210526,0.21691906078826353,0.86,nominal,4544.6757899761715,nan,pitch_program,12.79,0.0,0.0,-2.981847072984902,-0.0,0.0,-2.923752180054577,0.0,0.0,0.86,0.0,0.0,0.0,0.0,0.0,0.0,-0.05102910205431445,0.0,0.0,-0.05102910205431445,0.0,0.0,0.42,1.0,20.87315876297865,-0.028261817516269515,3.1770345342617268,-4.435109278206495e-05,0.001061346198304281,0.001005012113417697,21.113576293625233,0.001462351572024395,1.0,0.0,38.988745448728594,0.8561697855581142,23.1065288677339,92.8138496939187,-0.01429878191719496,5.640911620271574,1.0,23.176918321505195,0.0,1.0,93.15528767286084,5284.125445045239,1.0,1.0,1.0151129233973093,18.49051645933245,0.018258774712861983,-44.25501688202764,1.0,22.711950207715102,1.0,0.016688064665782515,4.0626337826286045,0.9430550526863257,1.0,0.4032278623625569,6.957532777190292
0.44999999999999996,40.203802183417956,0.0,22.943963429766317,93.40320430458709,0.0,5.5328168098873975,93.56693131772683,17.911322810191564,0.0,7.323036321096397,0.0,0.0,0.18044847976033979,0.0,3.933034310933877,0.0,5350.495586975578,0.27503028969699345,93.56693131772681,2.15430524103397,1.2223040007106458,101049.67419946019,288.0008642377065,0.0,0.0,0.0,404.14342105263154,0.21690084148196515,0.86,nominal,4602.388737076622,nan,pitch_program,12.775,0.0,0.0,-3.045706322526947,-0.0,0.0,-2.996924665537999,0.0,0.0,0.86,0.0,0.0,0.0,0.0,0.0,0.0,-0.05230620284786792,0.0,0.0,-0.05230620284786792,0.0,0.0,0.44999999999999996,1.0,20.90112582067806,0.03480239865722864,3.3039869077323387,0.003273383298076893,0.0052070048426156425,0.0006495057299919682,21.160685273998904,0.006184641892659906,1.0,0.0,38.988745448728594,0.8561697855581142,23.1065288677339,92.8138496939187,-0.01429878191719496,5.640911620271574,1.0,23.176918321505195,0.0,1.0,93.14741702577348,5387.170377817355,1.0,1.0,1.0151129233973093,18.49051645933245,0.018258774712861983,-44.25501688202764,1.0,22.711950207715102,1.0,0.016688064665782515,4.0626337826286045,0.9430550526863257,1.0,0.4032278623625569,6.957532777190292
0.48,43.02414799267895,0.0,23.106458328534135,94.01152697536646,0.0,5.416496625593892,94.16743407322474,17.904815784947104,0.0,7.312648417142166,0.0,0.0,0.3462634660894852,0.0,4.015183806181439,0.0,5419.309224343034,0.27679591282399413,94.16743407322474,2.1533502305330248,1.22228492304239,101047.72643583425,287.9998080208645,0.0,0.0,0.0,404.1094736842105,0.2168826221756668,0.86,nominal,4660.3497695350825,nan,pitch_program,12.76,0.0,0.0,-3.1044272047026844,-0.0,0.0,-3.06142618903681,0.0,0.0,0.86,0.0,0.0,0.0,0.0,0.0,0.0,-0.05343196680547467,0.0,0.0,-0.05343196680547467,0.0,0.0,0.48,1.0,20.85354454307478,0.012525986310875077,3.3984537444298457,-0.0009259558692904829,0.006280686125609951,0.002863435715449263,21.128652696359186,0.006964458096421663,1.0,0.0,38.988745448728594,0.8561697855581142,23.1065288677339,92.8138496939187,-0.01429878191719496,5.640911620271574,1.0,24.50204958214582,0.0,1.0,94.01951177406588,5362.170895021896,1.0,1.0,-0.341560527222041,18.478731685670585,-0.01746976429002118,-44.26929602295352,1.0,23.258700006094593,1.0,0.007915542794734144,4.080534376065001,0.9422338541786647,1.0,0.636746191090788,7.661888534840148
0.51,45.862706068962275,0.0,23.265560533791326,94.6186025427776,0.0,5.303406841906418,94.76711492537324,17.898309306281835,0.0,7.297566068241848,0.0,0.0,0.5027449662469963,0.0,4.0894736858346805,0.0,5488.468052026936,0.27855911585386595,94.76711492537322,2.1524420111318956,1.2222662439130834,101045.81936857093,287.9987738565303,0.0,0.0,0.0,404.0755263157895,0.21686440286936848,0.86,nominal,4718.560244848154,nan,pitch_program,12.745,0.0,0.0,-3.162510305012282,-0.0,0.0,-3.1220766586220936,0.0,0.0,0.86,0.0,0.0,0.0,0.0,0.0,0.0,-0.05449051719261854,0.0,0.0,-0.05449051719261854,0.0,0.0,0.51,1.0,20.7992201675015,0.06853486531179354,3.5741628307775177,0.0007061520466158617,0.009717991518556925,-0.0019268357040249766,21.104191444944675,0.009932306162115098,1.0,0.0,38.988745448728594,0.8561697855581142,23.1065288677339,92.8138496939187,-0.01429878191719496,5.640911620271574,1.0,24.50204958214582,0.0,1.0,93.77672304337842,5484.027203095475,1.0,1.0,-0.341560527222041,18.478731685670585,-0.01746976429002118,-44.26929602295352,1.0,23.258700006094593,1.0,0.007915542794734144,4.080534376065001,0.9422338541786647,1.0,0.636746191090788,7.661888534840148
0.54,48.71944059313198,0.0,23.421361195833466,95.22448413899019,0.0,5.193355401404612,95.36599666475516,17.891803374195753,0.0,7.278358567902104,0.0,0.0,0.6402500173208966,0.0,4.156652461939865,0.0,5557.972922418162,0.28031996585027275,95.36599666475517,2.1515749220624776,1.2222479526075907,101043.95190326375,287.99776115222704,0.0,0.0,0.0,404.0415789473684,0.2168461835630701,0.86,nominal,4777.0217517021665,nan,pitch_program,12.73,0.0,0.0,-3.2162642571645184,-0.0,0.0,-3.1785892177475485,0.0,0.0,0.86,0.0,0.0,0.0,0.0,0.0,0.0,-0.0554768474180857,0.0,0.0,-0.0554768474180857,0.0,0.0,0.54,1.0,20.81016157247995,-0.011959623866143985,3.659611261565181,0.00258475109658373,0.01270723472144312,-0.000786372376342729,21.1294988651198,0.012991271454765899,1.0,0.0,38.988745448728594,0.8561697855581142,23.1065288677339,92.8138496939187,-0.01429878191719496,5.640911620271574,1.0,23.598457202979876,0.0,1.0,95.02035147653577,5541.7578185596785,1.0,1.0,0.6010780516446778,18.518451356416158,-0.00910350250981173,-44.214508660499405,1.0,23.615231747791263,1.0,-0.0028495226081697673,4.049874306388246,0.9414465970104163,1.0,0.0064165621930257054,7.158199108065254
0.57,51.594317189747976,0.0,23.573946329665503,95.82921988719987,0.0,5.086171127734555,95.96410016735375,17.885297988688862,0.0,7.255738402542757,0.0,0.0,0.7540055217717881,0.0,4.217594481743699,0.0,5627.8245334121675,0.28207852424097857,95.96410016735375,2.1507480712367926,1.2222300390144363,101042.12300716131,287.99676934885713,0.0,0.0,0.0,404.0076315789474,0.21682796425677175,0.86,nominal,4835.735701238766,nan,pitch_program,12.715,0.0,0.0,-3.263621532332772,-0.0,0.0,-3.2296086064986826,0.0,0.0,0.86,0.0,0.0,0.0,0.0,0.0,0.0,-0.056367303734147944,0.0,0.0,-0.056367303734147944,0.0,0.0,0.57,1.0,20.78428191712786,0.012149172236429435,3.7199469519695767,0.0034063518963941427,0.015848621418460176,-0.0048126073959461535,21.11455724703935,0.01690985582597493,1.0,0.0,38.988745448728594,0.8561697855581142,23.1065288677339,92.8138496939187,-0.01429878191719496,5.640911620271574,1.0,23.598457202979876,0.0,1.0,96.35132827089684,5659.029242074364,1.0,1.0,0.6010780516446778,18.518451356416158,-0.00910350250981173,-44.214508660499405,1.0,23.615231747791263,1.0,-0.0028495226081697673,4.049874306388246,0.9414465970104163,1.0,0.0064165621930257054,7.158199108065254
0.6,54.48730270251185,0.0,23.723397760700667,96.43285042546235,0.0,4.981714367838806,96.56144219729904,17.878793149761158,0.0,7.230246244549451,0.0,0.0,0.8497386137943918,0.0,4.272979111315525,0.0,5698.0231615227885,0.2838348403616169,96.56144219729904,2.149957224385315,1.2222124935147243,101040.33169782489,287.9957979145554,0.0,0.0,0.0,403.9736842105263,0.21680974495047337,0.86,nominal,4894.703118261138,nan,pitch_program,12.7,0.0,0.0,-3.3062855742140913,-0.0,0.0,-3.2756147871279278,0.0,0.0,0.86,0.0,0.0,0.0,0.0,0.0,0.0,-0.05717026306239551,0.0,0.0,-0.05717026306239551,0.0,0.0,0.6,1.0,20.774995062646113,0.03723658218695693,3.870668840226244,-0.00218884881802764,0.019370276835008055,0.0005021721522843135,21.132531407446713,0.019500022068796755,1.0,0.0,38.988745448728594,0.8561697855581142,23.1065288677339,92.8138496939187,-0.01429878191719496,5.640911620271574,1.0,23.92599281464556,0.0,1.0,96.61518206786185,5725.696381486722,1.0,1.0,-2.0884129315731466,18.58759575661169,-0.05198653732366435,-44.299567690247706,1.0,23.301080467972113,1.0,0.0059601927122216744,4.05427347252378,0.9406915055982483,1.0,-0.031199227627410092,7.175357405384559
0.63,57.398365046985575,0.0,23.869793661174747,97.03541148245759,0.0,4.879863349135998,97.15803697006287,17.872288857412645,0.0,7.202257805981638,0.0,0.0,0.9329479708124173,0.0,4.323306452720881,0.0,5768.568832166453,0.28558895605175716,97.15803697006287,2.1491963400871086,1.2221953069191116,101038.5770366922,287.99484634120233,0.0,0.0,0.0,403.9397368421053,0.21679152564417503,0.86,nominal,4953.924785945411,nan,pitch_program,12.685,0.0,0.0,-3.345972018951204,-0.0,0.0,-3.317829126221893,0.0,0.0,0.86,0.0,0.0,0.0,0.0,0.0,0.0,-0.05790704227113857,0.0,0.0,-0.05790704227113857,0.0,0.0,0.63,1.0,20.74336439561763,0.0482501784753116,3.975318234301611,0.000997562163779802,0.01429804217464923,0.0018119332194381364,21.1209055107273,0.014446876558286104,1.0,0.0,57.720465420402796,-1.4405247638228156,24.34009046504872,97.24629459781579,0.11105817103984193,4.846219513471973,1.0,23.92599281464556,0.0,1.0,97.37596020027972,5768.929648115103,1.0,1.0,-2.0884129315731466,18.58759575661169,-0.05198653732366435,-44.299567690247706,1.0,23.301080467972113,1.0,0.0059601927122216744,4.05427347252378,0.9406915055982483,1.0,-0.031199227627410092,7.175357405384559
0.6599999999999999,60.32747312451885,0.0,24.013208805926514,97.63693591777586,0.0,4.780504825058874,97.75389752738394,17.86578511164332,0.0,7.1721267478847395,0.0,0.0,1.0043686263769407,0.0,4.369046253528758,0.0,5839.46147446541,0.28734090969677395,97.75389752738393,2.1484615691561344,1.2221784704377379,101036.8581260059,287.99391414276147,0.0,0.0,0.0,403.9057894736842,0.21677330633787664,0.86,nominal,5013.401375033779,nan,pitch_program,12.67,0.0,0.0,-3.38274136373568,-0.0,0.0,-3.3567764687301653,0.0,0.0,0.86,0.0,0.0,0.0,0.0,0.0,0.0,-0.05858680163280986,0.0,0.0,-0.05858680163280986,0.0,0.0,0.6599999999999999,1.0,20.641899500147492,0.01932912714719676,4.000176875058862,0.0011141667637941386,0.013874091580142254,0.002382543117453245,21.025931694483866,0.01412120024850018,1.0,0.0,57.720465420402796,-1.4405247638228156,24.34009046504872,97.24629459781579,0.11105817103984193,4.846219513471973,1.0,23.954206163063045,0.0,1.0,98.41643655346112,5695.844903659058,1.0,1.0,-1.670335623109286,18.680775158957466,0.0066186895430424015,-44.22761067814199,1.0,24.053879949592865,1.0,0.005384943889153253,4.049022606987774,0.9399669779851837,1.0,-0.05654672738215016,7.6260813757539685
0.69,63.274596727475334,0.0,24.15371489554336,98.23745343188277,0.0,4.683536320561512,98.34903542611566,17.859281912453184,0.0,7.14021322804192,0.0,0.0,1.0637840222634378,0.0,4.410665412158964,0.0,5910.700879363869,0.2890907353138925,98.34903542611566,2.147751090283442,1.2221619756422488,101035.17410493515,287.99300085317896,0.0,0.0,0.0,403.8718421052631,0.21675508703157828,0.86,nominal,5073.133412804058,nan,pitch_program,12.655,0.0,0.0,-3.416317194382013,-0.0,0.0,-3.392500904121274,0.0,0.0,0.86,0.0,0.0,0.0,0.0,0.0,0.0,-0.059210310653800696,0.0,0.0,-0.059210310653800696,0.0,0.0,0.69,1.0,20.67603954893541,0.03405703130360546,4.174319376988394,-0.00024342411824013636,0.019273048062231412,0.002091143341679508,21.093238574757155,0.01938768984138836,1.0,0.0,57.720465420402796,-1.4405247638228156,24.34009046504872,97.24629459781579,0.11105817103984193,4.846219513471973,1.0,23.954206163063045,0.0,1.0,97.59602279927225,5919.703115915634,1.0,1.0,-1.670335623109286,18.680775158957466,0.0066186895430424015,-44.22761067814199,1.0,24.053879949592865,1.0,0.005384943889153253,4.049022606987774,0.9399669779851837,1.0,-0.05654672738215016,7.6260813757539685
0.72,66.2397064297746,0.0,24.291380957576408,98.8369900766421,0.0,4.588868734434998,98.94346023700669,17.852779259842237,0.0,7.106834345048743,0.0,0.0,1.112629464573763,0.0,4.448577204553796,0.0,5982.2866333684115,0.29083846107983213,98.94346023700669,2.1470630674162465,1.2221458144186577,101033.524144762,287.9921060237757,0.0,0.0,0.0,403.8378947368421,0.21673686772527995,0.86,nominal,5133.121232903678,nan,pitch_program,12.64,0.0,0.0,-3.4470251720684923,-0.0,0.0,-3.425215464889605,0.0,0.0,0.86,0.0,0.0,0.0,0.0,0.0,0.0,-0.05978128745255184,0.0,0.0,-0.05978128745255184,0.0,0.0,0.72,1.0,20.612750020330957,-0.007930072127170567,4.267472092055374,0.0025088031883426986,0.019542024644718423,-0.0021429161886015883,21.04986566092927,0.019818600113125837,1.0,0.0,57.720465420402796,-1.4405247638228156,24.34009046504872,97.24629459781579,0.11105817103984193,4.846219513471973,1.0,23.548190343119472,0.0,1.0,98.82346503206703,5964.786778470231,1.0,1.0,0.2874945668536168,18.626495816532476,-0.004236792949381907,-44.19591463130037,1.0,24.86906933165609,1.0,0.005990995406906327,4.066425309572445,0.939271547606059,1.0,-0.44453082773386493,6.758956217549964
0.75,69.22277349119716,0.0,24.42627368191868,99.43556871408532,0.0,4.496424144742355,99.5371797650657,17.84627715381048,0.0,7.072251305828,0.0,0.0,1.1527680090226755,0.0,4.4831300607224325,0.0,6054.218137934052,0.29258410997932843,99.5371797650657,2.14639531916721,1.2221299789279445,101031.90744485766,287.9912292210675,0.0,0.0,0.0,403.80394736842106,0.21671864841898159,0.86,nominal,5193.36499459429,nan,pitch_program,12.625,0.0,0.0,-3.475371812923307,-0.0,0.0,-3.455309273709826,0.0,0.0,0.86,0.0,0.0,0.0,0.0,0.0,0.0,-0.06030652350093041,0.0,0.0,-0.06030652350093041,0.0,0.0,0.75,1.0,20.56365807188193,0.011625204899593356,4.269610955433251,0.0011903280909354376,0.023862671309200067,0.0013521571613500842,21.002231932664195,0.023930572328383214,1.0,0.0,57.720465420402796,-1.4405247638228156,24.34009046504872,97.24629459781579,0.11105817103984193,4.846219513471973,1.0,23.548190343119472,0.0,1.0,99.95779021278167,6037.696857566387,1.0,1.0,0.2874945668536168,18.626495816532476,-0.004236792949381907,-44.19591463130037,1.0,24.86906933165609,1.0,0.005990995406906327,4.066425309572445,0.939271547606059,1.0,-0.44453082773386493,6.758956217549964
0.78,72.22376978103763,0.0,24.55845767048905,100.03320966134925,0.0,4.406132952345717,100.1302004529363,17.83977559435791,0.0,7.036694152443179,0.0,0.0,1.1852384842000687,0.0,4.514634223168201,0.0,6126.494652265964,0.294327700991369,100.13020045293631,2.1457461298072578,1.222114461576709,101030.32322968545,287.9903700251418,0.0,0.0,0.0,403.77,0.21670042911268322,0.86,nominal,5253.864720286902,nan,pitch_program,12.61,0.0,0.0,-3.501592467879133,-0.0,0.0,-3.48307919021141,0.0,0.0,0.86,0.0,0.0,0.0,0.0,0.0,0.0,-0.06079119997688696,0.0,0.0,-0.06079119997688696,0.0,0.0,0.78,1.0,20.567908387000866,-0.06683260163433906,4.383358434686923,0.0007836953734760417,0.01994945770043985,-0.0002538655740981199,21.029910917063887,0.019966459092932796,1.0,0.0,57.720465420402796,-1.4405247638228156,24.34009046504872,97.24629459781579,0.11105817103984193,4.846219513471973,1.0,23.50753475334399,0.0,1.0,100.17129449589208,6213.850024398304,1.0,1.0,0.02320020698432135,18.75364722312346,0.020512500027092834,-44.225955046375205,1.0,24.36575952280702,1.0,0.02958593775135763,4.067088922532245,0.9386038558237774,1.0,-0.3641198977541506,6.516796064332061
0.8099999999999999,75.24266770859889,0.0,24.687995665462804,100.62993091870852,0.0,4.317933165791697,100.72252748778841,17.83327458148453,0.0,7.00037444841391,0.0,0.0,1.2106568415151389,0.0,4.54337506593363,0.0,6199.115301401289,0.29606924940390067,100.72252748778843,2.1451144069350616,1.2220992549903567,101028.77074606257,287.98952802817445,0.0,0.0,0.0,403.73605263157896,0.21668220980638486,0.86,nominal,5314.620304456857,nan,pitch_program,12.595,0.0,0.0,-3.5257847019015616,-0.0,0.0,-3.508702497225501,0.0,0.0,0.86,0.0,0.0,0.0,0.0,0.0,0.0,-0.0612384110495322,0.0,0.0,-0.0612384110495322,0.0,0.0,0.8099999999999999,1.0,20.60336657666882,-0.01909293271997271,4.541015925207553,0.001127163187817565,0.02057845024610811,0.0027680952868012225,21.097864926709107,0.02079436132465552,1.0,0.0,57.720465420402796,-1.4405247638228156,24.34009046504872,97.24629459781579,0.11105817103984193,4.846219513471973,1.0,23.50753475334399,0.0,1.0,99.90289902652437,6150.405662313411,1.0,1.0,0.02320020698432135,18.75364722312346,0.020512500027092834,-44.225955046375205,1.0,24.36575952280702,1.0,0.02958593775135763,4.067088922532245,0.9386038558237774,1.0,-0.3641198977541506,6.516796064332061
0.84,78.27944015596334,0.0,24.814948775372113,101.22574824548201,0.0,4.231770330310342,101.31416479439683,17.82677411519034,0.0,6.96348025732421,0.0,0.0,1.2298064121505203,0.0,4.569608314292765,0.0,6272.079070672493,0.29780876679401475,101.31416479439685,2.1444992520951094,1.2220843519865305,101027.24926044664,287.9887028329601,0.0,0.0,0.0,403.7021052631579,0.2166639905000865,0.86,nominal,5375.631511401102,nan,pitch_program,12.58,0.0,0.0,-3.548117709991176,-0.0,0.0,-3.532351624884906,0.0,0.0,0.86,0.0,0.0,0.0,0.0,0.0,0.0,-0.06165116619241327,0.0,0.0,-0.06165116619241327,0.0,0.0,0.84,1.0,20.491121698001162,0.05166430092585032,4.529099987333564,0.0012661216670166629,0.025260792368463344,-5.870225580505489e-05,20.985744788726205,0.02529257086800671,1.0,0.0,77.87346328020686,0.11040984545368764,24.919849951915722,101.23472359234069,0.017043018975863612,4.179551621307377,1.0,25.961264192873355,0.0,1.0,101.07279323456676,6290.325065536916,1.0,1.0,-0.2524767918030103,18.690499236156445,0.042477749502781575,-44.160817124232416,1.0,24.643312849594917,1.0,-0.015716378217716927,4.07305453536919,0.9379626280615697,1.0,0.559642409700591,7.402733339961284
0.87,81.33406041719205,0.0,24.93937667674494,101.82067537429018,0.0,4.147596712427567,101.9051151423005,17.82027419547534,0.0,6.926174396747724,0.0,0.0,1.2435287298151068,0.0,4.5935589513985695,0.0,6345.384814370291,0.29954626134341417,101.9051151423005,2.1438997976740324,1.2220697455514142,101025.75805651596,287.98789405160113,0.0,0.0,0.0,403.66815789473685,0.21664577119378817,0.86,nominal,5436.897984369762,nan,pitch_program,12.565,0.0,0.0,-3.568795098099165,-0.0,0.0,-3.554217708813461,0.0,0.0,0.86,0.0,0.0,0.0,0.0,0.0,0.0,-0.06203280135148398,0.0,0.0,-0.06203280135148398,0.0,0.0,0.87,1.0,20.454722292254726,-0.0032009294677551336,4.645094199948855,-0.0007627910474587565,0.021308194285068235,0.001423801640237294,20.975523221736577,0.021369328603937005,1.0,0.0,77.87346328020686,0.11040984545368764,24.919849951915722,101.23472359234069,0.017043018975863612,4.179551621307377,1.0,25.961264192873355,0.0,1.0,101.66637788957891,6284.056389625401,1.0,1.0,-0.2524767918030103,18.690499236156445,0.042477749502781575,-44.160817124232416,1.0,24.643312849594917,1.0,-0.015716378217716927,4.07305453536919,0.9379626280615697,1.0,0.559642409700591,7.402733339961284
0.8999999999999999,84.40650214539228,0.0,25.06133778479629,102.41472427334094,0.0,4.065370268378428,102.49538030274078,17.813774822339525,0.0,6.8885999898778785,0.0,0.0,1.252480273882719,0.0,4.615427520284559,0.0,6419.031271131892,0.3012817383001277,102.49538030274078,2.1433153424245446,1.22205542881968,101024.29643312164,287.9871013043988,0.0,0.0,0.0,403.6342105263158,0.2166275518874898,0.86,nominal,5498.419259889005,nan,pitch_program,12.55,0.0,0.0,-3.5879666461369006,-0.0,0.0,-3.5744670712075246,0.0,0.0,0.86,0.0,0.0,0.0,0.0,0.0,0.0,-0.06238621939668991,0.0,0.0,-0.06238621939668991,0.0,0.0,0.8999999999999999,1.0,20.485618996142446,-0.010573689704318741,4.676342699233372,0.00044742135249231185,0.021810924396523775,0.00382627890876341,21.012588572060785,0.02214852182844692,1.0,0.0,77.87346328020686,0.11040984545368764,24.919849951915722,101.23472359234069,0.017043018975863612,4.179551621307377,1.0,25.04742562589612,0.0,1.0,101.96472063101093,6553.1853915518395,1.0,1.0,-2.017714388591032,18.9109667090568,-0.03530780576572019,-44.088713241919145,1.0,25.201601295569585,1.0,0.0004759712891396072,4.075584786614971,0.9373466555380092,1.0,0.18807463782397235,6.669350360506915
0.9299999999999999,87.49673930519364,0.0,25.180889405515757,103.0079053267122,0.0,3.9850540239821735,103.0849611503587,17.8072759957829,0.0,6.8508845410272174,0.0,0.0,1.2571816737505919,0.0,4.635394692085981,0.0,6493.017073066952,0.30301520027780665,103.0849611503587,2.1427453861318955,1.222041395056615,101022.86370246205,287.9863242188641,0.0,0.0,0.0,403.6002631578947,0.21660933258119142,0.86,nominal,5560.194776774081,nan,pitch_program,12.535000000000002,0.0,0.0,-3.6057432565956593,-0.0,0.0,-3.5932327824404053,0.0,0.0,0.86,0.0,0.0,0.0,0.0,0.0,0.0,-0.06271374284418216,0.0,0.0,-0.06271374284418216,0.0,0.0,0.9299999999999999,1.0,20.42803909185836,-0.03394187802056017,4.740900472004414,-0.0007921764512016805,0.02308487376680931,-0.001474918900734763,20.970981628789545,0.023145503367244007,1.0,0.0,77.87346328020686,0.11040984545368764,24.919849951915722,101.23472359234069,0.017043018975863612,4.179551621307377,1.0,25.04742562589612,0.0,1.0,102.97100905649978,6455.317974796634,1.0,1.0,-2.017714388591032,18.9109667090568,-0.03530780576572019,-44.088713241919145,1.0,25.201601295569585,1.0,0.0004759712891396072,4.075584786614971,0.9373466555380092,1.0,0.18807463782397235,6.669350360506915
0.96,90.6047461292295,0.0,25.29808787514511,103.60022746786171,0.0,3.906615654311845,103.6738577331007,17.800777715805463,0.0,6.813140526368512,0.0,0.0,1.2581338674552367,0.0,4.653622220156086,0.0,6567.340751308636,0.3047466474615505,103.67385773310068,2.1421895311674586,1.2220276376417263,101021.4591884088,287.98556242881153,0.0,0.0,0.0,403.56631578947366,0.21659111327489305,0.86,nominal,5622.223882092394,nan,pitch_program,12.520000000000001,0.0,0.0,-3.6222372882595164,-0.0,0.0,-3.6106354859318723,0.0,0.0,0.86,0.0,0.0,0.0,0.0,0.0,0.0,-0.06301747731885657,0.0,0.0,-0.06301747731885657,0.0,0.0,0.96,1.0,20.400861118206098,0.0403044881716855,4.889007800252888,0.005810731508932576,0.02155899039504384,-0.0017345670483146591,20.978540370746334,0.022395610962141523,1.0,0.0,77.87346328020686,0.11040984545368764,24.919849951915722,101.23472359234069,0.017043018975863612,4.179551621307377,1.0,25.015661960596436,0.0,1.0,103.1749674018311,6581.743132332611,1.0,1.0,0.32106353464181236,18.93830534842198,0.01749869089294133,-44.139551447161374,1.0,25.44723575408333,1.0,0.008488511521670595,4.0730569449137395,0.9367547803121372,1.0,-0.2852912671137542,6.595830987972316
0.99,93.73049707899045,0.0,25.412988684400798,104.19169832536502,0.0,3.830026975189507,104.26206935676345,17.794279982407215,0.0,6.775466271386946,0.0,0.0,1.255808544632184,0.0,4.670254216251871,0.0,6642.000743746313,0.3064760778567303,104.26206935676345,2.1416474348238808,1.2220141500541466,101020.082225016,287.9848155735514,0.0,0.0,0.0,403.53236842105264,0.21657289396859472,0.86,nominal,5684.505838759155,nan,pitch_program,12.505,0.0,0.0,-3.6375587283612867,-0.0,0.0,-3.6267894313895206,0.0,0.0,0.86,0.0,0.0,0.0,0.0,0.0,0.0,-0.06329941685428012,0.0,0.0,-0.06329941685428012,0.0,0.0,0.99,1.0,20.47400077483921,0.02423630645272609,4.957090991702905,-0.0014060586879246736,0.022243920685467506,0.003593470265315887,21.065565414360215,0.02257613866547969,1.0,0.0,77.87346328020686,0.11040984545368764,24.919849951915722,101.23472359234069,0.017043018975863612,4.179551621307377,1.0,25.015661960596436,0.0,1.0,103.57495398306376,6598.222705741183,1.0,1.0,0.32106353464181236,18.93830534842198,0.01749869089294133,-44.139551447161374,1.0,25.44723575408333,1.0,0.008488511521670595,4.0730569449137395,0.9367547803121372,1.0,-0.2852912671137542,6.595830987972316
1.02,96.87396681002701,0.0,25.525646587217135,104.78232436788518,0.0,3.7552634272112484,104.84959467420202,17.787782795588157,0.0,6.73794801317456,0.0,0.0,1.2506086517664075,0.0,4.685419601262472,0.0,6716.995403734691,0.30820348755148275,104.84959467420204,2.1411188269288446,1.2220009258598552,101018.73215521527,287.9840832971831,0.0,0.0,0.0,403.49842105263156,0.21655467466229633,0.86,nominal,5747.03983377676,nan,pitch_program,12.49,0.0,0.0,-3.6518002217893035,-0.0,0.0,-3.6417959056293903,0.0,0.0,0.86,0.0,0.0,0.0,0.0,0.0,0.0,-0.06356132923888155,0.0,0.0,-0.06356132923888155,0.0,0.0,1.02,1.0,20.356905812328918,-0.003617189695431459,5.0495070258453,-0.0012687287302588265,0.022743027842978197,0.0009741654625859581,20.973820551824915,0.022799210214521925,1.0,0.0,77.87346328020686,0.11040984545368764,24.919849951915722,101.23472359234069,0.017043018975863612,4.179551621307377,1.0,25.35505717216419,0.0,1.0,105.02124587984234,6838.047188336779,1.0,1.0,0.20716255069020592,18.94261089915399,-0.02774534788802444,-44.08471056164784,1.0,25.584536922999074,1.0,0.004000979885722656,4.1212791618121365,0.9361858835319572,1.0,-0.2350183702845472,6.392738837964116
1.05,100.0351301407696,0.0,25.636115697273976,105.37211102475295,0.0,3.6823036685613686,105.43643175923758,17.781286155348287,0.0,6.700661547507924,0.0,0.0,1.2428822327516948,0.0,4.699234067331216,0.0,6792.323007227744,0.3099288709342032,105.43643175923758,2.140603506879061,1.2219879587003282,101017.40832965658,287.9833652479677,0.0,0.0,0.0,403.46447368421053,0.216536455355998,0.86,nominal,5809.824985062854,nan,pitch_program,12.475,0.0,0.0,-3.6650409991844852,-0.0,0.0,-3.6557429617624475,0.0,0.0,0.86,0.0,0.0,0.0,0.0,0.0,0.0,-0.06380475128936387,0.0,0.0,-0.06380475128936387,0.0,0.0,1.05,1.0,20.38952380665306,0.023065120251563386,5.0927217498487245,-0.0009619480502852831,0.02321314286238856,-0.000216186253064102,21.015923198451844,0.023234071578118253,1.0,0.0,100.96229800122198,-0.5143213134600304,25.097932694456834,105.48289297839538,-0.10413279965858194,3.6689010621410993,1.0,25.35505717216419,0.0,1.0,105.07857990610103,6694.550886412943,1.0,1.0,0.20716255069020592,18.94261089915399,-0.02774534788802444,-44.08471056164784,1.0,25.584536922999074,1.0,0.004000979885722656,4.1212791618121365,0.9361858835319572,1.0,-0.2350183702845472,6.392738837964116
1.08,103.21396202447126,0.0,25.744449574215615,105.96106279005548,0.0,3.6111292313880203,106.02257817051924,17.774790061687607,0.0,6.663673163159276,0.0,0.0,1.2329461877751662,0.0,4.711801281390443,0.0,6867.981758939451,0.31165222088148603,106.02257817051925,2.1401013157561115,1.2219752422824102,101016.11010567381,287.9826610777676,0.0,0.0,0.0,403.43052631578945,0.21651823604969964,0.86,nominal,5872.8603473789135,nan,pitch_program,12.46,0.0,0.0,-3.67735467504117,-0.0,0.0,-3.668709989729681,0.0,0.0,0.86,0.0,0.0,0.0,0.0,0.0,0.0,-0.06403106862159029,0.0,0.0,-0.06403106862159029,0.0,0.0,1.08,1.0,20.301561977063706,-0.022853924830118926,5.236539023554151,6.010971362783861e-05,0.02166883589977374,0.0015833385952579505,20.966050700016073,0.021726689198684392,1.0,0.0,100.96229800122198,-0.5143213134600304,25.097932694456834,105.48289297839538,-0.10413279965858194,3.6689010621410993,1.0,26.16226349251383,0.0,1.0,105.8386924886493,6859.54413073079,1.0,1.0,0.7264451323418568,19.029180473598558,-0.02658840919779483,-44.01603506241114,1.0,25.68909115464639,1.0,-0.0045325187658295995,4.114528159211111,0.935638876064461,1.0,-0.808246265656688,6.735729935586563
1.1099999999999999,106.41043752411827,0.0,25.85070129982923,106.54918332156699,0.0,3.5417241871205127,106.60803101413384,17.768294514606115,0.0,6.627040588978926,0.0,0.0,1.2210858476078745,0.0,4.723214087066055,0.0,6943.96979862561,0.3133735289423608,106.60803101413386,2.139612122540274,1.2219627703693547,101014.8368463697,287.9819704415511,0.0,0.0,0.0,403.3965789473684,0.21650001674340127,0.86,nominal,5936.144918257231,nan,pitch_program,12.445,0.0,0.0,-3.688808573476249,-0.0,0.0,-3.680769139977622,0.0,0.0,0.86,0.0,0.0,0.0,0.0,0.0,0.0,-0.06424154049840955,0.0,0.0,-0.06424154049840955,0.0,0.0,1.1099999999999999,1.0,20.336175625459337,-0.051319635676952136,5.286741286347618,-0.0009535318708432641,0.02198610773068459,0.002824344071052272,21.01219422628929,0.022187272829387362,1.0,0.0,100.96229800122198,-0.5143213134600304,25.097932694456834,105.48289297839538,-0.10413279965858194,3.6689010621410993,1.0,26.16226349251383,0.0,1.0,107.12792071967807,6986.477048803697,1.0,1.0,0.7264451323418568,19.029180473598558,-0.02658840919779483,-44.01603506241114,1.0,25.68909115464639,1.0,-0.0045325187658295995,4.114528159211111,0.935638876064461,1.0,-0.808246265656688,6.735729935586563
1.14,109.62453179007386,0.0,25.954923544965204,107.13647553185308,0.0,3.4740748378658997,107.19278700251452,17.761799514103814,0.0,6.590814050798823,0.0,0.0,1.2075513128985074,0.0,4.733555793424905,0.0,7020.285207158727,0.315092785511627,107.19278700251454,2.1391358230825195,1.2219505367729617,101013.58791981271,287.9812929969577,0.0,0.0,0.0,403.3626315789474,0.21648179743710294,0.86,nominal,5999.677643665456,nan,pitch_program,12.43,0.0,0.0,-3.6994618596201168,-0.0,0.0,-3.691984771763119,0.0,0.0,0.86,0.0,0.0,0.0,0.0,0.0,0.0,-0.0644372902007578,0.0,0.0,-0.0644372902007578,0.0,0.0,1.14,1.0,20.285090228286343,0.00532466447862414,5.307980636967648,0.00121304139877298,0.01767811122780657,0.0019481353936812015,20.96806076784864,0.017826449941868716,1.0,0.0,100.96229800122198,-0.5143213134600304,25.097932694456834,105.48289297839538,-0.10413279965858194,3.6689010621410993,1.0,26.673924432015745,0.0,1.0,106.96908525533634,6958.020346744377,1.0,1.0,-0.7598756353801139,19.098208459121008,0.06539829339394247,-44.08581877790355,1.0,26.009307432024816,1.0,0.0038094536017736326,4.124076614691176,0.935112691137587,1.0,-0.20272584193111715,6.885612125640579
1.17,112.85622004012254,0.0,26.057168628483407,107.72294166828917,0.0,3.4081694506067275,107.77684250651286,17.7553050601807,0.0,6.555037141141498,0.0,0.0,1.1925636939931676,0.0,4.742901245557399,0.0,7096.926011962987,0.3168099799830741,107.77684250651286,2.1386723337680897,1.2219385353466452,101012.36269832903,287.9806284039148,0.0,0.0,0.0,403.3286842105263,0.21646357813080455,0.86,nominal,6063.457423067356,nan,pitch_program,12.415,0.0,0.0,-3.709367240496641,-0.0,0.0,-3.7024142530032322,0.0,0.0,0.86,0.0,0.0,0.0,0.0,0.0,0.0,-0.06461931898767276,0.0,0.0,-0.06461931898767276,0.0,0.0,1.17,1.0,20.195410807691353,-0.02730403298349267,5.335764650780515,-0.0008634720567739232,0.023044857491537913,-0.001090500165282645,20.888411802005262,0.023086797772939448,1.0,0.0,100.96229800122198,-0.5143213134600304,25.097932694456834,105.48289297839538,-0.10413279965858194,3.6689010621410993,1.0,26.673924432015745,0.0,1.0,107.84437114485982,7017.0814253673425,1.0,1.0,-0.7598756353801139,19.098208459121008,0.06539829339394247,-44.08581877790355,1.0,26.009307432024816,1.0,0.0038094536017736326,4.124076614691176,0.935112691137587,1.0,-0.20272584193111715,6.885612125640579
1.2,116.10547754166521,0.0,26.157488569089963,108.30858338475555,0.0,3.3439980202186184,108.36019360250226,17.748811152836776,0.0,6.519747512107603,0.0,0.0,1.1763210049837345,0.0,4.751317696047616,0.0,7173.890192021397,0.31852510088807867,108.36019360250226,2.1382215821282022,1.221926759979336,101011.16055787978,287.9799763243009,0.0,0.0,0.0,403.2947368421053,0.21644535882450622,0.86,nominal,6127.483114061953,nan,pitch_program,12.4,0.0,0.0,-3.7185726434854507,-0.0,0.0,-3.712109287292563,0.0,0.0,0.86,0.0,0.0,0.0,0.0,0.0,0.0,-0.06478852925711533,0.0,0.0,-0.06478852925711533,0.0,0.0,1.2,1.0,20.16837707592001,0.05991784686592215,5.533234899051006,-0.00012476373930662816,0.020078014944644406,-0.0010175630330780644,20.913720675024443,0.02010417082682837,1.0,0.0,100.96229800122198,-0.5143213134600304,25.097932694456834,105.48289297839538,-0.10413279965858194,3.6689010621410993,1.0,26.84544146378417,0.0,1.0,107.76169255513425,7202.2668023785045,1.0,1.0,2.06342647402825,19.13339657569283,0.08539920361413032,-44.021605343827986,1.0,26.402369282097684,1.0,-5.519108586433316e-05,4.1300422403920205,0.9346062785772751,1.0,-0.11770425331794655,6.12127308121739
1.23,119.37227959588321,0.0,26.255935130630135,108.89340180726698,0.0,3.281552051339054,108.9428361161235,17.74231779207204,0.0,6.4849775332604525,0.0,0.0,1.158999330473485,0.0,4.758865625323427,0.0,7251.175682643906,0.3202381360243148,108.9428361161235,2.137783501987722,1.2219152045901596,101009.98087751732,287.9793364216509,0.0,0.0,0.0,403.26078947368416,0.2164271395182078,0.86,nominal,6191.753536761066,nan,pitch_program,12.385,0.0,0.0,-3.7271212594460477,-0.0,0.0,-3.721116470584654,0.0,0.0,0.86,0.0,0.0,0.0,0.0,0.0,0.0,-0.06494573426189293,0.0,0.0,-0.06494573426189293,0.0,0.0,1.23,1.0,20.21657535574404,-0.0034837575534648673,5.531181658485523,0.0002589862009826061,0.021071512264409446,0.0025757760128478453,20.95957780562888,0.021229939355302443,1.0,0.0,100.96229800122198,-0.5143213134600304,25.097932694456834,105.48289297839538,-0.10413279965858194,3.6689010621410993,1.0,26.84544146378417,0.0,1.0,109.27857979141491,7293.570538909069,1.0,1.0,2.06342647402825,19.13339657569283,0.08539920361413032,-44.021605343827986,1.0,26.402369282097684,1.0,-5.519108586433316e-05,4.1300422403920205,0.9346062785772751,1.0,-0.11770425331794655,6.12127308121739
1.26,122.65660152367792,0.0,26.352559861502012,109.47739759315694,0.0,3.2208243623959136,109.52476566212579,17.735824977886494,0.0,6.4507549044480035,0.0,0.0,1.140754327663302,0.0,4.765599499742961,0.0,7328.7803799056555,0.32194907257297156,109.52476566212577,2.137358030736398,1.2219038631237957,101008.82303891126,287.9787083609002,0.0,0.0,0.0,403.22684210526313,0.21640892021190947,0.86,nominal,6256.267477837582,nan,pitch_program,12.37,0.0,0.0,-3.7350517280679534,-0.0,0.0,-3.729477625074634,0.0,0.0,0.86,0.0,0.0,0.0,0.0,0.0,0.0,-0.06509166393701099,0.0,0.0,-0.06509166393701099,0.0,0.0,1.26,1.0,20.206868456826296,0.00794684442405135,5.595335829936719,-0.0014282419835606125,0.020511012162980177,-0.00016546531227039135,20.96724538497109,0.02056134416527992,1.0,0.0,120.34749977329278,-0.9886792019865726,28.269046959658905,109.5230478365359,-0.10364898284714909,3.185037971028701,1.0,25.62672935531112,0.0,1.0,110.12423395764421,7439.223676485862,1.0,1.0,0.9629097954391108,19.231519549542675,0.023134658006696746,-43.94387957755097,1.0,26.72629897015009,1.0,0.0006925181714708218,4.1418424247397265,0.9341186003462449,1.0,-0.16193324251844712,6.321137220262823
1.29,125.95841865319638,0.0,26.4474141288567,110.06057098394845,0.0,3.1618089118229378,110.105977680177,17.729332710280136,0.0,6.417103178968328,0.0,0.0,1.1217242149018127,0.0,4.771568423495609,0.0,7406.70214471814,0.3236578972041099,110.10597768017702,2.1369451054874475,1.2218927295464599,101007.68642593786,287.9780918081624,0.0,0.0,0.0,403.1928947368421,0.21639070090561113,0.86,nominal,6321.023694220571,nan,pitch_program,12.355,0.0,0.0,-3.742398893380276,-0.0,0.0,-3.7372303860580196,0.0,0.0,0.86,0.0,0.0,0.0,0.0,0.0,0.0,-0.06522697514229123,0.0,0.0,-0.06522697514229123,0.0,0.0,1.29,1.0,20.196083993910005,-0.049476832008403165,5.678366882534319,-0.003389608958674506,0.018431870014359475,-0.0003681181865630906,20.97923037431631,0.01874456700268771,1.0,0.0,120.34749977329278,-0.9886792019865726,28.269046959658905,109.5230478365359,-0.10364898284714909,3.185037971028701,1.0,25.62672935531112,0.0,1.0,110.02176176703576,7336.0730213851875,1.0,1.0,0.9629097954391108,19.231519549542675,0.023134658006696746,-43.94387957755097,1.0,26.72629897015009,1.0,0.0006925181714708218,4.1418424247397265,0.9341186003462449,1.0,-0.16193324251844712,6.321137220262823
1.3199999999999998,129.27770630878655,0.0,26.540549148106287,110.64292185300549,0.0,3.104500641652869,110.68646746736613,17.72284098925297,0.0,6.384042222048933,0.0,0.0,1.1020319278903945,0.0,4.77681671244314,0.0,7484.93880661014,0.32536459617228114,110.68646746736613,2.1365446596246973,1.2218817978424288,101006.57042432512,287.9774864305373,0.0,0.0,0.0,403.158947368421,0.21637248159931274,0.86,nominal,6386.0209165054275,nan,pitch_program,12.34,0.0,0.0,-3.7491943038847655,-0.0,0.0,-3.744408736754067,0.0,0.0,0.86,0.0,0.0,0.0,0.0,0.0,0.0,-0.06535226099680008,0.0,0.0,-0.06535226099680008,0.0,0.0,1.3199999999999998,1.0,20.07659526366741,0.03567348886726788,5.746982145872595,-0.0005986024000608491,0.02144162296918648,0.00022732488971947352,20.882977607704774,0.02145118171550439,1.0,0.0,120.34749977329278,-0.9886792019865726,28.269046959658905,109.5230478365359,-0.10364898284714909,3.185037971028701,1.0,26.387258010183,0.0,1.0,111.21499543294452,7374.114850848675,1.0,1.0,1.6927284296326035,19.197878606377646,-0.030682723420617862,-43.91021457709639,1.0,26.53769600507108,1.0,0.013162503591316774,4.148644625351236,0.9336486271297343,1.0,-0.7218941598180079,6.502035245595677
1.3499999999999999,132.6144398012438,0.0,26.632016008196235,111.22444974857548,0.0,3.0488953363315883,111.26623020775574,17.71634981480499,0.0,6.351588629563719,0.0,0.0,1.0817864450966737,0.0,4.781384416468811,0.0,7563.488167250148,0.3270691554034652,111.26623020775573,2.1361566207132237,1.2218710620110644,101005.47442134867,287.9768918959467,0.0,0.0,0.0,403.125,0.2163542622930144,0.86,nominal,6451.257852109426,nan,pitch_program,12.325,0.0,0.0,-3.755466443934828,-0.0,0.0,-3.751043361062524,0.0,0.0,0.86,0.0,0.0,0.0,0.0,0.0,0.0,-0.0654680570356155,0.0,0.0,-0.0654680570356155,0.0,0.0,1.3499999999999999,1.0,20.11968667526835,-0.08324399002846977,5.8329225037487324,-0.002692286164653651,0.020524662821017316,0.00011597472438910492,20.948310347318827,0.020700812516554347,1.0,0.0,120.34749977329278,-0.9886792019865726,28.269046959658905,109.5230478365359,-0.10364898284714909,3.185037971028701,1.0,26.387258010183,0.0,1.0,110.49913814800786,7545.177969502034,1.0,1.0,1.6927284296326035,19.197878606377646,-0.030682723420617862,-43.91021457709639,1.0,26.53769600507108,1.0,0.013162503591316774,4.148644625351236,0.9336486271297343,1.0,-0.7218941598180079,6.502035245595677
1.38,135.968594419217,0.0,26.721865693089807,111.80515393243965,0.0,2.994989496452398,111.84526099902662,17.7098591869362,0.0,6.319756100965217,0.0,0.0,1.061084313910602,0.0,4.785307784927221,0.0,7642.348003700601,0.3287715605734488,111.84526099902662,2.1357809087386888,1.2218605160642846,101004.39780557327,287.9763078729949,0.0,0.0,0.0,403.0910526315789,0.21633604298671602,0.86,nominal,6516.733188169332,nan,pitch_program,12.31,0.0,0.0,-3.7612410607812437,-0.0,0.0,-3.7571619808937555,0.0,0.0,0.86,0.0,0.0,0.0,0.0,0.0,0.0,-0.06557484709734832,0.0,0.0,-0.06557484709734832,0.0,0.0,1.38,1.0,20.048643146342172,0.016192227366680224,5.88363113458942,0.000628780306154169,0.01865628081341912,0.0021791237596503594,20.894149169696046,0.01879363612562589,1.0,0.0,120.34749977329278,-0.9886792019865726,28.269046959658905,109.5230478365359,-0.10364898284714909,3.185037971028701,1.0,26.563851453029674,0.0,1.0,111.80394035446137,7754.161932837457,1.0,1.0,0.008506569961628012,19.25948972709726,-0.03420361459673876,-43.95468892538396,1.0,26.899862406688797,1.0,-0.0009266132384222408,4.178504275325733,0.9331953357672755,1.0,-0.06537621353699231,6.898623668369464
1.41,139.34014542165525,0.0,26.810149099864777,112.38503341460859,0.0,2.9427802258323243,112.42355487645922,17.703369105646598,0.0,6.288555766482739,0.0,0.0,1.0400111751157959,0.0,4.788619676485127,0.0,7721.51607142268,0.33047179717836567,112.42355487645922,2.1354174343730508,1.2218501540244346,101003.33996663542,287.97573403085084,0.0,0.0,0.0,403.0571052631579,0.2163178236804177,0.86,nominal,6582.445594200308,nan,pitch_program,12.295,0.0,0.0,-3.7665415164520617,-0.0,0.0,-3.7627897022287393,0.0,0.0,0.86,0.0,0.0,0.0,0.0,0.0,0.0,-0.06567306936402852,0.0,0.0,-0.06567306936402852,0.0,0.0,1.41,1.0,20.11480567507277,-0.07625831548021851,5.889115582682171,-0.003819351200820914,0.014728240897232733,-0.0006470055900708794,20.9593154712364,0.015229154269220401,1.0,0.0,120.34749977329278,-0.9886792019865726,28.269046959658905,109.5230478365359,-0.10364898284714909,3.185037971028701,1.0,26.563851453029674,0.0,1.0,112.4342482492549,7651.05762028182,1.0,1.0,0.008506569961628012,19.25948972709726,-0.03420361459673876,-43.95468892538396,1.0,26.899862406688797,1.0,-0.0009266132384222408,4.178504275325733,0.9331953357672755,1.0,-0.06537621353699231,6.898623668369464
1.44,142.72906803119164,0.0,26.89691705376836,112.96408698454648,0.0,2.8922651301194504,113.00110683455755,17.696879570936186,0.0,6.257996479292547,0.0,0.0,1.0186429304877376,0.0,4.7913499253627645,0.0,7800.990107060077,0.33216985059829807,113.00110683455755,2.1350660977025964,1.2218399699225102,101002.3002950615,287.9751700391505,0.0,0.0,0.0,403.02315789473687,0.21629960437411935,0.86,nominal,6648.3937245428815,nan,pitch_program,12.28,0.0,0.0,-3.771389034159073,-0.0,0.0,-3.7679493013869396,0.0,0.0,0.86,0.0,0.0,0.0,0.0,0.0,0.0,-0.06576312135742224,0.0,0.0,-0.06576312135742224,0.0,0.0,1.44,1.0,20.120958561385528,0.027761547359216102,5.97127350823811,-0.00031388330610222076,0.017289726535370684,0.001718790116999069,20.98832655174518,0.017377784837661114,1.0,0.0,120.34749977329278,-0.9886792019865726,28.269046959658905,109.5230478365359,-0.10364898284714909,3.185037971028701,1.0,27.210708246555296,0.0,1.0,113.36257115330886,7685.620752280535,1.0,1.0,1.430724974756069,19.321521047279,0.04184226310548753,-43.915744704544935,1.0,26.705302620056614,1.0,0.00636477619432341,4.198273949110201,0.9327577073655791,1.0,-0.3017590074810985,5.875084837956229
1.47,146.13533742836873,0.0,26.982220320547288,113.54231323923635,0.0,2.843442225964275,113.57791184649092,17.690390582804962,0.0,6.22808507699443,0.0,0.0,0.9970467659150735,0.0,4.79352566912918,0.0,7880.7678310139545,0.3338657061544559,113.5779118464909,2.1347267873367803,1.2218299577967016,101001.27818211916,287.97461556791643,0.0,0.0,0.0,402.9892105263158,0.21628138506782096,0.86,nominal,6714.576220611127,nan,pitch_program,12.265,0.0,0.0,-3.7758029111752203,-0.0,0.0,-3.7726614672599084,0.0,0.0,0.86,0.0,0.0,0.0,0.0,0.0,0.0,-0.06584536416680566,0.0,0.0,-0.06584536416680566,0.0,0.0,1.47,1.0,19.982850968793635,-0.014612581059159788,6.096171601734912,0.0003055854345507461,0.017675447164493294,-0.0003411062948706504,20.892052425894903,0.01768137914380561,1.0,0.0,145.7897662902077,-1.2389951447554337,26.774580202192656,113.81709670702786,-0.12167131273932834,3.206255294390447,1.0,27.210708246555296,0.0,1.0,113.37798846816162,7936.325563052649,1.0,1.0,1.430724974756069,19.321521047279,0.04184226310548753,-43.915744704544935,1.0,26.705302620056614,1.0,0.00636477619432341,4.198273949110201,0.9327577073655791,1.0,-0.3017590074810985,5.875084837956229
