time_s,x_m,y_m,altitude_m,vx_mps,vy_mps,vz_mps,speed_mps,mass_kg,roll_deg,pitch_deg,yaw_deg,p_dps,q_dps,r_dps,alpha_deg,beta_deg,qbar_pa,mach,airspeed_mps,load_factor_g,density_kgpm3,pressure_pa,temperature_k,wind_x_mps,wind_y_mps,wind_z_mps,thrust_n,mass_flow_kgps,propulsion_throttle_actual,propulsion_health,energy_j_per_kg,target_distance_m,guidance_mode,pitch_command_deg,heading_command_deg,roll_command_deg,elevator_command_deg,aileron_command_deg,rudder_command_deg,elevator_deg,aileron_deg,rudder_deg,throttle,elevator_saturated,aileron_saturated,rudder_saturated,elevator_failed,aileron_failed,rudder_failed,elevator_raw_rad,aileron_raw_rad,rudder_raw_rad,elevator_effective_rad,aileron_effective_rad,rudder_effective_rad,sensor_time_s,imu_valid,imu_ax_mps2,imu_ay_mps2,imu_az_mps2,gyro_p_rps,gyro_q_rps,gyro_r_rps,imu_accel_norm_mps2,imu_gyro_norm_rps,gps_valid,gps_latency_s,gps_x_m,gps_y_m,gps_z_m,gps_vx_mps,gps_vy_mps,gps_vz_mps,baro_valid,baro_alt_m,baro_bias_m,pitot_valid,pitot_airspeed_mps,pitot_qbar_pa,pitot_compressibility_factor,mag_valid,mag_heading_deg,mag_x_ut,mag_y_ut,mag_z_ut,radar_valid,radar_agl_m,optical_flow_valid,horizon_valid,horizon_roll_deg,horizon_pitch_deg,optical_flow_x_radps,optical_flow_y_radps,optical_flow_quality
0.0,0.0,-180.0,450.0,42.0,2.0,0.0,42.04759208325728,11.0,0.0,3.0000000000000004,3.999999999999999,0.0,0.0,0.0,3.4675827967385846,-14.004401711413385,1203.383344165056,0.13379477880266702,45.29788499340546,1.4318381667953777,1.1729463340241415,96034.57625081437,285.22499999999997,-2.6076439091004775,9.86942436359809,0.3586780454497614,11.991235629318206,0.0005955894873527215,0.17333333333333334,nominal,5296.992499999999,939.4147114027968,waypoint,4.273326075035703,16.11341823308929,0.0,-8.67236923185308,-0.0,5.28499239922332,-4.8,0.0,4.2279939193786555,0.78,0.0,0.0,0.0,0.0,0.0,0.0,-0.08377580409572781,0.0,0.07379241464745723,-0.08377580409572781,0.0,0.07379241464745723,0.0,1.0,-3.567105342741267,11.55710602673345,7.05472871951396,-0.0025899185012765833,0.00014861275303437778,0.001697870518871144,14.0021476047536,0.00310040769778282,1.0,0.0,3.600756630726422,-178.47686827365297,451.3485857159196,42.18669712124764,2.0254531145758117,0.17937241014133767,1.0,449.3794866581097,0.0,1.0,45.818684704627636,1207.7762988351562,1.0,1.0,5.407943136095607,21.715519963451204,-1.678530464324453,-42.853314571377425,1.0,449.59370880351315,0.0,1.0,-0.27629555862650074,3.586918488082886,,,
0.04,1.6724412127086774,-179.90199149768512,449.9954156471345,41.811030317716934,2.4502125578718963,-0.11460882163664035,41.88291934655218,10.999976176420505,1.8554356586470606,3.204854331040006,2.234213403357622,44.0,-5.8351358757344665,-44.0,3.462406156860405,-12.140133924286706,1188.5773529571402,0.13296911371743755,45.01834817009458,1.3354935843168212,1.172946855544633,96034.62898314334,285.2250297982936,-2.54921784659964,10.103156119718633,0.3878945149648293,21.366851319931243,0.0010547152982667868,0.30814814814814817,nominal,5290.037009350869,937.7857377309673,waypoint,4.281043727950602,16.13608797654679,0.0,1.2110721512077172,-24.000000000000004,-20.39556383423495,0.0,-4.8,-0.5720060806213438,0.78,0.0,1.0,0.0,0.0,0.0,0.0,0.0,-0.08377580409572781,-0.009983389448270583,0.0,-0.08377580409572781,-0.009983389448270583,0.04,1.0,-2.6533222319690246,8.722555796623015,9.397330070267973,0.767106955263303,-0.10321505849879731,-0.76751917658174,13.09323913099526,1.0900422540135577,1.0,0.0,3.600756630726422,-178.47686827365297,451.3485857159196,42.18669712124764,2.0254531145758117,0.17937241014133767,1.0,448.5194376638763,0.0,1.0,44.50354870095264,1186.1318474534414,1.0,1.0,5.407943136095607,21.715519963451204,-1.678530464324453,-42.853314571377425,1.0,449.59370880351315,0.0,1.0,-0.27629555862650074,3.586918488082886,,,
0.08,3.3392113223134277,-179.7907310245502,449.9903522596853,41.66925274011876,2.7815118283729268,-0.12658468623004335,41.762177333731785,10.999933987808575,2.038457002629055,2.769561488234081,-1.2766748479705303,0.0,7.897199018010942,-88.0,3.1657997804582108,-8.517906899113894,1177.43600933013,0.13234440131620534,44.806846597608505,0.8633482599550424,1.1729474315607773,96034.68722567965,285.22506271031205,-2.4967915098749716,10.312891846942001,0.4141114808677501,28.68730608647937,0.0014094163630652655,0.4130041152263375,nominal,5284.937615814473,936.1587176622799,waypoint,4.288808751518804,16.15795899589299,0.0,-4.412705044266927,2.9639759006795123,-24.000000000000004,-3.5301640354135415,0.0,-5.372006080621343,0.78,0.0,0.0,1.0,0.0,0.0,0.0,-0.061612985553456,0.0,-0.09375919354399839,-0.061612985553456,0.0,-0.09375919354399839,0.08,1.0,-1.8471134434890166,4.710139258548789,6.769128587240562,-0.005257704657193345,0.13671982082053669,-1.534002639205355,8.450937328997169,1.5400922212492523,1.0,0.0,3.600756630726422,-178.47686827365297,451.3485857159196,42.18669712124764,2.0254531145758117,0.17937241014133767,1.0,449.2746550096728,0.0,1.0,45.31793392758456,1163.4492854094253,1.0,1.0,-1.958929557344723,21.953066914564776,-0.895388081796087,-42.59169122279886,1.0,450.2337521242542,0.0,1.0,1.9747043906735389,3.216212697177489,,,
0.12,5.002541056439957,-179.67228904885616,449.9805593375506,41.58324335316322,2.9610493923517103,-0.2448230533691998,41.68925376640604,10.999877611154051,3.8957120294361705,2.3284574796601922,-5.6745536958594025,41.54207907049283,5.325116538997128,-110.32789218303309,2.9234505616241115,-4.2447968658763555,1170.749664568463,0.13196801465716923,44.67942118851018,0.6016278812775254,1.1729485456142443,96034.7998706309,285.2251263643059,-2.45077673482567,10.497009704672017,0.4371262130840022,34.38802043174633,0.0016846895270932981,0.4945587562871514,nominal,5281.79879202749,934.5335046353257,waypoint,4.296883351264282,16.179423625044276,0.0,-4.4468661948796075,-24.000000000000004,-24.000000000000004,-4.2635257629863945,-4.8,-10.172006080621342,0.78,0.0,1.0,1.0,0.0,0.0,0.0,-0.07441256230771597,-0.08377580409572781,-0.1775349976397262,-0.07441256230771597,-0.08377580409572781,-0.1775349976397262,0.12,1.0,-1.2809796779629892,0.24579581512608373,5.727366655018131,0.7283409345537221,0.09148161423089032,-1.9271531696525774,5.874015093537063,2.0622242220454243,1.0,0.0,3.600756630726422,-178.47686827365297,451.3485857159196,42.18669712124764,2.0254531145758117,0.17937241014133767,1.0,450.3923036959097,0.0,1.0,44.24868422904549,1176.1880257762557,1.0,1.0,-1.958929557344723,21.953066914564776,-0.895388081796087,-42.59169122279886,1.0,450.2337521242542,0.0,1.0,1.9747043906735389,3.216212697177489,,,
0.16,6.663380874254975,-179.55379665779978,449.9641834887409,41.52099544537546,2.9623097764092354,-0.40939622024227296,41.62854726328374,10.999810223572968,3.9035634319214183,2.2529063821914974,-8.330322868285272,-2.4579209295071633,-2.62819991265783,-66.32789218303309,3.2493177476993695,-1.8254650854454604,1167.0743006932069,0.13176057735298552,44.60919901969664,0.8408298693625239,1.1729504085504168,96034.98823718877,285.22523280732315,-2.411532237340571,10.654085949705271,0.45676074371315895,38.82091243532379,0.0018988704045543587,0.5579901437788956,nominal,5279.109233635585,932.911305551012,waypoint,4.30537767781309,16.20091772587297,0.0,-1.4181595623135808,6.837785937159,-20.84325216937215,-1.9872328024481434,0.0,-14.97200608062134,0.78,0.0,0.0,0.0,0.0,0.0,0.0,-0.034683755406354135,0.0,-0.26131080173545396,-0.034683755406354135,0.0,-0.26131080173545396,0.16,1.0,-1.1082403877806497,-2.768385719821343,7.657595558729872,-0.04015084002517608,-0.04661819744619954,-1.1607486058141154,8.21772024298092,1.1623780246491555,1.0,0.0,3.600756630726422,-178.47686827365297,451.3485857159196,42.18669712124764,2.0254531145758117,0.17937241014133767,1.0,448.98617159408997,0.0,1.0,44.54360397596113,1166.0567537820018,1.0,1.0,-7.311076856750069,22.13437484364229,0.6173785987653879,-42.607783420507914,1.0,450.0306845221809,0.0,1.0,3.615461089469371,2.695163421316739,,,
0.2,8.321357605808098,-179.44019450727336,449.94403340262386,41.449418288828056,2.840053763160419,-0.5037521529260574,41.549656413639006,10.999734268756786,4.319430471684439,2.089434904488501,-9.214603668187564,9.55916939011461,2.492370578569442,-22.327892183033093,3.2567020551051304,-1.3059146374022044,1164.158055374747,0.1315956961741021,44.5533866543366,0.7877158699995557,1.1729527008514509,96035.22001809545,285.22536378288294,-2.379357463464434,10.78290594572652,0.47286324321581513,42.27264168953558,0.002065119901418978,0.6073256673835854,nominal,5275.630629213568,931.2936455725518,waypoint,4.314113487608254,16.222727539917898,0.0,-2.579444082055986,-4.1082826549237526,3.7983657114646205,-2.4610018261344178,-3.286626123939002,-10.172006080621339,0.78,0.0,0.0,0.0,0.0,0.0,0.0,-0.04295258476363862,-0.05736244714479481,-0.17753499763972613,-0.04295258476363862,-0.05736244714479481,-0.17753499763972613,0.2,1.0,-0.770823578238347,-1.8722011843258686,7.433451714425994,0.16446617395128293,0.042616574820008024,-0.3883997397971347,7.704252764159682,0.42393354750248885,1.0,0.0,10.702734690306947,-179.9747044160921,452.1857669076222,41.77375688587066,2.7911998796087967,-0.42928282267334844,1.0,448.7687109082091,0.0,1.0,44.66696190915552,1172.9521955171708,1.0,1.0,-7.311076856750069,22.13437484364229,0.6173785987653879,-42.607783420507914,1.0,450.0306845221809,0.0,1.0,3.615461089469371,2.695163421316739,,,
0.24,9.977177411968157,-179.33010801520388,449.9198461479656,41.39549515400149,2.7521623017369996,-0.6046813664571639,41.49128891628945,10.999651663960728,3.0039146013767644,1.9427694804667286,-8.336088782069355,-32.116564637096346,5.061283867126598,21.672107816966903,3.227690457777918,-2.3630558541103523,1162.018978625385,0.131474550194631,44.51238341906462,0.7402242676669372,1.1729554524307608,96035.49823804125,285.2255210000382,-2.3545018418215067,10.882473555826179,0.4853091944782724,44.95860452625004,0.002194314301160675,0.6456977412983442,nominal,5272.969987194448,929.6794918759203,waypoint,4.323112983735948,16.24478507390771,0.0,-2.8220222450687342,24.000000000000004,22.827640296218345,-2.7498181612818704,1.5133738760609974,-5.37200608062134,0.78,0.0,1.0,1.0,0.0,0.0,0.0,-0.0479933807455051,0.026413356950932998,-0.09375919354399832,-0.0479933807455051,0.026413356950932998,-0.09375919354399832,0.24,1.0,-0.4416676112126868,0.2227562666102805,7.153279129071996,-0.5613807040793588,0.08526187845878974,0.3755593657882909,7.17036211997173,0.6807809633518415,1.0,0.0,10.702734690306947,-179.9747044160921,452.1857669076222,41.77375688587066,2.7911998796087967,-0.42928282267334844,1.0,449.15090408276575,0.0,1.0,44.62679082593263,1168.347332409577,1.0,1.0,-8.295086532831967,22.319637100966176,1.2810554941999044,-42.47401851375281,1.0,450.34016241154444,0.0,1.0,2.842870807169968,1.0960163792020512,,,
0.28,11.631867457606145,-179.22009512406132,449.89152975543186,41.367251140949705,2.7503222785637313,-0.7079098133431485,41.46462197944407,10.999563891388682,3.4378161113468626,1.777843258095048,-7.059813591596233,11.883435362903656,5.908518199622259,31.60964795696782,3.109257067671939,-3.760665720522501,1160.518155164391,0.13138939596259175,44.483567721946336,0.7373712053010018,1.1729586737534246,96035.82395525747,285.2257050565897,-2.3371579940144533,10.952018845409595,0.49400235567619943,47.047742458362556,0.002294793243214102,0.67554268767649,nominal,5271.586208225204,928.0669125839047,waypoint,4.332392178867194,16.26690463980467,0.0,-3.122222459715543,-7.509515187414284,24.000000000000004,-3.0477416000288082,-3.286626123939002,-0.57200608062134,0.78,0.0,0.0,1.0,0.0,0.0,0.0,-0.05319312567050281,-0.05736244714479481,-0.009983389448270513,-0.05319312567050281,-0.05736244714479481,-0.009983389448270513,0.28,1.0,-0.2385535923211089,2.460553633039215,6.848347693594421,0.20802673802931831,0.10052318899607712,0.5532872153173648,7.280872072068827,0.5995888407022796,1.0,0.0,10.702734690306947,-179.9747044160921,452.1857669076222,41.77375688587066,2.7911998796087967,-0.42928282267334844,1.0,451.24175382532326,0.0,1.0,44.333468672820516,1177.6245710459975,1.0,1.0,-8.295086532831967,22.319637100966176,1.2810554941999044,-42.47401851375281,1.0,450.34016241154444,0.0,1.0,2.842870807169968,1.0960163792020512,,,
0.32,13.286313684511429,-179.106643424911,449.8585692194579,41.36115567263211,2.836292478758208,-0.8240133993490963,41.46647744483578,10.999472099658954,2.619794295984918,1.5351090796558202,-7.543462496327659,-20.800433945758,5.421415139125239,-12.390352043032177,3.1007317271821133,-3.173057917029982,1159.4408611907947,0.13132813903184765,44.46284510001448,0.7474315822851307,1.1729624234105462,96036.20309415775,285.2259193000735,-2.327461137187511,10.991004035933209,0.498875504491651,48.67263237981223,0.0023729426689841453,0.6987554237483811,nominal,5271.339913677533,926.4541189276823,waypoint,4.341992837361361,16.2888927872882,0.0,-3.705374040795239,21.95016318198922,7.019502132179677,-3.573847552641953,1.5133738760609974,4.22799391937866,0.78,0.0,0.0,0.0,0.0,0.0,0.0,-0.062375406757943445,0.026413356950932998,0.0737924146474573,-0.062375406757943445,0.026413356950932998,0.0737924146474573,0.32,1.0,-0.022810479768619916,3.3304334033573375,6.4899029559009085,-0.3655728134457279,0.09295755001268352,-0.2193550967836369,7.294597134125843,0.43634991293679004,1.0,0.0,10.702734690306947,-179.9747044160921,452.1857669076222,41.77375688587066,2.7911998796087967,-0.42928282267334844,1.0,451.183269412023,0.0,1.0,44.55317804970415,1171.6364266005858,1.0,1.0,-7.945249933576696,22.701824641995092,1.097077210116122,-42.310469522087075,1.0,449.67721874212185,0.0,1.0,2.475255522637047,1.3273375128329916,,,
0.36,14.941051938925039,-178.9882239415694,449.8205397892584,41.36845636034027,2.9604870835400754,-0.9507357549867348,41.485148714750856,10.999377181952195,3.6033517124365635,1.3006310596439263,-9.789982053185607,23.199566054241995,2.80538942198316,-56.39035204303217,3.124832808397615,-0.8320985211873401,1158.8235685989894,0.13129287545069473,44.45092541886914,0.671329635254405,1.1729667497267025,96036.64054110915,285.2261664913698,-2.325487274458954,10.999127663428633,0.4998909579285791,49.9350995838008,0.0024338392405518997,0.7168097740265186,nominal,5271.741378466828,924.8402015044849,waypoint,4.3519473374185145,16.310667045900345,0.0,-3.533705252939651,-17.309994987575447,-14.53324351275224,-3.541733712880111,-3.286626123939002,-0.57200608062134,0.78,0.0,0.0,0.0,0.0,0.0,0.0,-0.06181491451864144,-0.05736244714479481,-0.009983389448270513,-0.06181491451864144,-0.05736244714479481,-0.009983389448270513,0.36,1.0,0.08655807673267749,0.3905814480022842,6.5863801786219796,0.40296102067389655,0.0513514379035805,-0.9827950379865786,6.598518775112769,1.0634381228112684,1.0,0.0,10.702734690306947,-179.9747044160921,452.1857669076222,41.77375688587066,2.7911998796087967,-0.42928282267334844,1.0,450.20160519566224,0.0,1.0,44.50998898145942,1157.873907558815,1.0,1.0,-7.945249933576696,22.701824641995092,1.097077210116122,-42.310469522087075,1.0,449.67721874212185,0.0,1.0,2.475255522637047,1.3273375128329916,,,
0.4,16.595644698379004,-178.86974056122426,449.77735433237746,41.36481898634912,2.9620845086281484,-1.0796364220245724,41.484790094846154,10.999279828382573,2.804979736043334,1.2113784915305827,-11.324163593668247,-20.800433945758,0.08442272956377793,-38.41340557798823,3.2858556958449183,0.7707484988344312,1158.9315632033463,0.13129865354055717,44.45290354115211,0.7690997021320628,1.1729716626192122,96037.13729903485,285.2264471968395,-2.3312522410870025,10.976326909657725,0.4970408637072156,50.91250196529338,0.002481588310199456,0.73085204646507,nominal,5271.302996470332,923.2269588290134,waypoint,4.3622544934991145,16.332511644807862,0.0,-2.414427755828501,22.23303216940973,-3.2835029899595627,-2.639888947238823,1.5133738760609974,-2.741203608091918,0.78,0.0,1.0,0.0,0.0,0.0,0.0,-0.046074754016324326,0.026413356950932998,-0.047843028428752245,-0.046074754016324326,0.026413356950932998,-0.047843028428752245,0.4,1.0,0.0931568102955958,-1.3020464240917176,7.431894570824414,-0.36350428518772293,-0.0006161465384581393,-0.6706602160052468,7.545664980215056,0.7628373813065263,1.0,0.0,17.52782845894835,-179.78591475943952,449.7471141881939,41.20353674210167,3.0232705129962474,-1.3513627135777244,1.0,448.5300825159278,0.0,1.0,44.63096424896235,1140.2183047879323,1.0,1.0,-10.19767515889534,22.630589275636513,2.6851050896477635,-42.14049585683,1.0,449.57554447398684,0.0,1.0,2.6992071437529814,1.3324683752842224,,,
0.44,18.24960229839588,-178.75382650877896,449.73025431240774,41.348940000421926,2.897851311132504,-1.1775004992427305,41.46708199048544,10.999180564850164,3.538765135167467,1.1169950562042588,-11.095084322014648,18.46124863598406,2.6728438617074883,5.586594422011772,3.303367854516667,0.4845805975616086,1159.086758776098,0.13130707413931214,44.45577830520017,0.7580128113954773,1.1729770208607846,96037.67908815437,285.2267533469693,-2.3447100965633134,10.9227780878723,0.4903472609840376,51.67211695439901,0.0025187765086459838,0.7417738139172766,nominal,5270.106642855594,921.6155075403578,waypoint,4.372833434776538,16.354575883851076,0.0,-2.768420048205173,-13.289635811597927,20.15676127189814,-2.7427138280119028,-3.286626123939002,2.0587963919080816,0.78,0.0,0.0,0.0,0.0,0.0,0.0,-0.047869386738785186,-0.05736244714479481,0.035932775666975565,-0.047869386738785186,-0.05736244714479481,0.035932775666975565,0.44,1.0,0.14576615713929925,0.21239577801249576,7.393602712538522,0.3212690353344887,0.044077981169765905,0.10020666860543676,7.3980889971628265,0.3394083645430015,1.0,0.0,17.52782845894835,-179.78591475943952,449.7471141881939,41.20353674210167,3.0232705129962474,-1.3513627135777244,1.0,448.4125544394006,0.0,1.0,45.01629574108947,1139.23373305847,1.0,1.0,-10.19767515889534,22.630589275636513,2.6851050896477635,-42.14049585683,1.0,449.57554447398684,0.0,1.0,2.6992071437529814,1.3324683752842224,,,
0.48,19.903481283850983,-178.63830117677355,449.6793529646127,41.346974636377546,2.888133300134789,-1.2725336948764812,41.46725174815895,10.999079813789818,2.5236024051018133,0.9222545099837877,-11.452503866611982,-25.53875136401594,4.389449984180828,-9.179425281733227,3.2285557459872494,1.0018591524962517,1159.5453707380482,0.13133264813360648,44.46446251441462,0.7105652312083223,1.1729828115740306,96038.2646065361,285.22708420573,-2.3657571506975184,10.838895279422252,0.4798619099277814,52.260146239356224,0.0025479378437035976,0.7502685219356596,nominal,5269.614510523015,920.00469916809,waypoint,4.383683949010242,16.376739949405454,0.0,-3.6869100719232892,24.000000000000004,12.991630228593236,-3.498070823141012,1.5133738760609974,6.858796391908082,0.78,0.0,1.0,0.0,0.0,0.0,0.0,-0.06105285333175891,0.026413356950932998,0.11970857976270338,-0.06105285333175891,0.026413356950932998,0.11970857976270338,0.48,1.0,0.2943704543130291,1.0867290928582838,6.844071481093678,-0.4461406161160331,0.0728845709486089,-0.16154077217602353,6.936061456183679,0.4800510713517702,1.0,0.0,17.52782845894835,-179.78591475943952,449.7471141881939,41.20353674210167,3.0232705129962474,-1.3513627135777244,1.0,450.794160993181,0.0,1.0,44.45191851683443,1140.2789210127646,1.0,1.0,-9.042225042851502,22.82231847130434,2.8988529161039405,-42.111899812534936,1.0,449.787750501975,0.0,1.0,2.9416496245183192,0.9848660633203987,,,
0.52,21.557801931177476,-178.5214983709747,449.6238301822862,41.35801618316235,2.9200701449712296,-1.3880695581612326,41.48420240714005,10.99897789627607,3.2921827614999635,0.7076061367799122,-13.57144507738493,18.46124863598406,2.6719476812653564,-53.179425281733224,3.2935311494218,3.2698177380551736,1160.4484867028698,0.13138334575721614,44.48165502891662,0.7313664066186762,1.1729891280625777,96038.90328859133,285.2274451038151,-2.3942324717878583,10.725327131754849,0.46566589146935605,52.712941000447806,0.002571007518795564,0.7568755170610686,nominal,5269.773058935399,918.393633332772,waypoint,4.394863085732458,16.398913527770627,0.0,-3.771050861948934,-13.39196999621591,-9.280604973681683,-3.7164548541873494,-3.286626123939002,2.058796391908082,0.78,0.0,0.0,0.0,0.0,0.0,0.0,-0.06486437370729502,-0.05736244714479481,0.03593277566697557,-0.06486437370729502,-0.05736244714479481,0.03593277566697557,0.52,1.0,0.2401255638338692,-1.7619788907557832,6.941497863401573,0.3231929351010052,0.048428263912060475,-0.9254006467845428,7.165655761023141,0.9814098670351694,1.0,0.0,17.52782845894835,-179.78591475943952,449.7471141881939,41.20353674210167,3.0232705129962474,-1.3513627135777244,1.0,449.9642819549329,0.0,1.0,43.99230602078161,1146.0046597378578,1.0,1.0,-9.042225042851502,22.82231847130434,2.8988529161039405,-42.111899812534936,1.0,449.787750501975,0.0,1.0,2.9416496245183192,0.9848660633203987,,,
0.56,23.211554458217353,-178.40813436495563,449.5635524806991,41.343813175996964,2.8341001504768246,-1.506942539678003,41.46822744478674,10.998875055975319,2.2751248949705785,0.6878886213372838,-13.938108473894287,-25.53875136401594,0.04721611049802529,-9.179425281733227,3.3637003451695295,3.7653066975359457,1161.2692037863815,0.1314293229627998,44.497251811912456,0.7877129193269463,1.1729959855187702,96039.5966706755,285.2278369088754,-2.429916710637544,10.582951842565627,0.44786898032070355,53.064058827492914,0.002589040337509965,0.7620142910474978,nominal,5268.51935564113,916.7846177160106,waypoint,4.406369854865435,16.42136239241732,0.0,-2.3127679307808124,24.000000000000004,15.340560641876975,-2.59350531546212,1.5133738760609974,6.858796391908083,0.78,0.0,1.0,0.0,0.0,0.0,0.0,-0.045265206922788195,0.026413356950932998,0.1197085797627034,-0.045265206922788195,0.026413356950932998,0.1197085797627034,0.56,1.0,0.2595173548965664,-0.8919643571401258,7.6562051553887915,-0.44654824489567624,0.003405870895258618,-0.15886344439470154,7.712355480221514,0.4739773506623628,1.0,0.0,17.52782845894835,-179.78591475943952,449.7471141881939,41.20353674210167,3.0232705129962474,-1.3513627135777244,1.0,450.5919480043305,0.0,1.0,43.53528488306657,1147.169777307007,1.0,1.0,-13.140107035149697,22.80872894172687,4.177624443689826,-42.00205980018432,1.0,449.6936364343123,0.0,1.0,2.0321940620718904,0.6211977552382424,,,
0.6,24.86511237930594,-178.2965971058168,449.4998087883802,41.33894802721471,2.7884314784705997,-1.5935923079721004,41.46352023828793,10.998771494361819,2.4998693331901505,0.537820159176931,-14.734341388993798,5.405698632845372,2.9192662146668495,-20.044066028023444,3.3572784319560505,4.715233519684433,1162.246283813302,0.13148410104564007,44.51583003755175,0.7506016006941866,1.1730032373146633,96040.32992690276,285.2282512428755,-2.472532694595602,10.41287036888731,0.4266087961109138,53.33427219978177,0.002603310741690797,0.766011115259165,nominal,5267.699055130025,915.1767482668057,waypoint,4.41812935963022,16.443997443774485,0.0,-3.5099738647207954,-2.310055724292229,10.17244603024357,-3.3266801548690603,-1.5453698042215835,9.509716102576473,0.78,0.0,0.0,0.0,0.0,0.0,0.0,-0.05806152186321997,-0.0269717912445668,0.16597585691988226,-0.05806152186321997,-0.0269717912445668,0.16597585691988226,0.6,1.0,0.27203659721131457,-0.839660188021989,7.399287671393052,0.0947855259869387,0.05427522890378307,-0.34992627064038523,7.451744170702631,0.3665767195192117,1.0,0.0,27.613169603575546,-180.4146362012875,443.8448937584729,41.50047559284073,2.837503955239071,-1.4438861593980818,1.0,449.7150102606981,0.0,1.0,44.29735413444397,1158.0424716116331,1.0,1.0,-13.140107035149697,22.80872894172687,4.177624443689826,-42.00205980018432,1.0,449.6936364343123,0.0,1.0,2.0321940620718904,0.6211977552382424,,,
0.64,26.51854107849201,-178.18686679082873,449.4320139367635,41.335717479651734,2.743257874701503,-1.6948712904178693,41.46130234345974,10.998667361932151,0.9686734939763899,0.39501953827264513,-16.267677034512634,-38.59430136715463,2.408442365999839,-38.428409075940955,3.222783206169874,6.536710093648024,1163.4641499277577,0.13155243706338915,44.539000582885265,0.7841963739201733,1.1730109500279968,96041.10978938655,285.228691909411,-2.5217525006875086,10.216397913629384,0.40204973920367304,53.54055644311503,0.0026147399941095413,0.7691197563126839,nominal,5266.942255480852,913.5700071258537,waypoint,4.430179798177883,16.466819585535482,0.0,-3.5052305296474953,24.000000000000004,1.6093124417579892,-3.4695204546918084,3.254630195778416,4.709716102576473,0.78,0.0,1.0,0.0,0.0,0.0,0.0,-0.0605545553996628,0.05680401285116101,0.08220005282415445,-0.0605545553996628,0.05680401285116101,0.08220005282415445,0.64,1.0,0.31524338304297483,-3.366583777768585,6.8996782890224155,-0.6766375626336952,0.0453974946473285,-0.668400161945378,7.683672638477921,0.9521859588209278,1.0,0.0,27.613169603575546,-180.4146362012875,443.8448937584729,41.50047559284073,2.837503955239071,-1.4438861593980818,1.0,449.68200125327684,0.0,1.0,44.46745625540942,1164.895320281079,1.0,1.0,-15.093747152315348,22.68951624018892,6.015047929769474,-41.79576202399458,1.0,449.16939965239237,0.0,1.0,1.242426607672333,0.21222488330121286,,,
0.68,28.170869244019695,-178.08266894130094,449.35946603876897,41.308204138192124,2.60494623819515,-1.8136974498624303,41.42997673745518,10.998562772332386,1.1834629957766474,0.3409732092092308,-16.04375501534602,5.405698632845372,1.4560510454594708,5.571590924059044,3.30730115131476,6.410318317558692,1164.4150164028938,0.13160561134636445,44.557040346145484,0.7770226698962208,1.1730192035168705,96041.94433312588,285.229163470748,-2.577197362091569,9.99505375540111,0.37438171942513854,53.70093495778948,0.002623634567478027,0.7715375882431986,nominal,5264.932493862132,911.9664370364302,waypoint,4.442556936447432,16.490037498350596,0.0,-2.8977973555381937,-3.737079592463309,24.000000000000004,-3.012141975368917,-1.5453698042215835,9.509716102576473,0.78,0.0,0.0,1.0,0.0,0.0,0.0,-0.052571795007713536,-0.0269717912445668,0.16597585691988226,-0.052571795007713536,-0.0269717912445668,0.16597585691988226,0.68,1.0,0.4093025002913434,-2.0144726673043607,7.3120641201004455,0.09318519196538562,0.02959088887478071,0.0974224546462886,7.59551909750225,0.13802259009065707,1.0,0.0,27.613169603575546,-180.4146362012875,443.8448937584729,41.50047559284073,2.837503955239071,-1.4438861593980818,1.0,446.93727094771765,0.0,1.0,44.64037596038543,1157.5168621933735,1.0,1.0,-15.093747152315348,22.68951624018892,6.015047929769474,-41.79576202399458,1.0,449.16939965239237,0.0,1.0,1.242426607672333,0.21222488330121286,,,
0.72,29.82268912453584,-177.9819200379577,449.2829126494063,41.29549701290365,2.5187225835810687,-1.9138347340666173,41.41647981643413,10.998457826949688,-0.3597628698210802,0.25183021257433663,-16.131284480626288,-38.59430136715463,2.2129895730831284,-2.2043710929207316,3.1322246430906864,6.794876256412568,1165.7475078080722,0.1316802871664947,44.582361845618145,0.7005097441325615,1.173027912742909,96042.82495979469,285.22966106777886,-2.6384382559604775,9.750549500261652,0.3438186875327065,53.82066199575041,0.0026309783200276905,0.7734181241891545,nominal,5263.6226755258485,910.3648333894918,waypoint,4.455221103090835,16.513537608744738,0.0,-3.255014032107086,24.000000000000004,21.751974570768976,-3.206439620759452,3.254630195778416,14.309716102576473,0.78,0.0,1.0,0.0,0.0,0.0,0.0,-0.05596292864865076,0.05680401285116101,0.24975166101561008,-0.05596292864865076,0.05680401285116101,0.24975166101561008,0.72,1.0,0.4732986888480683,-0.9867932223050753,6.7932100761304754,-0.6717025044218579,0.036786800476640416,-0.03718230374232688,6.880804869409766,0.6737358880507188,1.0,0.0,27.613169603575546,-180.4146362012875,443.8448937584729,41.50047559284073,2.837503955239071,-1.4438861593980818,1.0,448.7218518262586,0.0,1.0,44.599082142649685,1174.4791825062282,1.0,1.0,-17.33232736585402,22.870348150083686,6.948140482226709,-41.595227872217414,1.0,449.01356126951964,0.0,1.0,-0.606910696554314,0.5703070224235077,,,
0.76,31.474676633388295,-177.88276918480292,449.20154420092024,41.299687721311365,2.4787713288697737,-2.034211212151573,41.42398494150831,10.998352587816887,-0.13636915731477262,0.20181919791246714,-17.941271663845622,5.405698632845372,1.4461920610112198,-45.24733589131953,3.2294091757465364,8.890429295383742,1167.755624970345,0.13179301240663122,44.62056805770475,0.8260750508818668,1.1730371698165394,96043.76098333423,285.230189962694,-2.705003722137602,9.48477584624407,0.31059698078050874,53.905569204397004,0.002637387192296173,0.7748807632582313,nominal,5263.135587655108,908.7640955248145,waypoint,4.468230367751563,16.53722125899319,0.0,-2.97462074153335,-5.08418440503207,-0.14043598522486456,-3.0209845173785705,-1.5453698042215835,9.509716102576473,0.78,0.0,0.0,0.0,0.0,0.0,0.0,-0.05272612648002791,-0.0269717912445668,0.16597585691988226,-0.05272612648002791,-0.0269717912445668,0.16597585691988226,0.76,1.0,0.4011212368443248,-3.7464732367867213,7.147515528878212,0.09385177680884166,0.026929554111657743,-0.7890510774091445,8.07984765921746,0.7950691540082291,1.0,0.0,27.613169603575546,-180.4146362012875,443.8448937584729,41.50047559284073,2.837503955239071,-1.4438861593980818,1.0,447.6048080767434,0.0,1.0,44.429220439020376,1180.2633007846587,1.0,1.0,-17.33232736585402,22.870348150083686,6.948140482226709,-41.595227872217414,1.0,449.01356126951964,0.0,1.0,-0.606910696554314,0.5703070224235077,,,
0.8,33.125367188947344,-177.78954289904712,449.1159425332266,41.267263888976245,2.3306571438952264,-2.14004169234149,41.38838979774101,10.998247092329196,-1.6798991598675537,0.13223130201029715,-17.992270099443736,-38.59430136715463,1.7598458862352655,-1.2473358913195296,3.002526468066576,9.20620383630737,1168.8589808842887,0.1318545841886595,44.64145768124612,0.7178656654404538,1.1730469085526727,96044.74571176704,285.23074637353403,-2.776379095450131,9.199787963000118,0.27497349537501475,53.97546825117263,0.002642043401052814,0.7760183714230688,nominal,5260.8222628683425,907.166813239081,waypoint,4.481536856483089,16.561325678180776,0.0,-3.1800995820885873,24.000000000000004,24.000000000000004,-3.148276569146584,3.254630195778416,14.309716102576473,0.78,0.0,1.0,1.0,0.0,0.0,0.0,-0.054947791894998814,0.05680401285116101,0.24975166101561008,-0.054947791894998814,0.05680401285116101,0.24975166101561008,0.8,1.0,0.439648935376222,-2.6747880862119797,6.47384890504738,-0.6736209993709409,0.035663653609435214,-0.020816399793669563,7.018440149912383,0.6748855232427562,1.0,0.0,33.32526685347293,-172.74896193412414,449.7846696210494,40.94368445002917,2.4118496093883035,-2.333708629398368,1.0,450.87529063758046,0.0,1.0,44.98846438271274,1160.3896632273327,1.0,1.0,-17.649557930257718,22.717752306102643,8.579518457203124,-41.394490319453375,1.0,449.21193502399325,0.0,1.0,-1.6200186595058335,0.6385961367588227,,,
0.84,34.77553368928045,-177.7003620289854,449.02515161056823,41.25416250832763,2.2295217515428734,-2.2697730664591185,41.376666870077045,10.998141410593155,-1.6058333401035254,0.11897772006943512,-18.572523595659856,1.8198445214532393,0.7470954473356726,-14.490967283569086,3.1021068514636037,10.050259726259098,1170.7731263923768,0.13196178629752817,44.677798871982446,0.7535761118818401,1.173057237727896,96045.79014431292,285.2313365145313,-2.852014872678657,8.897789599621962,0.23722369995274525,54.02091725432833,0.0026464206973343066,0.776903177773498,nominal,5259.446783680444,905.5717988080472,waypoint,4.495208588575586,16.585752575428092,0.0,-2.7475970074998464,-3.354657791769082,17.76142261528193,-2.8277329198291943,-1.5453698042215835,17.071081312740837,0.78,0.0,0.0,0.0,0.0,0.0,0.0,-0.04935324981805229,-0.0269717912445668,0.29794657578300343,-0.04935324981805229,-0.0269717912445668,0.29794657578300343,0.84,1.0,0.49655807502907773,-2.51837964460863,6.988396213984849,0.03422553158288047,0.015142033399660384,-0.2559033618984685,7.4448967487731785,0.2586255958302382,1.0,0.0,33.32526685347293,-172.74896193412414,449.7846696210494,40.94368445002917,2.4118496093883035,-2.333708629398368,1.0,453.44750807056215,0.0,1.0,44.47187372906499,1163.817969423379,1.0,1.0,-17.649557930257718,22.717752306102643,8.579518457203124,-41.394490319453375,1.0,449.21193502399325,0.0,1.0,-1.6200186595058335,0.6385961367588227,,,
0.88,36.42516444463981,-177.61499227296673,448.92985249363437,41.24076888398396,2.1342439004670735,-2.3824779233471003,41.36462517930142,10.998035553765261,-3.289827683883212,0.12198033857331256,-20.04193025052385,-42.18015547854676,1.494195678400856,-36.71076157945569,2.8134152520404827,11.899687345222665,1172.7121425092314,0.13207026386325435,44.71457426164983,0.8252218369052742,1.1730680798698678,96046.88644771645,285.23195595879133,-2.9313262103766773,8.581116043531484,0.19763950544143538,54.05246926529163,0.0026501459988908195,0.7775913604904985,nominal,5258.014046068748,903.9789525839883,waypoint,4.509204611772909,16.610489044958218,0.0,-2.732398683278968,24.000000000000004,7.112549228663327,-2.751465530589013,3.254630195778416,12.271081312740836,0.78,0.0,1.0,0.0,0.0,0.0,0.0,-0.048022132763911034,0.05680401285116101,0.2141707716872756,-0.048022132763911034,0.05680401285116101,0.2141707716872756,0.88,1.0,0.5792879028464704,-5.216718557055547,6.139227429346612,-0.7361969770989688,0.02621371803802611,-0.6384789471763339,8.07711832321118,0.9748479440868901,1.0,0.0,33.32526685347293,-172.74896193412414,449.7846696210494,40.94368445002917,2.4118496093883035,-2.333708629398368,1.0,449.4336134364043,0.0,1.0,44.467621203245045,1185.306499634979,1.0,1.0,-19.84930659418735,22.4522350262428,10.554821622809941,-41.090601204765235,1.0,449.1238472823827,0.0,1.0,-3.3073861191158276,0.11735670903996924,,,
0.92,38.0730115101917,-177.5371805652402,448.82922602220987,41.19617663879722,1.9452926931637402,-2.5156617856131893,41.31873288880786,10.997929547925306,-3.6990286147181997,0.02704634212217528,-19.755617055308953,-10.220757835810431,1.9326690892461724,7.289238420544308,2.7567860624272296,11.81827963756596,1173.9190175902695,0.13213740893951212,44.737358632860555,0.7076522493979971,1.1730795281860156,96048.04404701824,285.2326100308556,-3.0137021454135806,8.252216062212419,0.15652700777655232,54.079570556574794,0.002652825814364663,0.7781266137148322,nominal,5255.12997313903,902.390609397727,waypoint,4.523567005921051,16.635742507927812,0.0,-3.455442881541496,5.5174493851799085,24.000000000000004,-3.3146474113509994,5.0648855472996095,17.071081312740837,0.78,0.0,0.0,1.0,0.0,0.0,0.0,-0.0578515108707818,0.08839892903705318,0.29794657578300343,-0.0578515108707818,0.08839892903705318,0.29794657578300343,0.92,1.0,0.662750333066948,-3.786173200383177,5.7410147014589,-0.1760235165275027,0.03712464808337813,0.1256042365053889,6.908950376840708,0.21940588436531133,1.0,0.0,33.32526685347293,-172.74896193412414,449.7846696210494,40.94368445002917,2.4118496093883035,-2.333708629398368,1.0,449.29185384502983,0.0,1.0,45.50201618902643,1197.6585603973697,1.0,1.0,-19.84930659418735,22.4522350262428,10.554821622809941,-41.090601204765235,1.0,449.1238472823827,0.0,1.0,-3.3073861191158276,0.11735670903996924,,,
0.96,39.71990655016457,-177.46486048537218,448.72251444620304,41.172375999321815,1.808001996700466,-2.6677894001706255,41.298311308493794,10.997823434892732,-3.663988035529985,0.06308500240809212,-19.82138852034652,0.8747212024431102,-0.7935273153305434,-1.6987445731792117,2.922952444896309,12.157352629667423,1175.9829799515298,0.1322526735066863,44.776437848336364,0.7408672003657173,1.1730916689004673,96049.2716612449,285.2333036560997,-3.098507986474212,7.913632967425933,0.1142041209282416,54.09116168184884,0.002655712214025897,0.7785429217782028,nominal,5253.23990476049,900.8054581970969,waypoint,4.538352482223262,16.66140429541941,0.0,-2.358566830893184,-4.651698153647033,24.000000000000004,-2.5497829469847475,0.2648855472996101,21.014216262548167,0.78,0.0,0.0,1.0,0.0,0.0,0.0,-0.04450210763608786,0.004623124941325371,0.3667672635076027,-0.04450210763608786,0.004623124941325371,0.3667672635076027,0.96,1.0,0.5742279643793945,-3.0150131003265828,6.604366734549044,0.01391731862502207,-0.013009537671088523,-0.026108349654392102,7.282698793348124,0.032320051822388125,1.0,0.0,33.32526685347293,-172.74896193412414,449.7846696210494,40.94368445002917,2.4118496093883035,-2.333708629398368,1.0,448.9168677828904,0.0,1.0,44.73925357452804,1173.5646479966367,1.0,1.0,-19.403661853315377,22.550270029237588,10.724671668683136,-40.92291433160804,1.0,448.6086718685786,0.0,1.0,-3.569080687360621,0.4820769311949251,,,
1.0,41.36621212031522,-177.39669129239545,448.6109567632103,41.15763925376606,1.7042298244186864,-2.788942074818107,41.28721189586763,10.997717206404172,-5.385824762810799,0.16330103245148173,-21.36217226516491,-43.12527879755689,0.5415523385041807,-38.60381769464365,2.593620721804984,14.10723174441828,1178.2896481878374,0.13238143110159062,44.82008793775213,0.8399949472121255,1.1731043610655691,96050.55503886312,285.2340287810391,-3.1850873277711984,7.567984948335943,0.07099811854199292,54.09427950453063,0.002658454346844743,0.7788667169386022,nominal,5251.687572209074,899.2226831386943,waypoint,4.5534880910011815,16.68740093335561,0.0,-2.049021677003839,24.000000000000004,7.947781104626224,-2.1491739310000204,5.0648855472996095,16.214216262548167,0.78,0.0,1.0,0.0,0.0,0.0,0.0,-0.037510161293979785,0.08839892903705318,0.28299145941187487,-0.037510161293979785,0.08839892903705318,0.28299145941187487,1.0,1.0,0.7286770722766619,-5.6656985118358,5.9390061890235515,-0.7526204181316765,0.004952903041003219,-0.6748867453922179,8.240321863613103,1.0109075843732371,1.0,0.0,35.43409302285258,-178.33528266016768,448.59721572582674,41.248230467985884,1.8515298581959057,-2.7276997290340383,1.0,446.8489319840315,0.0,1.0,44.13357999126099,1176.872557537764,1.0,1.0,-19.403661853315377,22.550270029237588,10.724671668683136,-40.92291433160804,1.0,448.6086718685786,0.0,1.0,-3.569080687360621,0.4820769311949251,,,
1.04,43.01053574058833,-177.33652999005773,448.49398973530185,41.10809050682776,1.5040325584431606,-2.9241756977120787,41.23939891130191,10.997610868230298,-5.417910027589955,0.035688697773023,-21.1574292596357,-0.7932431570564015,2.694274651916123,5.396182305356346,2.57739003866731,14.097909337624447,1179.5819547858066,0.13245307905460724,44.84440539234329,0.7026100445832734,1.1731176687766642,96051.9006613714,285.2347890667205,-3.27277280899109,7.217944825623831,0.027243103202978812,54.100971159257355,0.0026602257486679926,0.7791185576189128,nominal,5248.567595720442,897.6447744085253,waypoint,4.5689989493850405,16.71394494763429,0.0,-3.774342134209845,-4.960621747713662,24.000000000000004,-3.44930849356788,0.2648855472996101,20.84284325250963,0.78,0.0,0.0,1.0,0.0,0.0,0.0,-0.060201790129765155,0.004623124941325371,0.36377624023337696,-0.060201790129765155,0.004623124941325371,0.36377624023337696,1.04,1.0,0.720408404407414,-4.387926787012166,5.315778412202812,-0.01269692191308063,0.045370267688981065,0.09947473026206224,6.930396084276944,0.11006768361761189,1.0,0.0,35.43409302285258,-178.33528266016768,448.59721572582674,41.248230467985884,1.8515298581959057,-2.7276997290340383,1.0,450.86128338887374,0.0,1.0,45.49228008486395,1161.1448326255822,1.0,1.0,-20.999405218386176,22.30651091107389,12.523627265418293,-40.57173481020927,1.0,448.3111023453402,0.0,1.0,-5.811779245765065,0.17020030634108768,,,
1.08,44.65362962350747,-177.28258741411182,448.37035384948024,41.07734707297845,1.3485643986474267,-3.0908971455399112,41.21553971083646,10.997504459200352,-7.209030616958907,0.1264890811010652,-21.48467768433318,-44.7932431570564,-1.3567354438792774,-8.382262041725465,2.3066466044364744,14.780743627214237,1181.7260670577039,0.13257242202628441,44.88487436199386,0.7072194947204985,1.173131735350508,96053.32302094434,285.2355926999784,-3.3608896234383936,6.866219383149544,-0.016722577106306955,54.09659584803547,0.0026624110833888496,0.7793144337035989,nominal,5246.371487405774,896.0706162520836,waypoint,4.584973325220772,16.740942874289605,0.0,-1.9687228443634868,24.000000000000004,24.000000000000004,-2.2648399742043654,5.0648855472996095,21.768568650501926,0.78,0.0,1.0,1.0,0.0,0.0,0.0,-0.03952891458064962,0.08839892903705318,0.37993319639767736,-0.03952891458064962,0.08839892903705318,0.37993319639767736,1.08,1.0,0.7917305857952547,-4.643442050783605,5.0447647573362,-0.7804078553959827,-0.024882522910936247,-0.14633746475352435,6.902031791895087,0.7943992788898158,1.0,0.0,35.43409302285258,-178.33528266016768,448.59721572582674,41.248230467985884,1.8515298581959057,-2.7276997290340383,1.0,448.82514571559625,0.0,1.0,44.82644412495272,1179.4670252382343,1.0,1.0,-20.999405218386176,22.30651091107389,12.523627265418293,-40.57173481020927,1.0,448.3111023453402,0.0,1.0,-5.811779245765065,0.17020030634108768,,,
1.12,46.29556739621127,-177.2349961900164,448.2400551159607,41.04844431759499,1.1897806023856283,-3.2574683379888274,41.19467755365381,10.997397962757017,-7.349477279211367,0.25289456053739984,-22.124551900563837,-3.56413041956342,-1.107769703424752,-16.26843386396038,2.447720267398899,15.704612294634133,1184.04791700086,0.1327015614770037,44.92866364221722,0.8020373103462347,1.1731465601241646,96054.82205119653,285.23643964174624,-3.448757808080338,6.515528436982884,-0.06055894537713944,54.087715778810185,0.002664571041010973,0.7794667817694658,nominal,5244.23406587769,894.5001907221681,waypoint,4.601413201551577,16.768406383884383,0.0,-1.7158950230001562,-4.428417661788312,21.590015679185502,-1.825684013240998,0.2648855472996101,21.625726273448784,0.78,0.0,0.0,0.0,0.0,0.0,0.0,-0.031864197132079164,0.004623124941325371,0.3774401266067249,-0.031864197132079164,0.004623124941325371,0.3774401266067249,1.12,1.0,0.7336954044755893,-5.331230802181377,5.689877631432472,-0.06169401880657394,-0.016634012801856533,-0.28528529809113223,7.831668932823431,0.2923534567015489,1.0,0.0,35.43409302285258,-178.33528266016768,448.59721572582674,41.248230467985884,1.8515298581959057,-2.7276997290340383,1.0,447.31992239237667,0.0,1.0,45.325134509573864,1196.6736065916925,1.0,1.0,-22.58980355874807,22.104254416829786,14.285651359460593,-40.14319055506422,1.0,448.05526493566305,0.0,1.0,-6.948372926957539,0.49566712930984597,,,
1.16,47.935812293353294,-177.19464229044272,448.10422297399447,41.0061224285506,1.0088474893421744,-3.3958035491550156,41.1588548386187,10.997291379915376,-9.250497303165178,0.24444524865812042,-22.44030486522372,-47.56413041956342,1.3487190457035034,-7.781668620672489,1.9445414643338854,16.318969334742132,1185.7342473169965,0.132794944944617,44.96034999367227,0.7120078275730714,1.1731620146154427,96056.38476107286,285.23732255066903,-3.5356977146241313,6.1685838036595095,-0.10392702454256135,54.08185782092257,0.0026661614648428736,0.7795852747095845,nominal,5241.426944041165,892.9341894839001,waypoint,4.6182445675167205,16.79638229659826,0.0,-2.8244893728981006,24.000000000000004,24.000000000000004,-2.62472830096668,5.0648855472996095,21.925145254689756,0.78,0.0,1.0,1.0,0.0,0.0,0.0,-0.045810150822145235,0.08839892903705318,0.38266597367234695,-0.045810150822145235,0.08839892903705318,0.38266597367234695,1.16,1.0,0.8956102954692811,-5.714874787229098,3.957845825130821,-0.8271745547370198,0.02179696480615158,-0.13697386685464638,7.009026694952936,0.8387220587776751,1.0,0.0,35.43409302285258,-178.33528266016768,448.59721572582674,41.248230467985884,1.8515298581959057,-2.7276997290340383,1.0,447.745383386051,0.0,1.0,44.248507028508776,1182.4799760088067,1.0,1.0,-22.58980355874807,22.104254416829786,14.285651359460593,-40.14319055506422,1.0,448.05526493566305,0.0,1.0,-6.948372926957539,0.49566712930984597,,,
1.2,49.57438707417011,-177.16219533466648,447.96041611728447,40.964369520420455,0.8111738944061405,-3.595171417749691,41.12982896652407,10.997184733456782,-9.662288160507877,0.29257262073783885,-22.33937997554711,-10.282991363008586,-1.60138130307766,2.2911441855496797,2.0601966496696487,16.456142544402038,1187.7971000317393,0.13290926354553778,44.99912854528762,0.7498889590826487,1.173178376610744,96058.03924019235,285.23825729523764,-3.621042293250165,5.828068330295633,-0.14649145871304595,54.07101746717899,0.00266792616839921,0.7796774358852324,nominal,5238.822430124329,891.3729968288322,waypoint,4.6356246978974935,16.82491474523883,0.0,-2.1655608271841666,-0.6871709272660548,24.000000000000004,-2.2573943219406694,0.46324036764707877,21.98502905093795,0.78,0.0,0.0,1.0,0.0,0.0,0.0,-0.03939896343368955,0.008085069643590542,0.3837111430854714,-0.03939896343368955,0.008085069643590542,0.3837111430854714,1.2,1.0,0.9463931170869441,-5.738931574416366,4.426358686597289,-0.1790877664327984,-0.028945122738595883,0.04260992313082586,7.309148156270875,0.18634874232324675,1.0,0.0,50.480789937977015,-170.95365960236697,447.90318918777433,41.15649761814163,0.4687097934466298,-3.721909639833923,1.0,446.1194014914609,0.0,1.0,44.71093614888583,1196.6389111254618,1.0,1.0,-20.629523040306342,21.969866250977244,15.994690961523261,-39.57982964737905,1.0,448.2303843893904,0.0,1.0,-9.561407433195914,0.42928130306607243,,,
1.24,51.21123475628976,-177.13760184893962,447.80951062151735,40.92119205299122,0.6148371431710715,-3.7726373941785223,41.09932817770102,10.997078016410047,-11.835401824055491,0.3185838779125068,-21.954290016757508,-54.282991363008584,-2.434812619031444,9.338627881686122,1.6581582748493868,16.356426064204584,1189.6798091863927,0.13301335321987784,45.03444764971145,0.6816834338622,1.1731955464596937,96059.7754130392,285.2392381809601,-3.7041319468884994,5.496615148716899,-0.18792310641038767,54.06029075112416,0.00266949049754351,0.7797491167996252,nominal,5236.0885256656875,889.8165996683086,waypoint,4.65349971038056,16.8540019376245,0.0,-2.2224480625233682,24.000000000000004,24.000000000000004,-2.2294373144068285,5.263240367647079,21.99700581018759,0.78,0.0,1.0,1.0,0.0,0.0,0.0,-0.038911021603219166,0.09186087373931835,0.38392017696809627,-0.038911021603219166,0.09186087373931835,0.38392017696809627,1.24,1.0,1.035207679908087,-5.663790897826231,3.367423939430781,-0.949928275316219,-0.04082894890633692,0.16269357752200325,6.67006193844491,0.9646242436726079,1.0,0.0,50.480789937977015,-170.95365960236697,447.90318918777433,41.15649761814163,0.4687097934466298,-3.721909639833923,1.0,449.53353974815633,0.0,1.0,46.09529851416772,1170.4518387800406,1.0,1.0,-20.629523040306342,21.969866250977244,15.994690961523261,-39.57982964737905,1.0,448.2303843893904,0.0,1.0,-9.561407433195914,0.42928130306607243,,,
1.28,52.846674141743286,-177.12081724094958,447.6500891156577,40.885984636338,0.4196151997512412,-3.9855376464906853,41.081922142596056,10.996971236790145,-12.249959855272184,0.40861875025664407,-21.443712958669185,-10.282991363008586,-4.864505703004305,12.013802588098848,1.9162275829716502,16.09143674380718,1192.0950050405536,0.13314703031372435,45.07978870510479,0.7236156536283066,1.1732136854590283,96061.60959047188,285.2402744207482,-3.784328037820325,5.176787314024753,-0.2279015857469059,54.044002455130894,0.0026713730388766067,0.7798048686219308,nominal,5233.809909891226,888.2648151178408,waypoint,4.671964647548397,16.88364966064135,0.0,-1.546349701615878,-3.416678489201471,24.000000000000004,-1.682967224174068,0.46324036764707877,21.99940116203752,0.78,0.0,0.0,1.0,0.0,0.0,0.0,-0.029373319264986993,0.008085069643590542,0.38396198374462126,-0.029373319264986993,0.008085069643590542,0.38396198374462126,1.28,1.0,0.9142777304090635,-5.5565019019460395,4.307364231870807,-0.17576600689365585,-0.08563626343178361,0.20538424743420583,7.089711121100202,0.2835664787805738,1.0,0.0,50.480789937977015,-170.95365960236697,447.90318918777433,41.15649761814163,0.4687097934466298,-3.721909639833923,1.0,448.9871799734354,0.0,1.0,44.16100755085891,1176.9774588152031,1.0,1.0,-20.895593253658905,22.066204230030753,17.437847301825293,-38.9311143601597,1.0,447.3580699479581,0.0,1.0,-11.683375620307508,0.250930839937143,,,
1.32,54.48081786473717,-177.11120233780557,447.48368720690644,40.85359307484709,0.24037257860022784,-4.160047718780726,41.06555543425986,10.99686438186859,-14.424263405444034,0.45540717460002056,-21.013514390935853,-54.282991363008584,-3.619709683364612,10.196652823513189,1.568896708753898,15.948198739373161,1194.3517819776628,0.13327167421248617,45.1220751256049,0.6544638174594112,1.1732326189183457,96063.52410913326,285.24135603315506,-3.8610099729269356,4.871057985050817,-0.26611775186864783,54.02821078994043,0.00267309757255012,0.7798482311503906,nominal,5231.505822709744,886.7172454324893,waypoint,4.690924915757873,16.913822999632973,0.0,-1.9320200693527803,24.000000000000004,24.000000000000004,-1.8822095003170378,5.263240367647079,21.999880232407502,0.78,0.0,1.0,1.0,0.0,0.0,0.0,-0.03285075299284956,0.09186087373931835,0.3839703450999262,-0.03285075299284956,0.09186087373931835,0.3839703450999262,1.32,1.0,1.1273695313610892,-5.385456029239932,3.2430234290167337,-0.9476585444491848,-0.062368046122013555,0.17508276978982812,6.3868066875606555,0.9657124138799827,1.0,0.0,50.480789937977015,-170.95365960236697,447.90318918777433,41.15649761814163,0.4687097934466298,-3.721909639833923,1.0,449.2782889326612,0.0,1.0,45.452888633007476,1195.1744383343168,1.0,1.0,-20.895593253658905,22.066204230030753,17.437847301825293,-38.9311143601597,1.0,447.3580699479581,0.0,1.0,-11.683375620307508,0.250930839937143,,,
1.36,56.11394234360839,-177.10871971454281,447.3089141879322,40.82811197178054,0.062065581568677336,-4.369325474356127,41.06129058392493,10.996757457965689,-14.838530542289927,0.5713821996108608,-20.684369537094472,-10.282991363008586,-4.883853739801054,7.229146057652269,1.825382864684481,15.864530330667847,1197.057016815098,0.13342112415724233,45.172764666342374,0.7049652699210556,1.1732525051068587,96065.53497393998,285.2424920577784,-3.933588803728223,4.581791299959516,-0.3022760875050605,54.00801421055893,0.002675100127225935,0.7798819575614149,nominal,5229.616755529846,885.1737490553114,waypoint,4.710473960177703,16.944527303656823,0.0,-1.3261819851296177,-6.13336868590146,24.000000000000004,-1.4373874881671018,0.46324036764707877,21.9999760464815,0.78,0.0,0.0,1.0,0.0,0.0,0.0,-0.02508714429548696,0.008085069643590542,0.38397201737098724,-0.02508714429548696,0.008085069643590542,0.38397201737098724,1.36,1.0,0.9551390479651749,-5.350485246929501,4.207401800620227,-0.1805079262040485,-0.08563534732995522,0.12459142743665706,6.873297090219539,0.23545604244850477,1.0,0.0,50.480789937977015,-170.95365960236697,447.90318918777433,41.15649761814163,0.4687097934466298,-3.721909639833923,1.0,449.3266720175294,0.0,1.0,45.30576171137578,1188.1117798087428,1.0,1.0,-20.02839025731562,22.020921214925252,18.897720111189077,-38.2727332807511,1.0,447.3958454228931,0.0,1.0,-14.93628579243833,0.573980246977428,,,
1.4000000000000001,57.746064480805785,-177.1128681905891,447.12724918142345,40.80305342993473,-0.10371190115695139,-4.541625162718894,41.05516148407154,10.9966504539606,-17.011754329955327,0.6362168924515353,-20.479025240458395,-54.282991363008584,-2.967681827038398,4.492387299452509,1.4591166810390173,15.924541424178177,1199.4526624960563,0.13355311099038308,45.217545412650146,0.6431331975132234,1.1732731757593196,96067.62517118144,285.24367288032073,-4.001503102506943,4.3112240948836895,-0.33609698813953887,53.98992361617541,0.0026768550690130745,0.7799081892144338,nominal,5227.583580426602,883.6340626631754,waypoint,4.730519822241257,16.975734196838214,0.0,-1.8187250598514235,24.000000000000004,24.000000000000004,-1.7424575455145592,5.263240367647079,21.9999952092963,0.78,0.0,1.0,1.0,0.0,0.0,0.0,-0.03041162124544801,0.09186087373931835,0.38397235182519945,-0.03041162124544801,0.09186087373931835,0.38397235182519945,1.4000000000000001,1.0,1.0611175408346707,-5.398272889537714,3.1150660484796946,-0.9487457674250703,-0.051311347351150234,0.08116876267470713,6.322258861496876,0.9535930754824716,1.0,0.0,55.197264566653615,-171.16434563335702,450.8240297105905,40.80246361925568,-0.14347354125090936,-4.223941826586232,1.0,445.0936210353554,0.0,1.0,44.91186414397941,1210.3313183684365,1.0,1.0,-20.02839025731562,22.020921214925252,18.897720111189077,-38.2727332807511,1.0,447.3958454228931,0.0,1.0,-14.93628579243833,0.573980246977428,,,
1.44,59.377328675848645,-177.12393271485232,446.93719395781545,40.78160487607145,-0.27661310658051186,-4.751380590199351,41.058390477363695,10.996543379757838,-17.425325232939056,0.7481687669202501,-20.292529214427404,-10.282991363008586,-4.053440784626156,3.6246564007991364,1.6933359875939769,15.951090841445989,1202.150735343103,0.1337017134292225,45.2679562867491,0.6899763960818226,1.173294801386207,96069.81194381446,285.2449082392742,-4.064232057323512,4.061448606959062,-0.36731892413011724,53.96892536971611,0.0026787970992095756,0.7799285916112263,nominal,5225.852347422246,882.0982745395561,waypoint,4.751162061359309,17.00746654108718,0.0,-1.3714631343471633,-8.742232330269365,24.000000000000004,-1.4456620165806424,0.46324036764707877,21.999999041859258,0.78,0.0,0.0,1.0,0.0,0.0,0.0,-0.025231562060353065,0.008085069643590542,0.3839724187160419,-0.025231562060353065,0.008085069643590542,0.3839724187160419,1.44,1.0,0.9176304987677681,-5.489704831325458,3.9820474736887363,-0.176398588975977,-0.0679963965136649,0.06187640467134786,6.843654502534279,0.19891873111050054,1.0,0.0,55.197264566653615,-171.16434563335702,450.8240297105905,40.80246361925568,-0.14347354125090936,-4.223941826586232,1.0,448.1027960328857,0.0,1.0,45.85080462836993,1189.4494493352784,1.0,1.0,-19.34903175597452,21.940760183428964,20.441829794308692,-37.42634715714532,1.0,446.83098907276275,0.0,1.0,-17.235472893098525,0.7539168891300366,,,
1.48,61.007702725767786,-177.14152465073548,446.7400413726372,40.759351247978465,-0.4397983970790744,-4.9288146294561175,41.05863308048257,10.99643622787387,-19.598676848030262,0.8085882175916892,-20.123829089644463,-54.282991363008584,-2.771775696377032,3.519959319647104,1.3374225062800613,16.00430761547965,1204.4628826643534,0.133828648717208,45.31103508754694,0.6343265765142467,1.1733172349158327,96072.08042117838,285.24618973107783,-4.1212908640632495,3.8343962955111777,-0.3957004630611028,53.95087195759024,0.002680449399423381,0.7799444601420649,nominal,5223.928901945822,880.5662156381434,waypoint,4.772320080430163,17.039701927671057,0.0,-1.806115500403997,24.000000000000004,24.000000000000004,-1.734024803639326,5.263240367647079,21.99999980837185,0.78,0.0,1.0,1.0,0.0,0.0,0.0,-0.03026444213475439,0.09186087373931835,0.38397243209421034,-0.03026444213475439,0.09186087373931835,0.38397243209421034,1.48,1.0,1.128485763746966,-5.374409005805172,2.819366674156535,-0.9452892540714556,-0.0481737370178839,0.06324089352502701,6.173052788046106,0.9486263191663411,1.0,0.0,55.197264566653615,-171.16434563335702,450.8240297105905,40.80246361925568,-0.14347354125090936,-4.223941826586232,1.0,446.1187786062111,0.0,1.0,45.53905642612585,1173.1194843049357,1.0,1.0,-19.34903175597452,21.940760183428964,20.441829794308692,-37.42634715714532,1.0,446.83098907276275,0.0,1.0,-17.235472893098525,0.7539168891300366,,,
1.52,62.637306239190174,-177.16598603706737,446.53436128365644,40.74008783555977,-0.6115346582971135,-5.142002224519392,41.067857484465705,10.996329009897893,-20.01319813225084,0.9156571377189546,-19.910927004198765,-10.282991363008586,-4.321679692183189,4.10019872975971,1.605632346121377,15.966723553492821,1207.0220705487109,0.13396909969462234,45.35869457306633,0.6804053611635316,1.1733406391198293,96074.44706394711,285.2475266516562,-4.172242731449005,3.631822906502043,-0.42102213668724464,53.930537466606864,0.002682257431040714,0.7799568023327171,nominal,5222.290653264562,879.0380113219094,waypoint,4.794089213103991,17.072466391437988,0.0,-1.3187202414294261,-8.742232330269365,24.000000000000004,-1.401781153871406,0.46324036764707877,21.99999996167437,0.78,0.0,0.0,1.0,0.0,0.0,0.0,-0.024465696527461292,0.008085069643590542,0.38397243476984405,-0.024465696527461292,0.008085069643590542,0.38397243476984405,1.52,1.0,1.0308465453309272,-5.494518742034668,3.752043745690856,-0.18029646482306572,-0.07650681266559108,0.07014334828064338,6.732771574631713,0.20803893126038323,1.0,0.0,55.197264566653615,-171.16434563335702,450.8240297105905,40.80246361925568,-0.14347354125090936,-4.223941826586232,1.0,443.58767785493336,0.0,1.0,45.371737572737814,1193.4324896139417,1.0,1.0,-20.773842491127926,21.933716007189673,22.059494313911397,-36.633541492873334,1.0,446.51410124710475,0.0,1.0,-20.282230359712944,0.7360599334232512,,,
1.56,64.2661439887024,-177.19674846410086,446.3215768938118,40.72094373780549,-0.7690606758370682,-5.319609746114701,41.07413980927169,10.996221719600651,-22.187480005731775,0.9768579642144988,-19.715825057690676,-54.282991363008584,-3.183697805147314,3.999807140267796,1.2889147143989752,15.953366832740446,1209.1624069953286,0.13408611801365236,45.39842420635211,0.6289261997982892,1.1733648520934823,96076.89550151106,285.2489097501902,-4.216693910726818,3.4552948957298595,-0.44308813803376756,53.91353819388838,0.0026837606111749022,0.7799664018143355,nominal,5220.461972581498,877.513393365271,waypoint,4.816380644158746,17.105726911199827,0.0,-1.7037407369091824,24.000000000000004,24.000000000000004,-1.643348820301627,5.263240367647079,21.99999999233487,0.78,0.0,1.0,1.0,0.0,0.0,0.0,-0.028681847673028026,0.09186087373931835,0.38397243530497077,-0.028681847673028026,0.09186087373931835,0.38397243530497077,1.56,1.0,1.1639241497695945,-5.424105728537457,2.6687675386516156,-0.9487739915691138,-0.05516051704207623,0.07138992913975901,6.156132110029018,0.9530536667475331,1.0,0.0,55.197264566653615,-171.16434563335702,450.8240297105905,40.80246361925568,-0.14347354125090936,-4.223941826586232,1.0,444.2887431304915,0.0,1.0,45.840909756531865,1218.4748165795352,1.0,1.0,-20.773842491127926,21.933716007189673,22.059494313911397,-36.633541492873334,1.0,446.51410124710475,0.0,1.0,-20.282230359712944,0.7360599334232512,,,
1.6,65.89434186544253,-177.23408187664236,446.10043858552933,40.70494691850326,-0.9333353135376983,-5.528457707062793,41.08926457195902,10.996114369176205,-22.6025134142658,1.0877260727581315,-19.509589973590447,-10.282991363008586,-4.526708920573535,3.7102845183938027,1.5855596782168075,15.88638159900864,1211.5131955500703,0.13421461889648056,45.44204609369686,0.6773347010492919,1.1733900160739128,96079.44011831172,285.25034714919406,-4.2543050131796365,3.3061773157682777,-0.4617278355289653,53.894660642302,0.0026853987424469705,0.7799738680778165,nominal,5218.914697587004,875.9924468785409,waypoint,4.839278432460381,17.139505175862137,0.0,-1.2165467079111125,-8.742232330269365,24.000000000000004,-1.3019071303892154,0.46324036764707877,21.999999998466976,0.78,0.0,0.0,1.0,0.0,0.0,0.0,-0.02272256598048293,0.008085069643590542,0.38397243541199616,-0.02272256598048293,0.008085069643590542,0.38397243541199616,1.6,1.0,0.8932693588538554,-5.447324027082743,3.7265561180766746,-0.1782594451867634,-0.07735647961516386,0.0635005665212883,6.66021694126211,0.20443281704576818,1.0,0.0,67.34901180285982,-172.34716376405316,446.8906641623518,40.97044108739163,-0.7983561470533017,-5.726705977931702,1.0,446.05797798703065,0.0,1.0,46.266667646385336,1204.0267803985994,1.0,1.0,-18.248197302532787,21.84914861679238,23.55840064541908,-35.69730987745084,1.0,446.1617846778786,0.0,1.0,-21.87461227692352,0.8310243776019967,,,
