time_s,sensor_time_s,imu_valid,imu_ax_mps2,imu_ay_mps2,imu_az_mps2,gyro_p_rps,gyro_q_rps,gyro_r_rps,imu_accel_norm_mps2,imu_gyro_norm_rps,gps_valid,gps_latency_s,gps_x_m,gps_y_m,gps_z_m,gps_vx_mps,gps_vy_mps,gps_vz_mps,baro_valid,baro_alt_m,baro_bias_m,pitot_valid,pitot_airspeed_mps,pitot_qbar_pa,pitot_compressibility_factor,mag_valid,mag_heading_deg,mag_x_ut,mag_y_ut,mag_z_ut,radar_valid,radar_agl_m,optical_flow_valid,horizon_valid,horizon_roll_deg,horizon_pitch_deg,optical_flow_x_radps,optical_flow_y_radps,optical_flow_quality
0.0,0.0,1.0,-3.567105342741267,11.55710602673345,7.05472871951396,-0.0025899185012765833,0.00014861275303437778,0.001697870518871144,14.0021476047536,0.00310040769778282,1.0,0.0,3.600756630726422,-178.47686827365297,451.3485857159196,42.18669712124764,2.0254531145758117,0.17937241014133767,1.0,449.3794866581097,0.0,1.0,45.818684704627636,1207.7762988351562,1.0,1.0,5.407943136095607,21.715519963451204,-1.678530464324453,-42.853314571377425,1.0,449.59370880351315,0.0,1.0,-0.27629555862650074,3.586918488082886,,,
0.04,0.04,1.0,-2.6533222319690246,8.722555796623015,9.397330070267973,0.767106955263303,-0.10321505849879731,-0.76751917658174,13.09323913099526,1.0900422540135577,1.0,0.0,3.600756630726422,-178.47686827365297,451.3485857159196,42.18669712124764,2.0254531145758117,0.17937241014133767,1.0,448.5194376638763,0.0,1.0,44.50354870095264,1186.1318474534414,1.0,1.0,5.407943136095607,21.715519963451204,-1.678530464324453,-42.853314571377425,1.0,449.59370880351315,0.0,1.0,-0.27629555862650074,3.586918488082886,,,
0.08,0.08,1.0,-1.8471134434890166,4.710139258548789,6.769128587240562,-0.005257704657193345,0.13671982082053669,-1.534002639205355,8.450937328997169,1.5400922212492523,1.0,0.0,3.600756630726422,-178.47686827365297,451.3485857159196,42.18669712124764,2.0254531145758117,0.17937241014133767,1.0,449.2746550096728,0.0,1.0,45.31793392758456,1163.4492854094253,1.0,1.0,-1.958929557344723,21.953066914564776,-0.895388081796087,-42.59169122279886,1.0,450.2337521242542,0.0,1.0,1.9747043906735389,3.216212697177489,,,
0.12,0.12,1.0,-1.2809796779629892,0.24579581512608373,5.727366655018131,0.7283409345537221,0.09148161423089032,-1.9271531696525774,5.874015093537063,2.0622242220454243,1.0,0.0,3.600756630726422,-178.47686827365297,451.3485857159196,42.18669712124764,2.0254531145758117,0.17937241014133767,1.0,450.3923036959097,0.0,1.0,44.24868422904549,1176.1880257762557,1.0,1.0,-1.958929557344723,21.953066914564776,-0.895388081796087,-42.59169122279886,1.0,450.2337521242542,0.0,1.0,1.9747043906735389,3.216212697177489,,,
0.16,0.16,1.0,-1.1082403877806497,-2.768385719821343,7.657595558729872,-0.04015084002517608,-0.04661819744619954,-1.1607486058141154,8.21772024298092,1.1623780246491555,1.0,0.0,3.600756630726422,-178.47686827365297,451.3485857159196,42.18669712124764,2.0254531145758117,0.17937241014133767,1.0,448.98617159408997,0.0,1.0,44.54360397596113,1166.0567537820018,1.0,1.0,-7.311076856750069,22.13437484364229,0.6173785987653879,-42.607783420507914,1.0,450.0306845221809,0.0,1.0,3.615461089469371,2.695163421316739,,,
0.2,0.2,1.0,-0.770823578238347,-1.8722011843258686,7.433451714425994,0.16446617395128293,0.042616574820008024,-0.3883997397971347,7.704252764159682,0.42393354750248885,1.0,0.0,10.702734690306947,-179.9747044160921,452.1857669076222,41.77375688587066,2.7911998796087967,-0.42928282267334844,1.0,448.7687109082091,0.0,1.0,44.66696190915552,1172.9521955171708,1.0,1.0,-7.311076856750069,22.13437484364229,0.6173785987653879,-42.607783420507914,1.0,450.0306845221809,0.0,1.0,3.615461089469371,2.695163421316739,,,
0.24,0.24,1.0,-0.4416676112126868,0.2227562666102805,7.153279129071996,-0.5613807040793588,0.08526187845878974,0.3755593657882909,7.17036211997173,0.6807809633518415,1.0,0.0,10.702734690306947,-179.9747044160921,452.1857669076222,41.77375688587066,2.7911998796087967,-0.42928282267334844,1.0,449.15090408276575,0.0,1.0,44.62679082593263,1168.347332409577,1.0,1.0,-8.295086532831967,22.319637100966176,1.2810554941999044,-42.47401851375281,1.0,450.34016241154444,0.0,1.0,2.842870807169968,1.0960163792020512,,,
0.28,0.28,1.0,-0.2385535923211089,2.460553633039215,6.848347693594421,0.20802673802931831,0.10052318899607712,0.5532872153173648,7.280872072068827,0.5995888407022796,1.0,0.0,10.702734690306947,-179.9747044160921,452.1857669076222,41.77375688587066,2.7911998796087967,-0.42928282267334844,1.0,451.24175382532326,0.0,1.0,44.333468672820516,1177.6245710459975,1.0,1.0,-8.295086532831967,22.319637100966176,1.2810554941999044,-42.47401851375281,1.0,450.34016241154444,0.0,1.0,2.842870807169968,1.0960163792020512,,,
0.32,0.32,1.0,-0.022810479768619916,3.3304334033573375,6.4899029559009085,-0.3655728134457279,0.09295755001268352,-0.2193550967836369,7.294597134125843,0.43634991293679004,1.0,0.0,10.702734690306947,-179.9747044160921,452.1857669076222,41.77375688587066,2.7911998796087967,-0.42928282267334844,1.0,451.183269412023,0.0,1.0,44.55317804970415,1171.6364266005858,1.0,1.0,-7.945249933576696,22.701824641995092,1.097077210116122,-42.310469522087075,1.0,449.67721874212185,0.0,1.0,2.475255522637047,1.3273375128329916,,,
0.36,0.36,1.0,0.08655807673267749,0.3905814480022842,6.5863801786219796,0.40296102067389655,0.0513514379035805,-0.9827950379865786,6.598518775112769,1.0634381228112684,1.0,0.0,10.702734690306947,-179.9747044160921,452.1857669076222,41.77375688587066,2.7911998796087967,-0.42928282267334844,1.0,450.20160519566224,0.0,1.0,44.50998898145942,1157.873907558815,1.0,1.0,-7.945249933576696,22.701824641995092,1.097077210116122,-42.310469522087075,1.0,449.67721874212185,0.0,1.0,2.475255522637047,1.3273375128329916,,,
0.4,0.4,1.0,0.0931568102955958,-1.3020464240917176,7.431894570824414,-0.36350428518772293,-0.0006161465384581393,-0.6706602160052468,7.545664980215056,0.7628373813065263,1.0,0.0,17.52782845894835,-179.78591475943952,449.7471141881939,41.20353674210167,3.0232705129962474,-1.3513627135777244,1.0,448.5300825159278,0.0,1.0,44.63096424896235,1140.2183047879323,1.0,1.0,-10.19767515889534,22.630589275636513,2.6851050896477635,-42.14049585683,1.0,449.57554447398684,0.0,1.0,2.6992071437529814,1.3324683752842224,,,
0.44,0.44,1.0,0.14576615713929925,0.21239577801249576,7.393602712538522,0.3212690353344887,0.044077981169765905,0.10020666860543676,7.3980889971628265,0.3394083645430015,1.0,0.0,17.52782845894835,-179.78591475943952,449.7471141881939,41.20353674210167,3.0232705129962474,-1.3513627135777244,1.0,448.4125544394006,0.0,1.0,45.01629574108947,1139.23373305847,1.0,1.0,-10.19767515889534,22.630589275636513,2.6851050896477635,-42.14049585683,1.0,449.57554447398684,0.0,1.0,2.6992071437529814,1.3324683752842224,,,
0.48,0.48,1.0,0.2943704543130291,1.0867290928582838,6.844071481093678,-0.4461406161160331,0.0728845709486089,-0.16154077217602353,6.936061456183679,0.4800510713517702,1.0,0.0,17.52782845894835,-179.78591475943952,449.7471141881939,41.20353674210167,3.0232705129962474,-1.3513627135777244,1.0,450.794160993181,0.0,1.0,44.45191851683443,1140.2789210127646,1.0,1.0,-9.042225042851502,22.82231847130434,2.8988529161039405,-42.111899812534936,1.0,449.787750501975,0.0,1.0,2.9416496245183192,0.9848660633203987,,,
0.52,0.52,1.0,0.2401255638338692,-1.7619788907557832,6.941497863401573,0.3231929351010052,0.048428263912060475,-0.9254006467845428,7.165655761023141,0.9814098670351694,1.0,0.0,17.52782845894835,-179.78591475943952,449.7471141881939,41.20353674210167,3.0232705129962474,-1.3513627135777244,1.0,449.9642819549329,0.0,1.0,43.99230602078161,1146.0046597378578,1.0,1.0,-9.042225042851502,22.82231847130434,2.8988529161039405,-42.111899812534936,1.0,449.787750501975,0.0,1.0,2.9416496245183192,0.9848660633203987,,,
0.56,0.56,1.0,0.2595173548965664,-0.8919643571401258,7.6562051553887915,-0.44654824489567624,0.003405870895258618,-0.15886344439470154,7.712355480221514,0.4739773506623628,1.0,0.0,17.52782845894835,-179.78591475943952,449.7471141881939,41.20353674210167,3.0232705129962474,-1.3513627135777244,1.0,450.5919480043305,0.0,1.0,43.53528488306657,1147.169777307007,1.0,1.0,-13.140107035149697,22.80872894172687,4.177624443689826,-42.00205980018432,1.0,449.6936364343123,0.0,1.0,2.0321940620718904,0.6211977552382424,,,
0.6,0.6,1.0,0.27203659721131457,-0.839660188021989,7.399287671393052,0.0947855259869387,0.05427522890378307,-0.34992627064038523,7.451744170702631,0.3665767195192117,1.0,0.0,27.613169603575546,-180.4146362012875,443.8448937584729,41.50047559284073,2.837503955239071,-1.4438861593980818,1.0,449.7150102606981,0.0,1.0,44.29735413444397,1158.0424716116331,1.0,1.0,-13.140107035149697,22.80872894172687,4.177624443689826,-42.00205980018432,1.0,449.6936364343123,0.0,1.0,2.0321940620718904,0.6211977552382424,,,
0.64,0.64,1.0,0.31524338304297483,-3.366583777768585,6.8996782890224155,-0.6766375626336952,0.0453974946473285,-0.668400161945378,7.683672638477921,0.9521859588209278,1.0,0.0,27.613169603575546,-180.4146362012875,443.8448937584729,41.50047559284073,2.837503955239071,-1.4438861593980818,1.0,449.68200125327684,0.0,1.0,44.46745625540942,1164.895320281079,1.0,1.0,-15.093747152315348,22.68951624018892,6.015047929769474,-41.79576202399458,1.0,449.16939965239237,0.0,1.0,1.242426607672333,0.21222488330121286,,,
0.68,0.68,1.0,0.4093025002913434,-2.0144726673043607,7.3120641201004455,0.09318519196538562,0.02959088887478071,0.0974224546462886,7.59551909750225,0.13802259009065707,1.0,0.0,27.613169603575546,-180.4146362012875,443.8448937584729,41.50047559284073,2.837503955239071,-1.4438861593980818,1.0,446.93727094771765,0.0,1.0,44.64037596038543,1157.5168621933735,1.0,1.0,-15.093747152315348,22.68951624018892,6.015047929769474,-41.79576202399458,1.0,449.16939965239237,0.0,1.0,1.242426607672333,0.21222488330121286,,,
0.72,0.72,1.0,0.4732986888480683,-0.9867932223050753,6.7932100761304754,-0.6717025044218579,0.036786800476640416,-0.03718230374232688,6.880804869409766,0.6737358880507188,1.0,0.0,27.613169603575546,-180.4146362012875,443.8448937584729,41.50047559284073,2.837503955239071,-1.4438861593980818,1.0,448.7218518262586,0.0,1.0,44.599082142649685,1174.4791825062282,1.0,1.0,-17.33232736585402,22.870348150083686,6.948140482226709,-41.595227872217414,1.0,449.01356126951964,0.0,1.0,-0.606910696554314,0.5703070224235077,,,
0.76,0.76,1.0,0.4011212368443248,-3.7464732367867213,7.147515528878212,0.09385177680884166,0.026929554111657743,-0.7890510774091445,8.07984765921746,0.7950691540082291,1.0,0.0,27.613169603575546,-180.4146362012875,443.8448937584729,41.50047559284073,2.837503955239071,-1.4438861593980818,1.0,447.6048080767434,0.0,1.0,44.429220439020376,1180.2633007846587,1.0,1.0,-17.33232736585402,22.870348150083686,6.948140482226709,-41.595227872217414,1.0,449.01356126951964,0.0,1.0,-0.606910696554314,0.5703070224235077,,,
0.8,0.8,1.0,0.439648935376222,-2.6747880862119797,6.47384890504738,-0.6736209993709409,0.035663653609435214,-0.020816399793669563,7.018440149912383,0.6748855232427562,1.0,0.0,33.32526685347293,-172.74896193412414,449.7846696210494,40.94368445002917,2.4118496093883035,-2.333708629398368,1.0,450.87529063758046,0.0,1.0,44.98846438271274,1160.3896632273327,1.0,1.0,-17.649557930257718,22.717752306102643,8.579518457203124,-41.394490319453375,1.0,449.21193502399325,0.0,1.0,-1.6200186595058335,0.6385961367588227,,,
0.84,0.84,1.0,0.49655807502907773,-2.51837964460863,6.988396213984849,0.03422553158288047,0.015142033399660384,-0.2559033618984685,7.4448967487731785,0.2586255958302382,1.0,0.0,33.32526685347293,-172.74896193412414,449.7846696210494,40.94368445002917,2.4118496093883035,-2.333708629398368,1.0,453.44750807056215,0.0,1.0,44.47187372906499,1163.817969423379,1.0,1.0,-17.649557930257718,22.717752306102643,8.579518457203124,-41.394490319453375,1.0,449.21193502399325,0.0,1.0,-1.6200186595058335,0.6385961367588227,,,
0.88,0.88,1.0,0.5792879028464704,-5.216718557055547,6.139227429346612,-0.7361969770989688,0.02621371803802611,-0.6384789471763339,8.07711832321118,0.9748479440868901,1.0,0.0,33.32526685347293,-172.74896193412414,449.7846696210494,40.94368445002917,2.4118496093883035,-2.333708629398368,1.0,449.4336134364043,0.0,1.0,44.467621203245045,1185.306499634979,1.0,1.0,-19.84930659418735,22.4522350262428,10.554821622809941,-41.090601204765235,1.0,449.1238472823827,0.0,1.0,-3.3073861191158276,0.11735670903996924,,,
0.92,0.92,1.0,0.662750333066948,-3.786173200383177,5.7410147014589,-0.1760235165275027,0.03712464808337813,0.1256042365053889,6.908950376840708,0.21940588436531133,1.0,0.0,33.32526685347293,-172.74896193412414,449.7846696210494,40.94368445002917,2.4118496093883035,-2.333708629398368,1.0,449.29185384502983,0.0,1.0,45.50201618902643,1197.6585603973697,1.0,1.0,-19.84930659418735,22.4522350262428,10.554821622809941,-41.090601204765235,1.0,449.1238472823827,0.0,1.0,-3.3073861191158276,0.11735670903996924,,,
0.96,0.96,1.0,0.5742279643793945,-3.0150131003265828,6.604366734549044,0.01391731862502207,-0.013009537671088523,-0.026108349654392102,7.282698793348124,0.032320051822388125,1.0,0.0,33.32526685347293,-172.74896193412414,449.7846696210494,40.94368445002917,2.4118496093883035,-2.333708629398368,1.0,448.9168677828904,0.0,1.0,44.73925357452804,1173.5646479966367,1.0,1.0,-19.403661853315377,22.550270029237588,10.724671668683136,-40.92291433160804,1.0,448.6086718685786,0.0,1.0,-3.569080687360621,0.4820769311949251,,,
1.0,1.0,1.0,0.7286770722766619,-5.6656985118358,5.9390061890235515,-0.7526204181316765,0.004952903041003219,-0.6748867453922179,8.240321863613103,1.0109075843732371,1.0,0.0,35.43409302285258,-178.33528266016768,448.59721572582674,41.248230467985884,1.8515298581959057,-2.7276997290340383,1.0,446.8489319840315,0.0,1.0,44.13357999126099,1176.872557537764,1.0,1.0,-19.403661853315377,22.550270029237588,10.724671668683136,-40.92291433160804,1.0,448.6086718685786,0.0,1.0,-3.569080687360621,0.4820769311949251,,,
1.04,1.04,1.0,0.720408404407414,-4.387926787012166,5.315778412202812,-0.01269692191308063,0.045370267688981065,0.09947473026206224,6.930396084276944,0.11006768361761189,1.0,0.0,35.43409302285258,-178.33528266016768,448.59721572582674,41.248230467985884,1.8515298581959057,-2.7276997290340383,1.0,450.86128338887374,0.0,1.0,45.49228008486395,1161.1448326255822,1.0,1.0,-20.999405218386176,22.30651091107389,12.523627265418293,-40.57173481020927,1.0,448.3111023453402,0.0,1.0,-5.811779245765065,0.17020030634108768,,,
1.08,1.08,1.0,0.7917305857952547,-4.643442050783605,5.0447647573362,-0.7804078553959827,-0.024882522910936247,-0.14633746475352435,6.902031791895087,0.7943992788898158,1.0,0.0,35.43409302285258,-178.33528266016768,448.59721572582674,41.248230467985884,1.8515298581959057,-2.7276997290340383,1.0,448.82514571559625,0.0,1.0,44.82644412495272,1179.4670252382343,1.0,1.0,-20.999405218386176,22.30651091107389,12.523627265418293,-40.57173481020927,1.0,448.3111023453402,0.0,1.0,-5.811779245765065,0.17020030634108768,,,
1.12,1.12,1.0,0.7336954044755893,-5.331230802181377,5.689877631432472,-0.06169401880657394,-0.016634012801856533,-0.28528529809113223,7.831668932823431,0.2923534567015489,1.0,0.0,35.43409302285258,-178.33528266016768,448.59721572582674,41.248230467985884,1.8515298581959057,-2.7276997290340383,1.0,447.31992239237667,0.0,1.0,45.325134509573864,1196.6736065916925,1.0,1.0,-22.58980355874807,22.104254416829786,14.285651359460593,-40.14319055506422,1.0,448.05526493566305,0.0,1.0,-6.948372926957539,0.49566712930984597,,,
1.16,1.16,1.0,0.8956102954692811,-5.714874787229098,3.957845825130821,-0.8271745547370198,0.02179696480615158,-0.13697386685464638,7.009026694952936,0.8387220587776751,1.0,0.0,35.43409302285258,-178.33528266016768,448.59721572582674,41.248230467985884,1.8515298581959057,-2.7276997290340383,1.0,447.745383386051,0.0,1.0,44.248507028508776,1182.4799760088067,1.0,1.0,-22.58980355874807,22.104254416829786,14.285651359460593,-40.14319055506422,1.0,448.05526493566305,0.0,1.0,-6.948372926957539,0.49566712930984597,,,
1.2,1.2,1.0,0.9463931170869441,-5.738931574416366,4.426358686597289,-0.1790877664327984,-0.028945122738595883,0.04260992313082586,7.309148156270875,0.18634874232324675,1.0,0.0,50.480789937977015,-170.95365960236697,447.90318918777433,41.15649761814163,0.4687097934466298,-3.721909639833923,1.0,446.1194014914609,0.0,1.0,44.71093614888583,1196.6389111254618,1.0,1.0,-20.629523040306342,21.969866250977244,15.994690961523261,-39.57982964737905,1.0,448.2303843893904,0.0,1.0,-9.561407433195914,0.42928130306607243,,,
1.24,1.24,1.0,1.035207679908087,-5.663790897826231,3.367423939430781,-0.949928275316219,-0.04082894890633692,0.16269357752200325,6.67006193844491,0.9646242436726079,1.0,0.0,50.480789937977015,-170.95365960236697,447.90318918777433,41.15649761814163,0.4687097934466298,-3.721909639833923,1.0,449.53353974815633,0.0,1.0,46.09529851416772,1170.4518387800406,1.0,1.0,-20.629523040306342,21.969866250977244,15.994690961523261,-39.57982964737905,1.0,448.2303843893904,0.0,1.0,-9.561407433195914,0.42928130306607243,,,
1.28,1.28,1.0,0.9142777304090635,-5.5565019019460395,4.307364231870807,-0.17576600689365585,-0.08563626343178361,0.20538424743420583,7.089711121100202,0.2835664787805738,1.0,0.0,50.480789937977015,-170.95365960236697,447.90318918777433,41.15649761814163,0.4687097934466298,-3.721909639833923,1.0,448.9871799734354,0.0,1.0,44.16100755085891,1176.9774588152031,1.0,1.0,-20.895593253658905,22.066204230030753,17.437847301825293,-38.9311143601597,1.0,447.3580699479581,0.0,1.0,-11.683375620307508,0.250930839937143,,,
1.32,1.32,1.0,1.1273695313610892,-5.385456029239932,3.2430234290167337,-0.9476585444491848,-0.062368046122013555,0.17508276978982812,6.3868066875606555,0.9657124138799827,1.0,0.0,50.480789937977015,-170.95365960236697,447.90318918777433,41.15649761814163,0.4687097934466298,-3.721909639833923,1.0,449.2782889326612,0.0,1.0,45.452888633007476,1195.1744383343168,1.0,1.0,-20.895593253658905,22.066204230030753,17.437847301825293,-38.9311143601597,1.0,447.3580699479581,0.0,1.0,-11.683375620307508,0.250930839937143,,,
1.36,1.36,1.0,0.9551390479651749,-5.350485246929501,4.207401800620227,-0.1805079262040485,-0.08563534732995522,0.12459142743665706,6.873297090219539,0.23545604244850477,1.0,0.0,50.480789937977015,-170.95365960236697,447.90318918777433,41.15649761814163,0.4687097934466298,-3.721909639833923,1.0,449.3266720175294,0.0,1.0,45.30576171137578,1188.1117798087428,1.0,1.0,-20.02839025731562,22.020921214925252,18.897720111189077,-38.2727332807511,1.0,447.3958454228931,0.0,1.0,-14.93628579243833,0.573980246977428,,,
1.4000000000000001,1.4000000000000001,1.0,1.0611175408346707,-5.398272889537714,3.1150660484796946,-0.9487457674250703,-0.051311347351150234,0.08116876267470713,6.322258861496876,0.9535930754824716,1.0,0.0,55.197264566653615,-171.16434563335702,450.8240297105905,40.80246361925568,-0.14347354125090936,-4.223941826586232,1.0,445.0936210353554,0.0,1.0,44.91186414397941,1210.3313183684365,1.0,1.0,-20.02839025731562,22.020921214925252,18.897720111189077,-38.2727332807511,1.0,447.3958454228931,0.0,1.0,-14.93628579243833,0.573980246977428,,,
1.44,1.44,1.0,0.9176304987677681,-5.489704831325458,3.9820474736887363,-0.176398588975977,-0.0679963965136649,0.06187640467134786,6.843654502534279,0.19891873111050054,1.0,0.0,55.197264566653615,-171.16434563335702,450.8240297105905,40.80246361925568,-0.14347354125090936,-4.223941826586232,1.0,448.1027960328857,0.0,1.0,45.85080462836993,1189.4494493352784,1.0,1.0,-19.34903175597452,21.940760183428964,20.441829794308692,-37.42634715714532,1.0,446.83098907276275,0.0,1.0,-17.235472893098525,0.7539168891300366,,,
1.48,1.48,1.0,1.128485763746966,-5.374409005805172,2.819366674156535,-0.9452892540714556,-0.0481737370178839,0.06324089352502701,6.173052788046106,0.9486263191663411,1.0,0.0,55.197264566653615,-171.16434563335702,450.8240297105905,40.80246361925568,-0.14347354125090936,-4.223941826586232,1.0,446.1187786062111,0.0,1.0,45.53905642612585,1173.1194843049357,1.0,1.0,-19.34903175597452,21.940760183428964,20.441829794308692,-37.42634715714532,1.0,446.83098907276275,0.0,1.0,-17.235472893098525,0.7539168891300366,,,
1.52,1.52,1.0,1.0308465453309272,-5.494518742034668,3.752043745690856,-0.18029646482306572,-0.07650681266559108,0.07014334828064338,6.732771574631713,0.20803893126038323,1.0,0.0,55.197264566653615,-171.16434563335702,450.8240297105905,40.80246361925568,-0.14347354125090936,-4.223941826586232,1.0,443.58767785493336,0.0,1.0,45.371737572737814,1193.4324896139417,1.0,1.0,-20.773842491127926,21.933716007189673,22.059494313911397,-36.633541492873334,1.0,446.51410124710475,0.0,1.0,-20.282230359712944,0.7360599334232512,,,
1.56,1.56,1.0,1.1639241497695945,-5.424105728537457,2.6687675386516156,-0.9487739915691138,-0.05516051704207623,0.07138992913975901,6.156132110029018,0.9530536667475331,1.0,0.0,55.197264566653615,-171.16434563335702,450.8240297105905,40.80246361925568,-0.14347354125090936,-4.223941826586232,1.0,444.2887431304915,0.0,1.0,45.840909756531865,1218.4748165795352,1.0,1.0,-20.773842491127926,21.933716007189673,22.059494313911397,-36.633541492873334,1.0,446.51410124710475,0.0,1.0,-20.282230359712944,0.7360599334232512,,,
1.6,1.6,1.0,0.8932693588538554,-5.447324027082743,3.7265561180766746,-0.1782594451867634,-0.07735647961516386,0.0635005665212883,6.66021694126211,0.20443281704576818,1.0,0.0,67.34901180285982,-172.34716376405316,446.8906641623518,40.97044108739163,-0.7983561470533017,-5.726705977931702,1.0,446.05797798703065,0.0,1.0,46.266667646385336,1204.0267803985994,1.0,1.0,-18.248197302532787,21.84914861679238,23.55840064541908,-35.69730987745084,1.0,446.1617846778786,0.0,1.0,-21.87461227692352,0.8310243776019967,,,
1.6400000000000001,1.6400000000000001,1.0,1.0759755269584572,-5.382465897963771,2.7440857380681605,-0.9464037489343897,-0.052208511686311465,0.04733676522566152,6.136665952716145,0.9490240007668913,1.0,0.0,67.34901180285982,-172.34716376405316,446.8906641623518,40.97044108739163,-0.7983561470533017,-5.726705977931702,1.0,449.45024080226614,0.0,1.0,44.821667105245226,1225.289517114062,1.0,1.0,-18.248197302532787,21.84914861679238,23.55840064541908,-35.69730987745084,1.0,446.1617846778786,0.0,1.0,-21.87461227692352,0.8310243776019967,,,
1.68,1.68,1.0,0.8926992765795024,-5.414778461923895,3.6915609059575956,-0.17895464942099676,-0.06892492841426237,0.03548677456004319,6.613951898261351,0.19502493039347144,1.0,0.0,67.34901180285982,-172.34716376405316,446.8906641623518,40.97044108739163,-0.7983561470533017,-5.726705977931702,1.0,448.68964287041973,0.0,1.0,45.344212220359395,1225.0986599915009,1.0,1.0,-18.50310047116657,21.769335671459903,25.090253512747452,-34.71474476012266,1.0,445.8412856756802,0.0,1.0,-25.151132773485468,1.4217553002665575,,,
1.72,1.72,1.0,1.1906853653466962,-5.442649286754717,2.7618965259453905,-0.9493688076040174,-0.04422561278792257,0.019071378563509784,6.21837883357806,0.95058968811904,1.0,0.0,67.34901180285982,-172.34716376405316,446.8906641623518,40.97044108739163,-0.7983561470533017,-5.726705977931702,1.0,447.06223145723624,0.0,1.0,45.70335850303888,1207.9782972676937,1.0,1.0,-18.50310047116657,21.769335671459903,25.090253512747452,-34.71474476012266,1.0,445.8412856756802,0.0,1.0,-25.151132773485468,1.4217553002665575,,,
1.76,1.76,1.0,0.9474911508388033,-5.4035745257934735,3.771723579956278,-0.180836880240505,-0.05889198549561987,0.011016349458269535,6.657496218573481,0.19050355158401056,1.0,0.0,67.34901180285982,-172.34716376405316,446.8906641623518,40.97044108739163,-0.7983561470533017,-5.726705977931702,1.0,444.0490024957934,0.0,1.0,45.8421936232617,1216.0899713483066,1.0,1.0,-18.230152509081492,21.598757702612772,26.517924523218976,-33.58775653624476,1.0,444.6590577312286,0.0,1.0,-28.221842243045558,1.5482126983823943,,,
1.8,1.8,1.0,1.028787023892073,-5.38429349315965,2.81571991464412,-0.9486624858702244,-0.03471018139921972,-0.0016834890715598234,6.162572336186695,0.9492987637860352,1.0,0.0,76.18635915991574,-179.7198901262826,446.3141468737517,40.35360822666192,-1.5971303835591917,-6.258992423391607,1.0,448.5701219414977,0.0,1.0,45.16373745076332,1226.4712114801546,1.0,1.0,-18.230152509081492,21.598757702612772,26.517924523218976,-33.58775653624476,1.0,444.6590577312286,0.0,1.0,-28.221842243045558,1.5482126983823943,,,
1.84,1.84,1.0,0.9627686054003618,-5.424900767390189,3.793500312465899,-0.17752713387287455,-0.04870743032860191,-0.004647716183893422,6.689328542107503,0.18414640451569822,1.0,0.0,76.18635915991574,-179.7198901262826,446.3141468737517,40.35360822666192,-1.5971303835591917,-6.258992423391607,1.0,444.1656976512421,0.0,1.0,45.36891178633147,1211.665049027252,1.0,1.0,-20.757442710559523,21.49885503654378,28.047745748799695,-32.4356106753094,1.0,444.57455277464976,0.0,1.0,-29.980366691406726,1.2978714917886698,,,
1.8800000000000001,1.8800000000000001,1.0,1.0067318953399471,-5.412776282828194,3.0037713287784937,-0.9450446020914572,-0.023644066467006723,-0.01877301373008067,6.271706178755019,0.9455267145172614,1.0,0.0,76.18635915991574,-179.7198901262826,446.3141468737517,40.35360822666192,-1.5971303835591917,-6.258992423391607,1.0,444.1492146871386,0.0,1.0,46.56606172057066,1209.0605353316937,1.0,1.0,-20.757442710559523,21.49885503654378,28.047745748799695,-32.4356106753094,1.0,444.57455277464976,0.0,1.0,-29.980366691406726,1.2978714917886698,,,
1.92,1.92,1.0,0.8426866413804602,-5.389214049909817,4.002846026864459,-0.17728688789753624,-0.0366379211164357,-0.023336181344519983,6.765835141805558,0.18253097064298998,1.0,0.0,76.18635915991574,-179.7198901262826,446.3141468737517,40.35360822666192,-1.5971303835591917,-6.258992423391607,1.0,443.79021987742715,0.0,1.0,45.844875655961324,1225.3951803651291,1.0,1.0,-17.360038731768345,21.337162713566094,29.499643667869957,-31.212169389794354,1.0,443.65084080832315,0.0,1.0,-32.92718538235453,1.2196170161715942,,,
1.96,1.96,1.0,0.9047652413362188,-5.3951947655492365,3.1769496089989775,-0.9462460486996406,-0.008406738176710195,-0.037276494911720436,6.326115357647126,0.9470173150472794,1.0,0.0,76.18635915991574,-179.7198901262826,446.3141468737517,40.35360822666192,-1.5971303835591917,-6.258992423391607,1.0,444.67097987387194,0.0,1.0,46.15753836758646,1219.784128856387,1.0,1.0,-17.360038731768345,21.337162713566094,29.499643667869957,-31.212169389794354,1.0,443.65084080832315,0.0,1.0,-32.92718538235453,1.2196170161715942,,,
2.0,2.0,1.0,0.9137081912976496,-5.385717750827191,4.154049587335852,-0.17874479900604284,-0.01976617508093427,-0.03852498581596072,6.862721495475733,0.1839145980643211,1.0,0.0,83.41647438219759,-180.90879346316228,439.24850193341064,40.76050851945774,-2.0004569085574153,-7.215506495063526,1.0,444.8505722268769,0.0,1.0,45.4505781529532,1222.5570847020774,1.0,1.0,-20.42198455403686,21.344205151146337,30.897483783358293,-29.9131187181065,1.0,443.4289354699296,0.0,1.0,-34.6779352110276,2.3756257927985787,,,
2.04,2.04,1.0,0.9626547430728469,-5.342875755901957,3.358640495942085,-0.945756428670629,0.0016043525262594638,-0.050911259357013974,6.383846135234437,0.9471271048007064,1.0,0.0,83.41647438219759,-180.90879346316228,439.24850193341064,40.76050851945774,-2.0004569085574153,-7.215506495063526,1.0,444.10398416477557,0.0,1.0,45.8170603315801,1238.9029657257968,1.0,1.0,-20.42198455403686,21.344205151146337,30.897483783358293,-29.9131187181065,1.0,443.4289354699296,0.0,1.0,-34.6779352110276,2.3756257927985787,,,
2.08,2.08,1.0,0.8374231293033286,-5.382796744108488,4.350642136288518,-0.1728760231274015,-0.008018184224189921,-0.05484112962873646,6.971647243222095,0.18154327349024743,1.0,0.0,83.41647438219759,-180.90879346316228,439.24850193341064,40.76050851945774,-2.0004569085574153,-7.215506495063526,1.0,443.6386100442311,0.0,1.0,46.08243515164092,1238.056028328562,1.0,1.0,-18.66566788208094,21.07025670956661,32.42556964625827,-28.435311601204585,1.0,442.49687620279394,0.0,1.0,-37.26256319863061,2.7043530813553276,,,
2.12,2.12,1.0,0.928393098121894,-5.424632303211268,3.535167773626943,-0.949431681402191,0.015805379505097274,-0.06290661540853461,6.541097809800281,0.9516446657937242,1.0,0.0,83.41647438219759,-180.90879346316228,439.24850193341064,40.76050851945774,-2.0004569085574153,-7.215506495063526,1.0,443.9501856961695,0.0,1.0,45.97085902311047,1253.2246570602201,1.0,1.0,-18.66566788208094,21.07025670956661,32.42556964625827,-28.435311601204585,1.0,442.49687620279394,0.0,1.0,-37.26256319863061,2.7043530813553276,,,
2.16,2.16,1.0,0.7601259371532668,-5.386717097065274,4.469022860582373,-0.17952334557435132,0.004841455418416822,-0.060723881737157745,7.04036063370026,0.18957705850129863,1.0,0.0,83.41647438219759,-180.90879346316228,439.24850193341064,40.76050851945774,-2.0004569085574153,-7.215506495063526,1.0,441.70000553652807,0.0,1.0,45.57616727385456,1236.4432503001374,1.0,1.0,-20.242222400002504,20.990454759727243,33.67696513026613,-26.957545926477504,1.0,442.1093101770347,0.0,1.0,-40.7005561519146,2.648139103304132,,,
2.2,2.2,1.0,0.8259511507484321,-5.369408007267236,3.7398267097757207,-0.9468091129975015,0.02704315497251368,-0.07120903700448694,6.595380312846262,0.9498681780316095,1.0,0.0,90.25233356409038,-176.0961556637064,443.79819851195845,40.657353999584025,-2.6599772659274246,-7.676628697374209,1.0,442.7718813424201,0.0,1.0,45.95783011507613,1230.5918116086607,1.0,1.0,-20.242222400002504,20.990454759727243,33.67696513026613,-26.957545926477504,1.0,442.1093101770347,0.0,1.0,-40.7005561519146,2.648139103304132,,,
2.24,2.24,1.0,0.7201595189155767,-5.3790996339526,4.710961777654894,-0.17957216387667874,0.01676586806085768,-0.06198719597590487,7.186550178994026,0.19070833446952992,1.0,0.0,90.25233356409038,-176.0961556637064,443.79819851195845,40.657353999584025,-2.6599772659274246,-7.676628697374209,1.0,439.80396671897137,0.0,1.0,45.124089419684196,1234.3615415110933,1.0,1.0,-20.9454472075728,20.883458759328587,34.978277298732564,-25.431946936797797,1.0,441.5007437360153,0.0,1.0,-43.48311176922555,2.1511425269946947,,,
2.2800000000000002,2.2800000000000002,1.0,0.8041629214793178,-5.456912961021789,3.8991844902440045,-0.9496325612805734,0.03683342287209592,-0.06908420295402545,6.754866153922603,0.9528543065876176,1.0,0.0,90.25233356409038,-176.0961556637064,443.79819851195845,40.657353999584025,-2.6599772659274246,-7.676628697374209,1.0,440.17647083172756,0.0,1.0,45.69382317721832,1219.9064586955067,1.0,1.0,-20.9454472075728,20.883458759328587,34.978277298732564,-25.431946936797797,1.0,441.5007437360153,0.0,1.0,-43.48311176922555,2.1511425269946947,,,
2.32,2.32,1.0,0.667753211070324,-5.3758945214682825,4.957383522313122,-0.1785352194813752,0.02290534859132892,-0.061939669314441684,7.343145623242744,0.19035756413690397,1.0,0.0,90.25233356409038,-176.0961556637064,443.79819851195845,40.657353999584025,-2.6599772659274246,-7.676628697374209,1.0,439.8039889399413,0.0,1.0,46.26541452561249,1247.2244407856333,1.0,1.0,-20.252944080955217,20.6755389870487,36.217881236266415,-23.726315022920833,1.0,441.09031408094575,0.0,1.0,-45.84846183859845,2.9260887407415392,,,
2.36,2.36,1.0,0.7553005742851012,-5.454282772193136,4.110261250599143,-0.9488844791781291,0.04768639701512821,-0.06728197993453032,6.87123912149294,0.9524613441548924,1.0,0.0,90.25233356409038,-176.0961556637064,443.79819851195845,40.657353999584025,-2.6599772659274246,-7.676628697374209,1.0,441.1790420320071,0.0,1.0,45.38171536176497,1224.1902762622065,1.0,1.0,-20.252944080955217,20.6755389870487,36.217881236266415,-23.726315022920833,1.0,441.09031408094575,0.0,1.0,-45.84846183859845,2.9260887407415392,,,
2.4,2.4,1.0,0.6194718092084336,-5.4638833149308415,5.049026482170408,-0.17879249361090044,0.030570522303999596,-0.05799805899583646,7.465281951757863,0.1904339451170083,1.0,0.0,102.01031837318367,-176.29197437166195,440.3181980785621,40.70882641707531,-2.8203064854109288,-8.514138609242556,1.0,439.2319587873873,0.0,1.0,45.617830080427545,1249.6046164727272,1.0,1.0,-22.361644335012144,20.52557587524209,37.35569608555967,-21.9812921812106,1.0,440.08947341050714,0.0,1.0,-49.053349530150044,2.3255569602710033,,,
2.44,2.44,1.0,0.7035866661300627,-5.494120521805338,4.291793676332053,-0.9423201579369945,0.050249216090300364,-0.06035099891025296,7.007131186518658,0.945586858433194,1.0,0.0,102.01031837318367,-176.29197437166195,440.3181980785621,40.70882641707531,-2.8203064854109288,-8.514138609242556,1.0,438.262193639622,0.0,1.0,45.855054418642965,1229.2484971260294,1.0,1.0,-22.361644335012144,20.52557587524209,37.35569608555967,-21.9812921812106,1.0,440.08947341050714,0.0,1.0,-49.053349530150044,2.3255569602710033,,,
2.48,2.48,1.0,0.5867729351045157,-5.483101102402218,5.189432414689345,-0.18155117793512857,0.03577126692122878,-0.050829778736711365,7.572245965574815,0.19189601390650496,1.0,0.0,102.01031837318367,-176.29197437166195,440.3181980785621,40.70882641707531,-2.8203064854109288,-8.514138609242556,1.0,439.7678108826832,0.0,1.0,45.76341108090376,1249.3491355553865,1.0,1.0,-21.0565619941586,20.48390525575914,38.36003215717381,-20.293298889283744,1.0,439.64993200578505,0.0,1.0,-51.085451427096565,3.0647159775329302,,,
2.52,2.52,1.0,0.7860041586727389,-5.536626947062894,4.2958861897188205,-0.9464490056654477,0.04593626543099921,-0.05301005273776602,7.051714588907489,0.9490447442023597,1.0,0.0,102.01031837318367,-176.29197437166195,440.3181980785621,40.70882641707531,-2.8203064854109288,-8.514138609242556,1.0,439.33848987577585,0.0,1.0,46.08720417918582,1238.3859268485276,1.0,1.0,-21.0565619941586,20.48390525575914,38.36003215717381,-20.293298889283744,1.0,439.64993200578505,0.0,1.0,-51.085451427096565,3.0647159775329302,,,
2.56,2.56,1.0,0.6630012562560387,-5.539239951328625,5.257263532889072,-0.1772977952224858,0.03206715819672478,-0.03873169831918782,7.665609549046803,0.18429041016899617,1.0,0.0,102.01031837318367,-176.29197437166195,440.3181980785621,40.70882641707531,-2.8203064854109288,-8.514138609242556,1.0,436.78195305341137,0.0,1.0,46.66215008519419,1260.8852065706296,1.0,1.0,-21.076395383498134,20.454726296187907,39.369725903820736,-18.375768727606335,1.0,439.5259266241458,0.0,1.0,-52.7141760007916,2.8364447519649953,,,
2.6,2.6,1.0,0.6645818675402959,-5.626049297009021,4.390929149807718,-0.9460121181084307,0.038724713009679564,-0.040634313422790044,7.167590846977119,0.9476759353455289,1.0,0.0,106.59876303503295,-177.1353272269424,432.6261776970741,40.701138436586355,-2.5484878006700122,-8.949272806190177,1.0,435.77512384125714,0.0,1.0,46.2477735563489,1233.1465972647743,1.0,1.0,-21.076395383498134,20.454726296187907,39.369725903820736,-18.375768727606335,1.0,439.5259266241458,0.0,1.0,-52.7141760007916,2.8364447519649953,,,
2.64,2.64,1.0,0.5840058548845599,-5.621512959848664,5.239997951205115,-0.18115342413739705,0.02124411560605465,-0.021798126859628814,7.707142747148241,0.18369277029642606,1.0,0.0,106.59876303503295,-177.1353272269424,432.6261776970741,40.701138436586355,-2.5484878006700122,-8.949272806190177,1.0,438.5975854981374,0.0,1.0,46.00376156542632,1249.489083312124,1.0,1.0,-20.46212353692867,20.3419524259787,40.215406874445115,-16.52820435574042,1.0,437.8889369439185,0.0,1.0,-55.842936499366516,2.8708519153949044,,,
2.68,2.68,1.0,0.705351150516552,-5.574884153776675,4.423134040735427,-0.9480974323537461,0.03510583173915403,-0.02214707753946564,7.151291374002167,0.9490056131032119,1.0,0.0,106.59876303503295,-177.1353272269424,432.6261776970741,40.701138436586355,-2.5484878006700122,-8.949272806190177,1.0,439.11932455758364,0.0,1.0,46.4912191248615,1277.552768220379,1.0,1.0,-20.46212353692867,20.3419524259787,40.215406874445115,-16.52820435574042,1.0,437.8889369439185,0.0,1.0,-55.842936499366516,2.8708519153949044,,,
2.72,2.72,1.0,0.5139515586819365,-5.637887726698064,5.286169962171815,-0.18069865247505507,0.009935982985360898,-0.0053374459784357835,7.74554821123023,0.18105031094631907,1.0,0.0,106.59876303503295,-177.1353272269424,432.6261776970741,40.701138436586355,-2.5484878006700122,-8.949272806190177,1.0,438.8486995125266,0.0,1.0,46.45873427689626,1244.8803696150076,1.0,1.0,-22.333324738824682,20.349604008013383,40.92803934994511,-14.667867130356903,1.0,437.0602931008913,0.0,1.0,-58.36039499096224,2.5523529539171506,,,
2.7600000000000002,2.7600000000000002,1.0,0.6107007019306361,-5.714990738287357,4.414640466886532,-0.9477560932944536,0.015482449131291025,-0.003599226277686862,7.247283969731074,0.9478893780593103,1.0,0.0,106.59876303503295,-177.1353272269424,432.6261776970741,40.701138436586355,-2.5484878006700122,-8.949272806190177,1.0,437.5576673932028,0.0,1.0,46.716686827103416,1276.5313795012335,1.0,1.0,-22.333324738824682,20.349604008013383,40.92803934994511,-14.667867130356903,1.0,437.0602931008913,0.0,1.0,-58.36039499096224,2.5523529539171506,,,
2.8000000000000003,2.8000000000000003,1.0,0.5769314010580467,-5.736087831365722,5.229748043836789,-0.18093596103586188,-0.009355357458110558,0.012440788573447967,7.783689231507347,0.18160428940272633,1.0,0.0,114.65891333910646,-177.2465769123605,438.1724792453838,40.83914516211098,-2.6093820857391554,-9.759974691153301,1.0,434.8388180627095,0.0,1.0,45.95175245612194,1268.000467077879,1.0,1.0,-22.41830658683328,20.355710084378217,41.44650007756841,-12.794880666294723,1.0,436.43453977442266,0.0,1.0,-61.074798141835345,3.3227985243082068,,,
2.84,2.84,1.0,0.6212888896495917,-5.645892390500687,4.323000845180039,-0.9510365415139425,-0.006942906266750842,0.01716853014544213,7.137957486350204,0.9512168342021626,1.0,0.0,114.65891333910646,-177.2465769123605,438.1724792453838,40.83914516211098,-2.6093820857391554,-9.759974691153301,1.0,439.1133054941976,0.0,1.0,46.36200533606826,1258.0939780993806,1.0,1.0,-22.41830658683328,20.355710084378217,41.44650007756841,-12.794880666294723,1.0,436.43453977442266,0.0,1.0,-61.074798141835345,3.3227985243082068,,,
2.88,2.88,1.0,0.5112688314524662,-5.693651350981159,5.0842798219177405,-0.18167836621199598,-0.03406087045445684,0.02655494625597155,7.65042239566576,0.18674136343143946,1.0,0.0,114.65891333910646,-177.2465769123605,438.1724792453838,40.83914516211098,-2.6093820857391554,-9.759974691153301,1.0,437.1329511504531,0.0,1.0,45.74612810211784,1265.2569500575312,1.0,1.0,-22.66442704055901,20.42402942872656,41.9999945499267,-11.031027465742374,1.0,436.12147694622666,0.0,1.0,-63.98372542124519,2.9192657200469863,,,
2.92,2.92,1.0,0.6339097734616961,-5.76537640490209,4.192881668856939,-0.946632982312254,-0.03614247451247614,0.03219478377499342,7.156931142614728,0.9478696037787032,1.0,0.0,114.65891333910646,-177.2465769123605,438.1724792453838,40.83914516211098,-2.6093820857391554,-9.759974691153301,1.0,434.97168298426124,0.0,1.0,46.999684281687635,1251.305052671642,1.0,1.0,-22.66442704055901,20.42402942872656,41.9999945499267,-11.031027465742374,1.0,436.12147694622666,0.0,1.0,-63.98372542124519,2.9192657200469863,,,
2.96,2.96,1.0,0.4750204302737399,-5.870435031659666,4.985985635062122,-0.17811777860294628,-0.06259895685656963,0.04496418062599441,7.716715922149804,0.19407820586904112,1.0,0.0,114.65891333910646,-177.2465769123605,438.1724792453838,40.83914516211098,-2.6093820857391554,-9.759974691153301,1.0,434.69992665365476,0.0,1.0,47.08832895858616,1276.4627781686734,1.0,1.0,-21.500707627290705,20.564274802982847,42.45829405456435,-9.140791230995,1.0,435.24278819307614,0.0,1.0,-66.37327365025205,2.7338998282327744,,,
3.0,3.0,1.0,0.6391235070512492,-5.826954058910025,4.121526590096025,-0.9457188823007859,-0.06550779039817428,0.04724599085956381,7.165811461012777,0.9491615555822944,1.0,0.0,124.87936176944758,-185.24132052989754,439.0065750903484,41.06915651772724,-2.38897832341038,-9.981180103626368,1.0,436.5364379829254,0.0,1.0,46.67280361428559,1269.7973185379049,1.0,1.0,-21.500707627290705,20.564274802982847,42.45829405456435,-9.140791230995,1.0,435.24278819307614,0.0,1.0,-66.37327365025205,2.7338998282327744,,,
3.04,3.04,1.0,0.5606499228177392,-5.786645627972677,4.819417593723965,-0.17763616412381628,-0.09748653003543217,0.06328127296824404,7.55158141731829,0.21227988564971018,1.0,0.0,124.87936176944758,-185.24132052989754,439.0065750903484,41.06915651772724,-2.38897832341038,-9.981180103626368,1.0,435.0802831584087,0.0,1.0,46.94399381505889,1296.2547540113696,1.0,1.0,-21.0629087929657,20.720574544776962,42.739718188509144,-7.4503450814041745,1.0,434.85045852225966,0.0,1.0,-69.78182256431708,2.0752063868858595,,,
3.08,3.08,1.0,0.6589813965755187,-5.796263382454414,3.8026177625470488,-0.9486409519456578,-0.10433399191653968,0.06592320769168754,6.963535562331309,0.956635305061425,1.0,0.0,124.87936176944758,-185.24132052989754,439.0065750903484,41.06915651772724,-2.38897832341038,-9.981180103626368,1.0,434.1768915873053,0.0,1.0,46.935034334508934,1288.5048506166595,1.0,1.0,-21.0629087929657,20.720574544776962,42.739718188509144,-7.4503450814041745,1.0,434.85045852225966,0.0,1.0,-69.78182256431708,2.0752063868858595,,,
3.12,3.12,1.0,0.5394262721947293,-5.857591750134638,4.704665391802212,-0.1823919109034684,-0.12939140261981166,0.07187817587215882,7.532346132726559,0.23489447929155327,1.0,0.0,124.87936176944758,-185.24132052989754,439.0065750903484,41.06915651772724,-2.38897832341038,-9.981180103626368,1.0,432.2686577419949,0.0,1.0,46.2190385442471,1278.3162431698747,1.0,1.0,-19.83120566616071,20.851144461612655,42.850821960700344,-5.631697438712412,1.0,433.73497732380133,0.0,1.0,-72.33565756051068,2.524281815218047,,,
3.16,3.16,1.0,0.6695738821493359,-5.956688428286039,3.6269703604750916,-0.9478796484005146,-0.13472237923190683,0.07732429534841176,7.006095932193489,0.9605232917368102,1.0,0.0,124.87936176944758,-185.24132052989754,439.0065750903484,41.06915651772724,-2.38897832341038,-9.981180103626368,1.0,431.0472982776787,0.0,1.0,46.82497321832729,1253.249079830204,1.0,1.0,-19.83120566616071,20.851144461612655,42.850821960700344,-5.631697438712412,1.0,433.73497732380133,0.0,1.0,-72.33565756051068,2.524281815218047,,,
3.2,3.2,1.0,0.515752358385039,-5.886239433767988,4.430131363311401,-0.17817614480331312,-0.17581428486960798,0.08398031200860052,7.385111987168533,0.26402669210942437,1.0,0.0,128.85168740054033,-179.84464069268805,438.01992411909146,41.256089253877676,-1.847817330473966,-10.572853753814778,1.0,432.02116679648304,0.0,1.0,46.85947874883538,1277.260065158239,1.0,1.0,-18.908572015212133,21.072717751774835,42.95390004322292,-3.913086938715155,1.0,432.6791187475926,0.0,1.0,-74.13541925320037,1.9183357707177027,,,
3.24,3.24,1.0,0.6182298665362509,-5.895333318462297,3.4170128854648985,-0.9494958022442244,-0.1786938572895843,0.08510698105659172,6.8420128736419565,0.969905650739803,1.0,0.0,128.85168740054033,-179.84464069268805,438.01992411909146,41.256089253877676,-1.847817330473966,-10.572853753814778,1.0,430.74930349774473,0.0,1.0,46.299560800263684,1267.8590753165868,1.0,1.0,-18.908572015212133,21.072717751774835,42.95390004322292,-3.913086938715155,1.0,432.6791187475926,0.0,1.0,-74.13541925320037,1.9183357707177027,,,
3.2800000000000002,3.2800000000000002,1.0,0.5137826892505792,-5.886680834643303,4.1942805465166035,-0.18221011310396018,-0.2170609024790009,0.09349701955907515,7.246307556515798,0.2984252894256557,1.0,0.0,128.85168740054033,-179.84464069268805,438.01992411909146,41.256089253877676,-1.847817330473966,-10.572853753814778,1.0,430.0758715935655,0.0,1.0,46.7574668047304,1288.899886900154,1.0,1.0,-16.798815560838243,21.365963695275006,42.963386930361466,-2.3020533450569363,1.0,432.17732465725436,0.0,1.0,-76.43484598513226,2.1323842080601256,,,
3.3200000000000003,3.3200000000000003,1.0,0.6952469132292106,-5.920195544611193,3.354262921680438,-0.9464927081773229,-0.21832753110188136,0.09375573290085254,6.839821876668219,0.9758614117392193,1.0,0.0,128.85168740054033,-179.84464069268805,438.01992411909146,41.256089253877676,-1.847817330473966,-10.572853753814778,1.0,431.4095653036587,0.0,1.0,46.37720224814075,1316.8100328728378,1.0,1.0,-16.798815560838243,21.365963695275006,42.963386930361466,-2.3020533450569363,1.0,432.17732465725436,0.0,1.0,-76.43484598513226,2.1323842080601256,,,
3.36,3.36,1.0,0.4778832191797502,-5.944656981388405,4.130029525380724,-0.18096941152096005,-0.25728030180488853,0.09792530516949699,7.254272043290081,0.3294426308108837,1.0,0.0,128.85168740054033,-179.84464069268805,438.01992411909146,41.256089253877676,-1.847817330473966,-10.572853753814778,1.0,430.91705249175317,0.0,1.0,46.83982783280017,1280.8747815997067,1.0,1.0,-16.6752516365494,21.64800416009476,42.856877126253615,-0.8327357032198963,1.0,430.9015638131741,0.0,1.0,-79.21399737368418,1.9920101713652447,,,
3.4,3.4,1.0,0.6979610193009264,-5.937037166826846,3.1338508854149922,-0.9483452367775272,-0.26057520204291834,0.09604215358956618,6.749561561817424,0.9881711487917737,1.0,0.0,144.02273327705524,-177.73167168456604,432.68883957751177,41.5039612058774,-1.4634477446325196,-11.249865282484194,1.0,429.292082988388,0.0,1.0,47.551352520454664,1290.6086116187232,1.0,1.0,-16.6752516365494,21.64800416009476,42.856877126253615,-0.8327357032198963,1.0,430.9015638131741,0.0,1.0,-79.21399737368418,1.9920101713652447,,,
3.44,3.44,1.0,0.5532788719239863,-5.941267421203031,4.008458618957501,-0.17703147533063873,-0.3028093699654581,0.09546753029302073,7.188359797635388,0.3635212609145015,1.0,0.0,144.02273327705524,-177.73167168456604,432.68883957751177,41.5039612058774,-1.4634477446325196,-11.249865282484194,1.0,428.36981903796755,0.0,1.0,46.9325459940927,1307.586219920551,1.0,1.0,-17.599672785256075,21.93289473272065,42.56313961883701,0.6415812018862863,1.0,429.80804208257933,0.0,0.0,-79.21399737368418,1.9920101713652447,,,
3.48,3.48,1.0,0.6118170860867513,-5.893147166320547,3.051839881913163,-0.9473328542467727,-0.3096439893111953,0.09859519030113674,6.664625295961906,1.0015188207929027,1.0,0.0,144.02273327705524,-177.73167168456604,432.68883957751177,41.5039612058774,-1.4634477446325196,-11.249865282484194,1.0,430.561092643606,0.0,1.0,46.899007731246115,1319.087436681748,1.0,1.0,-17.599672785256075,21.93289473272065,42.56313961883701,0.6415812018862863,1.0,429.80804208257933,0.0,0.0,-79.21399737368418,1.9920101713652447,,,
3.52,3.52,1.0,0.5654412944702154,-5.925348271586796,3.986143581715121,-0.18019341430925323,-0.3472779240159011,0.09106392213109432,7.163715282668445,0.40170170647274844,1.0,0.0,144.02273327705524,-177.73167168456604,432.68883957751177,41.5039612058774,-1.4634477446325196,-11.249865282484194,1.0,429.4005596178074,0.0,1.0,47.53319493619456,1297.4780641361076,1.0,1.0,-14.68050174842996,22.314063889249447,42.41486637201361,1.8990594046158367,1.0,429.1864354973345,0.0,0.0,-79.21399737368418,1.9920101713652447,,,
3.56,3.56,1.0,0.680390191288922,-5.950025703108029,3.073586606452035,-0.9481723949492249,-0.3513153171808196,0.08903531955349517,6.731468733301055,1.0150766625026908,1.0,0.0,144.02273327705524,-177.73167168456604,432.68883957751177,41.5039612058774,-1.4634477446325196,-11.249865282484194,1.0,429.51854340820574,0.0,1.0,46.99259489769336,1305.9872111184482,1.0,1.0,-14.68050174842996,22.314063889249447,42.41486637201361,1.8990594046158367,1.0,429.1864354973345,0.0,0.0,-79.21399737368418,1.9920101713652447,,,
3.6,3.6,1.0,0.4846371452955751,-5.964774572075679,4.082876879859138,-0.17608196005244672,-0.3933065508086112,0.08074486940574548,7.244535352551544,0.4384228934490408,1.0,0.0,143.75615648034582,-180.93824310658175,429.3282871636523,41.79022470448222,-0.9498311572281843,-12.163331251164953,1.0,426.1828839303617,0.0,1.0,47.253320941458696,1317.0097301752257,1.0,1.0,-11.990385233634884,22.667985325615167,42.106339774498196,3.159557308440577,1.0,427.7169221466591,0.0,0.0,-79.21399737368418,1.9920101713652447,,,
3.64,3.64,1.0,0.6334403761623741,-6.06276995087511,3.1392109357548637,-0.9489591746532755,-0.39632801078673957,0.0806317050481776,6.856607870262805,1.0315526545706601,1.0,0.0,143.75615648034582,-180.93824310658175,429.3282871636523,41.79022470448222,-0.9498311572281843,-12.163331251164953,1.0,428.3362982387595,0.0,1.0,47.45543512522819,1300.052099410571,1.0,1.0,-11.990385233634884,22.667985325615167,42.106339774498196,3.159557308440577,1.0,427.7169221466591,0.0,0.0,-79.21399737368418,1.9920101713652447,,,
3.68,3.68,1.0,0.49832676791237424,-5.979381273128988,4.223267442846513,-0.1800458940051523,-0.4349809496791236,0.0772223645673019,7.337391762123033,0.47706209671407773,1.0,0.0,143.75615648034582,-180.93824310658175,429.3282871636523,41.79022470448222,-0.9498311572281843,-12.163331251164953,1.0,427.08024847406773,0.0,1.0,47.4529501067014,1312.597862938876,1.0,1.0,-11.839291532522811,23.077335772783368,41.83396342676927,4.338736085197306,1.0,427.26825099627405,0.0,0.0,-79.21399737368418,1.9920101713652447,,,
3.72,3.72,1.0,0.5781304291381147,-5.950367858872022,3.426316234223148,-0.9500419131027583,-0.4394863587813321,0.07463563232137063,6.890628083556225,1.049427641059084,1.0,0.0,143.75615648034582,-180.93824310658175,429.3282871636523,41.79022470448222,-0.9498311572281843,-12.163331251164953,1.0,428.77843034010516,0.0,1.0,47.01392041042909,1314.083971591488,1.0,1.0,-11.839291532522811,23.077335772783368,41.83396342676927,4.338736085197306,1.0,427.26825099627405,0.0,0.0,-79.21399737368418,1.9920101713652447,,,
3.7600000000000002,3.7600000000000002,1.0,0.43279254243495174,-6.020311816055986,4.515384949249967,-0.17980866862708872,-0.47683636033967086,0.06599384590741997,7.537915161849711,0.5138669667852594,1.0,0.0,143.75615648034582,-180.93824310658175,429.3282871636523,41.79022470448222,-0.9498311572281843,-12.163331251164953,1.0,426.62154450738433,0.0,1.0,47.28388223047311,1345.3692793255848,1.0,1.0,-7.122906587254924,23.48789167873519,41.49677901156547,5.351195583401879,1.0,426.69799472378713,0.0,0.0,-79.21399737368418,1.9920101713652447,,,
3.8000000000000003,3.8000000000000003,1.0,0.42103569394967877,-6.020228484610927,3.8027659397171742,-0.9454292895886466,-0.4789879620862935,0.062340792639624346,7.133123499195391,1.061674330415222,1.0,0.0,154.3438190435906,-180.28320450732957,425.29394212956987,41.826719951839074,-0.031183365757766382,-12.653558654094892,1.0,423.1763084827747,0.0,1.0,47.78793102124752,1309.0047065740202,1.0,1.0,-7.122906587254924,23.48789167873519,41.49677901156547,5.351195583401879,1.0,426.69799472378713,0.0,0.0,-79.21399737368418,1.9920101713652447,,,
3.84,3.84,1.0,0.2552804291557807,-6.073700908263535,5.01149417342582,-0.17980464741334606,-0.5187787796417085,0.05084219425343339,7.878456998095007,0.5514037197503131,1.0,0.0,154.3438190435906,-180.28320450732957,425.29394212956987,41.826719951839074,-0.031183365757766382,-12.653558654094892,1.0,425.07430770987634,0.0,1.0,48.04096078807655,1328.5369268771792,1.0,1.0,-4.59698052613243,23.97342731054658,41.151818121669244,6.1797360189176676,1.0,424.92688255079594,0.0,0.0,-79.21399737368418,1.9920101713652447,,,
3.88,3.88,1.0,0.2662870061168099,-6.038191872907514,4.402855163753043,-0.9472974592335964,-0.5252289565792277,0.05361794351963019,7.477687039229433,1.0844873521470897,1.0,0.0,154.3438190435906,-180.28320450732957,425.29394212956987,41.826719951839074,-0.031183365757766382,-12.653558654094892,1.0,424.4874111941455,0.0,1.0,48.208664319241194,1319.4543562311273,1.0,1.0,-4.59698052613243,23.97342731054658,41.151818121669244,6.1797360189176676,1.0,424.92688255079594,0.0,0.0,-79.21399737368418,1.9920101713652447,,,
3.92,3.92,1.0,0.06030709530405374,-6.102126570860121,5.72046288517931,-0.180256667226453,-0.5657638986461438,0.04437129668113178,8.364405612669385,0.5954410693427498,1.0,0.0,154.3438190435906,-180.28320450732957,425.29394212956987,41.826719951839074,-0.031183365757766382,-12.653558654094892,1.0,423.41762837110787,0.0,1.0,47.57343999992584,1346.5154145665404,1.0,1.0,-4.204412788199116,24.392461769401024,40.73243604581753,7.037628745800145,1.0,424.5938169993694,0.0,0.0,-79.21399737368418,1.9920101713652447,,,
3.96,3.96,1.0,0.10438326893659679,-6.145522701649207,5.223287348464925,-0.9447609512415698,-0.56773517645749,0.042675855092854494,8.066044623478934,1.1030492800351213,1.0,0.0,154.3438190435906,-180.28320450732957,425.29394212956987,41.826719951839074,-0.031183365757766382,-12.653558654094892,1.0,426.8992627150658,0.0,1.0,47.634412400033035,1332.0935922203214,1.0,1.0,-4.204412788199116,24.392461769401024,40.73243604581753,7.037628745800145,1.0,424.5938169993694,0.0,0.0,-79.21399737368418,1.9920101713652447,,,
4.0,4.0,1.0,-0.07286863275806245,-6.237447161941714,6.756299991265746,-0.18083393028996003,-0.6036647257338027,0.029529157792812337,9.195577551607744,0.6308597170523207,1.0,0.0,168.49153388973247,-176.24202725633168,417.51130474885326,42.02830753633495,1.2373059014201995,-13.794900939922076,1.0,424.5691534715657,0.0,1.0,47.85395365202397,1327.7458387267402,1.0,1.0,-0.5202940070700783,24.8502237451036,40.376718074087705,7.714704283430461,1.0,422.983318523757,0.0,0.0,-79.21399737368418,1.9920101713652447,,,
4.04,4.04,1.0,-0.08748929796787035,-6.199048815619993,6.424764046670518,-0.9491849235118559,-0.6206152073583988,0.031155204177330097,8.92823911256238,1.1344980834598388,1.0,0.0,168.49153388973247,-176.24202725633168,417.51130474885326,42.02830753633495,1.2373059014201995,-13.794900939922076,1.0,421.21872685090443,0.0,1.0,48.477287016244524,1322.0423763047659,1.0,1.0,-0.5202940070700783,24.8502237451036,40.376718074087705,7.714704283430461,1.0,422.983318523757,0.0,0.0,-79.21399737368418,1.9920101713652447,,,
4.08,4.08,1.0,-0.4019921921863274,-6.4723140258894984,7.916681543245973,-0.1803495892979296,-0.6596703082649079,0.03085847773645106,10.233586528166757,0.6845751497202199,1.0,0.0,168.49153388973247,-176.24202725633168,417.51130474885326,42.02830753633495,1.2373059014201995,-13.794900939922076,1.0,421.77219746975146,0.0,1.0,47.73181672552885,1344.9248164021483,1.0,1.0,2.3681038008561224,25.433326101276588,39.95320905885446,8.143896429232273,1.0,421.7531743237975,0.0,0.0,-79.21399737368418,1.9920101713652447,,,
4.12,4.12,1.0,-0.3600983086165462,-6.214949050902706,7.272964932761647,-0.9474457758237401,-0.6719181547344955,0.12605192169008914,9.573467575041217,1.1683392451466408,1.0,0.0,168.49153388973247,-176.24202725633168,417.51130474885326,42.02830753633495,1.2373059014201995,-13.794900939922076,1.0,420.4497396749335,0.0,1.0,48.06029380494822,1347.6100681674466,1.0,1.0,2.3681038008561224,25.433326101276588,39.95320905885446,8.143896429232273,1.0,421.7531743237975,0.0,0.0,-79.21399737368418,1.9920101713652447,,,
4.16,4.16,1.0,-0.7721171411579046,-7.140679314623954,10.420611538040784,-0.17612614690025902,-0.8133469369136037,0.03849196693367408,12.656010855744277,0.8330878050524424,1.0,0.0,168.49153388973247,-176.24202725633168,417.51130474885326,42.02830753633495,1.2373059014201995,-13.794900939922076,1.0,421.22713626848434,0.0,1.0,48.473338084747,1365.5003316732073,1.0,1.0,3.4292281368539412,26.111939192197436,39.352465724150676,8.46588816243033,1.0,421.383887143711,0.0,0.0,-79.21399737368418,1.9920101713652447,,,
4.2,4.2,1.0,-1.0001179689474486,-5.625874022473191,8.799349681797027,-0.9452538145707104,-0.8361835945391193,0.4758662352136314,10.49186586318619,1.348761080233722,1.0,0.0,172.51493354666323,-174.78401042462286,421.9433947314181,41.96722561786886,2.91662757077558,-14.664588457242933,1.0,419.9288117254966,0.0,1.0,47.891691826133936,1337.155388039073,1.0,1.0,3.4292281368539412,26.111939192197436,39.352465724150676,8.46588816243033,1.0,421.383887143711,0.0,0.0,-79.21399737368418,1.9920101713652447,,,
4.24,4.24,1.0,-1.72540663344965,-7.320549986373999,16.160271887005973,-0.1795145560942017,-1.2288657421832787,0.04397114939340788,17.824754349379067,1.2426865856443192,1.0,0.0,172.51493354666323,-174.78401042462286,421.9433947314181,41.96722561786886,2.91662757077558,-14.664588457242933,1.0,418.04986584089806,0.0,1.0,48.47656455474892,1391.4820934783315,1.0,1.0,9.593342596440817,27.71622416903438,38.300939351613266,7.990730374371806,1.0,419.5857802177329,0.0,0.0,-79.21399737368418,1.9920101713652447,,,
4.28,4.28,1.0,-2.0629835508178576,-4.763216959509358,16.623885801831243,-0.9486884066365892,-1.1928455677229768,0.6937310629682508,17.41544475707207,1.6745605480394194,1.0,0.0,172.51493354666323,-174.78401042462286,421.9433947314181,41.96722561786886,2.91662757077558,-14.664588457242933,1.0,418.6318392284231,0.0,1.0,47.759172070550505,1377.3443106352538,1.0,1.0,9.593342596440817,27.71622416903438,38.300939351613266,7.990730374371806,1.0,419.5857802177329,0.0,0.0,-79.21399737368418,1.9920101713652447,,,
4.32,4.32,1.0,-2.9696441136403506,-6.8872880107128065,25.229806681805464,-0.17607121238890538,-1.4683159925431868,-0.07725648913769087,26.321030897467956,1.4808516100217688,1.0,0.0,172.51493354666323,-174.78401042462286,421.9433947314181,41.96722561786886,2.91662757077558,-14.664588457242933,1.0,417.64146169603356,0.0,1.0,47.68529621674155,1350.664037553923,1.0,1.0,13.255441928811255,29.44653709454092,37.2916523959772,6.545448460979644,1.0,418.27449172492237,0.0,0.0,-79.21399737368418,1.9920101713652447,,,
4.36,4.36,1.0,-3.3832882258325347,-5.412826991425912,25.048375549314446,-0.9457691063676705,-1.2342545941154945,0.449678420118079,25.84891589443665,1.6186643528460736,1.0,0.0,172.51493354666323,-174.78401042462286,421.9433947314181,41.96722561786886,2.91662757077558,-14.664588457242933,1.0,415.7368592685417,0.0,1.0,47.267534502004345,1362.3891800968506,1.0,1.0,13.255441928811255,29.44653709454092,37.2916523959772,6.545448460979644,1.0,418.27449172492237,0.0,0.0,-79.21399737368418,1.9920101713652447,,,
4.4,4.4,1.0,-4.611306145737774,-7.35271736263828,27.638461216902165,-0.1828592622609641,-1.2884424305434197,-0.011233789364672862,28.969141088799415,1.3014021686791324,1.0,0.0,183.56837511260528,-176.3778608156495,416.2967652542368,40.296869704832474,6.224521922143819,-16.383019122012882,1.0,418.5155836712329,0.0,1.0,47.79622298929706,1347.8492744010446,1.0,1.0,21.615477913506098,30.741823323812362,36.41127666642058,5.154487030488918,1.0,417.02706792991705,0.0,0.0,-79.21399737368418,1.9920101713652447,,,
4.44,4.44,1.0,-5.143433214841284,-4.98895472095598,27.334763853744334,-0.9486621307003361,-1.1857130962478728,0.6829656877146484,28.258341943278438,1.6650277821808743,1.0,0.0,183.56837511260528,-176.3778608156495,416.2967652542368,40.296869704832474,6.224521922143819,-16.383019122012882,1.0,417.96414753800286,0.0,1.0,48.92263637334253,1357.1510137066657,1.0,1.0,21.615477913506098,30.741823323812362,36.41127666642058,5.154487030488918,1.0,417.02706792991705,0.0,0.0,-79.21399737368418,1.9920101713652447,,,
4.48,4.48,1.0,-6.111872273596471,-7.032773363370592,29.35243472308824,-0.17983941931733033,-1.221995129712708,-0.08514982624670007,30.795783932909526,1.238089175581394,1.0,0.0,183.56837511260528,-176.3778608156495,416.2967652542368,40.296869704832474,6.224521922143819,-16.383019122012882,1.0,415.50252822235956,0.0,1.0,47.33591143276206,1293.8571986007942,1.0,1.0,25.344682395906787,32.0604555016648,35.494439103810045,3.807756504999955,1.0,415.64329880273505,0.0,0.0,-79.21399737368418,1.9920101713652447,,,
4.5200000000000005,4.5200000000000005,1.0,-6.48247086854843,-6.549425927676387,29.399826611179044,-0.948207867470967,-1.1618780163013325,0.4673362137943929,30.81018035181051,1.5708156548181702,1.0,0.0,183.56837511260528,-176.3778608156495,416.2967652542368,40.296869704832474,6.224521922143819,-16.383019122012882,1.0,415.1184538343305,0.0,1.0,47.657591644839,1284.9662591792653,1.0,1.0,25.344682395906787,32.0604555016648,35.494439103810045,3.807756504999955,1.0,415.64329880273505,0.0,0.0,-79.21399737368418,1.9920101713652447,,,
4.5600000000000005,4.5600000000000005,1.0,-7.060655312643456,-4.760380420832129,30.37785306159581,-0.17994056190418556,-1.1575784500178168,0.6302283435385422,31.54881981670484,1.3302459316845814,1.0,0.0,183.56837511260528,-176.3778608156495,416.2967652542368,40.296869704832474,6.224521922143819,-16.383019122012882,1.0,415.6877926132658,0.0,1.0,47.87941340027719,1280.2878170670645,1.0,1.0,28.584228609234412,33.84797847582887,33.89937989661945,2.2792827949151913,1.0,414.2498218491025,0.0,0.0,-79.21399737368418,1.9920101713652447,,,
