time_s,x_m,y_m,altitude_m,vx_mps,vy_mps,vz_mps,speed_mps,mass_kg,roll_deg,pitch_deg,yaw_deg,p_dps,q_dps,r_dps,alpha_deg,beta_deg,qbar_pa,mach,airspeed_mps,load_factor_g,density_kgpm3,pressure_pa,temperature_k,wind_x_mps,wind_y_mps,wind_z_mps,thrust_n,mass_flow_kgps,propulsion_throttle_actual,propulsion_health,energy_j_per_kg,target_distance_m,guidance_mode,pitch_command_deg,heading_command_deg,roll_command_deg
0.0,0.0,-180.0,450.0,42.0,2.0,0.0,42.04759208325728,11.0,0.0,3.0000000000000004,3.999999999999999,0.0,0.0,0.0,3.4675827967385846,-14.004401711413385,1203.383344165056,0.13379477880266702,45.29788499340546,1.4318381667953777,1.1729463340241415,96034.57625081437,285.22499999999997,-2.6076439091004775,9.86942436359809,0.3586780454497614,11.991235629318206,0.0005955894873527215,0.17333333333333334,nominal,5296.992499999999,939.4147114027968,waypoint,4.273326075035703,16.11341823308929,0.0
0.04,1.6724412127086774,-179.90199149768512,449.9954156471345,41.811030317716934,2.4502125578718963,-0.11460882163664035,41.88291934655218,10.999976176420505,1.8554356586470606,3.204854331040006,2.234213403357622,44.0,-5.8351358757344665,-44.0,3.462406156860405,-12.140133924286706,1188.5773529571402,0.13296911371743755,45.01834817009458,1.3354935843168212,1.172946855544633,96034.62898314334,285.2250297982936,-2.54921784659964,10.103156119718633,0.3878945149648293,21.366851319931243,0.0010547152982667868,0.30814814814814817,nominal,5290.037009350869,937.7857377309673,waypoint,4.281043727950602,16.13608797654679,0.0
0.08,3.3392113223134277,-179.7907310245502,449.9903522596853,41.66925274011876,2.7815118283729268,-0.12658468623004335,41.762177333731785,10.999933987808575,2.038457002629055,2.769561488234081,-1.2766748479705303,0.0,7.897199018010942,-88.0,3.1657997804582108,-8.517906899113894,1177.43600933013,0.13234440131620534,44.806846597608505,0.8633482599550424,1.1729474315607773,96034.68722567965,285.22506271031205,-2.4967915098749716,10.312891846942001,0.4141114808677501,28.68730608647937,0.0014094163630652655,0.4130041152263375,nominal,5284.937615814473,936.1587176622799,waypoint,4.288808751518804,16.15795899589299,0.0
0.12,5.002541056439957,-179.67228904885616,449.9805593375506,41.58324335316322,2.9610493923517103,-0.2448230533691998,41.68925376640604,10.999877611154051,3.8957120294361705,2.3284574796601922,-5.6745536958594025,41.54207907049283,5.325116538997128,-110.32789218303309,2.9234505616241115,-4.2447968658763555,1170.749664568463,0.13196801465716923,44.67942118851018,0.6016278812775254,1.1729485456142443,96034.7998706309,285.2251263643059,-2.45077673482567,10.497009704672017,0.4371262130840022,34.38802043174633,0.0016846895270932981,0.4945587562871514,nominal,5281.79879202749,934.5335046353257,waypoint,4.296883351264282,16.179423625044276,0.0
0.16,6.663380874254975,-179.55379665779978,449.9641834887409,41.52099544537546,2.9623097764092354,-0.40939622024227296,41.62854726328374,10.999810223572968,3.9035634319214183,2.2529063821914974,-8.330322868285272,-2.4579209295071633,-2.62819991265783,-66.32789218303309,3.2493177476993695,-1.8254650854454604,1167.0743006932069,0.13176057735298552,44.60919901969664,0.8408298693625239,1.1729504085504168,96034.98823718877,285.22523280732315,-2.411532237340571,10.654085949705271,0.45676074371315895,38.82091243532379,0.0018988704045543587,0.5579901437788956,nominal,5279.109233635585,932.911305551012,waypoint,4.30537767781309,16.20091772587297,0.0
0.2,8.321357605808098,-179.44019450727336,449.94403340262386,41.449418288828056,2.840053763160419,-0.5037521529260574,41.549656413639006,10.999734268756786,4.319430471684439,2.089434904488501,-9.214603668187564,9.55916939011461,2.492370578569442,-22.327892183033093,3.2567020551051304,-1.3059146374022044,1164.158055374747,0.1315956961741021,44.5533866543366,0.7877158699995557,1.1729527008514509,96035.22001809545,285.22536378288294,-2.379357463464434,10.78290594572652,0.47286324321581513,42.27264168953558,0.002065119901418978,0.6073256673835854,nominal,5275.630629213568,931.2936455725518,waypoint,4.314113487608254,16.222727539917898,0.0
0.24,9.977177411968157,-179.33010801520388,449.9198461479656,41.39549515400149,2.7521623017369996,-0.6046813664571639,41.49128891628945,10.999651663960728,3.0039146013767644,1.9427694804667286,-8.336088782069355,-32.116564637096346,5.061283867126598,21.672107816966903,3.227690457777918,-2.3630558541103523,1162.018978625385,0.131474550194631,44.51238341906462,0.7402242676669372,1.1729554524307608,96035.49823804125,285.2255210000382,-2.3545018418215067,10.882473555826179,0.4853091944782724,44.95860452625004,0.002194314301160675,0.6456977412983442,nominal,5272.969987194448,929.6794918759203,waypoint,4.323112983735948,16.24478507390771,0.0
0.28,11.631867457606145,-179.22009512406132,449.89152975543186,41.367251140949705,2.7503222785637313,-0.7079098133431485,41.46462197944407,10.999563891388682,3.4378161113468626,1.777843258095048,-7.059813591596233,11.883435362903656,5.908518199622259,31.60964795696782,3.109257067671939,-3.760665720522501,1160.518155164391,0.13138939596259175,44.483567721946336,0.7373712053010018,1.1729586737534246,96035.82395525747,285.2257050565897,-2.3371579940144533,10.952018845409595,0.49400235567619943,47.047742458362556,0.002294793243214102,0.67554268767649,nominal,5271.586208225204,928.0669125839047,waypoint,4.332392178867194,16.26690463980467,0.0
0.32,13.286313684511429,-179.106643424911,449.8585692194579,41.36115567263211,2.836292478758208,-0.8240133993490963,41.46647744483578,10.999472099658954,2.619794295984918,1.5351090796558202,-7.543462496327659,-20.800433945758,5.421415139125239,-12.390352043032177,3.1007317271821133,-3.173057917029982,1159.4408611907947,0.13132813903184765,44.46284510001448,0.7474315822851307,1.1729624234105462,96036.20309415775,285.2259193000735,-2.327461137187511,10.991004035933209,0.498875504491651,48.67263237981223,0.0023729426689841453,0.6987554237483811,nominal,5271.339913677533,926.4541189276823,waypoint,4.341992837361361,16.2888927872882,0.0
0.36,14.941051938925039,-178.9882239415694,449.8205397892584,41.36845636034027,2.9604870835400754,-0.9507357549867348,41.485148714750856,10.999377181952195,3.6033517124365635,1.3006310596439263,-9.789982053185607,23.199566054241995,2.80538942198316,-56.39035204303217,3.124832808397615,-0.8320985211873401,1158.8235685989894,0.13129287545069473,44.45092541886914,0.671329635254405,1.1729667497267025,96036.64054110915,285.2261664913698,-2.325487274458954,10.999127663428633,0.4998909579285791,49.9350995838008,0.0024338392405518997,0.7168097740265186,nominal,5271.741378466828,924.8402015044849,waypoint,4.3519473374185145,16.310667045900345,0.0
0.4,16.595644698379004,-178.86974056122426,449.77735433237746,41.36481898634912,2.9620845086281484,-1.0796364220245724,41.484790094846154,10.999279828382573,2.804979736043334,1.2113784915305827,-11.324163593668247,-20.800433945758,0.08442272956377793,-38.41340557798823,3.2858556958449183,0.7707484988344312,1158.9315632033463,0.13129865354055717,44.45290354115211,0.7690997021320628,1.1729716626192122,96037.13729903485,285.2264471968395,-2.3312522410870025,10.976326909657725,0.4970408637072156,50.91250196529338,0.002481588310199456,0.73085204646507,nominal,5271.302996470332,923.2269588290134,waypoint,4.3622544934991145,16.332511644807862,0.0
0.44,18.24960229839588,-178.75382650877896,449.73025431240774,41.348940000421926,2.897851311132504,-1.1775004992427305,41.46708199048544,10.999180564850164,3.538765135167467,1.1169950562042588,-11.095084322014648,18.46124863598406,2.6728438617074883,5.586594422011772,3.303367854516667,0.4845805975616086,1159.086758776098,0.13130707413931214,44.45577830520017,0.7580128113954773,1.1729770208607846,96037.67908815437,285.2267533469693,-2.3447100965633134,10.9227780878723,0.4903472609840376,51.67211695439901,0.0025187765086459838,0.7417738139172766,nominal,5270.106642855594,921.6155075403578,waypoint,4.372833434776538,16.354575883851076,0.0
0.48,19.903481283850983,-178.63830117677355,449.6793529646127,41.346974636377546,2.888133300134789,-1.2725336948764812,41.46725174815895,10.999079813789818,2.5236024051018133,0.9222545099837877,-11.452503866611982,-25.53875136401594,4.389449984180828,-9.179425281733227,3.2285557459872494,1.0018591524962517,1159.5453707380482,0.13133264813360648,44.46446251441462,0.7105652312083223,1.1729828115740306,96038.2646065361,285.22708420573,-2.3657571506975184,10.838895279422252,0.4798619099277814,52.260146239356224,0.0025479378437035976,0.7502685219356596,nominal,5269.614510523015,920.00469916809,waypoint,4.383683949010242,16.376739949405454,0.0
0.52,21.557801931177476,-178.5214983709747,449.6238301822862,41.35801618316235,2.9200701449712296,-1.3880695581612326,41.48420240714005,10.99897789627607,3.2921827614999635,0.7076061367799122,-13.57144507738493,18.46124863598406,2.6719476812653564,-53.179425281733224,3.2935311494218,3.2698177380551736,1160.4484867028698,0.13138334575721614,44.48165502891662,0.7313664066186762,1.1729891280625777,96038.90328859133,285.2274451038151,-2.3942324717878583,10.725327131754849,0.46566589146935605,52.712941000447806,0.002571007518795564,0.7568755170610686,nominal,5269.773058935399,918.393633332772,waypoint,4.394863085732458,16.398913527770627,0.0
0.56,23.211554458217353,-178.40813436495563,449.5635524806991,41.343813175996964,2.8341001504768246,-1.506942539678003,41.46822744478674,10.998875055975319,2.2751248949705785,0.6878886213372838,-13.938108473894287,-25.53875136401594,0.04721611049802529,-9.179425281733227,3.3637003451695295,3.7653066975359457,1161.2692037863815,0.1314293229627998,44.497251811912456,0.7877129193269463,1.1729959855187702,96039.5966706755,285.2278369088754,-2.429916710637544,10.582951842565627,0.44786898032070355,53.064058827492914,0.002589040337509965,0.7620142910474978,nominal,5268.51935564113,916.7846177160106,waypoint,4.406369854865435,16.42136239241732,0.0
0.6,24.86511237930594,-178.2965971058168,449.4998087883802,41.33894802721471,2.7884314784705997,-1.5935923079721004,41.46352023828793,10.998771494361819,2.4998693331901505,0.537820159176931,-14.734341388993798,5.405698632845372,2.9192662146668495,-20.044066028023444,3.3572784319560505,4.715233519684433,1162.246283813302,0.13148410104564007,44.51583003755175,0.7506016006941866,1.1730032373146633,96040.32992690276,285.2282512428755,-2.472532694595602,10.41287036888731,0.4266087961109138,53.33427219978177,0.002603310741690797,0.766011115259165,nominal,5267.699055130025,915.1767482668057,waypoint,4.41812935963022,16.443997443774485,0.0
0.64,26.51854107849201,-178.18686679082873,449.4320139367635,41.335717479651734,2.743257874701503,-1.6948712904178693,41.46130234345974,10.998667361932151,0.9686734939763899,0.39501953827264513,-16.267677034512634,-38.59430136715463,2.408442365999839,-38.428409075940955,3.222783206169874,6.536710093648024,1163.4641499277577,0.13155243706338915,44.539000582885265,0.7841963739201733,1.1730109500279968,96041.10978938655,285.228691909411,-2.5217525006875086,10.216397913629384,0.40204973920367304,53.54055644311503,0.0026147399941095413,0.7691197563126839,nominal,5266.942255480852,913.5700071258537,waypoint,4.430179798177883,16.466819585535482,0.0
0.68,28.170869244019695,-178.08266894130094,449.35946603876897,41.308204138192124,2.60494623819515,-1.8136974498624303,41.42997673745518,10.998562772332386,1.1834629957766474,0.3409732092092308,-16.04375501534602,5.405698632845372,1.4560510454594708,5.571590924059044,3.30730115131476,6.410318317558692,1164.4150164028938,0.13160561134636445,44.557040346145484,0.7770226698962208,1.1730192035168705,96041.94433312588,285.229163470748,-2.577197362091569,9.99505375540111,0.37438171942513854,53.70093495778948,0.002623634567478027,0.7715375882431986,nominal,5264.932493862132,911.9664370364302,waypoint,4.442556936447432,16.490037498350596,0.0
0.72,29.82268912453584,-177.9819200379577,449.2829126494063,41.29549701290365,2.5187225835810687,-1.9138347340666173,41.41647981643413,10.998457826949688,-0.3597628698210802,0.25183021257433663,-16.131284480626288,-38.59430136715463,2.2129895730831284,-2.2043710929207316,3.1322246430906864,6.794876256412568,1165.7475078080722,0.1316802871664947,44.582361845618145,0.7005097441325615,1.173027912742909,96042.82495979469,285.22966106777886,-2.6384382559604775,9.750549500261652,0.3438186875327065,53.82066199575041,0.0026309783200276905,0.7734181241891545,nominal,5263.6226755258485,910.3648333894918,waypoint,4.455221103090835,16.513537608744738,0.0
0.76,31.474676633388295,-177.88276918480292,449.20154420092024,41.299687721311365,2.4787713288697737,-2.034211212151573,41.42398494150831,10.998352587816887,-0.13636915731477262,0.20181919791246714,-17.941271663845622,5.405698632845372,1.4461920610112198,-45.24733589131953,3.2294091757465364,8.890429295383742,1167.755624970345,0.13179301240663122,44.62056805770475,0.8260750508818668,1.1730371698165394,96043.76098333423,285.230189962694,-2.705003722137602,9.48477584624407,0.31059698078050874,53.905569204397004,0.002637387192296173,0.7748807632582313,nominal,5263.135587655108,908.7640955248145,waypoint,4.468230367751563,16.53722125899319,0.0
0.8,33.125367188947344,-177.78954289904712,449.1159425332266,41.267263888976245,2.3306571438952264,-2.14004169234149,41.38838979774101,10.998247092329196,-1.6798991598675537,0.13223130201029715,-17.992270099443736,-38.59430136715463,1.7598458862352655,-1.2473358913195296,3.002526468066576,9.20620383630737,1168.8589808842887,0.1318545841886595,44.64145768124612,0.7178656654404538,1.1730469085526727,96044.74571176704,285.23074637353403,-2.776379095450131,9.199787963000118,0.27497349537501475,53.97546825117263,0.002642043401052814,0.7760183714230688,nominal,5260.8222628683425,907.166813239081,waypoint,4.481536856483089,16.561325678180776,0.0
0.84,34.77553368928045,-177.7003620289854,449.02515161056823,41.25416250832763,2.2295217515428734,-2.2697730664591185,41.376666870077045,10.998141410593155,-1.6058333401035254,0.11897772006943512,-18.572523595659856,1.8198445214532393,0.7470954473356726,-14.490967283569086,3.1021068514636037,10.050259726259098,1170.7731263923768,0.13196178629752817,44.677798871982446,0.7535761118818401,1.173057237727896,96045.79014431292,285.2313365145313,-2.852014872678657,8.897789599621962,0.23722369995274525,54.02091725432833,0.0026464206973343066,0.776903177773498,nominal,5259.446783680444,905.5717988080472,waypoint,4.495208588575586,16.585752575428092,0.0
0.88,36.42516444463981,-177.61499227296673,448.92985249363437,41.24076888398396,2.1342439004670735,-2.3824779233471003,41.36462517930142,10.998035553765261,-3.289827683883212,0.12198033857331256,-20.04193025052385,-42.18015547854676,1.494195678400856,-36.71076157945569,2.8134152520404827,11.899687345222665,1172.7121425092314,0.13207026386325435,44.71457426164983,0.8252218369052742,1.1730680798698678,96046.88644771645,285.23195595879133,-2.9313262103766773,8.581116043531484,0.19763950544143538,54.05246926529163,0.0026501459988908195,0.7775913604904985,nominal,5258.014046068748,903.9789525839883,waypoint,4.509204611772909,16.610489044958218,0.0
0.92,38.0730115101917,-177.5371805652402,448.82922602220987,41.19617663879722,1.9452926931637402,-2.5156617856131893,41.31873288880786,10.997929547925306,-3.6990286147181997,0.02704634212217528,-19.755617055308953,-10.220757835810431,1.9326690892461724,7.289238420544308,2.7567860624272296,11.81827963756596,1173.9190175902695,0.13213740893951212,44.737358632860555,0.7076522493979971,1.1730795281860156,96048.04404701824,285.2326100308556,-3.0137021454135806,8.252216062212419,0.15652700777655232,54.079570556574794,0.002652825814364663,0.7781266137148322,nominal,5255.12997313903,902.390609397727,waypoint,4.523567005921051,16.635742507927812,0.0
0.96,39.71990655016457,-177.46486048537218,448.72251444620304,41.172375999321815,1.808001996700466,-2.6677894001706255,41.298311308493794,10.997823434892732,-3.663988035529985,0.06308500240809212,-19.82138852034652,0.8747212024431102,-0.7935273153305434,-1.6987445731792117,2.922952444896309,12.157352629667423,1175.9829799515298,0.1322526735066863,44.776437848336364,0.7408672003657173,1.1730916689004673,96049.2716612449,285.2333036560997,-3.098507986474212,7.913632967425933,0.1142041209282416,54.09116168184884,0.002655712214025897,0.7785429217782028,nominal,5253.23990476049,900.8054581970969,waypoint,4.538352482223262,16.66140429541941,0.0
1.0,41.36621212031522,-177.39669129239545,448.6109567632103,41.15763925376606,1.7042298244186864,-2.788942074818107,41.28721189586763,10.997717206404172,-5.385824762810799,0.16330103245148173,-21.36217226516491,-43.12527879755689,0.5415523385041807,-38.60381769464365,2.593620721804984,14.10723174441828,1178.2896481878374,0.13238143110159062,44.82008793775213,0.8399949472121255,1.1731043610655691,96050.55503886312,285.2340287810391,-3.1850873277711984,7.567984948335943,0.07099811854199292,54.09427950453063,0.002658454346844743,0.7788667169386022,nominal,5251.687572209074,899.2226831386943,waypoint,4.5534880910011815,16.68740093335561,0.0
1.04,43.01053574058833,-177.33652999005773,448.49398973530185,41.10809050682776,1.5040325584431606,-2.9241756977120787,41.23939891130191,10.997610868230298,-5.417910027589955,0.035688697773023,-21.1574292596357,-0.7932431570564015,2.694274651916123,5.396182305356346,2.57739003866731,14.097909337624447,1179.5819547858066,0.13245307905460724,44.84440539234329,0.7026100445832734,1.1731176687766642,96051.9006613714,285.2347890667205,-3.27277280899109,7.217944825623831,0.027243103202978812,54.100971159257355,0.0026602257486679926,0.7791185576189128,nominal,5248.567595720442,897.6447744085253,waypoint,4.5689989493850405,16.71394494763429,0.0
1.08,44.65362962350747,-177.28258741411182,448.37035384948024,41.07734707297845,1.3485643986474267,-3.0908971455399112,41.21553971083646,10.997504459200352,-7.209030616958907,0.1264890811010652,-21.48467768433318,-44.7932431570564,-1.3567354438792774,-8.382262041725465,2.3066466044364744,14.780743627214237,1181.7260670577039,0.13257242202628441,44.88487436199386,0.7072194947204985,1.173131735350508,96053.32302094434,285.2355926999784,-3.3608896234383936,6.866219383149544,-0.016722577106306955,54.09659584803547,0.0026624110833888496,0.7793144337035989,nominal,5246.371487405774,896.0706162520836,waypoint,4.584973325220772,16.740942874289605,0.0
1.12,46.29556739621127,-177.2349961900164,448.2400551159607,41.04844431759499,1.1897806023856283,-3.2574683379888274,41.19467755365381,10.997397962757017,-7.349477279211367,0.25289456053739984,-22.124551900563837,-3.56413041956342,-1.107769703424752,-16.26843386396038,2.447720267398899,15.704612294634133,1184.04791700086,0.1327015614770037,44.92866364221722,0.8020373103462347,1.1731465601241646,96054.82205119653,285.23643964174624,-3.448757808080338,6.515528436982884,-0.06055894537713944,54.087715778810185,0.002664571041010973,0.7794667817694658,nominal,5244.23406587769,894.5001907221681,waypoint,4.601413201551577,16.768406383884383,0.0
1.16,47.935812293353294,-177.19464229044272,448.10422297399447,41.0061224285506,1.0088474893421744,-3.3958035491550156,41.1588548386187,10.997291379915376,-9.250497303165178,0.24444524865812042,-22.44030486522372,-47.56413041956342,1.3487190457035034,-7.781668620672489,1.9445414643338854,16.318969334742132,1185.7342473169965,0.132794944944617,44.96034999367227,0.7120078275730714,1.1731620146154427,96056.38476107286,285.23732255066903,-3.5356977146241313,6.1685838036595095,-0.10392702454256135,54.08185782092257,0.0026661614648428736,0.7795852747095845,nominal,5241.426944041165,892.9341894839001,waypoint,4.6182445675167205,16.79638229659826,0.0
1.2,49.57438707417011,-177.16219533466648,447.96041611728447,40.964369520420455,0.8111738944061405,-3.595171417749691,41.12982896652407,10.997184733456782,-9.662288160507877,0.29257262073783885,-22.33937997554711,-10.282991363008586,-1.60138130307766,2.2911441855496797,2.0601966496696487,16.456142544402038,1187.7971000317393,0.13290926354553778,44.99912854528762,0.7498889590826487,1.173178376610744,96058.03924019235,285.23825729523764,-3.621042293250165,5.828068330295633,-0.14649145871304595,54.07101746717899,0.00266792616839921,0.7796774358852324,nominal,5238.822430124329,891.3729968288322,waypoint,4.6356246978974935,16.82491474523883,0.0
1.24,51.21123475628976,-177.13760184893962,447.80951062151735,40.92119205299122,0.6148371431710715,-3.7726373941785223,41.09932817770102,10.997078016410047,-11.835401824055491,0.3185838779125068,-21.954290016757508,-54.282991363008584,-2.434812619031444,9.338627881686122,1.6581582748493868,16.356426064204584,1189.6798091863927,0.13301335321987784,45.03444764971145,0.6816834338622,1.1731955464596937,96059.7754130392,285.2392381809601,-3.7041319468884994,5.496615148716899,-0.18792310641038767,54.06029075112416,0.00266949049754351,0.7797491167996252,nominal,5236.0885256656875,889.8165996683086,waypoint,4.65349971038056,16.8540019376245,0.0
1.28,52.846674141743286,-177.12081724094958,447.6500891156577,40.885984636338,0.4196151997512412,-3.9855376464906853,41.081922142596056,10.996971236790145,-12.249959855272184,0.40861875025664407,-21.443712958669185,-10.282991363008586,-4.864505703004305,12.013802588098848,1.9162275829716502,16.09143674380718,1192.0950050405536,0.13314703031372435,45.07978870510479,0.7236156536283066,1.1732136854590283,96061.60959047188,285.2402744207482,-3.784328037820325,5.176787314024753,-0.2279015857469059,54.044002455130894,0.0026713730388766067,0.7798048686219308,nominal,5233.809909891226,888.2648151178408,waypoint,4.671964647548397,16.88364966064135,0.0
1.32,54.48081786473717,-177.11120233780557,447.48368720690644,40.85359307484709,0.24037257860022784,-4.160047718780726,41.06555543425986,10.99686438186859,-14.424263405444034,0.45540717460002056,-21.013514390935853,-54.282991363008584,-3.619709683364612,10.196652823513189,1.568896708753898,15.948198739373161,1194.3517819776628,0.13327167421248617,45.1220751256049,0.6544638174594112,1.1732326189183457,96063.52410913326,285.24135603315506,-3.8610099729269356,4.871057985050817,-0.26611775186864783,54.02821078994043,0.00267309757255012,0.7798482311503906,nominal,5231.505822709744,886.7172454324893,waypoint,4.690924915757873,16.913822999632973,0.0
1.36,56.11394234360839,-177.10871971454281,447.3089141879322,40.82811197178054,0.062065581568677336,-4.369325474356127,41.06129058392493,10.996757457965689,-14.838530542289927,0.5713821996108608,-20.684369537094472,-10.282991363008586,-4.883853739801054,7.229146057652269,1.825382864684481,15.864530330667847,1197.057016815098,0.13342112415724233,45.172764666342374,0.7049652699210556,1.1732525051068587,96065.53497393998,285.2424920577784,-3.933588803728223,4.581791299959516,-0.3022760875050605,54.00801421055893,0.002675100127225935,0.7798819575614149,nominal,5229.616755529846,885.1737490553114,waypoint,4.710473960177703,16.944527303656823,0.0
1.4000000000000001,57.746064480805785,-177.1128681905891,447.12724918142345,40.80305342993473,-0.10371190115695139,-4.541625162718894,41.05516148407154,10.9966504539606,-17.011754329955327,0.6362168924515353,-20.479025240458395,-54.282991363008584,-2.967681827038398,4.492387299452509,1.4591166810390173,15.924541424178177,1199.4526624960563,0.13355311099038308,45.217545412650146,0.6431331975132234,1.1732731757593196,96067.62517118144,285.24367288032073,-4.001503102506943,4.3112240948836895,-0.33609698813953887,53.98992361617541,0.0026768550690130745,0.7799081892144338,nominal,5227.583580426602,883.6340626631754,waypoint,4.730519822241257,16.975734196838214,0.0
1.44,59.377328675848645,-177.12393271485232,446.93719395781545,40.78160487607145,-0.27661310658051186,-4.751380590199351,41.058390477363695,10.996543379757838,-17.425325232939056,0.7481687669202501,-20.292529214427404,-10.282991363008586,-4.053440784626156,3.6246564007991364,1.6933359875939769,15.951090841445989,1202.150735343103,0.1337017134292225,45.2679562867491,0.6899763960818226,1.173294801386207,96069.81194381446,285.2449082392742,-4.064232057323512,4.061448606959062,-0.36731892413011724,53.96892536971611,0.0026787970992095756,0.7799285916112263,nominal,5225.852347422246,882.0982745395561,waypoint,4.751162061359309,17.00746654108718,0.0
1.48,61.007702725767786,-177.14152465073548,446.7400413726372,40.759351247978465,-0.4397983970790744,-4.9288146294561175,41.05863308048257,10.99643622787387,-19.598676848030262,0.8085882175916892,-20.123829089644463,-54.282991363008584,-2.771775696377032,3.519959319647104,1.3374225062800613,16.00430761547965,1204.4628826643534,0.133828648717208,45.31103508754694,0.6343265765142467,1.1733172349158327,96072.08042117838,285.24618973107783,-4.1212908640632495,3.8343962955111777,-0.3957004630611028,53.95087195759024,0.002680449399423381,0.7799444601420649,nominal,5223.928901945822,880.5662156381434,waypoint,4.772320080430163,17.039701927671057,0.0
1.52,62.637306239190174,-177.16598603706737,446.53436128365644,40.74008783555977,-0.6115346582971135,-5.142002224519392,41.067857484465705,10.996329009897893,-20.01319813225084,0.9156571377189546,-19.910927004198765,-10.282991363008586,-4.321679692183189,4.10019872975971,1.605632346121377,15.966723553492821,1207.0220705487109,0.13396909969462234,45.35869457306633,0.6804053611635316,1.1733406391198293,96074.44706394711,285.2475266516562,-4.172242731449005,3.631822906502043,-0.42102213668724464,53.930537466606864,0.002682257431040714,0.7799568023327171,nominal,5222.290653264562,879.0380113219094,waypoint,4.794089213103991,17.072466391437988,0.0
1.56,64.2661439887024,-177.19674846410086,446.3215768938118,40.72094373780549,-0.7690606758370682,-5.319609746114701,41.07413980927169,10.996221719600651,-22.187480005731775,0.9768579642144988,-19.715825057690676,-54.282991363008584,-3.183697805147314,3.999807140267796,1.2889147143989752,15.953366832740446,1209.1624069953286,0.13408611801365236,45.39842420635211,0.6289261997982892,1.1733648520934823,96076.89550151106,285.2489097501902,-4.216693910726818,3.4552948957298595,-0.44308813803376756,53.91353819388838,0.0026837606111749022,0.7799664018143355,nominal,5220.461972581498,877.513393365271,waypoint,4.816380644158746,17.105726911199827,0.0
1.6,65.89434186544253,-177.23408187664236,446.10043858552933,40.70494691850326,-0.9333353135376983,-5.528457707062793,41.08926457195902,10.996114369176205,-22.6025134142658,1.0877260727581315,-19.509589973590447,-10.282991363008586,-4.526708920573535,3.7102845183938027,1.5855596782168075,15.88638159900864,1211.5131955500703,0.13421461889648056,45.44204609369686,0.6773347010492919,1.1733900160739128,96079.44011831172,285.25034714919406,-4.2543050131796365,3.3061773157682777,-0.4617278355289653,53.894660642302,0.0026853987424469705,0.7799738680778165,nominal,5218.914697587004,875.9924468785409,waypoint,4.839278432460381,17.139505175862137,0.0
1.6400000000000001,67.52192424444694,-177.27727323479039,445.8724580862964,40.689559475110244,-1.0797839537003933,-5.6995124808245174,41.10098084211954,10.996006953226507,-24.776481336739657,1.1547464449082168,-19.360976381540755,-54.282991363008584,-3.027332327834388,2.7289260988923196,1.2854926217892975,15.878178743566616,1213.4072425305785,0.1343176579478111,45.47705092099592,0.6273391107195803,1.1734159590796531,96082.06352466234,285.25182902243904,-4.284785497792353,3.185623260312807,-0.47679709246089913,53.87949916038562,0.0026867113233712873,0.7799796751716351,nominal,5217.160454184117,874.4748334897723,waypoint,4.862687994444132,17.17375929648258,0.0
1.68,69.14899330574899,-177.32662679550262,445.6364478257773,40.67672653255116,-1.2338390178059668,-5.900256512976926,41.12093708860169,10.995899484773572,-25.190768639694678,1.2668356486564818,-19.22045053307969,-10.282991363008586,-4.023527899336706,2.0001728555719653,1.584551800850472,15.833328843289625,1215.4770940368799,0.13443026995353166,45.51530129675749,0.6767852140962384,1.1734428162931054,96084.77939180228,285.25336308913245,-4.307904091371588,3.0945649475589807,-0.4881793815551274,53.86280538801471,0.00268813795605713,0.7799841918001607,nominal,5215.666404593027,872.9606669688908,waypoint,4.886689375036341,17.208512642954577,0.0
1.72,70.77556864596956,-177.3813948030316,445.39387092680386,40.664383505514344,-1.3692001882250067,-6.064422474336256,41.1368935991309,10.99579195925533,-27.363663324855192,1.33567123014402,-19.139653461084155,-54.282991363008584,-2.437515754453844,1.0490514097778512,1.2895533781202004,15.845117096300287,1217.0668338553908,0.1345161988628611,45.54452091737059,0.6276972684197694,1.1734704212591063,96087.57088873081,285.25493983897576,-4.32348256571916,3.0337065115625377,-0.4957866860546828,53.85005713956935,0.0026892270326696467,0.7799877047334582,nominal,5213.943811817449,871.4496052213551,waypoint,4.911190819143784,17.24372082499354,0.0
1.76,72.401725499852,-177.44194750101346,445.14356576678875,40.65392134706111,-1.5138174495462546,-6.2576290003774195,41.160550104073515,10.995684390174024,-27.777023152110353,1.4439867232792862,-19.05546619645677,-10.282991363008586,-3.374250059584064,0.611825550135182,1.593032760058702,15.808335102501768,1218.8201784199493,0.13461104045284303,45.576762376985954,0.6777042565927619,1.1734989062129335,96090.45138884234,285.2565668225159,-4.331405012018698,3.003518557324473,-0.4995601803344409,53.8359113980511,0.0026904238389664965,0.779990437014912,nominal,5212.462591661852,869.9418061197243,waypoint,4.936270618439148,17.279410831718835,0.0
1.8,74.02748829692007,-177.50748287752026,444.88695786438444,40.64406992670149,-1.638384412670225,-6.415197560108032,41.17984316902503,10.995576773220465,-29.948957041578456,1.5119257135011361,-19.021578540469587,-54.282991363008584,-1.8966424139483977,-0.07819274005273397,1.3110776189692666,15.819010866220202,1220.0946453939814,0.13467933100089152,45.600017585598465,0.6300396427503197,1.173528108973673,96093.40449320393,285.2582347738815,-4.3316109327771,3.0042345217052917,-0.49947068478683854,53.8257189084814,0.002691286983316044,0.7799925621227093,nominal,5210.7404270535135,868.4369078556471,waypoint,4.961839237340298,17.315534714129814,0.0
1.84,75.65291878950721,-177.57838623638517,444.62295620922094,40.6357623146785,-1.772583971622787,-6.600041379086766,41.20640458760212,10.995469121741133,-30.36146542568989,1.6162727749973012,-18.97796312303272,-10.282991363008586,-2.8032021119038832,-0.36798592690836085,1.6261578619800714,15.776542702869095,1221.5424479357057,0.13475708431709846,45.62648070626216,0.6819475348064333,1.1735581537462108,96096.44276331412,285.25995078464007,-4.324103348608988,3.035848868308722,-0.49551889146140976,53.81406755295349,0.0026922659154937725,0.7799942149843294,nominal,5209.245603027734,866.9350806646574,waypoint,4.987970418792995,17.35212014041763,0.0
1.8800000000000001,77.27805599026297,-177.6537661745112,444.352980446333,40.62843001889402,-1.8844984531506828,-6.749394072198364,41.228327404369956,10.995361431104513,-32.53228683643952,1.683956276963526,-18.986243332338788,-54.282991363008584,-1.3358493629936727,-1.0594934774346694,1.3584339162791539,15.785245104762204,1222.5288051860414,0.13480930001108307,45.64430045650294,0.6352286922560022,1.1735888790121194,96099.54986704883,285.2617056270988,-4.3089412467571355,3.098117130293459,-0.48773535871331763,53.806233632152434,0.002692925322739868,0.7799955005433673,nominal,5207.501645974992,865.4359201849802,waypoint,5.014574881685419,17.389113535465885,0.0
1.92,78.90295129949146,-177.73401036482025,444.07601247241803,40.622382730712154,-2.0061047577265336,-6.924199347874255,41.257083896326655,10.995253714091604,-32.94360071425978,1.7846567593748048,-18.98637583702195,-10.282991363008586,-2.115835925824697,-1.364258477271243,1.6810684378820695,15.743082217974434,1223.7147643034068,0.1348724356575603,45.665821287774264,0.6893526487945111,1.1736204006835884,96102.73752745004,285.26350591892924,-4.286246531095902,3.190557800781887,-0.4761802749022641,53.79673448791726,0.0026937193673147717,0.779996500422619,nominal,5205.971513526906,863.9396016883976,waypoint,5.041721658134877,17.42654248392359,0.0
1.96,80.52765706730612,-177.8181560347545,443.79344251170147,40.61764419536662,-2.1036417483567935,-7.064249017913913,41.28101189135178,10.995145965316912,-35.11292437753343,1.8517487182238461,-19.041096186675894,-54.282991363008584,-0.6250384868798118,-2.072174123724689,1.421862120312347,15.75768309273066,1224.4712961763485,0.13491183725315853,45.67930914328317,0.6427466831122179,1.1736525605835817,96105.9897500782,285.2653426236739,-4.256195822170534,3.3124560562476546,-0.4609429929690432,53.79079144551486,0.002694217315242922,0.7799972781064815,nominal,5204.18793439434,862.4456862997096,waypoint,5.069323236354295,17.46434885087497,0.0
2.0,82.15221219076801,-177.90661019586832,443.5043013155313,40.613878086547174,-2.2113540278450867,-7.228529904254727,41.31136434980196,10.995038196624302,-35.522758868239094,1.9473247459045342,-19.08584812171291,-10.282991363008586,-1.3032232126398118,-2.293746444383889,1.7472362933523233,15.719804329840368,1225.4691697977964,0.13496446200251816,45.69727769937448,0.6986542613299248,1.173685469068015,96109.31769621186,285.26722204144903,-4.2190262270042105,3.4628692840899697,-0.4421413394887538,53.78284436035531,0.0026948789190760895,0.7799978829717078,nominal,5202.605868716999,860.9543632065541,waypoint,5.097445447171217,17.50256115432177,0.0
2.04,83.7766821347205,-177.9983588025545,443.2099269115896,40.61174859881243,-2.2937151671541103,-7.359360098541507,41.336853225435306,10.994930401467538,-37.69047033591175,2.012217543616926,-19.182771508820952,-54.282991363008584,0.1417761871842109,-2.9119081918350336,1.493788108634296,15.740962639974118,1226.0830074119617,0.13499588004869373,45.708068749563544,0.651937677567855,1.1737189738929983,96112.70597117924,285.2691354750746,-4.175026516719845,3.640634371651082,-0.41992070354361477,53.77807910834758,0.0026952764661226083,0.7799983534224394,nominal,5200.772347038131,859.4651668897002,waypoint,5.126004042079424,17.541117938536086,0.0
2.08,85.40109450988642,-178.0938302429725,442.9093917083265,40.610309379147786,-2.3867860104503253,-7.513380081577422,41.36840407339911,10.994822590408894,-38.09885005065182,2.101131500733671,-19.264642026564683,-10.282991363008586,-0.4978091013070142,-2.9794647093585334,1.8210548806192584,15.705568410605132,1226.9907616512517,0.13504341398850037,45.72431975637526,0.7095547031367446,1.1737531806768018,96116.16525726356,285.27108895389586,-4.124541737359367,3.8443767003125715,-0.39445291246092856,53.77087915049238,0.0026958737630027687,0.779998719328564,nominal,5199.129813986472,857.9783003794207,waypoint,5.155062113106161,17.58004880490507,0.0
2.12,87.02553138093926,-178.19196078102505,442.60397917845137,40.61092177632108,-2.4532634513134846,-7.635313246878524,41.395210803448975,10.994714755458375,-40.26506603047777,2.1625311827853286,-19.394857322595524,-54.282991363008584,0.8655964436750013,-3.4920555251126206,1.5723830457591486,15.73172057918785,1227.5665292790543,0.13507262478039161,45.734369362258164,0.6627180495408604,1.1737879433770966,96119.68078670459,285.27307413534004,-4.067963837452055,4.07252077512107,-0.3659349031098662,53.76643072049447,0.002696243203795349,0.7799990039222164,nominal,5197.24405114135,856.4932686702238,waypoint,5.184538886701676,17.61928912443602,0.0
2.16,88.6500111917841,-178.29319567632075,442.2928023712716,40.61199527112101,-2.530872382392348,-7.779420179494825,41.42775462472765,10.994606905730222,-40.67213864982993,2.243845227612615,-19.50528628846564,-10.282991363008586,0.2439586740342215,-3.418108093717654,1.9003624056971082,15.698070234511148,1228.49249702678,0.13512104092412291,45.75092482195466,0.7219441368197559,1.173823362989705,96123.26277442563,285.2750967845867,-4.005735194506388,4.323302407746816,-0.334587199031648,53.75908542843433,0.0026968507411549753,0.779999225272835,nominal,5195.540136997552,855.0102852218145,waypoint,5.214494791954825,17.65886933448347,0.0
2.2,90.27463512391246,-178.39642553494167,441.97708688860695,40.615598303209076,-2.580746465523133,-7.892887066616494,41.45581677030754,10.994499031700576,-42.83704140711258,2.300711247309096,-19.660578672331354,-54.282991363008584,1.5230760699474486,-3.841368867410025,1.6539194066962692,15.729632390060507,1229.1384202705874,0.13515400357372062,45.762250313040596,0.674723217017987,1.1738593000514135,96126.89711776366,285.27714893522403,-3.9383387800253593,4.5947823585669205,-0.3006522051791349,53.75406198470398,0.0026972662718056178,0.7799993974344273,nominal,5193.606971182813,853.5288244830023,waypoint,5.244852800464402,17.69872192054591,0.0
2.24,91.89941253633192,-178.50211701190932,441.6559784826145,40.61943531048651,-2.642286924191592,-8.027710149810764,41.48932796975539,10.994391141049704,-43.243020910342125,2.3734430284676313,-19.79149072181538,-10.282991363008586,0.9029162509078399,-3.6310533691870157,1.9799989315709172,15.698441386296425,1230.1887201139832,0.13520913615655694,45.78108531605622,0.735088662036718,1.1738958518387685,96130.59365560839,285.279236139863,-3.866300699180563,4.88486133238206,-0.26439233345224245,53.745697175421036,0.0026979565216654297,0.7799995313378879,nominal,5191.847769077494,852.0491122384208,waypoint,5.275671192609629,17.73887844634225,0.0
2.2800000000000002,93.52446442632855,-178.6091261822939,441.33063682377036,40.62629724991569,-2.6752292596142713,-8.133541471103355,41.51875933469305,10.994283222788837,-45.40690120327727,2.424487495874091,-19.96301385204877,-54.282991363008584,2.081030659641379,-3.957319491958904,1.732629239548237,15.735868129290688,1231.0056847373671,0.13525138992554336,45.795561950628574,0.6871576326885712,1.1739328863855387,96134.33904323008,285.2813508606455,-3.7901799918123436,5.191296211808004,-0.22608797352399948,53.739268042933666,0.0026984868189052665,0.7799996354850239,nominal,5189.878777953909,850.5705957333367,waypoint,5.30687725596855,17.779269225499778,0.0
2.32,95.149790131137,-178.71794943463593,441.0002314117664,40.633142620211174,-2.720581308551026,-8.26013530009937,41.5533834606378,10.994175283316082,-45.81214536084866,2.487491786373095,-20.104751210773625,-10.282991363008586,1.4279259138953702,-3.6020922923198504,2.0545239943786044,15.707252761830043,1232.2738108443427,0.1353183598270626,45.818410145159625,0.7481119545353321,1.1739704982682448,96138.142846559,285.2834984958235,-3.710570302179178,5.511717402812691,-0.18603532464841363,53.72911532018566,0.0026993230728912785,0.779999716488352,nominal,5188.076757887602,849.0935173010156,waypoint,5.338527701110578,17.819927470815756,0.0
2.36,96.77553085578778,-178.82741775233993,440.6658508041187,40.6435181162695,-2.7367079426002796,-8.359515191191566,41.5844517754218,10.994067310393167,-47.97545154108147,2.531321697260848,-20.281842499026784,-54.282991363008584,2.4808730833127703,-3.823175936414591,1.803711427568061,15.750008706576141,1233.3449984279603,0.13537445124139522,45.83757714698237,0.6992582571927652,1.1740085636081456,96141.992538539,285.2856719697732,-3.6280894342264065,5.843647158269662,-0.14454410521629227,53.72059801342357,0.0027000241840157133,0.7799997794909405,nominal,5186.089080519401,847.6172999891992,waypoint,5.370554519757594,17.860781934643924,0.0
2.4,98.40167490388242,-178.938063773863,440.3266826926071,40.653601202366254,-2.766150538076859,-8.479202787788962,41.620472840139456,10.993959309425806,-48.38045995971101,2.5835720402305444,-20.423243605547036,-10.282991363008586,1.760722213331867,-3.3283489294881465,2.1198004319637938,15.723593099649174,1234.901718632685,0.13545710782569875,45.865741753525235,0.7603179680719597,1.1740471749142398,96145.89747611067,285.287876562498,-3.5433802915021646,6.184518737835698,-0.1019351577705377,53.70807940700308,0.002701053618595866,0.7799998284929537,nominal,5184.261542545848,846.1422062269572,waypoint,5.403013214272721,17.901867891622445,0.0
2.44,100.02838376242782,-179.04869986504303,439.9837426082528,40.667721463635075,-2.76590227950068,-8.573502108858062,41.653555945130854,10.993851267281062,-50.54375448781321,2.618912788035769,-20.59434359321683,-54.282991363008584,2.6736873621427164,-3.4493741700523453,1.8634005509337463,15.770849921778861,1236.283346158134,0.13553007948809856,45.89062922285159,0.7103572869424967,1.174086216614009,96149.8459720406,285.29010567304636,-3.457100322089213,6.531696255993631,-0.05853796800079615,53.69701706433948,0.002701962610167475,0.7799998666056307,nominal,5182.275930886294,844.6676370824829,waypoint,5.435840657727285,17.943112954662972,0.0
2.48,101.6556332180817,-179.1599013817238,439.6362325305959,40.681236391347085,-2.7800379170192575,-8.687751941420988,41.69134968964654,10.993743188776655,-50.94911124815954,2.659560737323958,-20.723800757030073,-10.282991363008586,1.860490890720392,-2.8326058064085196,2.1722523471735853,15.74635575443422,1238.1691308147913,0.13563058450802903,45.92484213600646,0.771036387022738,1.174125779593645,96153.84721926365,285.29236448855113,-3.369921885009194,6.882495064779649,-0.014688116902543956,53.68180804588094,0.0027032111404413197,0.7799998962488239,nominal,5180.442979218364,843.1938789972822,waypoint,5.469091395964901,17.98455486682634,0.0
2.52,103.28360415136441,-179.27046824920322,439.2850938176347,40.69927333206789,-2.7641716869848585,-8.778467824030619,41.726885723847666,10.993635060331037,-53.113019368681606,2.685249617493836,-20.877187720997384,-54.282991363008584,2.625112403524615,-2.8634641384519965,1.9083054215319466,15.797249260936,1239.885060383002,0.13572168105266233,45.95587147256099,0.7197818796411413,1.1741657567184423,96157.8903837105,285.29464689018533,-3.282521730878548,7.234202513580002,0.02927531419750026,53.668013991042834,0.002704342492499967,0.7799999193046409,nominal,5178.481661392228,841.7203141187866,waypoint,5.5027073054847975,18.026120490850534,0.0
2.56,104.91225776687357,-179.38102588281933,438.9295398155894,40.716340387728685,-2.7639408404028796,-8.888850051131975,41.76686963096638,10.993526886631336,-53.51935414297879,2.7135667334634066,-20.982994968288093,-10.282991363008586,1.6960309397120208,-2.1462072656762365,2.208772563654131,15.774413092123178,1242.1069098179996,0.13584034007571952,45.99623616479202,0.7796102744532063,1.174206237584724,96161.98452799395,285.29695799119867,-3.1955809589101025,7.584098925466052,0.07301236568325654,53.65006908415575,0.0027058127717678017,0.7799999372369429,nominal,5176.664071017621,840.2472576283164,waypoint,5.536742157413312,18.06785049572119,0.0
2.6,106.54179257902248,-179.49036723596595,438.57043736774386,40.73837030372306,-2.7335338286652986,-8.977561196138835,41.80530620897472,10.993418654120466,-55.68453103361773,2.7285402030534494,-21.106915793784243,-54.282991363008584,2.3060752435289555,-2.098032944100924,1.9358035235637636,15.827874334268305,1244.147630293196,0.1359489607735485,46.03320400031209,0.7269473860982442,1.174247123535697,96166.11967530167,285.2992921571096,-3.10977468698281,7.929478627862297,0.11618482848278708,53.63363414484055,0.0027071579187144174,0.779999951184289,nominal,5174.748593225456,838.7740764249023,waypoint,5.571142895603408,18.109671324814535,0.0
2.64,108.17215306369994,-179.5991743512633,438.2070102400722,40.75901211693631,-2.720177882433258,-9.085678191792699,41.847891042028124,10.993310367803717,-56.09248418085787,2.7439374565200016,-21.177398939662275,-10.282991363008586,1.2413826680372324,-1.3057676279513846,2.227294959295325,15.806315388257914,1246.679977771186,0.1360842850907406,46.07921646255076,0.7855402330799901,1.1742885029860914,96170.30476888978,285.3016544334395,-3.025771765909449,8.267670874921771,0.15845885936522133,53.61317775104073,0.0027088302881967284,0.7799999620322248,nominal,5172.965769303532,837.3011188822704,waypoint,5.605962565325815,18.151626984598188,0.0
2.68,109.80355308365603,-179.70623664771213,437.8400517775563,40.78500049890223,-2.676557411220893,-9.173961562897045,41.88963828954039,10.993202014592189,-58.25957203184029,2.7472853039545924,-21.260318798158867,-54.282991363008584,1.6949580291855468,-1.1929457540110415,1.9444859462844017,15.861100647734212,1249.005351374676,0.13620814918417046,46.121350620136496,0.7314684886342978,1.1743302856426021,96174.53067767042,285.30403966344585,-2.9442247973784865,8.596060499820716,0.19950756247758955,53.59444548522271,0.0027103598810479692,0.7799999704695082,nominal,5171.115041778637,835.827740126425,waypoint,5.641153148798849,18.193643690562936,0.0
2.72,111.43591859700334,-179.81229759586327,437.46879744109594,40.80913783368258,-2.65152370377835,-9.28135841150917,41.93518716594804,10.993093600196946,-58.66974479845059,2.749349776752536,-21.284200969669865,-10.282991363008586,0.4813034945266897,-0.35590674514118636,2.2269835215236107,15.840393583870961,1251.79460628167,0.13635712217646942,46.17198953005862,0.7885392557815932,1.1743725585936824,96178.80621092564,285.3064528166328,-2.8657697695201656,8.912108137272762,0.2390135171590952,53.57193187743754,0.002712195918585592,0.7799999770318398,nominal,5169.3833437472695,834.3543251262092,waypoint,5.6767668664337165,18.23576909516003,0.0
2.7600000000000002,113.06947611032145,-179.91614448691982,437.0939690962218,40.8389378329529,-2.5961722764135895,-9.370708621853233,41.98058043772483,10.992985112360204,-60.8393197208503,2.740348967925352,-21.315209038815134,-54.282991363008584,0.7823937332960113,-0.19567119889883308,1.934144516214469,15.89522326156032,1254.3401543854097,0.1364926310590548,46.21807163567162,0.7331732137536149,1.1744152396809828,96183.12306021973,285.30888920087455,-2.7910165813840733,9.213369859886376,0.27667123248579695,53.55144412430643,0.002713864562204891,0.7799999821358754,nominal,5167.612138981606,832.8802204125438,waypoint,5.712760639727195,18.277929237358375,0.0
2.8000000000000003,114.70413191937902,-180.01858517864534,436.71481701156654,40.866395226439266,-2.5610172931382222,-9.478802116381999,42.02937969969125,10.992876557777716,-61.25222245001367,2.7288384321815147,-21.281990506890715,-10.282991363008586,-0.5865279269876822,0.653377535307107,2.2081424663426183,15.874959343447607,1257.3125971812408,0.13665115843626074,46.271950787906064,0.7885240226658662,1.174458414312732,96187.48986507721,285.3113536894248,-2.7205487553521746,9.497516076521903,0.3121895095652378,53.527489726199484,0.0027158129061522476,0.7799999861056809,nominal,5165.9437392168875,831.4058496114983,waypoint,5.749185643089491,18.320175620192913,0.0
2.84,116.34012212085223,-180.1184044969577,436.33199414756587,40.89975503683031,-2.495482957809309,-9.570571600016322,42.07865537319939,10.99276792526147,-63.42474664343551,2.7069517606532907,-21.251109137123972,-54.282991363008584,-0.42908226560408347,0.8427915844898765,1.9056944155727975,15.928588466768439,1259.9987609859086,0.1367939182706578,46.32049321113088,0.7320996301097354,1.1745020081737263,96191.89911024185,285.3138420380408,-2.654914622150817,9.762349546511338,0.34529369331391724,53.50590797702107,0.0027175658412335506,0.7799999891933074,nominal,5164.261769415468,829.9305535759764,waypoint,5.78600359708105,18.36243403477795,0.0
2.88,117.9773331829091,-180.2164755148598,435.94477025418234,40.930276551422075,-2.4517754475527016,-9.68059733458744,42.130899660172645,10.99265922262782,-63.84075549927011,2.681774002566165,-21.151318693142386,-10.282991363008586,-1.9532121249467727,1.6707274929006712,2.1721882031964093,15.908376757030899,1263.0708630635086,0.13695740565469322,46.37605707292271,0.7856239679008965,1.1745461044602143,96196.35921171067,285.3163589933478,-2.5946272520085287,10.005822370440791,0.37572779630509884,53.48120444907021,0.002719569506424044,0.7799999915947946,nominal,5162.664134300945,828.4547948999467,waypoint,5.823264306866994,18.404759921703914,0.0
2.92,119.61600753228453,-180.31157842866355,435.5537323271432,40.96685873438537,-2.377572845093493,-9.775948175978122,42.18418578017386,10.992550439847562,-66.01653844476873,2.646643816400094,-21.049708397904016,-54.282991363008584,-1.9266183090239037,1.8711042763305665,1.8611627637686912,15.959640092517795,1265.814003650404,0.13710283747299462,46.425509497077044,0.7285014495804377,1.1745906363665983,96200.86341371157,285.3189007398735,-2.540156444981884,10.226051826109606,0.40325647826370065,53.45921802954399,0.002721350256948363,0.7799999934626181,nominal,5161.07577409409,826.9779112453666,waypoint,5.860934124064346,18.447078625218165,0.0
2.96,121.25601293480722,-180.4046497901625,435.1581755538991,41.00013506306723,-2.3267840374733546,-9.888919331102908,42.23997780164967,10.992441585837284,-66.4358604279913,2.607837340199105,-20.875091256447444,-10.282991363008586,-3.599725134169674,2.6458282688224144,2.1216224720838976,15.939114375105582,1268.9037950529726,0.13726681552626266,46.481244871315596,0.780186051467972,1.174635684199185,96205.41984015198,285.32147185889966,-2.491929004866608,10.421334927210173,0.42766686590127173,53.434438181886975,0.0027233543922077458,0.7799999949153696,nominal,5159.551784637573,825.5004023002492,waypoint,5.899061080366795,18.489449469014946,0.0
3.0,122.89759476084022,-180.49446114436142,434.75862406752736,41.039545650824984,-2.245283854973252,-9.988787159294588,42.29729868123069,10.992332651661595,-68.61502838119596,2.559274675557442,-20.69521619668042,-54.282991363008584,-3.6876728226429463,2.8396564211078985,1.8036196055285103,15.986985718964679,1271.6275226205046,0.13741077261121326,46.530203337801176,0.7228308742525416,1.1746811883099544,96210.02245917635,285.32406894356103,-2.4503216658613782,10.590161592149322,0.4487701990186653,53.41267132520364,0.002725112343834285,0.7799999960452875,nominal,5158.0563985764375,824.0216045021148,waypoint,5.937615977053089,18.531797020772064,0.0
3.04,124.54060463642956,-180.58200802709106,434.35440527255156,41.075246889733435,-2.188672068240877,-10.105469874395283,42.3566607968235,10.992223647167842,-69.0376753717602,2.506979623206651,-20.438884759190632,-10.282991363008586,-5.497650688378998,3.53152601226979,2.059930443463028,15.965820135003584,1274.6656264592173,0.1375714926956857,46.58484105677426,0.7727521008327127,1.1747272253433545,96214.67902453101,285.32669636572837,-2.4156618117962645,10.731226321179632,0.46640329014745396,53.388379455624,0.002727071459669952,0.7799999969241125,nominal,5156.60498539465,822.5420503909107,waypoint,5.9766446200055405,18.57418427952631,0.0
3.08,126.18528732409094,-180.6660476092772,433.94598343163443,41.117067191534396,-2.100989554653657,-10.210546022928844,42.41795164347597,10.992114564309455,-71.22015122119967,2.4449371525353105,-20.17462704294728,-54.282991363008584,-5.681111253449421,3.7028468315330585,1.7370573278107313,16.009465479742307,1277.3111172467388,0.1377108121396043,46.6322347306702,0.7156983336601752,1.1747737424693165,96219.38419396056,285.3293511076944,-2.388221451966545,10.843438291544015,0.4804297864430019,53.367308275059855,0.002728768471959023,0.779999997607643,nominal,5155.197689233971,821.0610767156668,waypoint,6.016122083799264,18.61653458266747,0.0
3.12,127.83148227595534,-180.74762711138325,433.53272522077566,41.15487379661013,-2.0394875526516487,-10.331455271469299,42.48084409141018,10.992005413570578,-71.64592532652419,2.379350458822466,-19.831147376551357,-10.282991363008586,-7.610828375254852,4.286147512116394,1.991467990331213,15.98738098557283,1280.25013839851,0.13786574267390547,46.6849177342291,0.7640235995030713,1.1748208118669896,96224.14526978394,285.3320372860649,-2.36821846402634,10.925929792569987,0.49074122407124826,53.3438854481077,0.002730652306764308,0.7799999981392779,nominal,5153.814757145668,819.5792423043126,waypoint,6.056091486570055,18.6589142371976,0.0
3.16,129.47942980866463,-180.82548205099846,433.11503767063135,41.1986883177322,-1.9463734903801184,-10.44218875360746,42.545970371254484,10.991896187478307,-73.83142003303838,2.303876927195173,-19.4778508458728,-54.282991363008584,-7.869128253568208,4.421316996721682,1.6662917417093532,16.026198487248536,1282.7841735089921,0.13799866529003388,46.73015110100566,0.7078260807591337,1.1748683872248225,96228.95756909123,285.33475225514087,-2.355811709622334,10.978062935486877,0.4972578669358596,53.32377472155484,0.0027322675986998285,0.7799999985527717,nominal,5152.4873815885285,818.0958854890372,waypoint,6.0965320214010195,18.70124477651987,0.0
3.2,131.12896236313225,-180.90070119509977,432.69233349494357,41.23831386169049,-1.8804786025324753,-10.567604392194463,42.61231034008605,10.991786896774359,-74.25991008503813,2.2251911897192613,-19.043260878696078,-10.282991363008586,-9.897497786959162,4.875491563360269,1.9213854189828705,16.002964621202683,1285.6052553597826,0.1381468284989292,46.780548477295234,0.7548256818779119,1.1749165354858202,96233.82786479728,285.33749983228284,-2.351102853237468,10.999434586080467,0.4999293232600583,53.30136807007506,0.0027340649483643667,0.779999998874378,nominal,5151.16676852809,816.6115827193775,waypoint,6.137483686449312,18.743595278980784,0.0
3.24,132.780311485869,-180.97198965867628,432.2649645628066,41.28372806841897,-1.7822115894129191,-10.684223303423943,42.681086080066294,10.991677534176425,-76.44792425966875,2.1363645312955337,-18.597713065635432,-54.282991363008584,-10.209350074486498,4.9637672490807505,1.596900591550767,16.036620635790655,1288.0249264185557,0.13827323460633564,46.823581198311345,0.7000029603478284,1.174965216622094,96238.75210961237,285.3402777303417,-2.354132682645327,10.989879482041854,0.4987349352552316,53.28223573942599,0.002735597688127829,0.7799999991245162,nominal,5149.908769216861,815.1256751405233,waypoint,6.178929674639771,18.78588477852697,0.0
3.2800000000000002,134.43330857146995,-181.0404647908388,431.83239552442797,41.32492714002412,-1.711878304063193,-10.81422595946632,42.750761555305886,10.9915681102689,-76.8785112654196,2.0446841601246124,-18.069483888511602,-10.282991363008586,-12.312497904767094,5.274449796412281,1.8555840877443943,16.012058856550876,1290.7405889379552,0.1384153406647207,46.87193362450262,0.7460735238030599,1.1750144916682492,96243.73647903588,285.3430894290912,-2.3648835289871535,10.949471510904818,0.49368393886310225,53.26073826405006,0.0027373177507725452,0.7799999993190682,nominal,5148.642968348941,813.6387464729074,waypoint,6.220906501545616,18.828184407698043,0.0
3.3200000000000003,136.0881712974388,-181.1047911654062,431.3949243727913,41.37156814922159,-1.6081593641846874,-10.936778790916831,42.822960640148985,10.99145861755887,-79.06834419133484,1.942514348684344,-17.5298434016308,-54.282991363008584,-12.657070189188268,5.3085149620210395,1.5351935015124474,16.040522534459463,1293.0739881455142,0.1385367696083431,46.91328716539104,0.6930486421928591,1.1750643267345429,96248.77754670705,285.34593299157683,-2.3832768287683987,10.878523138689657,0.48481539233620713,53.24235249011602,0.0027387870304054667,0.7799999994703863,nominal,5147.4420140943075,812.1501421708458,waypoint,6.263401291909599,18.870409879139334,0.0
3.36,137.74473620278707,-181.166099005993,430.95207214032234,41.414122633706405,-1.532696014669986,-11.071305811724434,42.8958333987088,10.991349066077653,-79.50021262299121,1.8377383810882286,-16.90678404149391,-10.282991363008586,-14.809742178412122,5.4684441419362395,1.800706655759904,16.01450929915913,1295.7267722800364,0.13867512682538227,46.96037651377405,0.7387513236156097,1.1751147764402285,96253.88083941334,285.3488115310879,-2.409176143371604,10.77758299367165,0.47219787420895637,53.221416573869575,0.002740458071168125,0.7799999995880783,nominal,5146.222399739782,810.6604418082019,waypoint,6.306446825402708,18.91263347048509,0.0
3.4,139.40320085487005,-181.2230008876561,430.5040832158817,41.46161630207445,-1.4225470415771015,-11.19972311101603,42.97118876909704,10.991239447754806,-81.6909750355387,1.7220294590533398,-16.272448672404778,-54.282991363008584,-15.167906048261317,5.444888356561585,1.4882206908998585,16.038083446552015,1298.0294137121912,0.13879457003343454,47.00106408857842,0.6878041933419239,1.1751658130035945,96259.04354870378,285.3517234590968,-2.442385969186586,10.647431623958365,0.45592895299479563,53.20332688436487,0.0027419001936596714,0.7799999996796164,nominal,5145.064399783711,809.1689972951258,waypoint,6.3500341562767995,18.954766617165166,0.0
3.44,141.06341262799984,-181.27662158154033,430.05053743666093,41.50529432824468,-1.3405173471055702,-11.338644480519068,43.04708239460273,10.99112977174706,-82.12312549863921,1.6036905539484196,-15.554547008180997,-10.282991363008586,-17.345180153934688,5.4546599068214086,1.7641695238936554,16.010549932636998,1300.6862881511936,0.13893277135777932,47.048107288974,0.7339206857770115,1.1752174843519236,96264.27052465238,285.3546715066617,-2.4826553284246278,10.489075461681523,0.43613443271019037,53.182411482331936,0.0027435655716086796,0.7799999997508128,nominal,5143.880754297089,807.6763723499374,waypoint,6.394192222297224,18.996881627873226,0.0
3.48,142.725541159339,-181.32550892882387,429.59162459727,41.55321328347892,-1.2221836820882719,-11.472820984772575,43.125269720706555,10.991020029124195,-84.31375080594974,1.4738519331175994,-14.825954474526027,-54.282991363008584,-17.700985569890445,5.374361529116618,1.4638261545060232,16.029896445835867,1303.03343141797,0.1390542498917721,47.089490825460764,0.6851692977999341,1.175269768925212,96269.5595882442,285.3576544401177,-2.5296778029848372,10.30373904047703,0.41296738005962885,53.16401236579009,0.0027450288076135473,0.7799999998061877,nominal,5142.749149598663,806.1819285820576,waypoint,6.438916086895728,19.03888455886093,0.0
3.52,144.38944900802164,-181.37076145042622,429.12698318749483,41.59769621706623,-1.131313040058695,-11.616035244379315,43.203940498067944,10.990910227971892,-84.74500778150927,1.340901486745604,-14.014145828934387,-10.282991363008586,-19.880288539274304,5.242958538680586,1.7542387823811845,16.00082170150177,1305.7763290456332,0.13919665661162653,47.13796504804814,0.732776135631011,1.1753227079754136,96274.91491450182,285.36067460928126,-2.5830956436103456,10.092855526433649,0.38660694080420616,53.14246072936749,0.00274674063204846,0.7799999998492572,nominal,5141.5883669559435,804.6862027499805,waypoint,6.484230923470193,19.080846415815326,0.0
3.56,146.05526797216547,-181.4108482645134,428.6567458680779,41.64547410359569,-1.002170352179514,-11.75593298542263,43.28454480626768,10.99080035834661,-86.93425449351467,1.1956990896316997,-13.192497345471171,-54.282991363008584,-20.222706343726408,5.111306096114137,1.4707448498381097,16.016978875785526,1308.251761894867,0.13932461378107186,47.18154952254524,0.6862062188002945,1.175376286454518,96280.33498324091,285.36373115185745,-2.642500972264762,9.858055635732484,0.3572569544665606,53.12308307429128,0.0027482778233113582,0.7799999998827556,nominal,5140.4625864100835,803.188571020719,waypoint,6.530135984905025,19.122666611950187,0.0
3.6,147.72287787242453,-181.446818545533,428.1806065106685,41.69024750647635,-0.8992570254905309,-11.90348393523514,43.365635359643385,10.990690427233677,-87.36326084937922,1.0462292651759646,-12.288349520340148,-10.282991363008586,-22.386147245366544,4.856338454891006,1.780150181434844,15.986371534850223,1311.164961342431,0.13947567544817502,47.23296189352045,0.7367643578194951,1.1754305393111473,96285.82333204338,285.3668260576806,-2.7074403340653173,9.60115502467472,0.3251443780843399,53.10022513593284,0.002750088717525079,0.7799999999088099,nominal,5139.306509910623,801.6895336879961,waypoint,6.57665297651012,19.164413278988384,0.0
