time_s,x_m,y_m,altitude_m,vx_mps,vy_mps,vz_mps,speed_mps,mass_kg,roll_deg,pitch_deg,yaw_deg,p_dps,q_dps,r_dps,alpha_deg,beta_deg,qbar_pa,mach,airspeed_mps,load_factor_g,density_kgpm3,pressure_pa,temperature_k,wind_x_mps,wind_y_mps,wind_z_mps,thrust_n,mass_flow_kgps,propulsion_throttle_actual,propulsion_health,energy_j_per_kg,target_distance_m,guidance_mode,pitch_command_deg,heading_command_deg,roll_command_deg,elevator_command_deg,aileron_command_deg,rudder_command_deg,elevator_deg,aileron_deg,rudder_deg,throttle,elevator_saturated,aileron_saturated,rudder_saturated,elevator_failed,aileron_failed,rudder_failed,elevator_raw_rad,aileron_raw_rad,rudder_raw_rad,elevator_effective_rad,aileron_effective_rad,rudder_effective_rad,imu_ax_mps2,imu_ay_mps2,imu_az_mps2,gyro_p_rps,gyro_q_rps,gyro_r_rps,gps_valid,gps_x_m,gps_y_m,gps_z_m,gps_vx_mps,gps_vy_mps,gps_vz_mps,baro_alt_m,pitot_airspeed_mps,pitot_qbar_pa,mag_heading_deg
0.0,0.0,0.0,20.0,85.0,0.0,8.0,85.37564055396598,18.0,0.0,6.000000000000002,0.0,0.0,0.0,0.0,0.623294571949261,0.0,4455.946741876431,0.2509445034436674,85.37564055396597,1.6599150656151063,1.2226496753673843,101084.96761777384,288.02,0.0,0.0,0.0,311.59999999999997,0.16723345892838024,0.82,nominal,3840.633,nan,pitch_program,13.0,0.0,0.0,-20.05352282957881,-0.0,0.0,-2.6999999999999997,0.0,0.0,0.82,0.0,0.0,0.0,0.0,0.0,0.0,-0.047123889803846894,0.0,0.0,-0.047123889803846894,0.0,0.0,16.245030065744547,-0.04331266066330364,0.1766214838206798,0.0016677683591043149,0.0011681274632859406,0.0012765720485123657,1.0,-1.885154541229685,1.8645638091475825,21.162662438547994,85.32748210022089,0.18147237523479218,7.846341299741817,20.771163472887363,85.6269982596741,4465.519226242078,-0.8198733225718878
0.03,2.5645517250134597,0.0,20.232871448975896,85.48505750044866,0.0,7.762381632529857,85.83676149799719,17.99498299623215,0.0,6.265582975204377,0.0,0.0,-8.852781691043555,0.0,1.077128380728056,0.0,4504.109866071047,0.25230053857621076,85.83676149799719,1.6865266590982415,1.2226223293155802,101082.17549763487,288.01848633558166,0.0,0.0,0.0,317.135,0.17020405326460805,0.82,nominal,3882.3915010271253,nan,pitch_program,12.985,0.0,0.0,-1.430813724064029,-0.0,0.0,-1.9384882344384171,0.0,0.0,0.82,0.0,0.0,0.0,0.0,0.0,0.0,-0.03383300220212211,0.0,0.0,-0.03383300220212211,0.0,0.0,16.54628619450673,0.01995369509809823,0.5883410029410515,-0.0023625320929420326,-0.1524830294683302,0.0010348809427628788,1.0,-1.885154541229685,1.8645638091475825,21.162662438547994,85.32748210022089,0.18147237523479218,7.846341299741817,20.771163472887363,85.77175942399224,4521.872606980162,-0.8198733225718878
0.06,5.143828111914722,0.0,20.45909762675379,85.97587956337543,0.0,7.540872592596431,86.3059478028821,17.989876874634213,0.0,6.641216969939227,0.0,0.0,-12.52117800641568,0.0,1.6286793835530258,0.0,4553.384697427496,0.25368026844341535,86.30594780288209,1.713805828745433,1.22259576406484,101079.4631138557,288.01701586542606,0.0,0.0,0.0,322.66999999999996,0.17317464760083584,0.82,nominal,3924.99352281831,nan,pitch_program,12.97,0.0,0.0,-0.2987641274098851,-0.0,0.0,-0.9546537702212979,0.0,0.0,0.82,0.0,0.0,0.0,0.0,0.0,0.0,-0.016661851506939045,0.0,0.0,-0.016661851506939045,0.0,0.0,16.79972459408678,-0.04136797363120603,1.161122438315872,-0.0027294851928002166,-0.21873695461101123,0.00015730816665046284,1.0,-1.885154541229685,1.8645638091475825,21.162662438547994,85.32748210022089,0.18147237523479218,7.846341299741817,20.34074002901546,86.19887751619912,4614.408917362426,1.4237928368424035
0.09,7.737970349850814,0.0,20.679291277732275,86.47140793120307,0.0,7.339788365949617,86.78235352225393,17.984681635206186,0.0,6.946308959049555,0.0,0.0,-10.16975699990761,0.0,2.09460961546853,0.0,4603.695112992815,0.255081208171905,86.78235352225393,1.7421893014666305,1.2225699076247558,101076.82311485588,288.01558460669474,0.0,0.0,0.0,328.205,0.17614524193706366,0.82,nominal,3968.383013239503,nan,pitch_program,12.955,0.0,0.0,-0.7109678750036691,-0.0,0.0,-0.8084422330907207,0.0,0.0,0.82,0.0,0.0,0.0,0.0,0.0,0.0,-0.01410997877960853,0.0,0.0,-0.01410997877960853,0.0,0.0,16.97042817653437,-0.02889875117627034,1.5776834362017198,-0.0013868454467654307,-0.17877814535464906,0.0013325269044479422,1.0,-1.885154541229685,1.8645638091475825,21.162662438547994,85.32748210022089,0.18147237523479218,7.846341299741817,20.34074002901546,87.1550419433883,4600.930362461875,1.4237928368424035
0.12,10.347139905825744,0.0,20.893917465751255,86.97231853249767,0.0,7.1542062672993065,87.26606934102911,17.979397277948074,0.0,7.1246671167983795,0.0,0.0,-5.945276725959548,0.0,2.4221935988164702,0.0,4655.063215921947,0.2565036255324155,87.26606934102911,1.770946617579164,1.222544705351695,101074.24992036329,288.0141895364726,0.0,0.0,0.0,333.73999999999995,0.17911583627329145,0.82,nominal,4012.58276483216,nan,pitch_program,12.94,0.0,0.0,-1.662291767740068,-0.0,0.0,-1.320751953880329,0.0,0.0,0.82,0.0,0.0,0.0,0.0,0.0,0.0,-0.02305147019736004,0.0,0.0,-0.02305147019736004,0.0,0.0,17.27009067985587,-0.005497575923867998,1.8086419736474215,0.001061349685093875,-0.10092258480542525,-0.0005470916391786005,1.0,-1.885154541229685,1.8645638091475825,21.162662438547994,85.32748210022089,0.18147237523479218,7.846341299741817,20.653214105983004,87.34629874242009,4615.704532684696,1.2724301176555244
0.15,12.971534540215032,0.0,21.103253935877333,87.47982114630965,0.0,6.977882337535977,87.75767744024918,17.974023802859875,0.0,7.219463573105273,0.0,0.0,-3.159882597719538,0.0,2.6588860391884155,0.0,4707.564325661547,0.25794923244650175,87.75767744024918,1.8000114752812753,1.2225201246015363,101071.7401964117,288.0128288494168,0.0,0.0,0.0,339.275,0.18208643060951926,0.82,nominal,4057.657200063682,nan,pitch_program,12.925,0.0,0.0,-2.300576586080386,-0.0,0.0,-1.9086467332003632,0.0,0.0,0.82,0.0,0.0,0.0,0.0,0.0,0.0,-0.033312169751780106,0.0,0.0,-0.033312169751780106,0.0,0.0,17.532922129775113,-0.06740291982753181,1.987191372920166,-0.0007065019313021386,-0.05683682407034215,0.0017811967641120853,1.0,-1.885154541229685,1.8645638091475825,21.162662438547994,85.32748210022089,0.18147237523479218,7.846341299741817,20.653214105983004,87.89294601519131,4640.7716870377235,1.2724301176555244
0.18,15.611373230582457,0.0,21.307489249309093,87.9946230122475,0.0,6.807843781058656,88.25757993518096,17.96856120994159,0.0,7.288955056684481,0.0,0.0,-2.316383069926958,0.0,2.8649887020357157,0.0,4761.255983228179,0.2594192113258229,88.25757993518097,1.829534353256232,1.2224961432048422,101069.29167859157,288.01150131987947,0.0,0.0,0.0,344.81,0.1850570249457471,0.82,nominal,4103.6552974541655,nan,pitch_program,12.91,0.0,0.0,-2.4675087549727976,-0.0,0.0,-2.2439639462638237,0.0,0.0,0.82,0.0,0.0,0.0,0.0,0.0,0.0,-0.039164559158348836,0.0,0.0,-0.039164559158348836,0.0,0.0,17.87437276680293,-0.04333559436479433,1.9880070706113988,-0.0027680566631708634,-0.03990237178211334,0.0016191841979894658,1.0,-1.885154541229685,1.8645638091475825,21.162662438547994,85.32748210022089,0.18147237523479218,7.846341299741817,22.347614790905425,88.41795398439702,4723.055935897364,0.8843895901120977
0.21,18.266877756028506,0.0,21.506812908097597,88.51681751486828,0.0,6.644121959616844,88.76582303778157,17.96300949919322,0.0,7.357804600056703,0.0,0.0,-2.2949850552307502,0.0,3.0652008195840246,0.0,4816.15833108593,0.26091369847594703,88.76582303778157,1.859467290788258,1.222472738883723,101066.90209148392,288.01020571609735,0.0,0.0,0.0,350.34499999999997,0.1880276192819749,0.82,nominal,4150.595456592572,nan,pitch_program,12.895,0.0,0.0,-2.4292248296492454,-0.0,0.0,-2.3551204762950766,0.0,0.0,0.82,0.0,0.0,0.0,0.0,0.0,0.0,-0.04110460659248615,0.0,0.0,-0.04110460659248615,0.0,0.0,18.08847719226898,-0.0026627980622058707,2.2546105171560265,-0.0017589130177766994,-0.039299727177755615,0.002675670268664082,1.0,19.089023089188178,1.4948848519410596,19.11764563605612,88.2902684894477,-0.10580972908935708,6.46485528801161,22.347614790905425,88.37006394802442,4819.523573742968,0.8843895901120977
0.24,20.93826661693463,0.0,21.701437323073304,89.04629536353741,0.0,6.487480499190155,89.28230575650316,17.95736867061476,0.0,7.420437612739811,0.0,0.0,-2.087767297340503,0.0,3.2535075602067196,0.0,4872.275801643126,0.26243239759269277,89.28230575650316,1.8896157865439227,1.2224498866723768,101064.56888529581,288.0089406574,0.0,0.0,0.0,355.88,0.1909982136182027,0.82,nominal,4198.483460923175,nan,pitch_program,12.88,0.0,0.0,-2.4408305023883026,-0.0,0.0,-2.406546491951012,0.0,0.0,0.82,0.0,0.0,0.0,0.0,0.0,0.0,-0.04200215988686438,0.0,0.0,-0.04200215988686438,0.0,0.0,18.378372498068643,0.028326168566416392,2.450667662275414,0.0011581694610636958,-0.036009342783197604,0.0013948103913989957,1.0,19.089023089188178,1.4948848519410596,19.11764563605612,88.2902684894477,-0.10580972908935708,6.46485528801161,21.320105663715264,88.70623722943121,4822.475301439985,-0.5548165827542576
0.27,23.625758783189514,0.0,21.891575158981603,89.58307220849612,0.0,6.337927863609981,89.80699391426569,17.951638724206212,0.0,7.465039190807423,0.0,0.0,-1.4867193439967126,0.0,3.418153601122877,0.0,4929.620156637759,0.2639752087686123,89.80699391426568,1.9198046923581888,1.2224275615771991,101062.28950745935,288.0077047614666,0.0,0.0,0.0,361.41499999999996,0.1939688079544305,0.82,nominal,4247.331093491303,nan,pitch_program,12.865,0.0,0.0,-2.5609555502850703,-0.0,0.0,-2.499191926951447,0.0,0.0,0.82,0.0,0.0,0.0,0.0,0.0,0.0,-0.04361912776456436,0.0,0.0,-0.04361912776456436,0.0,0.0,18.702319573683706,-0.04910371383034148,2.60902832675681,0.0017100053021520162,-0.02491249385779999,-0.0017110185661580544,1.0,19.089023089188178,1.4948848519410596,19.11764563605612,88.2902684894477,-0.10580972908935708,6.46485528801161,21.320105663715264,89.76338031891996,4894.67261396363,-0.5548165827542576
0.3,26.329578585621686,0.0,22.077416210370842,90.12732674773905,0.0,6.194701712974695,90.3399654416939,17.94581965996758,0.0,7.488490635274443,0.0,0.0,-0.7817148264807597,0.0,3.5565763613714134,0.0,4988.215706620304,0.26554236155998323,90.33996544169392,1.9499851808359951,1.2224057412917804,101060.06167982609,288.00649679463254,0.0,0.0,0.0,366.95,0.19693940229065832,0.82,nominal,4297.160171682658,nan,pitch_program,12.850000000000001,0.0,0.0,-2.7188907603408485,-0.0,0.0,-2.631011226985088,0.0,0.0,0.82,0.0,0.0,0.0,0.0,0.0,0.0,-0.04591980856782567,0.0,0.0,-0.04591980856782567,0.0,0.0,18.923490719316273,-0.02256176973167099,2.7885773287243945,0.0009205647956601937,-0.012791634222105027,0.002209279414192181,1.0,19.089023089188178,1.4948848519410596,19.11764563605612,88.2902684894477,-0.10580972908935708,6.46485528801161,21.914371524856644,89.74682169631384,4963.819740032269,0.20073688927379876
0.32999999999999996,29.049956875570075,0.0,22.259123797630316,90.67927633161295,0.0,6.0569195753158045,90.88133708725277,17.93991147789886,0.0,7.495810212232959,0.0,0.0,-0.2439858989490082,0.0,3.6744167075803573,0.0,5048.091537566537,0.2671341995516041,90.88133708725277,1.980198575706457,1.222384406619786,101057.88344183473,288.0053156953154,0.0,0.0,0.0,372.48499999999996,0.1999099966268861,0.82,nominal,4347.996151773464,nan,pitch_program,12.835,0.0,0.0,-2.8440275403539825,-0.0,0.0,-2.7588210150064247,0.0,0.0,0.82,0.0,0.0,0.0,0.0,0.0,0.0,-0.048150510185074,0.0,0.0,-0.048150510185074,0.0,0.0,19.243248957117718,-0.010557463011513437,2.8528848256257033,-0.0022287477635655863,-0.005087888818355468,0.0031107984203674163,1.0,19.089023089188178,1.4948848519410596,19.11764563605612,88.2902684894477,-0.10580972908935708,6.46485528801161,21.914371524856644,91.19035559530055,4962.574734796182,0.20073688927379876
0.36,31.787129175432057,0.0,22.43684424803021,91.23907666206604,0.0,5.924015013329798,91.43119305808341,17.933914178000055,0.0,7.49320380543607,0.0,0.0,0.0868802265779077,0.0,3.7782901241587936,0.0,5109.273669585202,0.26875097063303116,91.43119305808341,2.010481057690788,1.2223635403615152,101055.75303682243,288.0041605123878,0.0,0.0,0.0,378.02,0.20288059096311392,0.82,nominal,4399.861810657206,nan,pitch_program,12.82,0.0,0.0,-2.922999737172129,-0.0,0.0,-2.8573282483058473,0.0,0.0,0.82,0.0,0.0,0.0,0.0,0.0,0.0,-0.04986978574317912,0.0,0.0,-0.04986978574317912,0.0,0.0,19.46200710739595,-0.08962593694051053,2.9867687224838275,-0.0013719346309488695,0.0034236040262899167,0.002112009350367853,1.0,19.089023089188178,1.4948848519410596,19.11764563605612,88.2902684894477,-0.10580972908935708,6.46485528801161,21.809676593245225,91.50075687936952,5113.878928351121,-1.4357954980949905
0.39,34.54133360348762,0.0,22.610716026538924,91.80681426851882,0.0,5.795725950290535,91.98957324297783,17.92782776027116,0.0,7.483830129812692,0.0,0.0,0.31245585480960825,0.0,3.87156504839334,0.0,5171.783629820429,0.27039279240701075,91.98957324297783,2.0408230166938686,1.2223431262416906,101053.66880254903,288.0030303458275,0.0,0.0,0.0,383.55499999999995,0.2058511852993417,0.82,nominal,4452.776171034248,nan,pitch_program,12.805,0.0,0.0,-2.9794356043308494,-0.0,0.0,-2.9305926619208487,0.0,0.0,0.82,0.0,0.0,0.0,0.0,0.0,0.0,-0.05114849098530386,0.0,0.0,-0.05114849098530386,0.0,0.0,19.744129387280058,-0.03557625337090218,3.117613749703858,-0.00225711338647072,0.006573068889698387,2.1207729848019683e-05,1.0,19.089023089188178,1.4948848519410596,19.11764563605612,88.2902684894477,-0.10580972908935708,6.46485528801161,21.809676593245225,91.76579058819499,5186.361471199005,-1.4357954980949905
0.42,37.3128100601609,0.0,22.780872559702765,92.38254855577581,0.0,5.6718844387946765,92.55649923558755,17.92165222471218,0.0,7.468207052668974,0.0,0.0,0.5207692413505536,0.0,3.9549067214097,0.0,5235.641250864192,0.27205972868884487,92.55649923558754,2.0503462537853547,1.222323148577801,101051.62913733248,288.0019243283619,0.0,0.0,0.0,385.37842105263155,0.20682980214694893,0.82,nominal,4506.756819261268,nan,pitch_program,12.79,0.0,0.0,-3.035055949302427,-0.0,0.0,-2.9932706343497957,0.0,0.0,0.82,0.0,0.0,0.0,0.0,0.0,0.0,-0.052242427972663215,0.0,0.0,-0.052242427972663215,0.0,0.0,19.861132999880184,-0.024779824913670964,3.2974562068744078,0.003396432870289509,0.008476447176957627,0.001106868848592352,1.0,36.91497823334063,-1.0787485004940414,22.27407416552627,92.1764153378775,-0.2023777783293052,5.703182215289738,22.53081872097235,92.65507593820988,5261.210767252815,-0.7643160931772969
0.44999999999999996,40.101615541821914,0.0,22.947416795742303,92.96018272203375,0.0,5.551474534651324,93.12579900984896,17.915447330647773,0.0,7.446375654939031,0.0,0.0,0.7277132664691897,0.0,4.028796900455844,0.0,5300.161675575197,0.273733637700377,93.12579900984893,2.0494764308491535,1.2223035952668084,101049.63280497919,288.0008417908277,0.0,0.0,0.0,385.3460526315789,0.20681243025024584,0.82,nominal,4561.244505531359,nan,pitch_program,12.775,0.0,0.0,-3.093814711523578,-0.0,0.0,-3.053597080654065,0.0,0.0,0.82,0.0,0.0,0.0,0.0,0.0,0.0,-0.05329532308670028,0.0,0.0,-0.05329532308670028,0.0,0.0,19.831392186775577,0.04003688977984587,3.3860892166966057,-0.0022241183653683885,0.010989345136158101,-0.0005125028647193059,1.0,36.91497823334063,-1.0787485004940414,22.27407416552627,92.1764153378775,-0.2023777783293052,5.703182215289738,22.53081872097235,93.17525385566329,5349.897622022997,-0.7643160931772969
0.48,42.90771667720725,0.0,23.110432237769807,93.53670451284432,0.0,5.4338480675834875,93.69440642826407,17.909242957740265,0.0,7.4190583791415206,0.0,0.0,0.9105758771659855,0.0,4.094299026671639,0.0,5364.998708136326,0.27540550692561666,93.69440642826407,2.0486370812114423,1.2222844564895383,101047.67880249905,287.9997821904545,0.0,0.0,0.0,385.3136842105263,0.20679505835354275,0.82,nominal,4615.956818276892,nan,pitch_program,12.76,0.0,0.0,-3.1496326015055773,-0.0,0.0,-3.1112183931649726,0.0,0.0,0.82,0.0,0.0,0.0,0.0,0.0,0.0,-0.054301004709336215,0.0,0.0,-0.054301004709336215,0.0,0.0,19.784356729471032,-0.032310011494497214,3.478079274883119,0.0008938001298257798,0.015176954829725618,-0.001222493645455501,1.0,36.91497823334063,-1.0787485004940414,22.27407416552627,92.1764153378775,-0.2023777783293052,5.703182215289738,23.287403641829798,94.08652405228894,5323.8253397207545,-0.3236618111270167
0.51,45.73108197847443,0.0,23.269995753923215,94.11217670890613,0.0,5.318783871780227,94.26235339075237,17.90303910598966,0.0,7.387449897803024,0.0,0.0,1.0536160713382636,0.0,4.152798976417487,0.0,5430.154591321817,0.2770754301607295,94.26235339075237,2.0478304872505966,1.2222657232065826,101045.76620653794,287.99874502759945,0.0,0.0,0.0,385.28131578947364,0.20677768645683967,0.82,nominal,4670.896337241753,nan,pitch_program,12.745,0.0,0.0,-3.1979079272914612,-0.0,0.0,-3.163232113640866,0.0,0.0,0.82,0.0,0.0,0.0,0.0,0.0,0.0,-0.05520881538785254,0.0,0.0,-0.05520881538785254,0.0,0.0,19.770375777960034,0.04280627691524327,3.4562773205672923,-0.0012636159939613495,0.020186117852506395,-0.0002856054730688416,1.0,36.91497823334063,-1.0787485004940414,22.27407416552627,92.1764153378775,-0.2023777783293052,5.703182215289738,23.287403641829798,93.50433626292535,5493.621604580865,-0.3236618111270167
0.54,48.57168144724602,0.0,23.42617920373609,94.68664895905322,0.0,5.20611499376253,94.82966373674037,17.896835775395953,0.0,7.352608356208836,0.0,0.0,1.161384755594788,0.0,4.205508098619642,0.0,5495.630725099069,0.27874347749995193,94.82966373674037,2.0470569539046073,1.2222473869672834,101043.89415387368,287.9977298351757,0.0,0.0,0.0,385.24894736842106,0.2067603145601366,0.82,nominal,4726.064902499945,nan,pitch_program,12.73,0.0,0.0,-3.2391877943679432,-0.0,0.0,-3.208805522077112,0.0,0.0,0.82,0.0,0.0,0.0,0.0,0.0,0.0,-0.0560042214164212,0.0,0.0,-0.0560042214164212,0.0,0.0,19.76791395077029,0.020100242268353937,3.62382722660918,0.0026450656574137496,0.021696937510195545,0.0005475832371070051,1.0,36.91497823334063,-1.0787485004940414,22.27407416552627,92.1764153378775,-0.2023777783293052,5.703182215289738,23.50724828920441,94.79153365162786,5491.367176605522,0.664898993392504
0.57,51.42948624321386,0.0,23.579050700180126,95.26015986559452,0.0,5.095716548134511,95.3963541481411,17.89063296595915,0.0,7.315205644466522,0.0,0.0,1.2467571023524173,0.0,4.253222030239728,0.0,5561.4277432759345,0.2804096979930892,95.3963541481411,2.046311764379094,1.2222294397615172,101042.06182628214,287.9967361704488,0.0,0.0,0.0,385.2165789473684,0.20674294266343352,0.82,nominal,4781.4636899277,nan,pitch_program,12.715,0.0,0.0,-3.2763162741244267,-0.0,0.0,-3.2493119733055007,0.0,0.0,0.82,0.0,0.0,0.0,0.0,0.0,0.0,-0.056711192358655085,0.0,0.0,-0.056711192358655085,0.0,0.0,19.675382258627963,-0.010564594840735056,3.784895066395814,-0.0019142071023291179,0.024064175622173948,-0.0021195257045421995,1.0,36.91497823334063,-1.0787485004940414,22.27407416552627,92.1764153378775,-0.2023777783293052,5.703182215289738,23.50724828920441,95.55856830427602,5502.243628941953,0.664898993392504
0.6,54.304468504022296,0.0,23.7286751836196,95.83274202694791,0.0,4.98748278131586,95.96243759355778,17.884430677679248,0.0,7.275669407062855,0.0,0.0,1.3178746324146533,0.0,4.29647745928425,0.0,5627.545892362304,0.282074129770741,95.96243759355778,2.045589094129765,1.2222118739522672,101040.26844365179,287.9957636113065,0.0,0.0,0.0,385.1842105263158,0.20672557076673043,0.82,nominal,4837.093526938179,nan,pitch_program,12.7,0.0,0.0,-3.311090545937726,-0.0,0.0,-3.2863791168848357,0.0,0.0,0.82,0.0,0.0,0.0,0.0,0.0,0.0,-0.05735813605842396,0.0,0.0,-0.05735813605842396,0.0,0.0,19.704157983569342,0.06546766596153786,3.845070343551382,0.0006495057299919682,0.020903680004379036,0.0013708932283227244,1.0,36.91497823334063,-1.0787485004940414,22.27407416552627,92.1764153378775,-0.2023777783293052,5.703182215289738,24.119970282893423,96.00017456802622,5667.663955004069,0.7699365242725621
0.63,57.196601243906436,0.0,23.875114688648363,96.40442466280464,0.0,4.88131683429205,96.52792522686437,17.878228910556246,0.0,7.234385377042639,0.0,0.0,1.3761343935457673,0.0,4.335761068684839,0.0,5693.985242563637,0.283736805625475,96.52792522686437,2.04488564108538,1.2221946822442589,101038.51326078027,287.99481175452377,0.0,0.0,0.0,385.15184210526314,0.20670819887002734,0.82,nominal,4892.955067762993,nan,pitch_program,12.685,0.0,0.0,-3.343644909994106,-0.0,0.0,-3.320738592750398,0.0,0.0,0.82,0.0,0.0,0.0,0.0,0.0,0.0,-0.05795782204153755,0.0,0.0,-0.05795782204153755,0.0,0.0,19.677841172007255,0.05726871430898526,3.9803593978506893,-0.0007396114957943134,0.0219093819293311,-0.0006831210544440717,1.0,56.69612936245315,0.47613861878321817,22.77801285036655,96.49576966934092,0.11873314192101216,5.108782238004561,24.119970282893423,97.25563515953955,5750.801473314595,0.7699365242725621
0.6599999999999999,60.10585824766668,0.0,24.01842867697979,96.97523345867481,0.0,4.777132944380945,97.09282622075007,17.872027664590146,0.0,7.191756232438551,0.0,0.0,1.4209715523528879,0.0,4.371567346476755,0.0,5760.7456615707,0.285397752523272,97.09282622075007,2.044200625580123,1.2221778576448423,101036.79556337972,287.9938802135996,0.0,0.0,0.0,385.1194736842105,0.20669082697332425,0.82,nominal,4949.04877535149,nan,pitch_program,12.67,0.0,0.0,-3.3736134654317556,-0.0,0.0,-3.3524635163592125,0.0,0.0,0.82,0.0,0.0,0.0,0.0,0.0,0.0,-0.05851152641345504,0.0,0.0,-0.05851152641345504,0.0,0.0,19.63705409605099,0.06853486531179354,4.019752386694779,0.0007061520466158617,0.02574406872545195,-0.0019268357040249766,1.0,56.69612936245315,0.47613861878321817,22.77801285036655,96.49576966934092,0.11873314192101216,5.108782238004561,22.532840853987594,97.06046127745905,5779.410292261891,0.23537058308694034
0.69,63.032213944439064,0.0,24.158674480454017,97.54518989241275,0.0,4.674860115807499,97.65714714371514,17.865826939780945,0.0,7.148153659875505,0.0,0.0,1.4534191555785052,0.0,4.404348762846958,0.0,5827.826733119397,0.28705698977336874,97.65714714371515,2.0435338838229793,1.2221613934119568,101035.11466276318,287.99296861587703,0.0,0.0,0.0,385.08710526315787,0.20667345507662116,0.82,nominal,5005.37485921836,nan,pitch_program,12.655,0.0,0.0,-3.401046913529317,-0.0,0.0,-3.3816135546612753,0.0,0.0,0.82,0.0,0.0,0.0,0.0,0.0,0.0,-0.05902029055890849,0.0,0.0,-0.05902029055890849,0.0,0.0,19.65690639398558,0.05169502193167459,4.079102551090555,-0.000786372376342729,0.025957269700221993,-0.0017282259410970225,1.0,56.69612936245315,0.47613861878321817,22.77801285036655,96.49576966934092,0.11873314192101216,5.108782238004561,22.532840853987594,97.54044917425884,5862.85652050006,0.23537058308694034
0.72,65.97564328830595,0.0,24.295907718221358,98.11431146222921,0.0,4.574441258911374,98.22089200642883,17.859626736128646,0.0,7.103876108859603,0.0,0.0,1.4759184406486516,0.0,4.434474368532659,0.0,5895.227753351812,0.28871452916560436,98.22089200642881,2.042884724541789,1.2221452830051227,101033.46989084019,287.99207659983153,0.0,0.0,0.0,385.0547368421052,0.20665608317991807,0.82,nominal,5061.9332766941725,nan,pitch_program,12.64,0.0,0.0,-3.4263888368731825,-0.0,0.0,-3.4084787239884196,0.0,0.0,0.82,0.0,0.0,0.0,0.0,0.0,0.0,-0.05948917621777295,0.0,0.0,-0.05948917621777295,0.0,0.0,19.559538808293087,0.000733321393488652,4.113038031163791,-0.003967713783557196,0.023399397964757897,-0.0008066035096195127,1.0,56.69612936245315,0.47613861878321817,22.77801285036655,96.49576966934092,0.11873314192101216,5.108782238004561,25.184060214124834,97.99842560786324,5894.205999331813,0.6397451788404984
0.75,68.93612166499514,0.0,24.43018260404226,98.68261255630672,0.0,4.475829527363323,98.78406283857818,17.85342705363325,0.0,7.059155802318818,0.0,0.0,1.4906769603703072,0.0,4.462239258435301,0.0,5962.947791488069,0.2903703766668082,98.78406283857817,2.042252163198064,1.2221295200493456,101031.86059643104,287.9912038130737,0.0,0.0,0.0,385.0223684210526,0.20663871128321498,0.82,nominal,5118.723785682012,nan,pitch_program,12.625,0.0,0.0,-3.4500613444286197,-0.0,0.0,-3.4334282962525395,0.0,0.0,0.82,0.0,0.0,0.0,0.0,0.0,0.0,-0.059924628400746104,0.0,0.0,-0.059924628400746104,0.0,0.0,19.603660694683853,0.03947670919336542,4.2079933473633995,0.0016675396580064135,0.02987128761353674,0.0034260342991242463,1.0,56.69612936245315,0.47613861878321817,22.77801285036655,96.49576966934092,0.11873314192101216,5.108782238004561,25.184060214124834,99.50015078460768,6026.155162286309,0.6397451788404984
0.78,71.91362482067306,0.0,24.56155216813328,99.25010518926392,0.0,4.378985469700712,99.34666020467826,17.847227892294754,0.0,7.014187094917924,0.0,0.0,1.4989569903086306,0.0,4.487894822534171,0.0,6030.985745526603,0.29202453393754024,99.34666020467826,2.0416355316788213,1.2221140983090502,101030.28614260472,287.9903499109071,0.0,0.0,0.0,384.98999999999995,0.2066213393865119,0.82,nominal,5175.745992481527,nan,pitch_program,12.61,0.0,0.0,-3.472271315483917,-0.0,0.0,-3.456734107791366,0.0,0.0,0.82,0.0,0.0,0.0,0.0,0.0,0.0,-0.06033139154694791,0.0,0.0,-0.06033139154694791,0.0,0.0,19.564194018277558,0.0194265408753013,4.196326709009005,0.0004874591174268781,0.023679560509882586,-0.0019252961947901787,1.0,56.69612936245315,0.47613861878321817,22.77801285036655,96.49576966934092,0.11873314192101216,5.108782238004561,23.463844310252906,98.67095253631257,6066.931582814604,-0.47166994919225125
0.8099999999999999,74.90812880066747,0.0,24.69006844930812,99.81679933314707,0.0,4.283876039161371,99.90868342157577,17.84102925211316,0.0,6.9691425690991915,0.0,0.0,1.5014842712931689,0.0,4.511665592265621,0.0,6099.340363672616,0.293676998971916,99.90868342157579,2.0410346243633692,1.2220990116655004,101028.74590437327,287.9895145550795,0.0,0.0,0.0,384.95763157894737,0.20660396748980883,0.82,nominal,5232.999371274733,nan,pitch_program,12.595,0.0,0.0,-3.493103584549517,-0.0,0.0,-3.4785557938462563,0.0,0.0,0.82,0.0,0.0,0.0,0.0,0.0,0.0,-0.06071225181694228,0.0,0.0,-0.06071225181694228,0.0,0.0,19.448416031075194,-0.015259615090994088,4.391447203931113,0.00241250892376558,0.02849355118576468,0.000997562163779802,1.0,56.69612936245315,0.47613861878321817,22.77801285036655,96.49576966934092,0.11873314192101216,5.108782238004561,23.463844310252906,99.51168908841031,6154.598350780608,-0.47166994919225125
0.84,77.91960989258754,0.0,24.815782678740167,100.38270306400236,0.0,4.190474314401507,100.47013063301614,17.834831133088464,0.0,6.924172957050328,0.0,0.0,1.4989871452455692,0.0,4.533749476226375,0.0,6168.010249122998,0.2953277663172767,100.47013063301614,2.0404494385561236,1.2220842540952166,101027.2392664875,287.9886974125882,0.0,0.0,0.0,384.92526315789473,0.20658659559310574,0.82,nominal,5290.483269914131,nan,pitch_program,12.58,0.0,0.0,-3.5126557821069184,-0.0,0.0,-3.4990157868026537,0.0,0.0,0.82,0.0,0.0,0.0,0.0,0.0,0.0,-0.06106934605896626,0.0,0.0,-0.06106934605896626,0.0,0.0,19.50464027224856,0.02179232302168598,4.429469893315404,0.0003590857715663791,0.027846982214900402,0.0006874695597958982,1.0,78.38054906079186,-0.9752360996239673,23.6298435756004,100.45518729080435,-0.08816303243875988,4.274036821686067,23.71914832257973,100.94663925650678,6161.944767357878,1.656347565192996
0.87,80.94804457539944,0.0,24.93874544493086,100.9478227603964,0.0,4.098758873023104,101.0309989278716,17.82863353522067,0.0,6.879404219479132,0.0,0.0,1.4922913282968242,0.0,4.554315338921172,0.0,6236.993870565287,0.2969768274221609,101.03099892787161,2.0398799481845256,1.222069819650587,101025.7656214572,287.98789815460793,0.0,0.0,0.0,384.8928947368421,0.20656922369640265,0.82,nominal,5348.196920199327,nan,pitch_program,12.565,0.0,0.0,-3.531063678634597,-0.0,0.0,-3.5182445219018197,0.0,0.0,0.82,0.0,0.0,0.0,0.0,0.0,0.0,-0.0614049507974405,0.0,0.0,-0.0614049507974405,0.0,0.0,19.49753525876354,0.021539775556613013,4.46287581202392,-0.00032312415646942947,0.02863942352270623,0.0003694960499224982,1.0,78.38054906079186,-0.9752360996239673,23.6298435756004,100.45518729080435,-0.08816303243875988,4.274036821686067,23.71914832257973,100.78643075792128,6243.276826812783,1.656347565192996
0.8999999999999999,83.99340947653704,0.0,25.059006829373754,101.5121633712534,0.0,4.0087128147631494,101.59128452157344,17.82243645850978,0.0,6.834939874714805,0.0,0.0,1.482144899863072,0.0,4.57350601095993,0.0,6306.289581031972,0.2986241711699867,101.59128452157341,2.039326095303881,1.2220557024439314,101024.32436792368,287.98711645560905,0.0,0.0,0.0,384.86052631578946,0.20655185179969957,0.82,nominal,5406.139454694921,nan,pitch_program,12.55,0.0,0.0,-3.5484561410540025,-0.0,0.0,-3.5363714933931294,0.0,0.0,0.82,0.0,0.0,0.0,0.0,0.0,0.0,-0.061721326133379,0.0,0.0,-0.061721326133379,0.0,0.0,19.46356851280758,0.014130286872515264,4.617656359520772,-0.003765063134217087,0.026172916585086105,0.0009388210488278629,1.0,78.38054906079186,-0.9752360996239673,23.6298435756004,100.45518729080435,-0.08816303243875988,4.274036821686067,25.015903678627623,101.25708073198727,6343.771637671647,1.2489836306385733
0.9299999999999999,87.05568133631282,0.0,25.176616516204295,102.07572865919235,0.0,3.9203228943513873,102.15098292674935,17.81623990295579,0.0,6.790866378824819,0.0,0.0,1.4691166021072477,0.0,4.59144426447423,0.0,6375.895636172314,0.30026978438093554,102.15098292674935,2.0387878720541615,1.22204189663461,101022.91490934318,287.98635199264464,0.0,0.0,0.0,384.8281578947368,0.20653447990299648,0.82,nominal,5464.309922809154,nan,pitch_program,12.535000000000002,0.0,0.0,-3.5649267049723115,-0.0,0.0,-3.5535046203406386,0.0,0.0,0.82,0.0,0.0,0.0,0.0,0.0,0.0,-0.06202035560977521,0.0,0.0,-0.06202035560977521,0.0,0.0,19.4029689137603,-0.0495460409637958,4.636334204746063,-0.000585055714334001,0.026215910936190162,-0.002204903214818301,1.0,78.38054906079186,-0.9752360996239673,23.6298435756004,100.45518729080435,-0.08816303243875988,4.274036821686067,25.015903678627623,102.11052453430429,6411.22808842045,1.2489836306385733
0.96,90.13483697752561,0.0,25.29162388490671,102.63852137375997,0.0,3.833578956747155,102.71008907312562,17.8100438685587,0.0,6.747257044676131,0.0,0.0,1.4536445417992228,0.0,4.6082371367999855,0.0,6445.810206869979,0.3019136521646607,102.7100890731256,2.0382653436981424,1.2220283964181333,101021.53665287462,287.9856044447481,0.0,0.0,0.0,384.7957894736842,0.2065171080062934,0.82,nominal,5522.707302075619,nan,pitch_program,12.520000000000001,0.0,0.0,-3.5805435633578573,-0.0,0.0,-3.5697279861509696,0.0,0.0,0.82,0.0,0.0,0.0,0.0,0.0,0.0,-0.06230350675892096,0.0,0.0,-0.06230350675892096,0.0,0.0,19.464883303291334,0.03653604978096601,4.624530762302044,0.0023628940509919177,0.02688480759566296,0.001306562119265028,1.0,78.38054906079186,-0.9752360996239673,23.6298435756004,100.45518729080435,-0.08816303243875988,4.274036821686067,24.64699746558139,102.82634112212153,6409.054975618085,0.5951640454677093
0.99,93.23085327894404,0.0,25.404078091036723,103.20054338061456,0.0,3.748473537667091,103.2685973949327,17.80384835531851,0.0,6.7041736161955665,0.0,0.0,1.4361143503534441,0.0,4.623977802793618,0.0,6516.03138826156,0.3035557581774459,103.2685973949327,2.0377586065258924,1.222015196016669,101020.18900841018,287.9848734924082,0.0,0.0,0.0,384.76342105263154,0.2064997361095903,0.82,nominal,5581.330506369814,nan,pitch_program,12.505,0.0,0.0,-3.5953682319028744,-0.0,0.0,-3.5851121336021126,0.0,0.0,0.82,0.0,0.0,0.0,0.0,0.0,0.0,-0.0625720107845557,0.0,0.0,-0.0625720107845557,0.0,0.0,19.443547879563315,0.06030587873637536,4.791378306015513,0.0005922299805256632,0.0243563357441759,-0.003341630081716953,1.0,78.38054906079186,-0.9752360996239673,23.6298435756004,100.45518729080435,-0.08816303243875988,4.274036821686067,24.64699746558139,103.32067443020921,6541.564306523586,0.5951640454677093
1.02,96.34370715238613,0.0,25.514028135221047,103.76179578140307,0.0,3.6650014728107756,103.82650191341948,17.797653363235224,0.0,6.66166720017771,0.0,0.0,1.4168805989139568,0.0,4.638746789408682,0.0,6586.557208502244,0.30519608486495653,103.82650191341949,2.0372677491242217,1.2220022896709353,101018.87138774717,287.98415881712106,0.0,0.0,0.0,384.7310526315789,0.2064823642128872,0.82,nominal,5640.178393800915,nan,pitch_program,12.49,0.0,0.0,-3.609460387363583,-0.0,0.0,-3.5997210858589948,0.0,0.0,0.82,0.0,0.0,0.0,0.0,0.0,0.0,-0.06282698510170495,0.0,0.0,-0.06282698510170495,0.0,0.0,19.403432415735203,0.01958799464690677,4.835016112258089,0.0005123923243018631,0.023187646377221493,0.005917187550271525,1.0,78.38054906079186,-0.9752360996239673,23.6298435756004,100.45518729080435,-0.08816303243875988,4.274036821686067,25.665279935443674,103.41036488741474,6488.718965646964,1.5358514009320592
1.05,99.47337552327976,0.0,25.621522920313247,104.32227902978764,0.0,3.5831595030732792,104.38379631912863,17.791458892308835,0.0,6.619779682703381,0.0,0.0,1.3962506446655385,0.0,4.652613667339197,0.0,6657.385637848207,0.30683461370425824,104.38379631912863,2.0367928481412774,1.2219896716334735,101017.583203901,287.98346010101795,0.0,0.0,0.0,384.69868421052627,0.20646499231618412,0.82,nominal,5699.249774743157,nan,pitch_program,12.475,0.0,0.0,-3.622873041476729,-0.0,0.0,-3.6136122592296354,0.0,0.0,0.82,0.0,0.0,0.0,0.0,0.0,0.0,-0.06306943181398798,0.0,0.0,-0.06306943181398798,0.0,0.0,19.335921939963157,0.07875506931094893,4.956978662254455,-0.0005514977501262355,0.02713726621930827,-0.004098142306320266,1.0,99.04659523830884,1.334569046153985,26.96544571894753,104.38240144206837,-0.2591355462294325,3.5107375712564943,25.665279935443674,103.9612508511632,6743.3729315915125,1.5358514009320592
1.08,102.61983531426561,0.0,25.726611298275344,104.88199303286173,0.0,3.5029459320699434,104.94047404480438,17.78526494253935,0.0,6.578545354302179,0.0,0.0,1.3744776726972459,0.0,4.665638913283786,0.0,6728.514596882437,0.30847132541827205,104.94047404480439,2.036333977924042,1.221977336163141,101016.32387054244,287.98277702656117,0.0,0.0,0.0,384.6663157894737,0.20644762041948106,0.82,nominal,5758.543419062363,nan,pitch_program,12.46,0.0,0.0,-3.635649895893016,-0.0,0.0,-3.626834841227664,0.0,0.0,0.82,0.0,0.0,0.0,0.0,0.0,0.0,-0.06330020940546852,0.0,0.0,-0.06330020940546852,0.0,0.0,19.3358648901822,0.003496705884786972,5.007605461033725,0.00022724025301151481,0.023292911430343045,0.0038210513916708115,1.0,99.04659523830884,1.334569046153985,26.96544571894753,104.38240144206837,-0.2591355462294325,3.5107375712564943,25.364553958530212,105.05683734098628,6711.526659092232,-2.214331403328623
1.1099999999999999,105.78306343127754,0.0,25.829342108935464,105.4409372337307,0.0,3.4243603553372934,105.49652832473086,17.779071513926766,0.0,6.5379921775894,0.0,0.0,1.351772613524814,0.0,4.677875367482712,0.0,6799.941963295578,0.3101062001503201,105.49652832473086,2.0358912107312004,1.2219652775205496,101015.09280153178,287.9821092762919,0.0,0.0,0.0,384.63394736842105,0.20643024852277797,0.82,nominal,5818.058062077963,nan,pitch_program,12.445,0.0,0.0,-3.64782761547511,-0.0,0.0,-3.6394305057761316,0.0,0.0,0.82,0.0,0.0,0.0,0.0,0.0,0.0,-0.063520045223316,0.0,0.0,-0.063520045223316,0.0,0.0,19.3732528856741,0.050200352301379904,5.025519506665845,-0.0033710855277364706,0.02471927848388663,0.0034361703815396416,1.0,99.04659523830884,1.334569046153985,26.96544571894753,104.38240144206837,-0.2591355462294325,3.5107375712564943,25.364553958530212,105.53026786503533,6873.555051225956,-2.214331403328623
1.14,108.96303675169362,0.0,25.92976421202208,105.99911068053615,0.0,3.3474034362205227,106.05195224430985,17.77287860647108,0.0,6.498142647373062,0.0,0.0,1.3283177274233042,0.0,4.689369251942168,0.0,6871.665577649489,0.3117392176099632,106.05195224430983,2.035464608235754,1.2219534899642908,101013.88941053297,287.98145653262185,0.0,0.0,0.0,384.6015789473684,0.20641287662607488,0.82,nominal,5877.792409624513,nan,pitch_program,12.43,0.0,0.0,-3.6594387460043327,-0.0,0.0,-3.6514354499130524,0.0,0.0,0.82,0.0,0.0,0.0,0.0,0.0,0.0,-0.06372957102502326,0.0,0.0,-0.06372957102502326,0.0,0.0,19.262465443245173,-0.038660176830253516,5.1769740106045345,0.0005367324330560196,0.021240286258414023,0.0009145541563920566,1.0,99.04659523830884,1.334569046153985,26.96544571894753,104.38240144206837,-0.2591355462294325,3.5107375712564943,25.60719657060487,106.31700427937422,6872.629034932405,-0.264342242607981
1.17,112.15973211431765,0.0,26.02792651316813,106.55651208746775,0.0,3.272076704868345,106.60673878423073,17.7666862201723,0.0,6.459014504453053,0.0,0.0,1.3042714813566083,0.0,4.700161024561727,0.0,6943.683248643336,0.3133703572029244,106.60673878423073,2.035054215376556,1.2219419677478807,101012.71311070156,287.9808184776644,0.0,0.0,0.0,384.56921052631577,0.2063955047293718,0.82,nominal,5937.7451426449625,nan,pitch_program,12.415,0.0,0.0,-3.67051253653418,-0.0,0.0,-3.6628817018857296,0.0,0.0,0.82,0.0,0.0,0.0,0.0,0.0,0.0,-0.06392934580895937,0.0,0.0,-0.06392934580895937,0.0,0.0,19.34691597096838,-0.08070857554364144,5.283069632043138,-0.0016858235452028674,0.025579478053109107,-0.00033200344438613215,1.0,99.04659523830884,1.334569046153985,26.96544571894753,104.38240144206837,-0.2591355462294325,3.5107375712564943,25.60719657060487,106.831160401468,6946.98824251057,-0.264342242607981
1.2,115.37312631098413,0.0,26.123877984512976,107.11313988888284,0.0,3.1983823781615253,107.16088086000562,17.760494355030417,0.0,6.420621436726647,0.0,0.0,1.2797689720998544,0.0,4.710286204657393,0.0,7015.992757956795,0.31499959814737344,107.16088086000562,2.034660059874105,1.2219307051173256,101011.56331443589,287.9801947931006,0.0,0.0,0.0,384.53684210526313,0.20637813283266868,0.82,nominal,5997.914921382984,nan,pitch_program,12.4,0.0,0.0,-3.68107465498551,-0.0,0.0,-3.6737974737455974,0.0,0.0,0.82,0.0,0.0,0.0,0.0,0.0,0.0,-0.06411986196831061,0.0,0.0,-0.06411986196831061,0.0,0.0,19.220460595606458,-0.003431626339499558,5.335302721316879,-0.0016478693563834008,0.0206390883269779,-0.002226087453477423,1.0,99.04659523830884,1.334569046153985,26.96544571894753,104.38240144206837,-0.2591355462294325,3.5107375712564943,25.886225049152472,107.38946371283129,6964.252656326152,-0.2848802346472957
1.23,118.60319607955896,0.0,26.21766768068586,107.66899228582761,0.0,3.1263232057628505,107.71437135606602,17.754303011045437,0.0,6.382973716081845,0.0,0.0,1.2549240666445176,0.0,4.719776116211806,0.0,7088.591864541926,0.316626919574211,107.71437135606602,2.0342821531372586,1.2219196963092427,101010.43943318485,287.97958516007554,0.0,0.0,0.0,384.5044736842105,0.2063607609359656,0.82,nominal,6058.300389077047,nan,pitch_program,12.385,0.0,0.0,-3.6911473686368512,-0.0,0.0,-3.68420741068035,0.0,0.0,0.82,0.0,0.0,0.0,0.0,0.0,0.0,-0.06430154964274701,0.0,0.0,-0.06430154964274701,0.0,0.0,19.214527865125245,-0.03611710551570207,5.396282006345063,0.0012760442060591839,0.027713288334396156,-0.00039958802289996777,1.0,99.04659523830884,1.334569046153985,26.96544571894753,104.38240144206837,-0.2591355462294325,3.5107375712564943,25.886225049152472,107.36745794640309,7055.2251638718335,-0.2848802346472957
1.26,121.84991809812276,0.0,26.3093447509113,108.22406728545997,0.0,3.05590234084798,108.26720315462372,17.74811218821736,0.0,6.346078714490658,0.0,0.0,1.2298334288695432,0.0,4.728658493723536,0.0,7161.47830836375,0.31825230061195087,108.26720315462373,2.0339204894987777,1.2219089355494244,101009.340877301,287.97898925911903,0.0,0.0,0.0,384.47210526315786,0.2063433890392625,0.82,nominal,6118.900175163807,nan,pitch_program,12.37,0.0,0.0,-3.7007502635193115,-0.0,0.0,-3.6941331223837266,0.0,0.0,0.82,0.0,0.0,0.0,0.0,0.0,0.0,-0.06447478599257467,0.0,0.0,-0.06447478599257467,0.0,0.0,19.246193905990836,0.023863660630115097,5.459566790765615,-0.0023047783664320145,0.019834406772786417,-0.001241768790835403,1.0,119.25410161888821,1.4709588081283473,26.087360356350437,108.35531582704331,0.12030670044368144,3.2846944115156047,26.672889347702192,108.43152506376795,7111.131014394456,0.162963403478858
1.29,125.11326898016989,0.0,26.39895844778855,108.77836273490468,0.0,2.987123229241743,108.81936916042646,17.74192188654618,0.0,6.3099413210615705,0.0,0.0,1.2045798209017475,0.0,4.736957976368504,0.0,7234.649813714614,0.31987572045952367,108.81936916042646,2.0335750447401635,1.2218984170518075,101008.26705593523,287.97840677008935,0.0,0.0,0.0,384.4397368421052,0.2063260171425594,0.82,nominal,6179.712898098593,nan,pitch_program,12.355,0.0,0.0,-3.7099008376959537,-0.0,0.0,-3.703593751571063,0.0,0.0,0.82,0.0,0.0,0.0,0.0,0.0,0.0,-0.06463990512120396,0.0,0.0,-0.06463990512120396,0.0,0.0,19.15475124894577,0.00846826940636842,5.62172602419226,-0.0016056178642132799,0.02084302449304753,0.0016244515780187423,1.0,119.25410161888821,1.4709588081283473,26.087360356350437,108.35531582704331,0.12030670044368144,3.2846944115156047,26.672889347702192,108.5656234143747,7267.776885109426,0.162963403478858
1.3199999999999998,128.39322527069072,0.0,26.48655813316977,109.33187635069395,0.0,2.9199895127072852,109.37086232227371,17.735732106031904,0.0,6.274564304565855,0.0,0.0,1.1792339206546778,0.0,4.74469653770911,0.0,7308.104092197802,0.32149715844954885,109.37086232227371,2.033245775530578,1.221888135017763,101007.21737696388,287.9778373721344,0.0,0.0,0.0,384.4073684210526,0.20630864524585632,0.82,nominal,6240.737167875524,nan,pitch_program,12.34,0.0,0.0,-3.7186147539061114,-0.0,0.0,-3.7126063529720916,0.0,0.0,0.82,0.0,0.0,0.0,0.0,0.0,0.0,-0.06479720468982177,0.0,0.0,-0.06479720468982177,0.0,0.0,19.12067153214244,0.012682382361754918,5.609441338299865,0.0004711226862555079,0.021381710543770225,0.005477678686427448,1.0,119.25410161888821,1.4709588081283473,26.087360356350437,108.35531582704331,0.12030670044368144,3.2846944115156047,26.083669498396258,108.97633755060463,7334.8462180096285,-0.12245718104423377
1.3499999999999999,131.68976344301828,0.0,26.572193281528932,109.8846057442519,0.0,2.85450494530545,109.9216756515859,17.729542846674526,0.0,6.2399486354418965,0.0,0.0,1.1538556725622755,0.0,4.751893865899287,0.0,7381.838845404276,0.3231165941029353,109.9216756515859,2.0329326197089297,1.2218780836357042,101006.1912469484,287.97728074367006,0.0,0.0,0.0,384.375,0.20629127334915326,0.82,nominal,6301.971588270531,nan,pitch_program,12.325,0.0,0.0,-3.7269059980028696,-0.0,0.0,-3.7211861399905586,0.0,0.0,0.82,0.0,0.0,0.0,0.0,0.0,0.0,-0.06494695022241388,0.0,0.0,-0.06494695022241388,0.0,0.0,19.123807166773023,-0.01923896100570566,5.664034272322696,-0.000216186253064102,0.018034754294406558,0.0015452797674206404,1.0,119.25410161888821,1.4709588081283473,26.087360356350437,108.35531582704331,0.12030670044368144,3.2846944115156047,26.083669498396258,109.75023521376589,7348.732343769843,-0.12245718104423377
1.38,135.00285989633085,0.0,26.655913481190762,110.43654844375195,0.0,2.7906733220609357,110.47180223821658,17.72335410847405,0.0,6.206093761438631,0.0,0.0,1.1284958329422599,0.0,4.7585676892818185,0.0,7455.851767293472,0.3247340071753708,110.47180223821658,2.0326354965743696,1.2218682570809254,101005.18807111883,287.97673656237225,0.0,0.0,0.0,384.34263157894736,0.20627390145245017,0.82,nominal,6363.414758820136,nan,pitch_program,12.31,0.0,0.0,-3.7347871118488056,-0.0,0.0,-3.729346723105507,0.0,0.0,0.82,0.0,0.0,0.0,0.0,0.0,0.0,-0.06508937926665238,0.0,0.0,-0.06508937926665238,0.0,0.0,19.165702517413234,-0.03162201765006215,5.752358714183543,0.002291853428513029,0.02286444336004233,-0.001976132596941643,1.0,119.25410161888821,1.4709588081283473,26.087360356350437,108.35531582704331,0.12030670044368144,3.2846944115156047,26.31310460873898,111.16140395522514,7458.0926128663905,0.07493271159242612
1.41,138.33249095371647,0.0,26.737768433735457,110.98770191285433,0.0,2.7284984181564864,111.02123526386514,17.71716589143048,0.0,6.172997838160965,0.0,0.0,1.1031974732632803,0.0,4.764734049869777,0.0,7530.140546313528,0.3263493776967519,111.02123526386514,2.0323543069633345,1.221858649515671,101004.20725338042,287.9762045051807,0.0,0.0,0.0,384.3102631578947,0.20625652955574708,0.82,nominal,6425.065276567938,nan,pitch_program,12.295,0.0,0.0,-3.7422694408014148,-0.0,0.0,-3.7371003537230516,0.0,0.0,0.82,0.0,0.0,0.0,0.0,0.0,0.0,-0.06522470564991198,0.0,0.0,-0.06522470564991198,0.0,0.0,19.05122982447946,0.05476016082665285,5.809295029548616,-0.0004428673565537823,0.018347924454960432,0.0020353050926656597,1.0,119.25410161888821,1.4709588081283473,26.087360356350437,108.35531582704331,0.12030670044368144,3.2846944115156047,26.31310460873898,110.09752524597178,7545.643335561848,0.07493271159242612
1.44,141.67863286072188,0.0,26.817807951838557,111.53806356684666,0.0,2.667983936769958,111.56996801347927,17.710978195543806,0.0,6.140657924949508,0.0,0.0,1.0779971356685283,0.0,4.770407536376264,0.0,7604.702867302146,0.3279626860046977,111.56996801347928,2.032088933409755,1.2218492550893747,101003.24819633795,287.97568424831303,0.0,0.0,0.0,384.2778947368421,0.206239157659044,0.82,nominal,6486.921737615291,nan,pitch_program,12.28,0.0,0.0,-3.7493633135597486,-0.0,0.0,-3.74445812962507,0.0,0.0,0.82,0.0,0.0,0.0,0.0,0.0,0.0,-0.0653531230650261,0.0,0.0,-0.0653531230650261,0.0,0.0,19.072034644943592,-0.051319635676952136,5.885146182419116,-0.0009535318708432641,0.019488738584905275,0.002824344071052272,1.0,119.25410161888821,1.4709588081283473,26.087360356350437,108.35531582704331,0.12030670044368144,3.2846944115156047,27.59764251015489,111.81482651033795,7711.119403975329,-0.31919290416260554
1.47,145.04126178431864,0.0,26.89608195576891,112.08763078655876,0.0,2.6091334643451054,112.11799388491876,17.704791020814035,0.0,6.109070154304922,0.0,0.0,1.0529257148220363,0.0,4.775601485836148,0.0,7679.536413195708,0.32957391277294823,112.11799388491876,2.031839240524624,1.22184006793907,101002.31030133725,287.9751754672875,0.0,0.0,0.0,384.24552631578945,0.2062217857623409,0.82,nominal,6548.982738500882,nan,pitch_program,12.265,0.0,0.0,-3.756078168304091,-0.0,0.0,-3.7514301528324823,0.0,0.0,0.82,0.0,0.0,0.0,0.0,0.0,0.0,-0.0654748078255209,0.0,0.0,-0.0654748078255209,0.0,0.0,19.02156357838672,0.024260827975459597,5.840949717291317,0.0019481353936812015,0.0207736901260612,-0.0011185087358909708,1.0,144.1294110218625,0.8034953455404776,28.769605055184506,111.95637473701476,-0.2136582967972069,2.6417637965808716,27.59764251015489,112.27037202898971,7742.534064245849,-0.31919290416260554
1.5,148.4203538122282,0.0,26.97264046874376,112.63640093031889,0.0,2.5519504324949494,112.66530639706906,17.698604367241163,0.0,6.0782298776011245,0.0,0.0,1.02800924828023,0.0,4.780328157153973,0.0,7754.63886656402,0.3311830390352009,112.66530639706906,2.0316050754604156,1.2218310821899192,101001.39296851915,287.97467783695316,0.0,0.0,0.0,384.2131578947368,0.20620441386563781,0.82,nominal,6611.246877425531,nan,pitch_program,12.25,0.0,0.0,-3.7624226691587115,-0.0,0.0,-3.75802566262822,0.0,0.0,0.82,0.0,0.0,0.0,0.0,0.0,0.0,-0.06558992118730406,0.0,0.0,-0.06558992118730406,0.0,0.0,19.040155665822684,-0.018030671556612133,5.903675849130966,-0.0013652016491746335,0.015286265138799755,-0.0008634720567739232,1.0,144.1294110218625,0.8034953455404776,28.769605055184506,111.95637473701476,-0.2136582967972069,2.6417637965808716,27.641848816227064,112.44720636401253,7767.730371652307,-1.1250587431946468
1.53,151.8158849525544,0.0,27.047533611314933,113.18437134420661,0.0,2.4964380857058024,113.21189919659074,17.692418234825194,0.0,6.048131788929547,0.0,0.0,1.0032696454570469,0.0,4.7845988790008365,0.0,7830.007910989054,0.3327900462049319,113.21189919659074,2.031386268351559,1.2218222919558746,101000.49559688655,287.9741910315264,0.0,0.0,0.0,384.1807894736842,0.20618704196893473,0.82,nominal,6673.712755338912,nan,pitch_program,12.235,0.0,0.0,-3.7684048194725634,-0.0,0.0,-3.764253156734826,0.0,0.0,0.82,0.0,0.0,0.0,0.0,0.0,0.0,-0.06569861146361287,0.0,0.0,-0.06569861146361287,0.0,0.0,18.904938104942932,0.05991784686592215,6.1172343078098645,-0.00012476373930662816,0.017057698945851255,-0.0010175630330780644,1.0,144.1294110218625,0.8034953455404776,28.769605055184506,111.95637473701476,-0.2136582967972069,2.6417637965808716,27.641848816227064,113.6705344597202,7712.851212598384,-1.1250587431946468
1.56,155.22783113367996,0.0,27.12081159493457,113.73153937085146,0.0,2.442599453987925,113.75776606349194,17.686232623566127,0.0,6.0187700304442515,0.0,0.0,0.9787253042621552,0.0,4.788424175997711,0.0,7905.641232306955,0.3343949160917549,113.75776606349194,2.0311826327573748,1.2218136913404223,100999.61758438036,287.9737147246329,0.0,0.0,0.0,384.14842105263153,0.20616967007223164,0.82,nominal,6736.378976905545,nan,pitch_program,12.220000000000002,0.0,0.0,-3.7740320573207358,-0.0,0.0,-3.770120497086372,0.0,0.0,0.82,0.0,0.0,0.0,0.0,0.0,0.0,-0.06580101587108247,0.0,0.0,-0.06580101587108247,0.0,0.0,18.996834287583713,-0.00022076434345733265,6.1204233501864165,-0.000672595733245409,0.01480498228401382,-0.0004813522633382448,1.0,144.1294110218625,0.8034953455404776,28.769605055184506,111.95637473701476,-0.2136582967972069,2.6417637965808716,27.584456962163095,114.21592123475952,7905.2977089406395,0.37482070945977164
1.5899999999999999,158.65616820438956,0.0,27.192524714827755,114.27790235698654,0.0,2.3904373297728863,114.30290091568334,17.68004753346396,0.0,5.9901382826058995,0.0,0.0,0.9543916144724803,0.0,4.791813877049977,0.0,7981.536519729978,0.3359976309147847,114.30290091568332,2.030993966148646,1.2218052744374106,100998.75832796365,287.9732485893536,0.0,0.0,0.0,384.1160526315789,0.20615229817552855,0.82,nominal,6799.244151364926,nan,pitch_program,12.205000000000002,0.0,0.0,-3.7793113310826856,-0.0,0.0,-3.77563499748416,0.0,0.0,0.82,0.0,0.0,0.0,0.0,0.0,0.0,-0.06589726205962641,0.0,0.0,-0.06589726205962641,0.0,0.0,18.98517626380496,0.03357436752914172,6.205070550772375,-0.002290345646758597,0.015190734901984514,0.0002379179360621317,1.0,144.1294110218625,0.8034953455404776,28.769605055184506,111.95637473701476,-0.2136582967972069,2.6417637965808716,27.584456962163095,114.37249760985469,8045.5192374984335,0.37482070945977164
1.6199999999999999,162.10087193418727,0.0,27.262723342283294,114.82345765992396,0.0,2.3399542485179445,114.84729781264123,17.673862964518694,0.0,5.962229841517935,0.0,0.0,0.9302813879921037,0.0,4.794777208394031,0.0,8057.691466861074,0.3375981733133758,114.84729781264124,2.0308200504211866,1.2217970353319472,100997.91722371316,287.9727922982751,0.0,0.0,0.0,384.0836842105263,0.2061349262788255,0.82,nominal,6862.306893297356,nan,pitch_program,12.19,0.0,0.0,-3.784249163933592,-0.0,0.0,-3.780803497353819,0.0,0.0,0.82,0.0,0.0,0.0,0.0,0.0,0.0,-0.06598746939974086,0.0,0.0,-0.06598746939974086,0.0,0.0,18.9062952893812,0.021830719306667832,6.172481532207256,-0.0016477986699776211,0.01943061835407987,0.0006086699117194181,1.0,144.1294110218625,0.8034953455404776,28.769605055184506,111.95637473701476,-0.2136582967972069,2.6417637965808716,26.848127410894698,114.751867435662,7960.216162259044,1.4986707387961022
1.65,165.56191801378017,0.0,27.33145791645957,115.36820265309716,0.0,2.291152472542462,115.39095095829019,17.667678916730328,0.0,5.935037684911722,0.0,0.0,0.9064052372201905,0.0,4.7973228732328765,0.0,8134.1037726125305,0.33919652635556374,115.39095095829019,2.030660652407387,1.2217889681013612,100997.09366691731,287.97234552354297,0.0,0.0,0.0,384.0513157894737,0.2061175543821224,0.82,nominal,6925.565823305714,nan,pitch_program,12.175,0.0,0.0,-3.7888517116744844,-0.0,0.0,-3.7856324259462184,0.0,0.0,0.82,0.0,0.0,0.0,0.0,0.0,0.0,-0.06607175010302192,0.0,0.0,-0.06607175010302192,0.0,0.0,18.945284576301358,0.0027700726858832874,6.317342226487074,-0.0009253328143911263,0.015079083265754405,-0.0029386503754558926,1.0,144.1294110218625,0.8034953455404776,28.769605055184506,111.95637473701476,-0.2136582967972069,2.6417637965808716,26.848127410894698,115.95777448022251,8255.396585345163,1.4986707387961022
1.68,169.0392820557042,0.0,27.39877893578923,115.91213473080128,0.0,2.2440339776553926,115.93385470320696,17.661495390098864,0.0,5.908554528384716,0.0,0.0,0.8827718999502941,0.0,4.799459119855149,0.0,8210.77114203927,0.3407926735445095,115.93385470320696,2.0305155243834787,1.2217810668161995,100996.2870521776,287.9719079369174,0.0,0.0,0.0,384.01894736842104,0.2061001824854193,0.82,nominal,6989.019568622808,nan,pitch_program,12.16,0.0,0.0,-3.793124812618914,-0.0,0.0,-3.7901278579498356,0.0,0.0,0.82,0.0,0.0,0.0,0.0,0.0,0.0,-0.06615021019278457,0.0,0.0,-0.06615021019278457,0.0,0.0,18.79351517141477,-0.02291821670051192,6.3770666891072265,-0.0004210795657062867,0.013500108285888851,0.0027455000921658345,1.0,168.5315374201502,-1.342865982767711,26.934688790000447,116.06602454396871,-0.26918352903143483,2.377809560907647,27.378072436154778,115.81413422319478,8301.399062513201,0.11366244485972535
1.71,172.53293959507155,0.0,27.464736949055002,116.45525131224524,0.0,2.198600442192347,116.47600354623525,17.655312384624303,0.0,5.882772873432921,0.0,0.0,0.8593885128936336,0.0,4.801193800028174,0.0,8287.691287096299,0.3423865988232081,116.47600354623523,2.030384404580534,1.2217733255412673,100995.49677351482,287.9714792098311,0.0,0.0,0.0,383.9865789473684,0.20608281058871622,0.82,nominal,7052.666763652753,nan,pitch_program,12.145,0.0,0.0,-3.797074029208066,-0.0,0.0,-3.794295560704774,0.0,0.0,0.82,0.0,0.0,0.0,0.0,0.0,0.0,-0.06622295032810269,0.0,0.0,-0.06622295032810269,0.0,0.0,18.903763905843498,0.13554310514812437,6.504275173429342,-0.0014672377371984118,0.010874049619137318,0.0006742458488385384,1.0,168.5315374201502,-1.342865982767711,26.934688790000447,116.06602454396871,-0.26918352903143483,2.377809560907647,27.378072436154778,116.51608004318365,8247.833249948806,0.11366244485972535
1.74,176.04286609042188,0.0,27.52938254619936,116.99754984501064,0.0,2.1548532381452894,117.0173921355868,17.64912990030664,0.0,5.857685048493652,0.0,0.0,0.8362608446700608,0.0,4.802534419088762,0.0,8364.861927328398,0.34397828657768637,117.0173921355868,2.030267017697273,1.221765738336709,100994.72222447897,287.9710590134497,0.0,0.0,0.0,383.95421052631576,0.20606543869201313,0.82,nominal,7116.506050453533,nan,pitch_program,12.13,0.0,0.0,-3.8007046833736715,-0.0,0.0,-3.798141034306113,0.0,0.0,0.82,0.0,0.0,0.0,0.0,0.0,0.0,-0.06629006650374457,0.0,0.0,-0.06629006650374457,0.0,0.0,18.826583243101737,-0.05384572329307302,6.551495150941124,0.00011597472438910492,0.01076004484626209,-0.00048417336930324105,1.0,168.5315374201502,-1.342865982767711,26.934688790000447,116.06602454396871,-0.26918352903143483,2.377809560907647,26.8742924541981,117.27304687197652,8409.332577443278,1.1324254900792559
1.77,179.56903692466187,0.0,27.592766348922712,117.53902780799979,0.0,2.112793424111698,117.55801526949456,17.64294793714588,0.0,5.833283243955237,0.0,0.0,0.8133934969085196,0.0,4.803488178866433,0.0,8442.280790498742,0.34556772163888055,117.55801526949456,2.0301630754078923,1.2217582992590947,100993.96279826031,287.970647018732,0.0,0.0,0.0,383.9218421052632,0.20604806679531007,0.82,nominal,7180.536079167022,nan,pitch_program,12.115,0.0,0.0,-3.8040218872950007,-0.0,0.0,-3.801669546099445,0.0,0.0,0.82,0.0,0.0,0.0,0.0,0.0,0.0,-0.06635165065223367,0.0,0.0,-0.06635165065223367,0.0,0.0,18.79115852980821,0.04358247519300718,6.5748617072078455,-0.00020660322282621272,0.017122561543301516,1.7013139923263515e-05,1.0,168.5315374201502,-1.342865982767711,26.934688790000447,116.06602454396871,-0.26918352903143483,2.377809560907647,26.8742924541981,117.37803559346168,8373.345249600628,1.1324254900792559
1.7999999999999998,183.1114274060802,0.0,27.654939001117338,118.07968271394432,0.0,2.0724217398208022,118.09786789647578,17.63676649514202,0.0,5.809559541994276,0.0,0.0,0.7907900766633116,0.0,4.8040620144556705,0.0,8519.945613163027,0.3471548892833668,118.09786789647578,2.030072276863522,1.2217510023625464,100993.21788780381,287.9702428964927,0.0,0.0,0.0,383.8894736842105,0.20603069489860695,0.82,nominal,7244.755508402029,nan,pitch_program,12.1,0.0,0.0,-3.8070305698560607,-0.0,0.0,-3.8048861603534143,0.0,0.0,0.82,0.0,0.0,0.0,0.0,0.0,0.0,-0.06640779116173201,0.0,0.0,-0.06640779116173201,0.0,0.0,18.830170819160095,0.001067690468456601,6.6818515803996155,0.0009133239776130593,0.011344733830217354,0.002194368482841503,1.0,168.5315374201502,-1.342865982767711,26.934688790000447,116.06602454396871,-0.26918352903143483,2.377809560907647,27.449896075476122,118.49218851026863,8357.516438052304,-1.7625863234401868
1.8299999999999998,186.6700127694263,0.0,27.71595115917813,118.61951211153671,0.0,2.033738602026374,118.63694511525647,17.63058557429506,0.0,5.786505942012631,0.0,0.0,0.7684533430888775,0.0,4.804262625743964,0.0,8597.854141194373,0.34873977523309313,118.63694511525648,2.0299943091886656,1.221743841699865,100992.48688592434,287.96984631746534,0.0,0.0,0.0,383.85710526315785,0.20601332300190386,0.82,nominal,7309.163005575342,nan,pitch_program,12.085,0.0,0.0,-3.809735499119549,-0.0,0.0,-3.807795763613095,0.0,0.0,0.82,0.0,0.0,0.0,0.0,0.0,0.0,-0.0664585733185402,0.0,0.0,-0.0664585733185402,0.0,0.0,18.714761949470514,0.031449363413240256,6.748617924554539,0.0007011828098648345,0.014799797933363492,0.003501534476087579,1.0,168.5315374201502,-1.342865982767711,26.934688790000447,116.06602454396871,-0.26918352903143483,2.377809560907647,27.449896075476122,118.91456058884864,8472.90979834366,-1.7625863234401868
1.8599999999999999,190.24476817704343,0.0,27.775853482225713,119.15851358723758,0.0,1.9967441015861798,119.17524217440089,17.624405174605005,0.0,5.764114382319267,0.0,0.0,0.7463853326116792,0.0,4.80409650445516,0.0,8676.004130263942,0.3503223656542436,119.1752421744009,2.0299288479723483,1.221736811323674,100991.76918542308,287.96945695236553,0.0,0.0,0.0,383.8247368421052,0.20599595110520078,0.82,nominal,7373.75724721502,nan,pitch_program,12.07,0.0,0.0,-3.812141301516055,-0.0,0.0,-3.8104030863548712,0.0,0.0,0.82,0.0,0.0,0.0,0.0,0.0,0.0,-0.06650407968504632,0.0,0.0,-0.06650407968504632,0.0,0.0,18.77227256335572,-0.0039993418418947145,6.82434288835468,0.0010458347417733236,0.011373336326658587,-0.001532915469693964,1.0,168.5315374201502,-1.342865982767711,26.934688790000447,116.06602454396871,-0.26918352903143483,2.377809560907647,28.157740053885117,119.64281080466576,8601.202347542503,-1.0940332609608998
1.89,193.83566872004758,0.0,27.834696622272894,119.69668476680464,0.0,1.961438001572672,119.71275447168449,17.61822529607185,0.0,5.742376758592649,0.0,0.0,0.724587466245364,0.0,4.803569957342239,0.0,8754.393346281408,0.35190264715534597,119.71275447168448,2.0298755577527023,1.221729905287569,100991.06417920474,287.9690744719552,0.0,0.0,0.0,383.79236842105263,0.20597857920849771,0.82,nominal,7438.53691922972,nan,pitch_program,12.055,0.0,0.0,-3.814252478358236,-0.0,0.0,-3.81271272155689,0.0,0.0,0.82,0.0,0.0,0.0,0.0,0.0,0.0,-0.06654439042384151,0.0,0.0,-0.06654439042384151,0.0,0.0,18.646909055292543,-0.014612581059159788,6.847529244845155,0.0003055854345507461,0.012920135307578965,-0.0003411062948706504,1.0,193.49009758188654,-1.2389951447554337,27.62705650391826,119.97146823459614,-0.12167131273932834,2.3242510699988443,28.157740053885117,119.51283109335519,8816.109951836002,-1.0940332609608998
1.92,197.44268941954505,0.0,27.89253121436127,120.23402331658257,0.0,1.9278197362792335,120.24947755324389,17.612045938695594,0.0,5.721284939588122,0.0,0.0,0.7030606414237296,0.0,4.802689126079009,0.0,8833.019565799053,0.3534806067847238,120.24947755324389,2.0298340924946867,1.2217231176472714,100990.37126039523,287.9686985471066,0.0,0.0,0.0,383.76,0.20596120731179463,0.82,nominal,7503.50071714737,nan,pitch_program,12.040000000000001,0.0,0.0,-3.8160734200195607,-0.0,0.0,-3.8147291406344923,0.0,0.0,0.82,0.0,0.0,0.0,0.0,0.0,0.0,-0.0665795835758457,0.0,0.0,-0.0665795835758457,0.0,0.0,18.679726186915044,-0.05849183849588691,6.866208494022968,0.0005658666969142462,0.012852631199899898,0.001447673505714987,1.0,193.49009758188654,-1.2389951447554337,27.62705650391826,119.97146823459614,-0.12167131273932834,2.3242510699988443,27.794546589699184,120.4965995519356,8938.163375194437,-1.2019821554122339
