time_s,x_m,y_m,altitude_m,vx_mps,vy_mps,vz_mps,speed_mps,mass_kg,roll_deg,pitch_deg,yaw_deg,p_dps,q_dps,r_dps,alpha_deg,beta_deg,qbar_pa,mach,airspeed_mps,load_factor_g,density_kgpm3,pressure_pa,temperature_k,wind_x_mps,wind_y_mps,wind_z_mps,thrust_n,mass_flow_kgps,propulsion_throttle_actual,propulsion_health,energy_j_per_kg,target_distance_m,guidance_mode,pitch_command_deg,heading_command_deg,roll_command_deg
0.0,0.0,0.0,20.0,85.0,0.0,8.0,85.37564055396598,18.0,0.0,6.000000000000002,0.0,0.0,0.0,0.0,0.623294571949261,0.0,4455.946741876431,0.2509445034436674,85.37564055396597,1.6599150656151063,1.2226496753673843,101084.96761777384,288.02,0.0,0.0,0.0,311.59999999999997,0.16723345892838024,0.82,nominal,3840.633,nan,pitch_program,13.0,0.0,0.0
0.03,2.5645517250134597,0.0,20.232871448975896,85.48505750044866,0.0,7.762381632529857,85.83676149799719,17.99498299623215,0.0,6.265582975204377,0.0,0.0,-8.852781691043555,0.0,1.077128380728056,0.0,4504.109866071047,0.25230053857621076,85.83676149799719,1.6865266590982415,1.2226223293155802,101082.17549763487,288.01848633558166,0.0,0.0,0.0,317.135,0.17020405326460805,0.82,nominal,3882.3915010271253,nan,pitch_program,12.985,0.0,0.0
0.06,5.143828111914722,0.0,20.45909762675379,85.97587956337543,0.0,7.540872592596431,86.3059478028821,17.989876874634213,0.0,6.641216969939227,0.0,0.0,-12.52117800641568,0.0,1.6286793835530258,0.0,4553.384697427496,0.25368026844341535,86.30594780288209,1.713805828745433,1.22259576406484,101079.4631138557,288.01701586542606,0.0,0.0,0.0,322.66999999999996,0.17317464760083584,0.82,nominal,3924.99352281831,nan,pitch_program,12.97,0.0,0.0
0.09,7.737970349850814,0.0,20.679291277732275,86.47140793120307,0.0,7.339788365949617,86.78235352225393,17.984681635206186,0.0,6.946308959049555,0.0,0.0,-10.16975699990761,0.0,2.09460961546853,0.0,4603.695112992815,0.255081208171905,86.78235352225393,1.7421893014666305,1.2225699076247558,101076.82311485588,288.01558460669474,0.0,0.0,0.0,328.205,0.17614524193706366,0.82,nominal,3968.383013239503,nan,pitch_program,12.955,0.0,0.0
0.12,10.347139905825744,0.0,20.893917465751255,86.97231853249767,0.0,7.1542062672993065,87.26606934102911,17.979397277948074,0.0,7.1246671167983795,0.0,0.0,-5.945276725959548,0.0,2.4221935988164702,0.0,4655.063215921947,0.2565036255324155,87.26606934102911,1.770946617579164,1.222544705351695,101074.24992036329,288.0141895364726,0.0,0.0,0.0,333.73999999999995,0.17911583627329145,0.82,nominal,4012.58276483216,nan,pitch_program,12.94,0.0,0.0
0.15,12.971534540215032,0.0,21.103253935877333,87.47982114630965,0.0,6.977882337535977,87.75767744024918,17.974023802859875,0.0,7.219463573105273,0.0,0.0,-3.159882597719538,0.0,2.6588860391884155,0.0,4707.564325661547,0.25794923244650175,87.75767744024918,1.8000114752812753,1.2225201246015363,101071.7401964117,288.0128288494168,0.0,0.0,0.0,339.275,0.18208643060951926,0.82,nominal,4057.657200063682,nan,pitch_program,12.925,0.0,0.0
0.18,15.611373230582457,0.0,21.307489249309093,87.9946230122475,0.0,6.807843781058656,88.25757993518096,17.96856120994159,0.0,7.288955056684481,0.0,0.0,-2.316383069926958,0.0,2.8649887020357157,0.0,4761.255983228179,0.2594192113258229,88.25757993518097,1.829534353256232,1.2224961432048422,101069.29167859157,288.01150131987947,0.0,0.0,0.0,344.81,0.1850570249457471,0.82,nominal,4103.6552974541655,nan,pitch_program,12.91,0.0,0.0
0.21,18.266877756028506,0.0,21.506812908097597,88.51681751486828,0.0,6.644121959616844,88.76582303778157,17.96300949919322,0.0,7.357804600056703,0.0,0.0,-2.2949850552307502,0.0,3.0652008195840246,0.0,4816.15833108593,0.26091369847594703,88.76582303778157,1.859467290788258,1.222472738883723,101066.90209148392,288.01020571609735,0.0,0.0,0.0,350.34499999999997,0.1880276192819749,0.82,nominal,4150.595456592572,nan,pitch_program,12.895,0.0,0.0
0.24,20.93826661693463,0.0,21.701437323073304,89.04629536353741,0.0,6.487480499190155,89.28230575650316,17.95736867061476,0.0,7.420437612739811,0.0,0.0,-2.087767297340503,0.0,3.2535075602067196,0.0,4872.275801643126,0.26243239759269277,89.28230575650316,1.8896157865439227,1.2224498866723768,101064.56888529581,288.0089406574,0.0,0.0,0.0,355.88,0.1909982136182027,0.82,nominal,4198.483460923175,nan,pitch_program,12.88,0.0,0.0
0.27,23.625758783189514,0.0,21.891575158981603,89.58307220849612,0.0,6.337927863609981,89.80699391426569,17.951638724206212,0.0,7.465039190807423,0.0,0.0,-1.4867193439967126,0.0,3.418153601122877,0.0,4929.620156637759,0.2639752087686123,89.80699391426568,1.9198046923581888,1.2224275615771991,101062.28950745935,288.0077047614666,0.0,0.0,0.0,361.41499999999996,0.1939688079544305,0.82,nominal,4247.331093491303,nan,pitch_program,12.865,0.0,0.0
0.3,26.329578585621686,0.0,22.077416210370842,90.12732674773905,0.0,6.194701712974695,90.3399654416939,17.94581965996758,0.0,7.488490635274443,0.0,0.0,-0.7817148264807597,0.0,3.5565763613714134,0.0,4988.215706620304,0.26554236155998323,90.33996544169392,1.9499851808359951,1.2224057412917804,101060.06167982609,288.00649679463254,0.0,0.0,0.0,366.95,0.19693940229065832,0.82,nominal,4297.160171682658,nan,pitch_program,12.850000000000001,0.0,0.0
0.32999999999999996,29.049956875570075,0.0,22.259123797630316,90.67927633161295,0.0,6.0569195753158045,90.88133708725277,17.93991147789886,0.0,7.495810212232959,0.0,0.0,-0.2439858989490082,0.0,3.6744167075803573,0.0,5048.091537566537,0.2671341995516041,90.88133708725277,1.980198575706457,1.222384406619786,101057.88344183473,288.0053156953154,0.0,0.0,0.0,372.48499999999996,0.1999099966268861,0.82,nominal,4347.996151773464,nan,pitch_program,12.835,0.0,0.0
0.36,31.787129175432057,0.0,22.43684424803021,91.23907666206604,0.0,5.924015013329798,91.43119305808341,17.933914178000055,0.0,7.49320380543607,0.0,0.0,0.0868802265779077,0.0,3.7782901241587936,0.0,5109.273669585202,0.26875097063303116,91.43119305808341,2.010481057690788,1.2223635403615152,101055.75303682243,288.0041605123878,0.0,0.0,0.0,378.02,0.20288059096311392,0.82,nominal,4399.861810657206,nan,pitch_program,12.82,0.0,0.0
0.39,34.54133360348762,0.0,22.610716026538924,91.80681426851882,0.0,5.795725950290535,91.98957324297783,17.92782776027116,0.0,7.483830129812692,0.0,0.0,0.31245585480960825,0.0,3.87156504839334,0.0,5171.783629820429,0.27039279240701075,91.98957324297783,2.0408230166938686,1.2223431262416906,101053.66880254903,288.0030303458275,0.0,0.0,0.0,383.55499999999995,0.2058511852993417,0.82,nominal,4452.776171034248,nan,pitch_program,12.805,0.0,0.0
0.42,37.3128100601609,0.0,22.780872559702765,92.38254855577581,0.0,5.6718844387946765,92.55649923558755,17.92165222471218,0.0,7.468207052668974,0.0,0.0,0.5207692413505536,0.0,3.9549067214097,0.0,5235.641250864192,0.27205972868884487,92.55649923558754,2.0503462537853547,1.222323148577801,101051.62913733248,288.0019243283619,0.0,0.0,0.0,385.37842105263155,0.20682980214694893,0.82,nominal,4506.756819261268,nan,pitch_program,12.79,0.0,0.0
0.44999999999999996,40.101615541821914,0.0,22.947416795742303,92.96018272203375,0.0,5.551474534651324,93.12579900984896,17.915447330647773,0.0,7.446375654939031,0.0,0.0,0.7277132664691897,0.0,4.028796900455844,0.0,5300.161675575197,0.273733637700377,93.12579900984893,2.0494764308491535,1.2223035952668084,101049.63280497919,288.0008417908277,0.0,0.0,0.0,385.3460526315789,0.20681243025024584,0.82,nominal,4561.244505531359,nan,pitch_program,12.775,0.0,0.0
0.48,42.90771667720725,0.0,23.110432237769807,93.53670451284432,0.0,5.4338480675834875,93.69440642826407,17.909242957740265,0.0,7.4190583791415206,0.0,0.0,0.9105758771659855,0.0,4.094299026671639,0.0,5364.998708136326,0.27540550692561666,93.69440642826407,2.0486370812114423,1.2222844564895383,101047.67880249905,287.9997821904545,0.0,0.0,0.0,385.3136842105263,0.20679505835354275,0.82,nominal,4615.956818276892,nan,pitch_program,12.76,0.0,0.0
0.51,45.73108197847443,0.0,23.269995753923215,94.11217670890613,0.0,5.318783871780227,94.26235339075237,17.90303910598966,0.0,7.387449897803024,0.0,0.0,1.0536160713382636,0.0,4.152798976417487,0.0,5430.154591321817,0.2770754301607295,94.26235339075237,2.0478304872505966,1.2222657232065826,101045.76620653794,287.99874502759945,0.0,0.0,0.0,385.28131578947364,0.20677768645683967,0.82,nominal,4670.896337241753,nan,pitch_program,12.745,0.0,0.0
0.54,48.57168144724602,0.0,23.42617920373609,94.68664895905322,0.0,5.20611499376253,94.82966373674037,17.896835775395953,0.0,7.352608356208836,0.0,0.0,1.161384755594788,0.0,4.205508098619642,0.0,5495.630725099069,0.27874347749995193,94.82966373674037,2.0470569539046073,1.2222473869672834,101043.89415387368,287.9977298351757,0.0,0.0,0.0,385.24894736842106,0.2067603145601366,0.82,nominal,4726.064902499945,nan,pitch_program,12.73,0.0,0.0
0.57,51.42948624321386,0.0,23.579050700180126,95.26015986559452,0.0,5.095716548134511,95.3963541481411,17.89063296595915,0.0,7.315205644466522,0.0,0.0,1.2467571023524173,0.0,4.253222030239728,0.0,5561.4277432759345,0.2804096979930892,95.3963541481411,2.046311764379094,1.2222294397615172,101042.06182628214,287.9967361704488,0.0,0.0,0.0,385.2165789473684,0.20674294266343352,0.82,nominal,4781.4636899277,nan,pitch_program,12.715,0.0,0.0
0.6,54.304468504022296,0.0,23.7286751836196,95.83274202694791,0.0,4.98748278131586,95.96243759355778,17.884430677679248,0.0,7.275669407062855,0.0,0.0,1.3178746324146533,0.0,4.29647745928425,0.0,5627.545892362304,0.282074129770741,95.96243759355778,2.045589094129765,1.2222118739522672,101040.26844365179,287.9957636113065,0.0,0.0,0.0,385.1842105263158,0.20672557076673043,0.82,nominal,4837.093526938179,nan,pitch_program,12.7,0.0,0.0
0.63,57.196601243906436,0.0,23.875114688648363,96.40442466280464,0.0,4.88131683429205,96.52792522686437,17.878228910556246,0.0,7.234385377042639,0.0,0.0,1.3761343935457673,0.0,4.335761068684839,0.0,5693.985242563637,0.283736805625475,96.52792522686437,2.04488564108538,1.2221946822442589,101038.51326078027,287.99481175452377,0.0,0.0,0.0,385.15184210526314,0.20670819887002734,0.82,nominal,4892.955067762993,nan,pitch_program,12.685,0.0,0.0
0.6599999999999999,60.10585824766668,0.0,24.01842867697979,96.97523345867481,0.0,4.777132944380945,97.09282622075007,17.872027664590146,0.0,7.191756232438551,0.0,0.0,1.4209715523528879,0.0,4.371567346476755,0.0,5760.7456615707,0.285397752523272,97.09282622075007,2.044200625580123,1.2221778576448423,101036.79556337972,287.9938802135996,0.0,0.0,0.0,385.1194736842105,0.20669082697332425,0.82,nominal,4949.04877535149,nan,pitch_program,12.67,0.0,0.0
0.69,63.032213944439064,0.0,24.158674480454017,97.54518989241275,0.0,4.674860115807499,97.65714714371514,17.865826939780945,0.0,7.148153659875505,0.0,0.0,1.4534191555785052,0.0,4.404348762846958,0.0,5827.826733119397,0.28705698977336874,97.65714714371515,2.0435338838229793,1.2221613934119568,101035.11466276318,287.99296861587703,0.0,0.0,0.0,385.08710526315787,0.20667345507662116,0.82,nominal,5005.37485921836,nan,pitch_program,12.655,0.0,0.0
0.72,65.97564328830595,0.0,24.295907718221358,98.11431146222921,0.0,4.574441258911374,98.22089200642883,17.859626736128646,0.0,7.103876108859603,0.0,0.0,1.4759184406486516,0.0,4.434474368532659,0.0,5895.227753351812,0.28871452916560436,98.22089200642881,2.042884724541789,1.2221452830051227,101033.46989084019,287.99207659983153,0.0,0.0,0.0,385.0547368421052,0.20665608317991807,0.82,nominal,5061.9332766941725,nan,pitch_program,12.64,0.0,0.0
0.75,68.93612166499514,0.0,24.43018260404226,98.68261255630672,0.0,4.475829527363323,98.78406283857818,17.85342705363325,0.0,7.059155802318818,0.0,0.0,1.4906769603703072,0.0,4.462239258435301,0.0,5962.947791488069,0.2903703766668082,98.78406283857817,2.042252163198064,1.2221295200493456,101031.86059643104,287.9912038130737,0.0,0.0,0.0,385.0223684210526,0.20663871128321498,0.82,nominal,5118.723785682012,nan,pitch_program,12.625,0.0,0.0
0.78,71.91362482067306,0.0,24.56155216813328,99.25010518926392,0.0,4.378985469700712,99.34666020467826,17.847227892294754,0.0,7.014187094917924,0.0,0.0,1.4989569903086306,0.0,4.487894822534171,0.0,6030.985745526603,0.29202453393754024,99.34666020467826,2.0416355316788213,1.2221140983090502,101030.28614260472,287.9903499109071,0.0,0.0,0.0,384.98999999999995,0.2066213393865119,0.82,nominal,5175.745992481527,nan,pitch_program,12.61,0.0,0.0
0.8099999999999999,74.90812880066747,0.0,24.69006844930812,99.81679933314707,0.0,4.283876039161371,99.90868342157577,17.84102925211316,0.0,6.9691425690991915,0.0,0.0,1.5014842712931689,0.0,4.511665592265621,0.0,6099.340363672616,0.293676998971916,99.90868342157579,2.0410346243633692,1.2220990116655004,101028.74590437327,287.9895145550795,0.0,0.0,0.0,384.95763157894737,0.20660396748980883,0.82,nominal,5232.999371274733,nan,pitch_program,12.595,0.0,0.0
0.84,77.91960989258754,0.0,24.815782678740167,100.38270306400236,0.0,4.190474314401507,100.47013063301614,17.834831133088464,0.0,6.924172957050328,0.0,0.0,1.4989871452455692,0.0,4.533749476226375,0.0,6168.010249122998,0.2953277663172767,100.47013063301614,2.0404494385561236,1.2220842540952166,101027.2392664875,287.9886974125882,0.0,0.0,0.0,384.92526315789473,0.20658659559310574,0.82,nominal,5290.483269914131,nan,pitch_program,12.58,0.0,0.0
0.87,80.94804457539944,0.0,24.93874544493086,100.9478227603964,0.0,4.098758873023104,101.0309989278716,17.82863353522067,0.0,6.879404219479132,0.0,0.0,1.4922913282968242,0.0,4.554315338921172,0.0,6236.993870565287,0.2969768274221609,101.03099892787161,2.0398799481845256,1.222069819650587,101025.7656214572,287.98789815460793,0.0,0.0,0.0,384.8928947368421,0.20656922369640265,0.82,nominal,5348.196920199327,nan,pitch_program,12.565,0.0,0.0
0.8999999999999999,83.99340947653704,0.0,25.059006829373754,101.5121633712534,0.0,4.0087128147631494,101.59128452157344,17.82243645850978,0.0,6.834939874714805,0.0,0.0,1.482144899863072,0.0,4.57350601095993,0.0,6306.289581031972,0.2986241711699867,101.59128452157341,2.039326095303881,1.2220557024439314,101024.32436792368,287.98711645560905,0.0,0.0,0.0,384.86052631578946,0.20655185179969957,0.82,nominal,5406.139454694921,nan,pitch_program,12.55,0.0,0.0
0.9299999999999999,87.05568133631282,0.0,25.176616516204295,102.07572865919235,0.0,3.9203228943513873,102.15098292674935,17.81623990295579,0.0,6.790866378824819,0.0,0.0,1.4691166021072477,0.0,4.59144426447423,0.0,6375.895636172314,0.30026978438093554,102.15098292674935,2.0387878720541615,1.22204189663461,101022.91490934318,287.98635199264464,0.0,0.0,0.0,384.8281578947368,0.20653447990299648,0.82,nominal,5464.309922809154,nan,pitch_program,12.535000000000002,0.0,0.0
0.96,90.13483697752561,0.0,25.29162388490671,102.63852137375997,0.0,3.833578956747155,102.71008907312562,17.8100438685587,0.0,6.747257044676131,0.0,0.0,1.4536445417992228,0.0,4.6082371367999855,0.0,6445.810206869979,0.3019136521646607,102.7100890731256,2.0382653436981424,1.2220283964181333,101021.53665287462,287.9856044447481,0.0,0.0,0.0,384.7957894736842,0.2065171080062934,0.82,nominal,5522.707302075619,nan,pitch_program,12.520000000000001,0.0,0.0
0.99,93.23085327894404,0.0,25.404078091036723,103.20054338061456,0.0,3.748473537667091,103.2685973949327,17.80384835531851,0.0,6.7041736161955665,0.0,0.0,1.4361143503534441,0.0,4.623977802793618,0.0,6516.03138826156,0.3035557581774459,103.2685973949327,2.0377586065258924,1.222015196016669,101020.18900841018,287.9848734924082,0.0,0.0,0.0,384.76342105263154,0.2064997361095903,0.82,nominal,5581.330506369814,nan,pitch_program,12.505,0.0,0.0
1.02,96.34370715238613,0.0,25.514028135221047,103.76179578140307,0.0,3.6650014728107756,103.82650191341948,17.797653363235224,0.0,6.66166720017771,0.0,0.0,1.4168805989139568,0.0,4.638746789408682,0.0,6586.557208502244,0.30519608486495653,103.82650191341949,2.0372677491242217,1.2220022896709353,101018.87138774717,287.98415881712106,0.0,0.0,0.0,384.7310526315789,0.2064823642128872,0.82,nominal,5640.178393800915,nan,pitch_program,12.49,0.0,0.0
1.05,99.47337552327976,0.0,25.621522920313247,104.32227902978764,0.0,3.5831595030732792,104.38379631912863,17.791458892308835,0.0,6.619779682703381,0.0,0.0,1.3962506446655385,0.0,4.652613667339197,0.0,6657.385637848207,0.30683461370425824,104.38379631912863,2.0367928481412774,1.2219896716334735,101017.583203901,287.98346010101795,0.0,0.0,0.0,384.69868421052627,0.20646499231618412,0.82,nominal,5699.249774743157,nan,pitch_program,12.475,0.0,0.0
1.08,102.61983531426561,0.0,25.726611298275344,104.88199303286173,0.0,3.5029459320699434,104.94047404480438,17.78526494253935,0.0,6.578545354302179,0.0,0.0,1.3744776726972459,0.0,4.665638913283786,0.0,6728.514596882437,0.30847132541827205,104.94047404480439,2.036333977924042,1.221977336163141,101016.32387054244,287.98277702656117,0.0,0.0,0.0,384.6663157894737,0.20644762041948106,0.82,nominal,5758.543419062363,nan,pitch_program,12.46,0.0,0.0
1.1099999999999999,105.78306343127754,0.0,25.829342108935464,105.4409372337307,0.0,3.4243603553372934,105.49652832473086,17.779071513926766,0.0,6.5379921775894,0.0,0.0,1.351772613524814,0.0,4.677875367482712,0.0,6799.941963295578,0.3101062001503201,105.49652832473086,2.0358912107312004,1.2219652775205496,101015.09280153178,287.9821092762919,0.0,0.0,0.0,384.63394736842105,0.20643024852277797,0.82,nominal,5818.058062077963,nan,pitch_program,12.445,0.0,0.0
1.14,108.96303675169362,0.0,25.92976421202208,105.99911068053615,0.0,3.3474034362205227,106.05195224430985,17.77287860647108,0.0,6.498142647373062,0.0,0.0,1.3283177274233042,0.0,4.689369251942168,0.0,6871.665577649489,0.3117392176099632,106.05195224430983,2.035464608235754,1.2219534899642908,101013.88941053297,287.98145653262185,0.0,0.0,0.0,384.6015789473684,0.20641287662607488,0.82,nominal,5877.792409624513,nan,pitch_program,12.43,0.0,0.0
1.17,112.15973211431765,0.0,26.02792651316813,106.55651208746775,0.0,3.272076704868345,106.60673878423073,17.7666862201723,0.0,6.459014504453053,0.0,0.0,1.3042714813566083,0.0,4.700161024561727,0.0,6943.683248643336,0.3133703572029244,106.60673878423073,2.035054215376556,1.2219419677478807,101012.71311070156,287.9808184776644,0.0,0.0,0.0,384.56921052631577,0.2063955047293718,0.82,nominal,5937.7451426449625,nan,pitch_program,12.415,0.0,0.0
1.2,115.37312631098413,0.0,26.123877984512976,107.11313988888284,0.0,3.1983823781615253,107.16088086000562,17.760494355030417,0.0,6.420621436726647,0.0,0.0,1.2797689720998544,0.0,4.710286204657393,0.0,7015.992757956795,0.31499959814737344,107.16088086000562,2.034660059874105,1.2219307051173256,101011.56331443589,287.9801947931006,0.0,0.0,0.0,384.53684210526313,0.20637813283266868,0.82,nominal,5997.914921382984,nan,pitch_program,12.4,0.0,0.0
1.23,118.60319607955896,0.0,26.21766768068586,107.66899228582761,0.0,3.1263232057628505,107.71437135606602,17.754303011045437,0.0,6.382973716081845,0.0,0.0,1.2549240666445176,0.0,4.719776116211806,0.0,7088.591864541926,0.316626919574211,107.71437135606602,2.0342821531372586,1.2219196963092427,101010.43943318485,287.97958516007554,0.0,0.0,0.0,384.5044736842105,0.2063607609359656,0.82,nominal,6058.300389077047,nan,pitch_program,12.385,0.0,0.0
1.26,121.84991809812276,0.0,26.3093447509113,108.22406728545997,0.0,3.05590234084798,108.26720315462372,17.74811218821736,0.0,6.346078714490658,0.0,0.0,1.2298334288695432,0.0,4.728658493723536,0.0,7161.47830836375,0.31825230061195087,108.26720315462373,2.0339204894987777,1.2219089355494244,101009.340877301,287.97898925911903,0.0,0.0,0.0,384.47210526315786,0.2063433890392625,0.82,nominal,6118.900175163807,nan,pitch_program,12.37,0.0,0.0
1.29,125.11326898016989,0.0,26.39895844778855,108.77836273490468,0.0,2.987123229241743,108.81936916042646,17.74192188654618,0.0,6.3099413210615705,0.0,0.0,1.2045798209017475,0.0,4.736957976368504,0.0,7234.649813714614,0.31987572045952367,108.81936916042646,2.0335750447401635,1.2218984170518075,101008.26705593523,287.97840677008935,0.0,0.0,0.0,384.4397368421052,0.2063260171425594,0.82,nominal,6179.712898098593,nan,pitch_program,12.355,0.0,0.0
1.3199999999999998,128.39322527069072,0.0,26.48655813316977,109.33187635069395,0.0,2.9199895127072852,109.37086232227371,17.735732106031904,0.0,6.274564304565855,0.0,0.0,1.1792339206546778,0.0,4.74469653770911,0.0,7308.104092197802,0.32149715844954885,109.37086232227371,2.033245775530578,1.221888135017763,101007.21737696388,287.9778373721344,0.0,0.0,0.0,384.4073684210526,0.20630864524585632,0.82,nominal,6240.737167875524,nan,pitch_program,12.34,0.0,0.0
1.3499999999999999,131.68976344301828,0.0,26.572193281528932,109.8846057442519,0.0,2.85450494530545,109.9216756515859,17.729542846674526,0.0,6.2399486354418965,0.0,0.0,1.1538556725622755,0.0,4.751893865899287,0.0,7381.838845404276,0.3231165941029353,109.9216756515859,2.0329326197089297,1.2218780836357042,101006.1912469484,287.97728074367006,0.0,0.0,0.0,384.375,0.20629127334915326,0.82,nominal,6301.971588270531,nan,pitch_program,12.325,0.0,0.0
1.38,135.00285989633085,0.0,26.655913481190762,110.43654844375195,0.0,2.7906733220609357,110.47180223821658,17.72335410847405,0.0,6.206093761438631,0.0,0.0,1.1284958329422599,0.0,4.7585676892818185,0.0,7455.851767293472,0.3247340071753708,110.47180223821658,2.0326354965743696,1.2218682570809254,101005.18807111883,287.97673656237225,0.0,0.0,0.0,384.34263157894736,0.20627390145245017,0.82,nominal,6363.414758820136,nan,pitch_program,12.31,0.0,0.0
1.41,138.33249095371647,0.0,26.737768433735457,110.98770191285433,0.0,2.7284984181564864,111.02123526386514,17.71716589143048,0.0,6.172997838160965,0.0,0.0,1.1031974732632803,0.0,4.764734049869777,0.0,7530.140546313528,0.3263493776967519,111.02123526386514,2.0323543069633345,1.221858649515671,101004.20725338042,287.9762045051807,0.0,0.0,0.0,384.3102631578947,0.20625652955574708,0.82,nominal,6425.065276567938,nan,pitch_program,12.295,0.0,0.0
1.44,141.67863286072188,0.0,26.817807951838557,111.53806356684666,0.0,2.667983936769958,111.56996801347927,17.710978195543806,0.0,6.140657924949508,0.0,0.0,1.0779971356685283,0.0,4.770407536376264,0.0,7604.702867302146,0.3279626860046977,111.56996801347928,2.032088933409755,1.2218492550893747,101003.24819633795,287.97568424831303,0.0,0.0,0.0,384.2778947368421,0.206239157659044,0.82,nominal,6486.921737615291,nan,pitch_program,12.28,0.0,0.0
1.47,145.04126178431864,0.0,26.89608195576891,112.08763078655876,0.0,2.6091334643451054,112.11799388491876,17.704791020814035,0.0,6.109070154304922,0.0,0.0,1.0529257148220363,0.0,4.775601485836148,0.0,7679.536413195708,0.32957391277294823,112.11799388491876,2.031839240524624,1.22184006793907,101002.31030133725,287.9751754672875,0.0,0.0,0.0,384.24552631578945,0.2062217857623409,0.82,nominal,6548.982738500882,nan,pitch_program,12.265,0.0,0.0
1.5,148.4203538122282,0.0,26.97264046874376,112.63640093031889,0.0,2.5519504324949494,112.66530639706906,17.698604367241163,0.0,6.0782298776011245,0.0,0.0,1.02800924828023,0.0,4.780328157153973,0.0,7754.63886656402,0.3311830390352009,112.66530639706906,2.0316050754604156,1.2218310821899192,101001.39296851915,287.97467783695316,0.0,0.0,0.0,384.2131578947368,0.20620441386563781,0.82,nominal,6611.246877425531,nan,pitch_program,12.25,0.0,0.0
1.53,151.8158849525544,0.0,27.047533611314933,113.18437134420661,0.0,2.4964380857058024,113.21189919659074,17.692418234825194,0.0,6.048131788929547,0.0,0.0,1.0032696454570469,0.0,4.7845988790008365,0.0,7830.007910989054,0.3327900462049319,113.21189919659074,2.031386268351559,1.2218222919558746,101000.49559688655,287.9741910315264,0.0,0.0,0.0,384.1807894736842,0.20618704196893473,0.82,nominal,6673.712755338912,nan,pitch_program,12.235,0.0,0.0
1.56,155.22783113367996,0.0,27.12081159493457,113.73153937085146,0.0,2.442599453987925,113.75776606349194,17.686232623566127,0.0,6.0187700304442515,0.0,0.0,0.9787253042621552,0.0,4.788424175997711,0.0,7905.641232306955,0.3343949160917549,113.75776606349194,2.0311826327573748,1.2218136913404223,100999.61758438036,287.9737147246329,0.0,0.0,0.0,384.14842105263153,0.20616967007223164,0.82,nominal,6736.378976905545,nan,pitch_program,12.220000000000002,0.0,0.0
1.5899999999999999,158.65616820438956,0.0,27.192524714827755,114.27790235698654,0.0,2.3904373297728863,114.30290091568334,17.68004753346396,0.0,5.9901382826058995,0.0,0.0,0.9543916144724803,0.0,4.791813877049977,0.0,7981.536519729978,0.3359976309147847,114.30290091568332,2.030993966148646,1.2218052744374106,100998.75832796365,287.9732485893536,0.0,0.0,0.0,384.1160526315789,0.20615229817552855,0.82,nominal,6799.244151364926,nan,pitch_program,12.205000000000002,0.0,0.0
1.6199999999999999,162.10087193418727,0.0,27.262723342283294,114.82345765992396,0.0,2.3399542485179445,114.84729781264123,17.673862964518694,0.0,5.962229841517935,0.0,0.0,0.9302813879921037,0.0,4.794777208394031,0.0,8057.691466861074,0.3375981733133758,114.84729781264124,2.0308200504211866,1.2217970353319472,100997.91722371316,287.9727922982751,0.0,0.0,0.0,384.0836842105263,0.2061349262788255,0.82,nominal,6862.306893297356,nan,pitch_program,12.19,0.0,0.0
1.65,165.56191801378017,0.0,27.33145791645957,115.36820265309716,0.0,2.291152472542462,115.39095095829019,17.667678916730328,0.0,5.935037684911722,0.0,0.0,0.9064052372201905,0.0,4.7973228732328765,0.0,8134.1037726125305,0.33919652635556374,115.39095095829019,2.030660652407387,1.2217889681013612,100997.09366691731,287.97234552354297,0.0,0.0,0.0,384.0513157894737,0.2061175543821224,0.82,nominal,6925.565823305714,nan,pitch_program,12.175,0.0,0.0
1.68,169.0392820557042,0.0,27.39877893578923,115.91213473080128,0.0,2.2440339776553926,115.93385470320696,17.661495390098864,0.0,5.908554528384716,0.0,0.0,0.8827718999502941,0.0,4.799459119855149,0.0,8210.77114203927,0.3407926735445095,115.93385470320696,2.0305155243834787,1.2217810668161995,100996.2870521776,287.9719079369174,0.0,0.0,0.0,384.01894736842104,0.2061001824854193,0.82,nominal,6989.019568622808,nan,pitch_program,12.16,0.0,0.0
1.71,172.53293959507155,0.0,27.464736949055002,116.45525131224524,0.0,2.198600442192347,116.47600354623525,17.655312384624303,0.0,5.882772873432921,0.0,0.0,0.8593885128936336,0.0,4.801193800028174,0.0,8287.691287096299,0.3423865988232081,116.47600354623523,2.030384404580534,1.2217733255412673,100995.49677351482,287.9714792098311,0.0,0.0,0.0,383.9865789473684,0.20608281058871622,0.82,nominal,7052.666763652753,nan,pitch_program,12.145,0.0,0.0
1.74,176.04286609042188,0.0,27.52938254619936,116.99754984501064,0.0,2.1548532381452894,117.0173921355868,17.64912990030664,0.0,5.857685048493652,0.0,0.0,0.8362608446700608,0.0,4.802534419088762,0.0,8364.861927328398,0.34397828657768637,117.0173921355868,2.030267017697273,1.221765738336709,100994.72222447897,287.9710590134497,0.0,0.0,0.0,383.95421052631576,0.20606543869201313,0.82,nominal,7116.506050453533,nan,pitch_program,12.13,0.0,0.0
1.77,179.56903692466187,0.0,27.592766348922712,117.53902780799979,0.0,2.112793424111698,117.55801526949456,17.64294793714588,0.0,5.833283243955237,0.0,0.0,0.8133934969085196,0.0,4.803488178866433,0.0,8442.280790498742,0.34556772163888055,117.55801526949456,2.0301630754078923,1.2217582992590947,100993.96279826031,287.970647018732,0.0,0.0,0.0,383.9218421052632,0.20604806679531007,0.82,nominal,7180.536079167022,nan,pitch_program,12.115,0.0,0.0
1.7999999999999998,183.1114274060802,0.0,27.654939001117338,118.07968271394432,0.0,2.0724217398208022,118.09786789647578,17.63676649514202,0.0,5.809559541994276,0.0,0.0,0.7907900766633116,0.0,4.8040620144556705,0.0,8519.945613163027,0.3471548892833668,118.09786789647578,2.030072276863522,1.2217510023625464,100993.21788780381,287.9702428964927,0.0,0.0,0.0,383.8894736842105,0.20603069489860695,0.82,nominal,7244.755508402029,nan,pitch_program,12.1,0.0,0.0
1.8299999999999998,186.6700127694263,0.0,27.71595115917813,118.61951211153671,0.0,2.033738602026374,118.63694511525647,17.63058557429506,0.0,5.786505942012631,0.0,0.0,0.7684533430888775,0.0,4.804262625743964,0.0,8597.854141194373,0.34873977523309313,118.63694511525648,2.0299943091886656,1.221743841699865,100992.48688592434,287.96984631746534,0.0,0.0,0.0,383.85710526315785,0.20601332300190386,0.82,nominal,7309.163005575342,nan,pitch_program,12.085,0.0,0.0
1.8599999999999999,190.24476817704343,0.0,27.775853482225713,119.15851358723758,0.0,1.9967441015861798,119.17524217440089,17.624405174605005,0.0,5.764114382319267,0.0,0.0,0.7463853326116792,0.0,4.80409650445516,0.0,8676.004130263942,0.3503223656542436,119.1752421744009,2.0299288479723483,1.221736811323674,100991.76918542308,287.96945695236553,0.0,0.0,0.0,383.8247368421052,0.20599595110520078,0.82,nominal,7373.75724721502,nan,pitch_program,12.07,0.0,0.0
1.89,193.83566872004758,0.0,27.834696622272894,119.69668476680464,0.0,1.961438001572672,119.71275447168449,17.61822529607185,0.0,5.742376758592649,0.0,0.0,0.724587466245364,0.0,4.803569957342239,0.0,8754.393346281408,0.35190264715534597,119.71275447168448,2.0298755577527023,1.221729905287569,100991.06417920474,287.9690744719552,0.0,0.0,0.0,383.79236842105263,0.20597857920849771,0.82,nominal,7438.53691922972,nan,pitch_program,12.055,0.0,0.0
1.92,197.44268941954505,0.0,27.89253121436127,120.23402331658257,0.0,1.9278197362792335,120.24947755324389,17.612045938695594,0.0,5.721284939588122,0.0,0.0,0.7030606414237296,0.0,4.802689126079009,0.0,8833.019565799053,0.3534806067847238,120.24947755324389,2.0298340924946867,1.2217231176472714,100990.37126039523,287.9686985471066,0.0,0.0,0.0,383.76,0.20596120731179463,0.82,nominal,7503.50071714737,nan,pitch_program,12.040000000000001,0.0,0.0
1.95,201.0658052278827,0.0,27.949407866691395,120.77052694458801,0.0,1.8958884110041418,120.78540711253342,17.60586710247624,0.0,5.700830780495264,0.0,0.0,0.6818053103362008,0.0,4.801460004329159,0.0,8911.880576382668,0.35505623202737674,120.78540711253342,2.0298040960613832,1.2217164424617786,100989.68982245894,287.96832884886646,0.0,0.0,0.0,383.72763157894735,0.20594383541509154,0.82,nominal,7568.647346326109,nan,pitch_program,12.025,0.0,0.0
1.98,204.70499102992525,0.0,28.005377150766712,121.30619340141901,0.0,1.8656428025106075,121.3205389891136,17.599688787413786,0.0,5.681006134288339,0.0,0.0,0.6608215468236465,0.0,4.799888452398694,0.0,8990.974176952333,0.3566295108013676,121.3205389891136,2.029785202678932,1.2217098737945213,100989.01925931666,287.96796504852,0.0,0.0,0.0,383.6952631578947,0.20592646351838845,0.82,nominal,7633.975522140083,nan,pitch_program,12.01,0.0,0.0
2.01,208.36022164435568,0.0,28.060489591568956,121.8410204810137,0.0,1.8370813600747908,121.85486916729398,17.593510993508236,0.0,5.661802861360406,0.0,0.0,0.6401091035898663,0.0,4.797980209816566,0.0,9070.298178095376,0.35820043145377856,121.85486916729398,2.029777037394991,1.2217034057145073,100988.35896546229,287.96760681765477,0.0,0.0,0.0,383.6628947368421,0.20590909162168536,0.82,nominal,7699.483970142327,nan,pitch_program,11.995000000000001,0.0,0.0
2.04,212.0314718249941,0.0,28.11479565778031,122.37500602128034,0.0,1.810202207045141,122.38839377465001,17.587333720759585,0.0,5.643212837691297,0.0,0.0,0.6196674610731411,0.0,4.7957409061404945,0.0,9149.850402353977,0.359768982756297,122.38839377465001,2.02977921653086,1.2216970322974687,100987.70833607989,287.9672538282244,0.0,0.0,0.0,383.6305263157895,0.2058917197249823,0.82,nominal,7765.171426206767,nan,pitch_program,11.98,0.0,0.0
2.07,215.7187162621326,0.0,28.168345752065704,122.90814790461694,0.0,1.7850031428465276,122.9211090804308,17.581156969167836,0.0,5.6252279617643435,0.0,0.0,0.5994958691541207,0.0,4.79317607024321,0.0,9229.628684489266,0.36133515390047904,122.92110908043078,2.029791348127466,1.2216907476269985,100987.0667671594,287.9669057526115,0.0,0.0,0.0,383.5981578947368,0.20587434782827918,0.82,nominal,7831.036636651078,nan,pitch_program,11.965,0.0,0.0
2.1,219.4219295838827,0.0,28.221190201426847,123.44044405833658,0.0,1.7614816453714441,123.45301149387285,17.574980738732986,0.0,5.607840160415254,0.0,0.0,0.579593382751216,0.0,4.790291138297303,0.0,9309.630871723715,0.3628989344927367,123.45301149387286,2.0298130323853916,1.2216845457956782,100986.43365561178,287.9665622636907,0.0,0.0,0.0,383.56578947368416,0.2058569759315761,0.82,nominal,7897.078358341973,nan,pitch_program,11.95,0.0,0.0
2.13,223.14108635753306,0.0,28.27337924763809,123.97189245501217,0.0,1.7396348737081524,123.98409756243308,17.56880502945504,0.0,5.591041393769081,0.0,0.0,0.5599588922170259,0.0,4.787091460644618,0.0,9389.854823963327,0.3644603145490849,123.98409756243308,2.029843862098953,1.2216784209061933,100985.80839938282,287.96622303489033,0.0,0.0,0.0,383.5334210526315,0.20583960403487297,0.82,nominal,7963.295358784312,nan,pitch_program,11.935,0.0,0.0
2.16,226.87616109091562,0.0,28.324963037772953,124.50249111275224,0.0,1.7194596711620813,124.51436396995209,17.562629841333994,0.0,5.574823659399951,0.0,0.0,0.5405911492469937,0.0,4.78358230771075,0.0,9470.29841400122,0.3660192844896856,124.51436396995209,2.029883423084604,1.2216723670724503,100985.19039756693,287.96588774025446,0.0,0.0,0.0,383.50105263157894,0.20582223213816994,0.82,nominal,8029.686416195227,nan,pitch_program,11.92,0.0,0.0
2.19,230.62712823377817,0.0,28.37599161482893,125.03223809541797,0.0,1.7009525685325626,125.04380753475833,17.556455174369848,0.0,5.559178995827229,0.0,0.0,0.5214887889974236,0.0,4.779768875100751,0.0,9550.95952770345,0.3675758351332149,125.04380753475834,2.029931294603615,1.2216663784206647,100984.57905051824,287.96555605450357,0.0,0.0,0.0,383.4686842105263,0.20580486024146685,0.82,nominal,8096.250319564405,nan,pitch_program,11.905,0.0,0.0
2.2199999999999998,234.39396217916186,0.0,28.426514908457282,125.56113151278987,0.0,1.6841097876117537,125.57242520772164,17.550281028562605,0.0,5.544099485446899,0.0,0.0,0.5026503489124313,0.0,4.775656287994128,0.0,9631.836064178606,0.36912995769108137,125.57242520772165,2.0299870497792343,1.2216604490904548,100983.97375996207,287.965227653095,0.0,0.0,0.0,383.43631578947367,0.20578748834476374,0.82,nominal,8162.985868701444,nan,pitch_program,11.890000000000002,0.0,0.0
2.25,238.1766372647826,0.0,28.476582725803592,126.08916952069168,0.0,1.6689272448769528,126.10021407026404,17.54410740391226,0.0,5.529577256981549,0.0,0.0,0.4840742847698247,0.0,4.7712496049392925,0.0,9712.92593593181,0.3706816437615194,126.10021407026404,2.030050256008377,1.221654573235908,100983.3739291038,287.96490221228225,0.0,0.0,0.0,383.40394736842103,0.20577011644806065,0.82,nominal,8229.89187427121,nan,pitch_program,11.875,0.0,0.0
2.28,241.97512777441494,0.0,28.526244742464126,126.61635032107746,0.0,1.655400555351132,126.6271713323348,17.53793430041882,0.0,5.515604487520132,0.0,0.0,0.46575898435564095,0.0,4.766553821133105,0.0,9794.227069004215,0.372230885323575,126.6271713323348,2.0301204753678066,1.2216487450266402,100982.77896273685,287.96457940917395,0.0,0.0,0.0,383.3715789473684,0.20575274455135756,0.82,nominal,8296.96715781792,nan,pitch_program,11.86,0.0,0.0
2.31,245.78940793927757,0.0,28.575550493562414,127.14267216208741,0.0,1.6435250366096454,127.15329433035542,17.53176171808228,0.0,5.502173404209065,0.0,0.0,0.4477027790856893,0.0,4.761573871259652,0.0,9875.737403098738,0.3737776747310038,127.15329433035544,2.0301972650149147,1.2216429586488466,100982.18826734995,287.96425892179184,0.0,0.0,0.0,383.3392105263158,0.2057353726546545,0.82,nominal,8364.210551778693,nan,pitch_program,11.845,0.0,0.0
2.34,249.61945193941986,0.0,28.62454936494983,127.66813333807688,0.0,1.6332957129138614,127.67858052514056,17.52558965690264,0.0,5.489276285647199,0.0,0.0,0.4299039538774379,0.0,4.756314631951697,0.0,9957.454891692663,0.37532200470609767,127.67858052514055,2.030280177583143,1.2216372083063243,100981.60125123146,287.96394042912783,0.0,0.0,0.0,383.3068421052632,0.2057180007579514,0.82,nominal,8431.620899487187,nan,pitch_program,11.83,0.0,0.0
2.37,253.46523390510853,0.0,28.673290584533476,128.19273218962235,0.0,1.6247073194548978,128.20302749979865,17.5194181168799,0.0,5.47690546302807,0.0,0.0,0.4123607555728962,0.0,4.750780923927632,0.0,10039.377502137942,0.3768638683334511,128.20302749979865,2.0303687615718577,1.2216314882214934,100981.01732457356,287.9636236112005,0.0,0.0,0.0,383.2744736842105,0.2057006288612483,0.82,nominal,8499.197055167879,nan,pitch_program,11.815,0.0,0.0
2.4,257.32672791821375,0.0,28.72182321373425,128.71646710350757,0.0,1.617754306692533,128.72663295761748,17.513247098014062,0.0,5.465053321068859,0.0,0.0,0.39507140004913943,0.0,4.744977513851652,0.0,10121.503215749612,0.3784032590536824,128.72663295761745,2.030462561730854,1.2216257926363991,100980.43589957447,287.96330814911073,0.0,0.0,0.0,383.24210526315784,0.2056832569645452,0.82,nominal,8566.937883921551,nan,pitch_program,11.8,0.0,0.0
2.4299999999999997,261.2039080135945,0.0,28.77019613907754,129.23933651269277,0.0,1.612430844776332,129.24939471993758,17.507076600305126,0.0,5.4537122987579565,0.0,0.0,0.378034078264331,0.0,4.738909115956174,0.0,10203.830027882943,0.37994017065712055,129.24939471993758,2.030561119439324,1.2216201158136917,100979.85639053844,287.962993725096,0.0,0.0,0.0,383.20973684210526,0.20566588506784214,0.82,nominal,8634.8422617024,nan,pitch_program,11.785,0.0,0.0
2.46,265.09674818048256,0.0,28.818458063918666,129.76133889626897,0.0,1.6087308280374835,129.7713107240173,17.500906623753092,0.0,5.442874889948619,0.0,0.0,0.3612469613882676,0.0,4.7325803934602435,0.0,10286.355947999844,0.3814745972774646,129.7713107240173,2.0306639730792293,1.2216144520376009,100979.27821397522,287.9626800225845,0.0,0.0,0.0,383.1773684210526,0.20564851317113905,0.82,nominal,8702.909075287249,nan,pitch_program,11.77,0.0,0.0
2.4899999999999998,269.00522236386456,0.0,28.8666575003049,130.28247277939948,0.0,1.6066478795411556,130.2923790208921,17.494737168357958,0.0,5.432533643823051,0.0,0.0,0.34470820512136496,0.0,4.725995959813741,0.0,10369.078999724954,0.38300653338542795,130.2923790208921,2.0307706584030916,1.22160879561489,100978.7007886974,287.962366726248,0.0,0.0,0.0,383.145,0.20563114127443596,0.82,nominal,8771.137222237267,nan,pitch_program,11.755,0.0,0.0
2.52,272.92930446586206,0.0,28.914842760975613,130.80273673325013,0.0,1.6061753556904372,130.81259777323118,17.488568234119725,0.0,5.422681165246357,0.0,0.0,0.32841595336576246,0.0,4.719160379791565,0.0,10451.997220891826,0.38453597378237375,130.81259777323123,2.030880708895993,1.2216031408757928,100978.12353591606,287.9620535220536,0.0,0.0,0.0,383.11263157894734,0.20561376937773287,0.82,nominal,8839.525610852505,nan,pitch_program,11.74,0.0,0.0
2.55,276.86896834710933,0.0,28.963061951501828,131.32212937490934,0.0,1.607306350873822,131.33196525319335,17.482399821038392,0.0,5.413310115028185,0.0,0.0,0.3123683413020337,0.0,4.712078170459875,0.0,10535.108663579551,0.3860629135939474,131.33196525319335,2.0309152956630245,1.2215974821749325,100977.54587933456,287.9617400973152,0.0,0.0,0.0,383.0802631578947,0.20559639748102979,0.82,nominal,8908.07316011969,nan,pitch_program,11.725000000000001,0.0,0.0
2.58,280.8241879861826,0.0,29.01136129466209,131.84065463577616,0.0,1.6099781053420916,131.8504844294843,17.47623192911396,0.0,5.406459335853511,0.0,0.0,0.22835930609459273,0.0,4.706824113590816,0.0,10618.412135012615,0.3875873617468195,131.8504844294843,2.0310542118615476,1.221591814087966,100976.96726522245,287.96142615158465,0.0,0.0,0.0,383.0478947368421,0.20557902558432672,0.82,nominal,8976.779388385141,nan,pitch_program,11.71,0.0,0.0
2.61,284.79493618156954,0.0,29.059790589071433,132.3582731795639,0.0,1.6143098136446898,132.36811729132697,17.470064558346433,0.0,5.403878215092541,0.0,0.0,0.08603735871351197,0.0,4.70510396348432,0.0,10701.899821093799,0.3891092067233004,132.36811729132697,2.031532287777852,1.2215861307709948,100976.38709702237,287.961111361171,0.0,0.0,0.0,383.0155263157895,0.20556165368762364,0.82,nominal,9045.638433005564,nan,pitch_program,11.695,0.0,0.0
2.6399999999999997,288.7811832905853,0.0,29.10840943169195,132.8749036338593,0.0,1.6206280873505006,132.88478637942308,17.463897708735804,0.0,5.403416108886192,0.0,0.0,0.01540354021169732,0.0,4.704634449469814,0.0,10785.557399106974,0.39062822108915407,132.88478637942308,2.032044403001788,1.2215804252303428,100975.80466080745,287.96079533869397,0.0,0.0,0.0,382.9831578947368,0.20554428179092052,0.82,nominal,9114.639208905755,nan,pitch_program,11.68,0.0,0.0
2.67,292.78289884469586,0.0,29.15727893454621,133.39051847035228,0.0,1.6289834284752573,133.40046478479616,17.457731380282077,0.0,5.404731910894073,0.0,0.0,-0.043860066931239984,0.0,4.705062721432047,0.0,10869.378588372203,0.39214432601825305,133.40046478479616,2.0326009994652843,1.2215746902946403,100975.21922451457,287.9604776869254,0.0,0.0,0.0,382.95078947368415,0.20552690989421743,0.82,nominal,9183.777231863287,nan,pitch_program,11.665,0.0,0.0
2.6999999999999997,296.80005167914277,0.0,29.206461648463026,133.9050944815629,0.0,1.6394237972272734,133.91512998352056,17.45156557298525,0.0,5.408356938699502,0.0,0.0,-0.12083426022131873,0.0,4.70690960488133,0.0,10953.357757885604,0.39365745558514004,133.91512998352053,2.0333047111484013,1.2215689186237781,100974.6300388586,287.96015799928495,0.0,0.0,0.0,382.9184210526315,0.20550953799751434,0.82,nominal,9253.048566376503,nan,pitch_program,11.65,0.0,0.0
2.73,300.8326094817928,0.0,29.25602404848816,134.41859342166876,0.0,1.6520800008378793,134.4287455337922,17.445400286845324,0.0,5.413766406319191,0.0,0.0,-0.18031558745687606,0.0,4.709604554535741,0.0,11037.486932106365,0.39516750297285413,134.42874553379218,2.0340864298754884,1.2215631024172433,100974.0363075587,287.9598358436848,0.0,0.0,0.0,382.88605263157893,0.20549216610081128,0.82,nominal,9322.447401129637,nan,pitch_program,11.635,0.0,0.0
2.76,304.88053917808367,0.0,29.30603462150901,134.93098987636083,0.0,1.6670191006949837,134.94128716481353,17.4392355218623,0.0,5.420624986994442,0.0,0.0,-0.2286193561147137,0.0,4.712794267162569,0.0,11121.76005005402,0.39667439715564073,134.94128716481353,2.0349202965884876,1.2215572336385483,100973.43721024902,287.95951077496017,0.0,0.0,0.0,382.8536842105263,0.2054747942041082,0.82,nominal,9391.969515269355,nan,pitch_program,11.620000000000001,0.0,0.0
2.79,308.9438071373137,0.0,29.35656303814718,135.44226530766684,0.0,1.6842805546056625,135.45273726528762,17.433071278036177,0.0,5.428980784755044,0.0,0.0,-0.278526592513773,0.0,4.716520806416602,0.0,11206.172092612129,0.3981780866938021,135.45273726528762,2.035833097058444,1.2215513041124184,100972.83191239991,287.959182340252,0.0,0.0,0.0,382.82131578947366,0.2054574223074051,0.82,nominal,9461.611555247564,nan,pitch_program,11.605,0.0,0.0
2.82,313.02237909552997,0.0,29.407680698132072,135.95239860721,0.0,1.7039219994963797,135.9630760068118,17.426907555366956,0.0,5.438657883864417,0.0,0.0,-0.3225699710792137,0.0,4.720594584957798,0.0,11290.717628664277,0.39967851364251916,135.96307600681178,2.03680854318616,1.2215453054607959,100972.21955878517,287.9588500754621,0.0,0.0,0.0,382.788947368421,0.205440050410702,0.82,nominal,9531.369850535379,nan,pitch_program,11.59,0.0,0.0
2.85,317.1162202699497,0.0,29.459460229661712,136.46137248065622,0.0,1.7259843843212883,136.47228730185233,17.420744353854634,0.0,5.449476176042671,0.0,0.0,-0.360609740346466,0.0,4.724829002897607,0.0,11375.391802147373,0.401175631063819,136.4722873018523,2.0378317370205545,1.221539229161598,100971.5992794806,287.95851350850717,0.0,0.0,0.0,382.7565789473684,0.20542267851399892,0.82,nominal,9601.241216360873,nan,pitch_program,11.575,0.0,0.0
2.88,321.2252954717453,0.0,29.511975030197526,136.96917339318756,0.0,1.7504933511938208,136.98035876353094,17.414581673499214,0.0,5.461379461792565,0.0,0.0,-0.39677619309020573,0.0,4.729167836500179,0.0,11460.190337637818,0.40266940290638176,136.980358763531,2.0389061115926115,1.2215330666026099,100970.97019536546,287.9581721623037,0.0,0.0,0.0,382.7242105263158,0.20540530661729586,0.82,nominal,9671.222953422712,nan,pitch_program,11.56,0.0,0.0
2.9099999999999997,325.3495691239165,0.0,29.565299274020415,137.47578840570625,0.0,1.7774747940963282,137.48727873666772,17.408419514300697,0.0,5.474273406058561,0.0,0.0,-0.429798144013789,0.0,4.733516573683791,0.0,11545.109053351965,0.40415979527804713,137.48727873666772,2.0400253636871852,1.221526809080604,100970.33141803298,287.95782555471885,0.0,0.0,0.0,382.69184210526316,0.20538793472059277,0.82,nominal,9741.312449332654,nan,pitch_program,11.545,0.0,0.0
2.94,329.48900531664435,0.0,29.619507701893106,137.98120642426076,0.0,1.8069475957563519,137.99303745446096,17.40225787625908,0.0,5.488058931153271,0.0,0.0,-0.45951750537374625,0.0,4.737778831322851,0.0,11630.144058746517,0.40564677984509095,137.99303745446096,2.04118186362845,1.2215204478260302,100969.6820523108,287.9574731999377,0.0,0.0,0.0,382.65947368421047,0.20537056282388966,0.82,nominal,9811.507338158905,nan,pitch_program,11.53,0.0,0.0
2.9699999999999998,333.6435678673209,0.0,29.674675388843042,138.48541835588418,0.0,1.8389228983311612,138.4976271805054,17.396096759374363,0.0,5.502675722834904,0.0,0.0,-0.4872263920302462,0.0,4.741900111395124,0.0,11715.291784754198,0.40713033424866835,138.49762718050542,2.042373546531249,1.221513974030271,100969.0211990436,287.9571146099725,0.0,0.0,0.0,382.62710526315783,0.20535319092718657,0.82,nominal,9881.805522717132,nan,pitch_program,11.515,0.0,0.0
3.0,337.8132203510218,0.0,29.730877654595936,138.98841612336415,0.0,1.873408858429863,139.00104128110794,17.389936163646546,0.0,5.518060437061577,0.0,0.0,-0.5128238106369545,0.0,4.745823986242103,0.0,11800.548832727574,0.4086104393773767,139.00104128110794,2.0435962072052716,1.2215073788561623,100968.347956167,287.9567492952451,0.0,0.0,0.0,382.59473684210525,0.2053358190304835,0.82,nominal,9952.205049967579,nan,pitch_program,11.5,0.0,0.0
3.03,341.99792613663885,0.0,29.788189934216142,139.49019285390162,0.0,1.9104093206735182,139.50327439236392,17.38377608907563,0.0,5.534151648650636,0.0,0.0,-0.5363737231607354,0.0,4.749497573616373,0.0,11885.912006530825,0.41008707985779713,139.50327439236395,2.0448452157579,1.2215006534531747,100967.6614202579,287.9563767654276,0.0,0.0,0.0,382.5623684210526,0.20531844713378042,0.82,nominal,10022.704135913971,nan,pitch_program,11.485,0.0,0.0
3.06,346.19764842285826,0.0,29.846687646489695,139.9907428739807,0.0,1.9499237424517617,140.00432240831122,17.37761653566162,0.0,5.550901554840646,0.0,0.0,-0.5583302103101209,0.0,4.752883242581819,0.0,11971.378314631631,0.41156024401905084,140.00432240831125,2.046117615749643,1.2214937889728705,100966.96068811216,287.9559965302978,0.0,0.0,0.0,382.53,0.20530107523707733,0.82,nominal,10093.301165913626,nan,pitch_program,11.47,0.0,0.0
3.09,350.4123502642362,0.0,29.906446107747936,140.49006137926477,0.0,1.9919487086079726,140.50418216554021,17.371457503404507,0.0,5.568264677244828,0.0,0.0,-0.5787707512353412,0.0,4.755946667920966,0.0,12056.94491998087,0.41302992296524776,140.50418216554021,2.0474099975787334,1.2214867765790227,100966.2448577781,287.9556081002996,0.0,0.0,0.0,382.49763157894733,0.20528370334037424,0.82,nominal,10163.9946527262,nan,pitch_program,11.455,0.0,0.0
3.12,354.6419945970167,0.0,29.96754044178056,140.98814442601793,0.0,2.0364778010875115,141.00285142693397,17.365298992304297,0.0,5.586198835405866,0.0,0.0,-0.5978052769154151,0.0,4.758657840285422,0.0,12142.609140242972,0.4144961105272378,141.00285142693394,2.048718968973594,1.2214796074581904,100965.51302963612,287.9552109871284,0.0,0.0,0.0,382.4652631578947,0.20526633144367115,0.82,nominal,10234.783235736393,nan,pitch_program,11.44,0.0,0.0
3.15,358.88654426328765,0.0,30.030045495320657,141.48498887569846,0.0,2.0835017846698998,141.50032882238557,17.359141002360985,0.0,5.604667646540096,0.0,0.0,-0.6156270431382752,0.0,4.760993473719866,0.0,12228.36844050861,0.41595880308790695,141.50032882238557,2.050041682423441,1.2214722728296472,100964.76430741252,287.9548047042804,0.0,0.0,0.0,382.4328947368421,0.2052489595469681,0.82,nominal,10305.665674078307,nan,pitch_program,11.425,0.0,0.0
3.1799999999999997,363.14596203122545,0.0,30.0940357702597,141.98059226459344,0.0,2.1330091646348435,141.9966137198389,17.352983533574577,0.0,5.623637194180546,0.0,0.0,-0.6323182604576051,0.0,4.762933433683788,0.0,12314.220413671366,0.4174179992027212,141.9966137198389,2.051375232561829,1.2214647639533456,100963.99779899266,287.9543887674933,0.0,0.0,0.0,382.4005263157895,0.205231587650265,0.82,nominal,10376.64082983699,nan,pitch_program,11.410000000000002,0.0,0.0
3.21,367.4202106142391,0.0,30.15958535863961,142.4749527671225,0.0,2.1849862793302908,142.49170618332369,17.34682658594507,0.0,5.643076285983602,0.0,0.0,-0.6479697329840918,0.0,4.764460946927821,0.0,12400.16277545955,0.4188736994760076,142.49170618332369,2.0527168282576302,1.221457072137545,100963.21261720004,287.9539626951688,0.0,0.0,0.0,382.3681578947368,0.20521421575356186,0.82,nominal,10447.707663274627,nan,pitch_program,11.395000000000001,0.0,0.0
3.2399999999999998,371.7092526885503,0.0,30.226767883561724,142.9680691437049,0.0,2.2394174974037733,142.98560691694414,17.340670159472463,0.0,5.662956690536333,0.0,0.0,-0.6626801584062407,0.0,4.765562749455496,0.0,12486.193356843349,0.42032590639596495,142.98560691694416,2.05406388817702,1.2214491887457664,100962.40788050639,287.95352600875685,0.0,0.0,0.0,382.33578947368414,0.20519684385685877,0.82,nominal,10518.865225968762,nan,pitch_program,11.38,0.0,0.0
3.27,376.013050908907,0.0,30.295656447631956,143.45994067855756,0.0,2.296285469007777,143.47831719967456,17.33451425415676,0.0,5.6832520609986945,0.0,0.0,-0.676512355818998,0.0,4.766227901632749,0.0,12572.310094607425,0.4217746241426806,143.47831719967454,2.0554138705890526,1.221441105202839,100961.5827136492,287.95307823309037,0.0,0.0,0.0,382.30342105263156,0.2051794719601557,0.82,nominal,10590.112652527383,nan,pitch_program,11.365,0.0,0.0
3.3,380.3315679232979,0.0,30.366323584861483,143.95056714636235,0.0,2.3555712409842995,143.96983884699853,17.328358869997952,0.0,5.703937957006359,0.0,0.0,-0.6895298744120776,0.0,4.766447758163646,0.0,12658.511026394219,0.4232198584750709,143.96983884699853,2.056764339198107,1.2214328130005625,100960.73624820997,287.95261889669837,0.0,0.0,0.0,382.2710526315789,0.20516210006345262,0.82,nominal,10661.449155998846,nan,pitch_program,11.35,0.0,0.0
3.33,384.664766386528,0.0,30.438841217041574,144.43994877433846,0.0,2.41725440600302,144.46017416851214,17.32220400699605,0.0,5.724991664208695,0.0,0.0,-0.7017902479744271,0.0,4.76621572333297,0.0,12744.79428488169,0.4246616166059708,144.46017416851214,2.0581129619236753,1.2214243037028305,100959.86762313769,287.9521475320892,0.0,0.0,0.0,382.2386842105263,0.20514472816674953,0.82,nominal,10732.874022619531,nan,pitch_program,11.335,0.0,0.0
3.36,389.01260897275114,0.0,30.513280614256978,144.9280862074367,0.0,2.4813132405134004,144.94932592857324,17.31604966515105,0.0,5.746391810972794,0.0,0.0,-0.7133382337627722,0.0,4.7655268092115195,0.0,12831.158092334243,0.42609990708619766,144.94932592857324,2.059457466305919,1.2214155689502708,100958.97598522258,287.9516636760073,0.0,0.0,0.0,382.20631578947365,0.20512735627004644,0.82,nominal,10804.38660690968,nan,pitch_program,11.32,0.0,0.0
3.3899999999999997,393.3750583872373,0.0,30.58971235832475,145.4149804828724,0.0,2.54772480225909,145.4372973157237,17.309895844462947,0.0,5.768118302580844,0.0,0.0,-0.7242163956130241,0.0,4.764377528565892,0.0,12917.600756559415,0.4275347397144123,145.43729731572367,2.060795660478188,1.2214066004645547,100958.06048953632,287.9511668696709,0.0,0.0,0.0,382.173947368421,0.20510998437334335,0.82,nominal,10875.98632794987,nan,pitch_program,11.305,0.0,0.0
3.42,397.75207737737065,0.0,30.66820630934811,145.9006330044446,0.0,2.616465034112049,145.92409191210461,17.303742544931747,0.0,5.790152144480323,0.0,0.0,-0.7344614057008658,0.0,4.762765675200904,0.0,13004.120666742438,0.4289661254469735,145.92409191210461,2.0621254206559247,1.2213973900523178,100957.12029983272,287.9506566589892,0.0,0.0,0.0,382.14157894736843,0.2050926124766403,0.82,nominal,10947.672665589746,nan,pitch_program,11.29,0.0,0.0
3.4499999999999997,402.143628742991,0.0,30.748831574919205,146.3850455206771,0.0,2.687508852369834,146.4097136665538,17.297589766557447,0.0,5.8124752844911285,0.0,0.0,-0.7441046764396051,0.0,4.760690130245333,0.0,13090.716289820166,0.43039407631862486,146.4097136665538,2.063444681313456,1.2213879296087964,100956.15458891907,287.950132594763,0.0,0.0,0.0,382.1092105263158,0.2050752405799372,0.82,nominal,11019.445157125316,nan,pitch_program,11.275,0.0,0.0
3.48,406.5496753461799,0.0,30.83165648158423,146.8682201062984,0.0,2.7608302221675074,146.8941668709406,17.29143750934005,0.0,5.835070532099247,0.0,0.0,-0.7531749300318207,0.0,4.75815075130405,0.0,13177.3861673308,0.43181860537270933,146.8941668709406,2.0647514388338473,1.2213782111211788,100955.16253899866,287.9495942328697,0.0,0.0,0.0,382.07684210526315,0.2050578686832341,0.82,nominal,11091.303394389,nan,pitch_program,11.26,0.0,0.0
3.51,410.97018012052644,0.0,30.91674854848247,147.35015914488426,0.0,2.8364022299414,147.37745613774428,17.28528577327955,0.0,5.857921445228622,0.0,0.0,-0.7616971144088228,0.0,4.755148230850465,0.0,13264.128912394768,0.43323972659504645,147.37745613774425,2.066043743838564,1.221368226671705,100954.14334198744,287.9490411344348,0.0,0.0,0.0,382.04447368421046,0.205040496786531,0.82,nominal,11163.247020969344,nan,pitch_program,11.245000000000001,0.0,0.0
3.54,415.40510607994497,0.0,31.004174462863617,147.83086531395028,0.0,2.9141971460382265,147.85958638004263,17.279134558375954,0.0,5.881012250432716,0.0,0.0,-0.7696935172208069,0.0,4.751683992438926,0.0,13350.943207043858,0.434657454854903,147.85958638004263,2.067319699379622,1.2213579684405607,100953.09619980978,287.9484728659914,0.0,0.0,0.0,382.0121052631579,0.20502312488982793,0.82,nominal,11235.275729734885,nan,pitch_program,11.23,0.0,0.0
3.57,419.85441632709137,0.0,31.094000057321605,148.31034157154693,0.0,2.994186481932919,148.34056279304562,17.27298386462926,0.0,5.904327777313724,0.0,0.0,-0.7771842400917064,0.0,4.747760103709161,0.0,13437.82779975199,0.43607180585051114,148.34056279304562,2.068577459745026,1.2213474287085457,100952.02032467113,287.94788899962737,0.0,0.0,0.0,381.97973684210524,0.20500575299312485,0.82,nominal,11307.389260540887,nan,pitch_program,11.215,0.0,0.0
3.5999999999999996,424.31807406141354,0.0,31.186290288610973,148.78859114407246,0.0,3.0763410429789713,148.8203908369101,17.266833692039466,0.0,5.92785339323,0.0,0.0,-0.7841872082264453,0.0,4.74337919182257,0.0,13524.781503127442,0.4374827960583603,148.8203908369101,2.0698152273283683,1.2213365998595815,100950.91493931442,287.947289113124,0.0,0.0,0.0,381.9473684210526,0.20498838109642176,0.82,nominal,11379.587398084142,nan,pitch_program,11.2,0.0,0.0
3.63,428.79604258687624,0.0,31.281109217886527,149.26561751542377,0.0,3.1606309758517552,149.29907622094083,17.260684040606574,0.0,5.951574955098646,0.0,0.0,-0.7907187402498284,0.0,4.73854437840775,0.0,13611.803191791021,0.4388904426865691,149.29907622094086,2.071031252005402,1.2213254743830322,100949.77927725714,287.9466727900837,0.0,0.0,0.0,381.91499999999996,0.20497100919971867,0.82,nominal,11451.869969924735,nan,pitch_program,11.185,0.0,0.0
3.6599999999999997,433.28828531938706,0.0,31.378519992267172,149.7414244170265,0.0,3.2470258126881566,149.77662488876,17.25453491033058,0.0,5.97547876476316,0.0,0.0,-0.7967936670409619,0.0,4.733259219657488,0.0,13698.891800370347,0.44029476363111014,149.77662488876,2.0722238297175357,1.2213140448758788,100948.61258301375,287.9460396200502,0.0,0.0,0.0,381.8826315789473,0.20495363730301558,0.82,nominal,11524.23684461633,nan,pitch_program,11.17,0.0,0.0
3.69,437.794765793949,0.0,31.478584827619315,150.2160158187318,0.0,3.3354945117381187,150.25304300443074,17.24838630121149,0.0,5.99955153116277,0.0,0.0,-0.8024255584577118,0.0,4.727527654845141,0.0,13786.046321612183,0.44169577743484456,150.25304300443076,2.073391301491911,1.2213023040447548,100947.41411230364,287.94538919862043,0.0,0.0,0.0,381.85026315789474,0.20493626540631252,0.82,nominal,11596.68792994543,nan,pitch_program,11.155,0.0,0.0
3.7199999999999998,442.31544767156197,0.0,31.581364992471897,150.6893959204313,0.0,3.4260054950860326,150.72833693939856,17.2422382132493,0.0,6.023780339118556,0.0,0.0,-0.8076269438945884,0.0,4.721353962823269,0.0,13873.265804591767,0.4430935032489652,150.72833693939856,2.0745320529561666,1.2212902447078364,100946.18313224458,287.9447211275489,0.0,0.0,0.0,381.8178947368421,0.20491889350960943,0.82,nominal,11669.223171261854,nan,pitch_program,11.14,0.0,0.0
3.75,446.8502947458892,0.0,31.686920792991952,151.16156914424076,0.0,3.5185266840017686,151.20251326011453,17.236090646444012,0.0,6.0481526214319,0.0,0.0,-0.8124094226949599,0.0,4.714742722953751,0.0,13960.5493529983,0.4444879607964496,151.20251326011456,2.0756445136823625,1.2212778597966198,100944.91892153428,287.94403501484555,0.0,0.0,0.0,381.78552631578947,0.20490152161290634,0.82,nominal,11741.84254988215,nan,pitch_program,11.125,0.0,0.0
3.78,451.3992709497053,0.0,31.795311558952722,151.6325401272023,0.0,3.613025532025649,151.67557871629396,17.229943600795625,0.0,6.072656135834321,0.0,0.0,-0.8167838258631495,0.0,4.707698781941455,0.0,14047.896123490782,0.44587917033738383,151.67557871629398,2.076727156932878,1.2212651423575762,100943.62077061969,287.9433304748668,0.0,0.0,0.0,381.7531578947368,0.20488414971620322,0.82,nominal,11814.546081560948,nan,pitch_program,11.11,0.0,0.0
3.81,455.962340361137,0.0,31.906595630639465,152.1023137143923,0.0,3.7094690562247554,152.14754022970763,17.223797076304137,0.0,6.097278944925094,0.0,0.0,-0.8207603156575167,0.0,4.700227224516834,0.0,14135.305324108418,0.447267152635858,152.14754022970763,2.077778499414577,1.2212520855536986,100942.28798185532,287.9426071284008,0.0,0.0,0.0,381.7207894736842,0.20486677781950016,0.82,nominal,11887.33381501646,nan,pitch_program,11.095,0.0,0.0
3.84,460.5394672097084,0.0,32.02083034664312,152.57089495237835,0.0,3.807823866788631,152.61840488345484,17.217651072969552,0.0,6.122009399025438,0.0,0.0,-0.8243484828096683,0.0,4.692333347811767,0.0,14222.77621272843,0.44865192892828104,152.61840488345484,2.0787971011528446,1.2212386826659458,100940.91986965074,287.9418646027468,0.0,0.0,0.0,381.68842105263155,0.20484940592279707,0.82,nominal,11960.205830503986,nan,pitch_program,11.080000000000002,0.0,0.0
3.8699999999999997,465.13061588219733,0.0,32.13807203249856,153.03828908296424,0.0,3.908056195181277,153.08817991166276,17.21150559079187,0.0,6.146836121576327,0.0,0.0,-0.8275574313112656,0.0,4.684022638955168,0.0,14310.308095563194,0.45003352089295295,153.08817991166276,2.079781565470252,1.2212249270945783,100939.51576060738,287.9411025317887,0.0,0.0,0.0,381.6560526315789,0.20483203402609398,0.82,nominal,12033.162238430314,nan,pitch_program,11.065000000000001,0.0,0.0
3.9,469.73575092831237,0.0,32.25837599012977,153.50450153716807,0.0,4.010131921040161,153.55687268956274,17.205360629771086,0.0,6.171747996474815,0.0,0.0,-0.8303958430314349,0.0,4.675300755195236,0.0,14397.900325689789,0.45141195062074896,153.55687268956277,2.0807305389878303,1.2212108123604148,100938.0749936471,287.94032055606414,0.0,0.0,0.0,381.6236842105263,0.2048146621293909,0.82,nominal,12106.203178002896,nan,pitch_program,11.05,0.0,0.0
3.9299999999999997,474.35483706619425,0.0,32.38179648806821,153.96953792939559,0.0,4.114016597947926,154.0244907239098,17.199216189907204,0.0,6.1967341572734576,0.0,0.0,-0.8328720398207482,0.0,4.666173506411486,0.0,14485.552301607036,0.4527872405868163,154.02449072390982,2.0816427117007392,1.2211963321059822,100936.59692012974,287.93951832282755,0.0,0.0,0.0,381.59131578947364,0.2047972902326878,0.82,nominal,12179.328815909601,nan,pitch_program,11.035,0.0,0.0
3.96,478.9878391877473,0.0,32.508386752414864,154.43340405176838,0.0,4.219675478221679,154.49104164370908,17.193072271200222,0.0,6.221783977803197,0.0,0.0,-0.8349940309584681,0.0,4.6566468395100635,0.0,14573.263465815238,0.45415941362317774,154.4910416437091,2.0825168170632136,1.221181480096587,100935.08090396295,287.9386954861093,0.0,0.0,0.0,381.55894736842106,0.20477991833598475,0.82,nominal,12252.539345024697,nan,pitch_program,11.02,0.0,0.0
