time_s,x_m,y_m,altitude_m,vx_mps,vy_mps,vz_mps,speed_mps,mass_kg,roll_deg,pitch_deg,yaw_deg,p_dps,q_dps,r_dps,alpha_deg,beta_deg,qbar_pa,mach,airspeed_mps,load_factor_g,density_kgpm3,pressure_pa,temperature_k,wind_x_mps,wind_y_mps,wind_z_mps,thrust_n,mass_flow_kgps,propulsion_throttle_actual,propulsion_health,energy_j_per_kg,target_distance_m,guidance_mode,pitch_command_deg,heading_command_deg,roll_command_deg,elevator_command_deg,aileron_command_deg,rudder_command_deg,elevator_deg,aileron_deg,rudder_deg,throttle,elevator_saturated,aileron_saturated,rudder_saturated,elevator_failed,aileron_failed,rudder_failed,elevator_raw_rad,aileron_raw_rad,rudder_raw_rad,elevator_effective_rad,aileron_effective_rad,rudder_effective_rad,sensor_time_s,imu_valid,imu_ax_mps2,imu_ay_mps2,imu_az_mps2,gyro_p_rps,gyro_q_rps,gyro_r_rps,imu_accel_norm_mps2,imu_gyro_norm_rps,gps_valid,gps_latency_s,gps_x_m,gps_y_m,gps_z_m,gps_vx_mps,gps_vy_mps,gps_vz_mps,baro_valid,baro_alt_m,baro_bias_m,pitot_valid,pitot_airspeed_mps,pitot_qbar_pa,pitot_compressibility_factor,mag_valid,mag_heading_deg,mag_x_ut,mag_y_ut,mag_z_ut,radar_valid,radar_agl_m,optical_flow_valid,optical_flow_x_radps,optical_flow_y_radps,optical_flow_quality,horizon_valid,horizon_roll_deg,horizon_pitch_deg
0.0,0.0,0.0,20.0,85.0,0.0,8.0,85.37564055396598,18.1660882792304,0.0,6.000000000000002,0.0,0.0,0.0,0.0,0.623294571949261,0.0,4455.946741876431,0.2509445034436674,85.37564055396597,1.7300556725795753,1.2226496753673843,101084.96761777384,288.02,0.0,0.0,0.0,326.8,0.17539118863220368,0.86,nominal,3840.633,nan,pitch_program,13.0,0.0,0.0,-20.05352282957881,-0.0,0.0,-2.6999999999999997,0.0,0.0,0.86,0.0,0.0,0.0,0.0,0.0,0.0,-0.047123889803846894,0.0,0.0,-0.047123889803846894,0.0,0.0,0.0,1.0,16.91842950149934,0.03360019313667281,0.19252804635556503,0.0020496890485300055,0.0034670290373362495,0.0014289454661326477,16.91955829266283,0.004273570016576025,1.0,0.0,-0.6470631796003397,1.3313514358594836,21.640168148178226,85.17703608167885,0.05225276163995546,7.880257797746393,1.0,19.512552440544518,0.0,1.0,85.41832335897146,4436.473196535972,1.0,1.0,1.4356082144579825,19.448508450116893,0.02515073517330344,-43.862311760623584,1.0,19.865327484861723,1.0,0.014473502116766398,4.261962511288229,0.95,1.0,0.5447866360085145,6.047405196481685
0.03,2.565167608212382,0.0,20.23293464555932,85.50558694041274,0.0,7.764488185310674,85.85739732139747,18.160826543571435,0.0,6.265582975204377,0.0,0.0,-8.852781691043555,0.0,1.0769672822350613,0.0,4506.275744948701,0.25236119376303623,85.85739732139749,1.757876393433434,1.2226223218944803,101082.17473991861,288.0184859248038,0.0,0.0,0.0,332.605,0.1785066900092231,0.86,nominal,3884.1636459440297,nan,pitch_program,12.985,0.0,0.0,-1.430813724064029,-0.0,0.0,-1.9384882344384171,0.0,0.0,0.86,0.0,0.0,0.0,0.0,0.0,0.0,-0.03383300220212211,0.0,0.0,-0.03383300220212211,0.0,0.0,0.03,1.0,17.230037847930703,-0.0016163759063853708,0.6392098659399584,-0.0021105250979690966,-0.15261394487601856,0.0005919929877585954,17.24189073467613,0.15262968565291335,1.0,0.0,-0.6470631796003397,1.3313514358594836,21.640168148178226,85.17703608167885,0.05225276163995546,7.880257797746393,1.0,19.512552440544518,0.0,1.0,85.62617868058982,4484.599534344628,1.0,1.0,1.4356082144579825,19.448508450116893,0.02515073517330344,-43.862311760623584,1.0,19.865327484861723,1.0,0.014473502116766398,4.261962511288229,0.95,1.0,0.5447866360085145,6.047405196481685
0.06,5.145686992251351,0.0,20.459287892271387,86.01731280129897,0.0,7.545108223735462,86.34759266861117,18.15547134287116,0.0,6.641288029579337,0.0,0.0,-12.523546686543249,0.0,1.6283528081208951,0.0,4557.77992752306,0.2538026763192919,86.34759266861116,1.7862653084432796,1.222595741722558,101079.46083265425,288.0170146287002,0.0,0.0,0.0,338.40999999999997,0.18162219138624247,0.86,nominal,3928.5904554409394,nan,pitch_program,12.97,0.0,0.0,-0.29813212770807024,-0.0,0.0,-0.9542745704002091,0.0,0.0,0.86,0.0,0.0,0.0,0.0,0.0,0.0,-0.01665523322153807,0.0,0.0,-0.01665523322153807,0.0,0.0,0.06,1.0,17.498407856113687,-0.07007731986236701,1.175357182759416,0.0009326160778534097,-0.21879882079677046,-0.0011897308595203064,17.537977444298544,0.21880404295698935,1.0,0.0,-0.6470631796003397,1.3313514358594836,21.640168148178226,85.17703608167885,0.05225276163995546,7.880257797746393,1.0,20.987700856098535,0.0,1.0,86.27170135189928,4533.105946304552,1.0,1.0,-0.1860659009684989,18.974750159330256,0.10596349990767918,-44.083772085827064,1.0,20.6027527978962,1.0,-0.016428768467397426,4.2248839949854595,0.9488517802693215,1.0,-0.025246987411663865,6.4702412864397365
0.09,7.741710543341638,0.0,20.679674126088784,86.53411836967625,0.0,7.346207793913228,86.84538220866146,18.150022677129574,0.0,6.946368289490534,0.0,0.0,-10.169366023831884,0.0,2.093948129938356,0.0,4610.384557534663,0.2552664708264356,86.84538220866145,1.8157375308733887,1.2225698626688035,101076.81852476638,288.0155821181804,0.0,0.0,0.0,344.215,0.18473769276326188,0.86,nominal,3973.8585317528546,nan,pitch_program,12.955,0.0,0.0,-0.7110323150486976,-0.0,0.0,-0.8083292171893023,0.0,0.0,0.86,0.0,0.0,0.0,0.0,0.0,0.0,-0.014108006280021668,0.0,0.0,-0.014108006280021668,0.0,0.0,0.09,1.0,17.755031359797805,-0.02196435665332064,1.578421864863689,-0.00022220417452295,-0.17670889740445775,-0.0037684916181763574,17.82506764654335,0.17674921591246343,1.0,0.0,-0.6470631796003397,1.3313514358594836,21.640168148178226,85.17703608167885,0.05225276163995546,7.880257797746393,1.0,20.987700856098535,0.0,1.0,86.95952149486621,4662.926587254203,1.0,1.0,-0.1860659009684989,18.974750159330256,0.10596349990767918,-44.083772085827064,1.0,20.6027527978962,1.0,-0.016428768467397426,4.2248839949854595,0.9488517802693215,1.0,-0.025246987411663865,6.4702412864397365
0.12,10.353410769548223,0.0,20.8945606955685,87.05667420688617,0.0,7.1628856493238295,87.35085262771743,18.144480546346674,0.0,7.124583724973241,0.0,0.0,-5.9405193055728756,0.0,2.420972463441553,0.0,4664.112568335505,0.256752833308275,87.35085262771743,1.8456343700647597,1.222544629821652,101074.24220863753,288.0141853554788,0.0,0.0,0.0,350.02,0.1878531941402813,0.86,nominal,4019.9913710398014,nan,pitch_program,12.94,0.0,0.0,-1.6635277911807547,-0.0,0.0,-1.3214483615841734,0.0,0.0,0.86,0.0,0.0,0.0,0.0,0.0,0.0,-0.02306362480472838,0.0,0.0,-0.02306362480472838,0.0,0.0,0.12,1.0,18.01759351304217,-0.004183726020221016,1.778918449882166,1.6112883147293734e-06,-0.10130329141958606,-0.0012905526276225012,18.105199373553273,0.1013115115923284,1.0,0.0,-0.6470631796003397,1.3313514358594836,21.640168148178226,85.17703608167885,0.05225276163995546,7.880257797746393,1.0,20.349884478756334,0.0,1.0,88.00193084740067,4587.78998858162,1.0,1.0,-0.5184851454225756,18.619457210579508,-0.016633890789648526,-44.21297215751445,1.0,20.85298417365836,1.0,0.005394144911624223,4.189489415031765,0.9477635982610787,1.0,0.18435028045357923,7.326135220795818
0.15,12.980996356198022,0.0,21.10422751031109,87.58618622165997,0.0,6.988893824753048,87.86458133826719,18.138844950522465,0.0,7.2192834798157755,0.0,0.0,-3.156659213370558,0.0,2.657063190025597,0.0,4719.040111144546,0.25826346167678194,87.86458133826719,1.8758690809318113,1.222520010283161,101071.72852439675,288.01282252118295,0.0,0.0,0.0,355.825,0.1909686955173007,0.86,nominal,4067.054099588477,nan,pitch_program,12.925,0.0,0.0,-2.301483363716087,-0.0,0.0,-1.9094693628633217,0.0,0.0,0.86,0.0,0.0,0.0,0.0,0.0,0.0,-0.0333265273479233,0.0,0.0,-0.0333265273479233,0.0,0.0,0.15,1.0,18.368130785263094,-0.00598832726180951,1.98250735787158,-0.0004697202894008365,-0.05346569361530918,-0.0036948701458046906,18.474809872597017,0.05359527121221373,1.0,0.0,-0.6470631796003397,1.3313514358594836,21.640168148178226,85.17703608167885,0.05225276163995546,7.880257797746393,1.0,20.349884478756334,0.0,1.0,87.89900233729367,4651.081810024774,1.0,1.0,-0.5184851454225756,18.619457210579508,-0.016633890789648526,-44.21297215751445,1.0,20.85298417365836,1.0,0.005394144911624223,4.189489415031765,0.9477635982610787,1.0,0.18435028045357923,7.326135220795818
0.18,15.624697131506492,0.0,21.308865084424323,88.12335917694901,0.0,6.821252470441106,88.38696690064131,18.133115889656946,0.0,7.288883712404517,0.0,0.0,-2.3200080382465824,0.0,2.8626883684656903,0.0,4775.225733643298,0.2597995279008305,88.3869669006413,1.9065523125916954,1.222495981654922,101069.27518426701,288.0114923769512,0.0,0.0,0.0,361.63,0.19408419689432013,0.86,nominal,4115.096540727701,nan,pitch_program,12.91,0.0,0.0,-2.466642588687107,-0.0,0.0,-2.243773298357593,0.0,0.0,0.86,0.0,0.0,0.0,0.0,0.0,0.0,-0.03916123172467307,0.0,0.0,-0.03916123172467307,0.0,0.0,0.18,1.0,18.557531878646916,0.03414216567189782,2.039361496736581,0.002947544280140692,-0.041720105428731634,-7.799038077289946e-05,18.669283607810048,0.04182417120239642,1.0,0.0,-0.6470631796003397,1.3313514358594836,21.640168148178226,85.17703608167885,0.05225276163995546,7.880257797746393,1.0,20.09605248988326,0.0,1.0,88.18680820097781,4784.439052222728,1.0,1.0,-1.0663968479720431,18.528311407157634,0.050319406766115064,-44.20446690487453,1.0,21.421915852741424,1.0,0.0054820180455927275,4.15986000212005,0.9467278372889392,1.0,0.5440663699802962,6.941721032606833
0.21,18.28474565264924,0.0,21.508664957512224,88.66828403809153,0.0,6.659995769596761,88.91805293589555,18.127293363750116,0.0,7.357996870062069,0.0,0.0,-2.303772201259288,0.0,3.062498589700943,0.0,4832.690680699311,0.26136116067744086,88.91805293589555,1.9376256078449021,1.2224725214201313,101066.87988844657,288.01019367777616,0.0,0.0,0.0,367.435,0.19719969827133954,0.86,nominal,4164.138018160949,nan,pitch_program,12.895,0.0,0.0,-2.426920380036746,-0.0,0.0,-2.353661547365085,0.0,0.0,0.86,0.0,0.0,0.0,0.0,0.0,0.0,-0.0410791434791052,0.0,0.0,-0.0410791434791052,0.0,0.0,0.21,1.0,18.867791421727134,0.05059748149522134,2.25297661552539,0.0017357579311095077,-0.04175189451632929,0.0009609354194155189,19.001895086254894,0.04179900654535206,1.0,0.0,18.18663216074662,0.5405446002123574,20.859452118300215,88.7847264296618,-0.05866507085398046,6.672152407955734,1.0,20.09605248988326,0.0,1.0,89.0850119185263,4776.249758733493,1.0,1.0,-1.0663968479720431,18.528311407157634,0.050319406766115064,-44.20446690487453,1.0,21.421915852741424,1.0,0.0054820180455927275,4.15986000212005,0.9467278372889392,1.0,0.5440663699802962,6.941721032606833
0.24,20.961371143677507,0.0,21.703841739746046,89.2208497009423,0.0,6.505892741127429,89.4577367348246,18.121377372801977,0.0,7.420881500549947,0.0,0.0,-2.0961545600152864,0.0,3.250313524566783,0.0,4891.440571696897,0.2629480586616805,89.45773673482462,1.968907904999611,1.2224496043550723,101064.54006081985,288.00892502869164,0.0,0.0,0.0,373.24,0.20031519964835895,0.86,nominal,4214.185310455675,nan,pitch_program,12.88,0.0,0.0,-2.4384848511436683,-0.0,0.0,-2.4045555296322347,0.0,0.0,0.86,0.0,0.0,0.0,0.0,0.0,0.0,-0.04196741103911857,0.0,0.0,-0.04196741103911857,0.0,0.0,0.24,1.0,19.277487352538746,0.008182701285868713,2.3630734909793003,-0.0035477899423726803,-0.03381453324499103,0.003279104514494998,19.42178421020223,0.034157898039381546,1.0,0.0,18.18663216074662,0.5405446002123574,20.859452118300215,88.7847264296618,-0.05866507085398046,6.672152407955734,1.0,22.855493966138855,0.0,1.0,89.66920972448325,4837.229701127414,1.0,1.0,-0.8956819503117156,18.41794405299292,0.018576909961339032,-44.27360559293205,1.0,21.78278769118029,1.0,-0.010356012571189472,4.1227533206463205,0.9457403956506348,1.0,0.30925341280238017,7.341913149029608
0.27,23.654803286870195,0.0,21.894610259965702,89.7810714397562,0.0,6.358950673988568,90.00598337080056,18.115367916812527,0.0,7.465642047380417,0.0,0.0,-1.4920183035641437,0.0,3.414302300036275,0.0,4951.488484164084,0.2645601197514261,90.00598337080055,2.0002397666321046,1.2224272052123708,101062.25312291924,288.0076850333102,0.0,0.0,0.0,379.045,0.20343070102537836,0.86,nominal,4265.251300978306,nan,pitch_program,12.865,0.0,0.0,-2.5592925901687473,-0.0,0.0,-2.497397765954142,0.0,0.0,0.86,0.0,0.0,0.0,0.0,0.0,0.0,-0.04358781374785053,0.0,0.0,-0.04358781374785053,0.0,0.0,0.27,1.0,19.43194273752983,0.04716527903357265,2.6068842452295624,0.00018112037031823333,-0.026912591149339082,-0.0022644325505887537,19.606082438524293,0.027008295424483835,1.0,0.0,18.18663216074662,0.5405446002123574,20.859452118300215,88.7847264296618,-0.05866507085398046,6.672152407955734,1.0,22.855493966138855,0.0,1.0,89.74462284491655,4947.19325010424,1.0,1.0,-0.8956819503117156,18.41794405299292,0.018576909961339032,-44.27360559293205,1.0,21.78278769118029,1.0,-0.010356012571189472,4.1227533206463205,0.9457403956506348,1.0,0.30925341280238017,7.341913149029608
0.3,26.36527713796484,0.0,22.08116229743782,90.34912836982141,0.0,6.218401249070599,90.56287048940594,18.109264995781764,0.0,7.489223674295524,0.0,0.0,-0.7860542415997575,0.0,3.5519731445345206,0.0,5012.860142381784,0.26619757267354704,90.56287048940592,2.0315773064398397,1.2224053014529024,101060.01677284656,288.0064724450666,0.0,0.0,0.0,384.84999999999997,0.20654620240239774,0.86,nominal,4317.358985884624,nan,pitch_program,12.850000000000001,0.0,0.0,-2.7173943441864443,-0.0,0.0,-2.6293957128935235,0.0,0.0,0.86,0.0,0.0,0.0,0.0,0.0,0.0,-0.045891612527815505,0.0,0.0,-0.045891612527815505,0.0,0.0,0.3,1.0,19.72994765534223,0.08300150387625659,2.758812219935196,-0.0029602996145941534,-0.010790166923056229,-0.0024852126405524107,19.922067377585435,0.01146156001181098,1.0,0.0,18.18663216074662,0.5405446002123574,20.859452118300215,88.7847264296618,-0.05866507085398046,6.672152407955734,1.0,21.106959300489187,0.0,1.0,90.27928528792317,5068.9593042313445,1.0,1.0,-0.7361027805542356,18.335004030833012,-0.012339104840071087,-44.302335959119844,1.0,22.13670069888137,1.0,0.0062581450402661035,4.110717125114974,0.9447970942564055,1.0,0.37575835305758565,7.5993855149357605
0.32999999999999996,29.09303426823929,0.0,22.263663054387187,90.925237675815,0.0,6.083358564978852,91.12851418646936,18.10306860970969,0.0,7.496747103620109,0.0,0.0,-0.2507809778465624,0.0,3.669073938711552,0.0,5075.586047156502,0.26786075910299095,91.12851418646937,2.0629577061782376,1.2223838736596995,101057.82902752415,288.0052861901465,0.0,0.0,0.0,390.655,0.20966170377941715,0.86,nominal,4370.53500020908,nan,pitch_program,12.835,0.0,0.0,-2.841802488756606,-0.0,0.0,-2.756839778411373,0.0,0.0,0.86,0.0,0.0,0.0,0.0,0.0,0.0,-0.04811593108322935,0.0,0.0,-0.04811593108322935,0.0,0.0,0.32999999999999996,1.0,20.05596262774803,0.021896900889631084,2.922722506825801,0.001429065593385613,-0.002921290499340981,-0.0005674864375593363,20.26781742694068,0.0033012433276800785,1.0,0.0,18.18663216074662,0.5405446002123574,20.859452118300215,88.7847264296618,-0.05866507085398046,6.672152407955734,1.0,21.106959300489187,0.0,1.0,91.55888538786566,5111.686817168001,1.0,1.0,-0.7361027805542356,18.335004030833012,-0.012339104840071087,-44.302335959119844,1.0,22.13670069888137,1.0,0.0062581450402661035,4.110717125114974,0.9447970942564055,1.0,0.37575835305758565,7.5993855149357605
0.36,31.838320885286027,0.0,22.44226079594029,91.50955390155788,0.0,5.953258051770043,91.70299742480118,18.096778758596308,0.0,7.49444886806371,0.0,0.0,0.07660785189027264,0.0,3.77225204029515,0.0,5139.693590485069,0.2695499232807671,91.70299742480118,2.094411814318014,1.2223629044058504,101055.68810710104,288.00412530482635,0.0,0.0,0.0,396.46,0.21277720515643656,0.86,nominal,4424.803265181054,nan,pitch_program,12.82,0.0,0.0,-2.9197320386891636,-0.0,0.0,-2.8545751345780475,0.0,0.0,0.86,0.0,0.0,0.0,0.0,0.0,0.0,-0.04982173484394716,0.0,0.0,-0.04982173484394716,0.0,0.0,0.36,1.0,20.32997544145337,0.02683911409052275,2.9172154802216133,0.0010257048700631488,0.00021306369117332353,-0.001960870769925816,20.53822699130056,0.002223169087882684,1.0,0.0,18.18663216074662,0.5405446002123574,20.859452118300215,88.7847264296618,-0.05866507085398046,6.672152407955734,1.0,22.542716597141446,0.0,1.0,92.35646083718642,5223.695237711894,1.0,1.0,0.42320222778978833,18.36999385558103,0.021930061926981118,-44.3780198217787,1.0,22.38820906360504,1.0,0.007910669873120058,4.064027442526437,0.9438943480101493,1.0,0.7375318493048008,7.142450571671507
0.39,34.60138575197232,0.0,22.61709603321371,92.10216222287654,0.0,5.827841242447365,92.28635879519919,18.090395442441615,0.0,7.485443435715505,0.0,0.0,0.30018107889145795,0.0,3.8648320883783787,0.0,5205.205678199174,0.2712651790040495,92.28635879519919,2.1259280640673386,1.222342377176147,101053.59232485043,288.00298887578407,0.0,0.0,0.0,402.265,0.21589270653345596,0.86,nominal,4480.183954652234,nan,pitch_program,12.805,0.0,0.0,-2.9754601213409715,-0.0,0.0,-2.9271061266358016,0.0,0.0,0.86,0.0,0.0,0.0,0.0,0.0,0.0,-0.05108763946509283,0.0,0.0,-0.05108763946509283,0.0,0.0,0.39,1.0,20.62063558690249,-0.060427488278233125,3.1688674404588424,-0.0006232289420774592,0.005261190833411564,0.0001130207006713474,20.862789467000074,0.005299180783724698,1.0,0.0,18.18663216074662,0.5405446002123574,20.859452118300215,88.7847264296618,-0.05866507085398046,6.672152407955734,1.0,22.542716597141446,0.0,1.0,92.039444313738,5144.825009823048,1.0,1.0,0.42320222778978833,18.36999385558103,0.021930061926981118,-44.3780198217787,1.0,22.38820906360504,1.0,0.007910669873120058,4.064027442526437,0.9438943480101493,1.0,0.7375318493048008,7.142450571671507
0.42,37.38247939213886,0.0,22.788304276236516,92.7031213388846,0.0,5.706941434093616,92.8786191031291,18.08391866124561,0.0,7.470199059747253,0.0,0.0,0.508145868606096,0.0,3.94743174801184,0.0,5272.14359579096,0.273006587781619,92.8786191031291,2.1357840845082605,1.222322276043767,101051.54005415627,288.00187602220444,0.0,0.0,0.0,404.1773684210526,0.21691906078826353,0.86,nominal,4536.695867382623,nan,pitch_program,12.79,0.0,0.0,-3.0307800492811006,-0.0,0.0,-2.989310480222981,0.0,0.0,0.86,0.0,0.0,0.0,0.0,0.0,0.0,-0.05217331024426385,0.0,0.0,-0.05217331024426385,0.0,0.0,0.42,1.0,20.62619061154924,0.04089597466504258,3.279598236428409,-0.0034148923675843914,0.005302498335667314,-0.0028003634302080924,20.88533399821727,0.006900725601209455,1.0,0.0,35.61726163814134,1.023605206772128,20.14034727701816,92.84228074478527,-0.09413582407903479,5.770842191890166,1.0,22.378535962394764,0.0,1.0,92.59979336405114,5286.346724765697,1.0,1.0,0.2258058822644583,18.340134331581755,-0.0024981869415422586,-44.34053979261164,1.0,22.621554826039567,1.0,-0.022877269623071107,4.086215336760093,0.9430292393094087,1.0,0.04833935984877748,7.659853787668967
0.44999999999999996,40.18166214929957,0.0,22.955989555410206,93.30609190535692,0.0,5.589509305789603,93.47336198581081,18.077411089421965,0.0,7.448749771202352,0.0,0.0,0.714976293180133,0.0,4.0205381982121535,0.0,5339.793503808021,0.2747552896383264,93.4733619858108,2.1348267727078603,1.222302588778914,101049.53004589266,288.0007860678898,0.0,0.0,0.0,404.14342105263154,0.21690084148196515,0.86,nominal,4593.756055438775,nan,pitch_program,12.775,0.0,0.0,-3.089295005809025,-0.0,0.0,-3.0493011955746074,0.0,0.0,0.86,0.0,0.0,0.0,0.0,0.0,0.0,-0.05322034574777644,0.0,0.0,-0.05322034574777644,0.0,0.0,0.44999999999999996,1.0,20.649892307464235,0.010842193161042879,3.4073756011823,0.002005921116758545,0.01458550066717941,-0.0001651694228211661,20.929127510494926,0.014723716588456325,1.0,0.0,35.61726163814134,1.023605206772128,20.14034727701816,92.84228074478527,-0.09413582407903479,5.770842191890166,1.0,22.378535962394764,0.0,1.0,93.01150693107567,5309.410123322354,1.0,1.0,0.2258058822644583,18.340134331581755,-0.0024981869415422586,-44.34053979261164,1.0,22.621554826039567,1.0,-0.022877269623071107,4.086215336760093,0.9430292393094087,1.0,0.04833935984877748,7.659853787668967
0.48,42.99890035212592,0.0,23.120235927966984,93.90794009421184,0.0,5.474879085225967,94.06739878265968,18.070904064177505,0.0,7.4218408743965805,0.0,0.0,0.8969632433460099,0.0,4.08524563800031,0.0,5407.794178102625,0.2765019119135571,94.06739878265968,2.133902110687099,1.2222833054976487,101047.56129046633,287.9997184664682,0.0,0.0,0.0,404.1094736842105,0.2168826221756668,0.86,nominal,4651.069818530959,nan,pitch_program,12.76,0.0,0.0,-3.144663619002582,-0.0,0.0,-3.106518649631392,0.0,0.0,0.86,0.0,0.0,0.0,0.0,0.0,0.0,-0.05421897871067592,0.0,0.0,-0.05421897871067592,0.0,0.0,0.48,1.0,20.614608351575644,0.08117412421908833,3.411741294214113,0.00013009111186830277,0.01581897360015909,-0.0010244906973158891,20.895182348712368,0.01585264743343534,1.0,0.0,35.61726163814134,1.023605206772128,20.14034727701816,92.84228074478527,-0.09413582407903479,5.770842191890166,1.0,22.8224148161607,0.0,1.0,93.83993610942407,5381.091876011668,1.0,1.0,-0.44835325422229444,18.364762426658547,0.06078054862296529,-44.317358883347616,1.0,22.961202395613345,1.0,-0.018015801437440387,4.05297554477767,0.9421994101800826,1.0,0.8644117836381657,7.0054206660827765
0.51,45.83416219260304,0.0,23.281120815380838,94.50872801590383,0.0,5.362829580461753,94.66076067882172,18.064397585512236,0.0,7.390684017864347,0.0,0.0,1.0385619100002743,0.0,4.14295915926398,0.0,5476.147698907021,0.2782465463013121,94.66076067882173,2.1330118324080685,1.2222644170958739,101045.63285792731,287.9986727147,0.0,0.0,0.0,404.0755263157895,0.21686440286936848,0.86,nominal,4708.639609590735,nan,pitch_program,12.745,0.0,0.0,-3.1923237126373945,-0.0,0.0,-3.1580016874349934,0.0,0.0,0.86,0.0,0.0,0.0,0.0,0.0,0.0,-0.05511752722927748,0.0,0.0,-0.05511752722927748,0.0,0.0,0.51,1.0,20.660884743776663,-0.04282733459533814,3.5887751247298345,0.0031002261459097467,0.016440170150118096,-0.004438965997463413,20.97029564579602,0.017308813242023637,1.0,0.0,35.61726163814134,1.023605206772128,20.14034727701816,92.84228074478527,-0.09413582407903479,5.770842191890166,1.0,22.8224148161607,0.0,1.0,94.29597194442897,5392.231002766807,1.0,1.0,-0.44835325422229444,18.364762426658547,0.06078054862296529,-44.317358883347616,1.0,22.961202395613345,1.0,-0.018015801437440387,4.05297554477767,0.9421994101800826,1.0,0.8644117836381657,7.0054206660827765
0.54,48.68741732617188,0.0,23.43871666428758,95.10850445229468,0.0,5.253194963558053,95.25347067943146,18.057891653426154,0.0,7.356333592772238,0.0,0.0,1.14501420403338,0.0,4.194887806583764,0.0,5544.855287474057,0.27998926044267164,95.25347067943146,2.132155517316468,1.2222459150542742,101043.74387805216,287.9976483416821,0.0,0.0,0.0,404.0415789473684,0.2168461835630701,0.86,nominal,4766.467129014491,nan,pitch_program,12.73,0.0,0.0,-3.2329972218654106,-0.0,0.0,-3.2029990080932436,0.0,0.0,0.86,0.0,0.0,0.0,0.0,0.0,0.0,-0.055902878629339604,0.0,0.0,-0.055902878629339604,0.0,0.0,0.54,1.0,20.516354952752035,0.047250432159362504,3.6970518971703616,-0.0009786856424852401,0.017634969494222157,-0.0024845426797583236,20.846852181589025,0.017836000868369947,1.0,0.0,35.61726163814134,1.023605206772128,20.14034727701816,92.84228074478527,-0.09413582407903479,5.770842191890166,1.0,23.632476861927685,0.0,1.0,94.98248552327497,5555.349194361112,1.0,1.0,0.27306392358222425,18.424738195192063,-0.03112406640833241,-44.33514685273989,1.0,23.62675769928803,1.0,-0.005040110493708324,4.055068587762323,0.941403208339281,1.0,-0.07653608652858225,7.229827545592668
0.57,51.558636542820345,0.0,23.593092203588792,95.70730722161537,0.0,5.145851310040465,95.84554471292714,18.051386267919263,0.0,7.319448355690936,0.0,0.0,1.2295079451730757,0.0,4.241815573319193,0.0,5613.917405007026,0.2817301011721466,95.84554471292714,2.1313280795053413,1.2222277912906685,101041.89352526807,287.99664490067664,0.0,0.0,0.0,404.0076315789474,0.21682796425677175,0.86,nominal,4824.553418317181,nan,pitch_program,12.715,0.0,0.0,-3.269613718861016,-0.0,0.0,-3.2429678345539075,0.0,0.0,0.86,0.0,0.0,0.0,0.0,0.0,0.0,-0.05660046624923642,0.0,0.0,-0.05660046624923642,0.0,0.0,0.57,1.0,20.523819097687817,-0.0017683905232157846,3.7227953323886585,-0.00022652583579164853,0.02014223638078832,0.0022634823542320224,20.85872380009561,0.02027028250276136,1.0,0.0,35.61726163814134,1.023605206772128,20.14034727701816,92.84228074478527,-0.09413582407903479,5.770842191890166,1.0,23.632476861927685,0.0,1.0,96.8876125940977,5637.424282938579,1.0,1.0,0.27306392358222425,18.424738195192063,-0.03112406640833241,-44.33514685273989,1.0,23.62675769928803,1.0,-0.005040110493708324,4.055068587762323,0.941403208339281,1.0,-0.07653608652858225,7.229827545592668
0.6,54.44779159284921,0.0,23.744312998124038,96.30516833429539,0.0,5.040693151174883,96.4369951592296,18.04488142899156,0.0,7.280448868524557,0.0,0.0,1.2999829557372211,0.0,4.284273866869633,0.0,5683.334142610661,0.28346910488967664,96.4369951592296,2.1305236705116077,1.2222100380949765,101040.08101201174,287.99566196551217,0.0,0.0,0.0,403.9736842105263,0.21680974495047337,0.86,nominal,4882.899184733689,nan,pitch_program,12.7,0.0,0.0,-3.30392391306198,-0.0,0.0,-3.2795414816587507,0.0,0.0,0.86,0.0,0.0,0.0,0.0,0.0,0.0,-0.05723879681067843,0.0,0.0,-0.05723879681067843,0.0,0.0,0.6,1.0,20.566203455114938,0.033620888055402906,3.8531096945936945,2.210985561369729e-06,0.01838893015612107,0.0032584746686290774,20.924060534223923,0.018675395962100865,1.0,0.0,35.61726163814134,1.023605206772128,20.14034727701816,92.84228074478527,-0.09413582407903479,5.770842191890166,1.0,24.206004333604458,0.0,1.0,96.09414384258405,5699.467276092214,1.0,1.0,-0.8355753364770961,18.51466973501929,-0.022957214540988088,-44.26228699819949,1.0,22.9306034219199,1.0,-0.004993264761310789,4.059949199851311,0.9406392175046899,1.0,-0.2189092737770617,7.0256550028995965
0.63,57.35485508843523,0.0,23.892441708603023,96.90211651953399,0.0,4.937623682632816,97.0278326749425,18.038377136643046,0.0,7.239722571217089,0.0,0.0,1.3575433007402242,0.0,4.322752900398979,0.0,5753.105424767741,0.28520630292608184,97.02783267494249,2.1297390255326905,1.2221926480986551,101038.30558560793,287.99469912889407,0.0,0.0,0.0,403.9397368421053,0.21679152564417503,0.86,nominal,4941.5049702799915,nan,pitch_program,12.685,0.0,0.0,-3.335987890520362,-0.0,0.0,-3.3134093269757177,0.0,0.0,0.86,0.0,0.0,0.0,0.0,0.0,0.0,-0.057829902222015644,0.0,0.0,-0.057829902222015644,0.0,0.0,0.63,1.0,20.519635317175016,-0.07151951345962523,3.9083823749985176,0.0019905930935499943,0.02189965091349446,0.0010186785244192236,20.888657242146053,0.022013515778564783,1.0,0.0,58.37737887492821,-0.8727250188964341,23.811598417574956,96.87965185367996,0.017400044844858832,4.86176645502335,1.0,24.206004333604458,0.0,1.0,96.84873460573083,5725.971368228512,1.0,1.0,-0.8355753364770961,18.51466973501929,-0.022957214540988088,-44.26228699819949,1.0,22.9306034219199,1.0,-0.004993264761310789,4.059949199851311,0.9406392175046899,1.0,-0.2189092737770617,7.0256550028995965
0.6599999999999999,60.27980039672265,0.0,24.037538433782238,97.49817694291396,0.0,4.836557505973814,97.61806592890657,18.03187339087372,0.0,7.197675628537048,0.0,0.0,1.4015648189020842,0.0,4.357752188456833,0.0,5823.230971375867,0.28694172076649876,97.61806592890657,2.1289732702555693,1.2221756142344944,101036.56652416373,287.9937560001804,0.0,0.0,0.0,403.9057894736842,0.21677330633787664,0.86,nominal,5000.371124131826,nan,pitch_program,12.67,0.0,0.0,-3.3654229511489606,-0.0,0.0,-3.3446175014796635,0.0,0.0,0.86,0.0,0.0,0.0,0.0,0.0,0.0,-0.05837458762064644,0.0,0.0,-0.05837458762064644,0.0,0.0,0.6599999999999999,1.0,20.47903999192219,-0.04258760265820153,3.9423283157797044,0.001149278757074794,0.024364069242438554,-0.001032035318481279,20.855091590401777,0.024412984426538196,1.0,0.0,58.37737887492821,-0.8727250188964341,23.811598417574956,96.87965185367996,0.017400044844858832,4.86176645502335,1.0,23.295101784034504,0.0,1.0,98.67451822589963,5827.872175607171,1.0,1.0,-1.3164851928707582,18.613233341708163,0.03662652844090456,-44.243481122297446,1.0,24.33499065323065,1.0,-0.006874824429951932,4.031720269974927,0.9399061539155444,1.0,-0.9712503199958397,7.25032246048456
0.69,63.222601512076594,0.0,24.179661164116613,98.09337051179821,0.0,4.737424344479199,98.20770095967315,18.025370191683585,0.0,7.1546795441019615,0.0,0.0,1.4332028817601061,0.0,4.389725278316468,0.0,5893.710213208914,0.28867537616287037,98.20770095967315,2.128226035844932,1.2221589296833326,101034.86313112747,287.9928322024332,0.0,0.0,0.0,403.8718421052631,0.21675508703157828,0.86,nominal,5059.497738047377,nan,pitch_program,12.655,0.0,0.0,-3.3923104653315175,-0.0,0.0,-3.373233279790776,0.0,0.0,0.86,0.0,0.0,0.0,0.0,0.0,0.0,-0.05887402717019614,0.0,0.0,-0.05887402717019614,0.0,0.0,0.69,1.0,20.44488897055307,0.00495566725317717,4.057675049157461,-0.0011420141139829667,0.025505033417008327,0.003259334376096453,20.843661779577875,0.025737796844610687,1.0,0.0,58.37737887492821,-0.8727250188964341,23.811598417574956,96.87965185367996,0.017400044844858832,4.86176645502335,1.0,23.295101784034504,0.0,1.0,98.3907978459298,5832.523802201137,1.0,1.0,-1.3164851928707582,18.613233341708163,0.03662652844090456,-44.243481122297446,1.0,24.33499065323065,1.0,-0.006874824429951932,4.031720269974927,0.9399061539155444,1.0,-0.9712503199958397,7.25032246048456
0.72,66.18323293683902,0.0,24.31886620108025,98.68771415874735,0.0,4.640167898787892,98.79674126208599,18.018867539072637,0.0,7.11102973450663,0.0,0.0,1.4549937235496266,0.0,4.419039351634191,0.0,5964.542292669588,0.2904072793895354,98.79674126208599,2.1274964369515996,1.2221425878247998,101033.19473025893,287.991927369693,0.0,0.0,0.0,403.8378947368421,0.21673686772527995,0.86,nominal,5118.884651234606,nan,pitch_program,12.64,0.0,0.0,-3.4171194505329137,-0.0,0.0,-3.3995649822360585,0.0,0.0,0.86,0.0,0.0,0.0,0.0,0.0,0.0,-0.05933360207552176,0.0,0.0,-0.05933360207552176,0.0,0.0,0.72,1.0,20.43212200542848,-0.04979932630460631,4.103302954183123,0.0015933037360369305,0.02803389277045872,0.0007235125367884649,20.840133990726237,0.028088453696345352,1.0,0.0,58.37737887492821,-0.8727250188964341,23.811598417574956,96.87965185367996,0.017400044844858832,4.86176645502335,1.0,24.470788967541544,0.0,1.0,98.1877648607836,5893.776364155205,1.0,1.0,-0.04289334429709171,18.720942315165352,-0.03568893955149394,-44.3383814775076,1.0,24.320525045739714,1.0,0.004666710619628197,4.050660576548574,0.9392028344972994,1.0,-0.139617224484398,6.8810641330307645
0.75,69.16166958934673,0.0,24.45520846102966,99.28122175025723,0.0,4.544741998313593,99.38518839371883,18.01236543304088,0.0,7.066955899801775,0.0,0.0,1.4691278959378484,0.0,4.445988157039476,0.0,6035.7261281366345,0.29213743502658096,99.38518839371882,2.1267833736899875,1.2221265822016196,101031.56066198421,287.9910411450033,0.0,0.0,0.0,403.80394736842106,0.21671864841898159,0.86,nominal,5178.531506081849,nan,pitch_program,12.625,0.0,0.0,-3.4402691670069907,-0.0,0.0,-3.423987493098618,0.0,0.0,0.86,0.0,0.0,0.0,0.0,0.0,0.0,-0.0597598553016775,0.0,0.0,-0.0597598553016775,0.0,0.0,0.75,1.0,20.43156219715322,-0.05257865765788889,4.273526913817595,0.0005619878097981149,0.02427484661671336,-0.003251893751797856,20.873776146507485,0.024498139144357552,1.0,0.0,58.37737887492821,-0.8727250188964341,23.811598417574956,96.87965185367996,0.017400044844858832,4.86176645502335,1.0,24.470788967541544,0.0,1.0,98.59396598332242,5965.882841455999,1.0,1.0,-0.04289334429709171,18.720942315165352,-0.03568893955149394,-44.3383814775076,1.0,24.320525045739714,1.0,0.004666710619628197,4.050660576548574,0.9392028344972994,1.0,-0.139617224484398,6.8810641330307645
0.78,72.15788673370488,0.0,24.588741695077836,99.8739048119383,0.0,4.451107801605839,99.97304248168919,18.00586387358831,0.0,7.022651681571535,0.0,0.0,1.47680734792607,0.0,4.470823530049122,0.0,6107.260468813703,0.29386584345013345,99.97304248168918,2.1260861165324076,1.2221109064937818,101029.96028075815,287.990173178982,0.0,0.0,0.0,403.77,0.21670042911268322,0.86,nominal,5238.43779526685,nan,pitch_program,12.61,0.0,0.0,-3.461951800918638,-0.0,0.0,-3.44676607779063,0.0,0.0,0.86,0.0,0.0,0.0,0.0,0.0,0.0,-0.06015741660349749,0.0,0.0,-0.06015741660349749,0.0,0.0,0.78,1.0,20.36181901443783,0.07548530540873434,4.320321183571823,0.0006083831183492699,0.023721240783553005,0.00038129226727659537,20.81524793840501,0.023732104376204727,1.0,0.0,58.37737887492821,-0.8727250188964341,23.811598417574956,96.87965185367996,0.017400044844858832,4.86176645502335,1.0,24.07306927337237,0.0,1.0,99.70624858337865,6049.047355362667,1.0,1.0,0.05837604837472245,18.749422531305985,0.026745813521722606,-44.1919476453279,1.0,24.53160112820309,1.0,0.004042564385297605,4.063249686639022,0.9385281457623054,1.0,0.2927129116882944,6.967791799547269
0.8099999999999999,75.17185991864082,0.0,24.71951868279691,100.46577283119784,0.0,4.3592329239691185,100.56030241728227,17.999362860714932,0.0,6.9782896389365145,0.0,0.0,1.4787348283738828,0.0,4.493771054593148,0.0,6179.14391341748,0.29559250140493604,100.56030241728226,2.1254043989811096,1.222095554495777,101028.39295273952,287.9893231285618,0.0,0.0,0.0,403.73605263157896,0.21668220980638486,0.86,nominal,5298.602879018284,nan,pitch_program,12.595,0.0,0.0,-3.482246441050743,-0.0,0.0,-3.4680542957466978,0.0,0.0,0.86,0.0,0.0,0.0,0.0,0.0,0.0,-0.060528966098713055,0.0,0.0,-0.060528966098713055,0.0,0.0,0.8099999999999999,1.0,20.387007695700774,0.033709741502975184,4.364598639069514,-0.0026898504428129622,0.027744404856468913,0.00046201124676182513,20.84900334335918,0.02787832044145578,1.0,0.0,58.37737887492821,-0.8727250188964341,23.811598417574956,96.87965185367996,0.017400044844858832,4.86176645502335,1.0,24.07306927337237,0.0,1.0,100.82335511479309,6148.837654859505,1.0,1.0,0.05837604837472245,18.749422531305985,0.026745813521722606,-44.1919476453279,1.0,24.53160112820309,1.0,0.004042564385297605,4.063249686639022,0.9385281457623054,1.0,0.2927129116882944,6.967791799547269
0.84,78.20356492047149,0.0,24.84759141833126,101.05683339435582,0.0,4.269091184478292,101.1469659220482,17.99286239442074,0.0,6.93401994082262,0.0,0.0,1.4756566772093456,0.0,4.515029060546585,0.0,6251.374913826664,0.29731740219913183,101.14696592204821,2.124738139652376,1.2220805200947351,101026.85805355867,287.9884906557808,0.0,0.0,0.0,403.7021052631579,0.2166639905000865,0.86,nominal,5359.0259900005685,nan,pitch_program,12.58,0.0,0.0,-3.5012555223539863,-0.0,0.0,-3.487975031711071,0.0,0.0,0.86,0.0,0.0,0.0,0.0,0.0,0.0,-0.06087664853071181,0.0,0.0,-0.06087664853071181,0.0,0.0,0.84,1.0,20.363750208140605,0.008588911952788087,4.431784019268041,0.002164942192265008,0.025021909644701135,0.0014007998704423234,20.840420003022842,0.02515442659335466,1.0,0.0,80.02201194484222,-1.2910195730843237,26.888511202707363,101.04332470787311,-0.10925786054450534,4.359063287226888,1.0,24.3286129382644,0.0,1.0,100.98554366828292,6195.758886514741,1.0,1.0,1.2130102425103173,18.7663559103661,-0.07045180833672474,-44.163879316013805,1.0,24.744757759064615,1.0,-0.002274569317683613,4.051950725491703,0.9378810214541718,1.0,-0.27796316737448734,6.728857419136694
0.87,81.25297769230136,0.0,24.973011276071563,101.64709239432865,0.0,4.180661924676839,101.733029672519,17.98636247470574,0.0,6.889967438034691,0.0,0.0,1.4684168319352258,0.0,4.53476623196066,0.0,6323.951786320711,0.2990405360713136,101.73302967251897,2.124087234295643,1.2220657972509599,101025.35496632948,287.9876754267055,0.0,0.0,0.0,403.66815789473685,0.21664577119378817,0.86,nominal,5419.706244205302,nan,pitch_program,12.565,0.0,0.0,-3.5191199824026316,-0.0,0.0,-3.5066620021260073,0.0,0.0,0.86,0.0,0.0,0.0,0.0,0.0,0.0,-0.06120279769167522,0.0,0.0,-0.06120279769167522,0.0,0.0,0.87,1.0,20.311884595177336,0.027989140902693017,4.433736920945902,-0.0005790133931385701,0.022699283787569188,0.0004651893925304308,20.79017706235254,0.022711431970462763,1.0,0.0,80.02201194484222,-1.2910195730843237,26.888511202707363,101.04332470787311,-0.10925786054450534,4.359063287226888,1.0,24.3286129382644,0.0,1.0,101.77428900933059,6395.14700911057,1.0,1.0,1.2130102425103173,18.7663559103661,-0.07045180833672474,-44.163879316013805,1.0,24.744757759064615,1.0,-0.002274569317683613,4.051950725491703,0.9378810214541718,1.0,-0.27796316737448734,6.728857419136694
0.8999999999999999,84.32007432150425,0.0,25.09582914569954,102.23655430676288,0.0,4.093928987599217,102.31848948784956,17.979863101569926,0.0,6.846234616760212,0.0,0.0,1.457760779923457,0.0,4.553125268578837,0.0,6396.872731245879,0.30076189074245757,102.31848948784956,2.123451566400453,1.2220513799820605,101023.88308002918,287.98687711055294,0.0,0.0,0.0,403.6342105263158,0.2166275518874898,0.86,nominal,5480.642658429265,nan,pitch_program,12.55,0.0,0.0,-3.535968608934241,-0.0,0.0,-3.5242459662109473,0.0,0.0,0.86,0.0,0.0,0.0,0.0,0.0,0.0,-0.06150969576050986,0.0,0.0,-0.06150969576050986,0.0,0.0,0.8999999999999999,1.0,20.321349478791053,0.05974692243366003,4.548109684499303,-0.001191316049702679,0.02912249227353529,0.0009064307300334876,20.8241714369657,0.029160939745158265,1.0,0.0,80.02201194484222,-1.2910195730843237,26.888511202707363,101.04332470787311,-0.10925786054450534,4.359063287226888,1.0,25.840781809627146,0.0,1.0,102.74184761818057,6300.843665439351,1.0,1.0,0.821149122779577,18.8914086566138,-0.04640960680669084,-44.144438864026434,1.0,25.133487997828105,1.0,-0.0007399525675377812,4.06143987745267,0.9372604271357512,1.0,-0.20912946511431732,7.253929936469654
0.9299999999999999,87.40483099445503,0.0,25.2160955413405,102.82522243169245,0.0,4.008879854698664,102.90334049882169,17.9733642750133,0.0,6.802907255215718,0.0,0.0,1.4442454536403402,0.0,4.570229136331532,0.0,6470.135851162842,0.3024814519130063,102.90334049882169,2.1228310881087618,1.2220372623501226,101022.44178818786,287.98609537898125,0.0,0.0,0.0,403.6002631578947,0.21660933258119142,0.86,nominal,5541.8341662487055,nan,pitch_program,12.535000000000002,0.0,0.0,-3.551892355962755,-0.0,0.0,-3.5408338000620323,0.0,0.0,0.86,0.0,0.0,0.0,0.0,0.0,0.0,-0.06179920807698506,0.0,0.0,-0.06179920807698506,0.0,0.0,0.9299999999999999,1.0,20.259109608252356,0.006509293132599862,4.653408471967397,-0.0016755287817418352,0.023531749985939893,0.0013982675618079612,20.78667301174139,0.02363272744042955,1.0,0.0,80.02201194484222,-1.2910195730843237,26.888511202707363,101.04332470787311,-0.10925786054450534,4.359063287226888,1.0,25.840781809627146,0.0,1.0,102.75777246020803,6349.848686474157,1.0,1.0,0.821149122779577,18.8914086566138,-0.04640960680669084,-44.144438864026434,1.0,25.133487997828105,1.0,-0.0007399525675377812,4.06143987745267,0.9372604271357512,1.0,-0.20912946511431732,7.253929936469654
0.96,90.50722396629207,0.0,25.333860694388633,103.4130990612349,0.0,3.9255051016044606,103.48757726293289,17.966865995035864,0.0,6.760058141212047,0.0,0.0,1.4283038666922048,0.0,4.586185179498693,0.0,6543.739162914217,0.304199203601432,103.48757726293289,2.1222258314143394,1.2220234384508024,101021.03048777491,287.9853299054864,0.0,0.0,0.0,403.56631578947366,0.21659111327489305,0.86,nominal,5603.279628854379,nan,pitch_program,12.520000000000001,0.0,0.0,-3.566958428746561,-0.0,0.0,-3.5565085772727496,0.0,0.0,0.86,0.0,0.0,0.0,0.0,0.0,0.0,-0.06207278454882865,0.0,0.0,-0.06207278454882865,0.0,0.0,0.96,1.0,20.263883902300588,0.0022058329845778316,4.708193181107993,0.002116919551025329,0.023906611744191356,-8.783994913814637e-05,20.80365541683115,0.024000315608959936,1.0,0.0,80.02201194484222,-1.2910195730843237,26.888511202707363,101.04332470787311,-0.10925786054450534,4.359063287226888,1.0,25.365747100016804,0.0,1.0,103.25437790101708,6485.780321729668,1.0,1.0,-2.09905088076043,18.97242579066993,0.0002650234956609028,-44.09008857367422,1.0,25.63092171977055,1.0,0.008387405920836165,4.0550963057602285,0.9366653482640284,1.0,-0.36677457504017924,7.296171284994684
0.99,93.62722953449764,0.0,25.44917463443832,104.00018560685218,0.0,3.8437980016562565,104.07119384987011,17.960368261637615,0.0,6.7177484200472275,0.0,0.0,1.410324102914716,0.0,4.601086766924894,0.0,6617.680606428957,0.3059151283957195,104.07119384987011,2.1216358600933773,1.222009902403813,101019.64857822722,287.98458036487614,0.0,0.0,0.0,403.53236842105264,0.21657289396859472,0.86,nominal,5664.977843097436,nan,pitch_program,12.505,0.0,0.0,-3.581229283223063,-0.0,0.0,-3.5713410008429376,0.0,0.0,0.86,0.0,0.0,0.0,0.0,0.0,0.0,-0.06233165917617885,0.0,0.0,-0.06233165917617885,0.0,0.0,0.99,1.0,20.241110090790567,0.014162831083482113,4.781103427648117,0.0010676491373519247,0.02476110338336105,0.0011223014906537765,20.79811742151574,0.024809507775808575,1.0,0.0,80.02201194484222,-1.2910195730843237,26.888511202707363,101.04332470787311,-0.10925786054450534,4.359063287226888,1.0,25.365747100016804,0.0,1.0,103.87634986739226,6670.456597123021,1.0,1.0,-2.09905088076043,18.97242579066993,0.0002650234956609028,-44.09008857367422,1.0,25.63092171977055,1.0,0.008387405920836165,4.0550963057602285,0.9366653482640284,1.0,-0.36677457504017924,7.296171284994684
1.02,96.76482401612456,0.0,25.562087258120417,104.58648272089748,0.0,3.76375412273657,104.65418392508253,17.953871074818558,0.0,6.676028533213532,0.0,0.0,1.3906629559008195,0.0,4.615014521945421,0.0,6691.958053659637,0.30762920769923197,104.65418392508253,2.121061233762942,1.2219966483448281,101018.29546062234,287.9838464328222,0.0,0.0,0.0,403.49842105263156,0.21655467466229633,0.86,nominal,5726.927549522349,nan,pitch_program,12.49,0.0,0.0,-3.5947655166374526,-0.0,0.0,-3.5853957103196468,0.0,0.0,0.86,0.0,0.0,0.0,0.0,0.0,0.0,-0.06257696013195867,0.0,0.0,-0.06257696013195867,0.0,0.0,1.02,1.0,20.213734977282655,-0.07598225586171925,4.891887837681061,-0.0009838521636664314,0.023167297606587086,-0.0014032734170025846,20.7973897797651,0.023230600934004978,1.0,0.0,80.02201194484222,-1.2910195730843237,26.888511202707363,101.04332470787311,-0.10925786054450534,4.359063287226888,1.0,26.042425540348276,0.0,1.0,105.2327041718,6808.250546892354,1.0,1.0,-1.0100754859783532,19.05824285709423,0.06247031606901441,-44.074402476400294,1.0,25.766867649066306,1.0,-0.019123369001258418,4.071953796242775,0.936094781854699,1.0,-0.23127390375793436,6.445756222614641
1.05,99.91998372854464,0.0,25.672648385817435,105.17199041400241,0.0,3.6853709232339202,105.23654083294848,17.947374434578688,0.0,6.634939746947137,0.0,0.0,1.369626267577687,0.0,4.6280381322674895,0.0,6766.569317834822,0.3093414219753504,105.23654083294846,2.1205020072632883,1.221983670418823,101016.97053699818,287.9831277854922,0.0,0.0,0.0,403.46447368421053,0.216536455355998,0.86,nominal,5789.127440535193,nan,pitch_program,12.475,0.0,0.0,-3.60762010170423,-0.0,0.0,-3.5987303451503965,0.0,0.0,0.86,0.0,0.0,0.0,0.0,0.0,0.0,-0.06280969341430637,0.0,0.0,-0.06280969341430637,0.0,0.0,1.05,1.0,20.232534679858706,0.054564925010077786,4.992196558069547,-0.0003895693448309605,0.02287024978785305,0.0017287324390145185,20.839396905312014,0.022938801308676215,1.0,0.0,100.17676264357,-3.433230619113083,26.996034605253435,105.03827038920329,-0.011617734101773037,3.554577035269456,1.0,26.042425540348276,0.0,1.0,105.30617704177895,6787.668286222031,1.0,1.0,-1.0100754859783532,19.05824285709423,0.06247031606901441,-44.074402476400294,1.0,25.766867649066306,1.0,-0.019123369001258418,4.071953796242775,0.936094781854699,1.0,-0.23127390375793436,6.445756222614641
1.08,103.09268497322408,0.0,25.780907808109127,105.75670815598161,0.0,3.608647409723045,105.81825766906752,17.940878340918008,0.0,6.594515812650914,0.0,0.0,1.3474645324351475,0.0,4.64021824819676,0.0,6841.512161668814,0.31105175096012094,105.81825766906753,2.1199582395879606,1.2219709627746025,101015.6732097942,287.9824240992473,0.0,0.0,0.0,403.43052631578945,0.21651823604969964,0.86,nominal,5851.576167614977,nan,pitch_program,12.46,0.0,0.0,-3.6198363623377365,-0.0,0.0,-3.6113939554628005,0.0,0.0,0.86,0.0,0.0,0.0,0.0,0.0,0.0,-0.06303071510944733,0.0,0.0,-0.06303071510944733,0.0,0.0,1.08,1.0,20.1631641159064,0.018260324927685586,5.0184784718067155,-0.003936520198468383,0.022692862563379608,-0.002735565153676801,20.778321558211324,0.023193652564945353,1.0,0.0,100.17676264357,-3.433230619113083,26.996034605253435,105.03827038920329,-0.011617734101773037,3.554577035269456,1.0,26.69901480402281,0.0,1.0,105.23480315553799,6836.065935864611,1.0,1.0,0.9575255968750551,19.096059291683,-0.02142165905373478,-44.076187842711455,1.0,25.925468718787442,1.0,-0.0003966637897820549,4.099448832658052,0.9355477304797272,1.0,-0.27857637400984747,6.178045397309934
1.1099999999999999,106.28290402194646,0.0,25.886915324165496,106.34063495741287,0.0,3.533583868545583,106.39932733857759,17.934382793836516,0.0,6.5547841892572,0.0,0.0,1.3243874995286233,0.0,4.651607894438201,0.0,6916.784304069607,0.3127601738337995,106.39932733857759,2.119429991219322,1.2219585195602884,101014.40288139033,287.9817350503929,0.0,0.0,0.0,403.3965789473684,0.21650001674340127,0.86,nominal,5914.27234721462,nan,pitch_program,12.445,0.0,0.0,-3.6314509434036917,-0.0,0.0,-3.6234281482273354,0.0,0.0,0.86,0.0,0.0,0.0,0.0,0.0,0.0,-0.06324075139600814,0.0,0.0,-0.06324075139600814,0.0,0.0,1.1099999999999999,1.0,20.15843621050702,0.04473640939238005,5.019316480523552,-0.002222707635220856,0.019177361505312174,-0.0013297215366065518,20.773976261925913,0.01935148012173781,1.0,0.0,100.17676264357,-3.433230619113083,26.996034605253435,105.03827038920329,-0.011617734101773037,3.554577035269456,1.0,26.69901480402281,0.0,1.0,106.54397055042354,6834.663364007768,1.0,1.0,0.9575255968750551,19.096059291683,-0.02142165905373478,-44.076187842711455,1.0,25.925468718787442,1.0,-0.0003966637897820549,4.099448832658052,0.9355477304797272,1.0,-0.27857637400984747,6.178045397309934
1.14,109.49061710510048,0.0,25.990720773377806,106.9237694384674,0.0,3.460181640410267,106.97974260538847,17.927887793334214,0.0,6.515766868204162,0.0,0.0,1.300577418694814,0.0,4.662253454729683,0.0,6992.383425913677,0.31446666936567874,106.97974260538845,2.118917314274755,1.2219463349195994,101013.15895372686,287.98106031497304,0.0,0.0,0.0,403.3626315789474,0.21648179743710294,0.86,nominal,5977.214565829829,nan,pitch_program,12.43,0.0,0.0,-3.642496663566824,-0.0,0.0,-3.6348692574310286,0.0,0.0,0.86,0.0,0.0,0.0,0.0,0.0,0.0,-0.06344043642169281,0.0,0.0,-0.06344043642169281,0.0,0.0,1.14,1.0,20.125895453390463,-0.055651317150761194,5.251997501457023,0.0002710768789127717,0.025341570375117722,0.002647448603910711,20.799957755370905,0.025480927295953616,1.0,0.0,100.17676264357,-3.433230619113083,26.996034605253435,105.03827038920329,-0.011617734101773037,3.554577035269456,1.0,24.586810443346483,0.0,1.0,107.2169052170153,6917.2607457076965,1.0,1.0,0.14192325136431233,19.118722983735566,0.06568784692595254,-43.9949114502512,1.0,25.82520391866116,1.0,-0.006416207362762023,4.106566457843656,0.9350231980665555,1.0,0.11633829875831246,6.6055763411290975
1.17,112.71580040180898,0.0,26.09237406085697,107.50610989028303,0.0,3.388442915972153,107.55949613649373,17.9213933394111,0.0,6.477481095617985,0.0,0.0,1.2761924670251497,0.0,4.672195536922306,0.0,7068.307175388515,0.3161712160444298,107.55949613649373,2.118420246790713,1.2219344029888426,101011.94082799707,287.9803995686044,0.0,0.0,0.0,403.3286842105263,0.21646357813080455,0.86,nominal,6040.401384652108,nan,pitch_program,12.415,0.0,0.0,-3.653002970333976,-0.0,0.0,-3.645749485172797,0.0,0.0,0.86,0.0,0.0,0.0,0.0,0.0,0.0,-0.0636303322191535,0.0,0.0,-0.0636303322191535,0.0,0.0,1.17,1.0,20.067482940313678,-0.018396120557657394,5.29995282788187,-0.0018490106337137886,0.021363015315984828,-0.0002201676919286788,20.755570576469466,0.02144401402553072,1.0,0.0,100.17676264357,-3.433230619113083,26.996034605253435,105.03827038920329,-0.011617734101773037,3.554577035269456,1.0,24.586810443346483,0.0,1.0,107.28177491590972,6981.793763598911,1.0,1.0,0.14192325136431233,19.118722983735566,0.06568784692595254,-43.9949114502512,1.0,25.82520391866116,1.0,-0.006416207362762023,4.106566457843656,0.9350231980665555,1.0,0.11633829875831246,6.6055763411290975
1.2,115.95843003168662,0.0,26.19192517746799,108.08765432925472,0.0,3.3183705537006563,108.13858054150758,17.914899432067177,0.0,6.439940091056523,0.0,0.0,1.2513668634835753,0.0,4.681469817856532,0.0,7144.55317289715,0.3178737921943915,108.1385805415076,2.1179388125685943,1.2219227178945606,101010.7479044066,287.97975248634646,0.0,0.0,0.0,403.2947368421053,0.21644535882450622,0.86,nominal,6103.8313438076775,nan,pitch_program,12.4,0.0,0.0,-3.6629955686278337,-0.0,0.0,-3.656097135245819,0.0,0.0,0.86,0.0,0.0,0.0,0.0,0.0,0.0,-0.06381093278277196,0.0,0.0,-0.06381093278277196,0.0,0.0,1.2,1.0,20.070413429777087,-0.03828241398294344,5.301379895780511,-0.0009261963379740058,0.023257811836640076,-0.0003199987203739626,20.75879547528668,0.023278446044916155,1.0,0.0,100.17676264357,-3.433230619113083,26.996034605253435,105.03827038920329,-0.011617734101773037,3.554577035269456,1.0,25.238073556741583,0.0,1.0,107.42540182926966,7144.680863748388,1.0,1.0,-0.3549511777720282,19.178574622266034,-0.055356161619667145,-44.01116260765649,1.0,25.863932290020514,1.0,0.010127595496536513,4.109844830160808,0.93452018705633,1.0,0.34151170155462995,6.462159459329942
1.23,119.218482047989,0.0,26.289424215234757,108.66840054341272,0.0,3.249967925558922,108.71698840650777,17.90840607130244,0.0,6.403153683753838,0.0,0.0,1.2262136188786914,0.0,4.690107786723052,0.0,7221.119015377858,0.3195743760751092,108.71698840650775,2.117473021492076,1.2219112737517062,101009.57958198704,287.979118742601,0.0,0.0,0.0,403.26078947368416,0.2164271395182078,0.86,nominal,6167.502966070703,nan,pitch_program,12.385,0.0,0.0,-3.672496754017203,-0.0,0.0,-3.6659369065086493,0.0,0.0,0.86,0.0,0.0,0.0,0.0,0.0,0.0,-0.06398266918895147,0.0,0.0,-0.06398266918895147,0.0,0.0,1.23,1.0,20.028141479370667,0.011540680377661903,5.368035337259596,-0.001686513461131309,0.02062641128377844,0.0006742300971600332,20.735052150574862,0.020706225062190258,1.0,0.0,100.17676264357,-3.433230619113083,26.996034605253435,105.03827038920329,-0.011617734101773037,3.554577035269456,1.0,25.238073556741583,0.0,1.0,108.60963818793087,7219.705888014942,1.0,1.0,-0.3549511777720282,19.178574622266034,-0.055356161619667145,-44.01116260765649,1.0,25.863932290020514,1.0,0.010127595496536513,4.109844830160808,0.93452018705633,1.0,0.34151170155462995,6.462159459329942
1.26,122.4959324319405,0.0,26.38492137885642,109.24834613171696,0.0,3.183238787388733,109.29471232265983,17.901913257116895,0.0,6.367128818371223,0.0,0.0,1.2008288856474068,0.0,4.698137341302845,0.0,7298.0022800736315,0.3212729459655212,109.29471232265983,2.1170228679802916,1.2219000646622866,101008.43525845716,287.9784980110374,0.0,0.0,0.0,403.22684210526313,0.21640892021190947,0.86,nominal,6231.414760086449,nan,pitch_program,12.37,0.0,0.0,-3.6815262186730324,-0.0,0.0,-3.6752904938072795,0.0,0.0,0.86,0.0,0.0,0.0,0.0,0.0,0.0,-0.06414592008418529,0.0,0.0,-0.06414592008418529,0.0,0.0,1.26,1.0,20.094728768794237,-0.010620549938968006,5.394548716584395,-0.002131570051678343,0.02365247155050878,0.0007348679302654714,20.806234472943203,0.023759693436738023,1.0,0.0,122.69864070999516,1.2635784847245528,23.55195437572899,109.07141491074586,0.07587462346497874,3.123761941181593,1.0,27.87963183109379,0.0,1.0,109.2660252751589,7318.88202084839,1.0,1.0,-1.7249840133220535,19.23809017952551,-0.04439878013774128,-43.99306353143497,1.0,26.698641070963465,1.0,-0.007602903484157358,4.138781519968073,0.934037696552859,1.0,-0.2091157974856451,6.626552167965981
1.29,125.79075708807908,0.0,26.478466993867805,109.82748853795263,0.0,3.1181871670462122,109.8717449108862,17.895420989510537,0.0,6.331869968065365,0.0,0.0,1.1752950472852937,0.0,4.705583279197062,0.0,7375.200527894462,0.3229694802365077,109.87174491088619,2.116588329196132,1.2218890847144006,101007.31433012421,287.9778899645398,0.0,0.0,0.0,403.1928947368421,0.21639070090561113,0.86,nominal,6295.5652232268385,nan,pitch_program,12.355,0.0,0.0,-3.6901015938908115,-0.0,0.0,-3.6841771538573993,0.0,0.0,0.86,0.0,0.0,0.0,0.0,0.0,0.0,-0.06430102156156532,0.0,0.0,-0.06430102156156532,0.0,0.0,1.29,1.0,19.985906729872035,-0.011828266213584857,5.479180058237313,0.001319078218174888,0.020150437842386855,-0.001237858313875776,20.72336897885118,0.02023147067790157,1.0,0.0,122.69864070999516,1.2635784847245528,23.55195437572899,109.07141491074586,0.07587462346497874,3.123761941181593,1.0,27.87963183109379,0.0,1.0,110.10565229254065,7313.414773365792,1.0,1.0,-1.7249840133220535,19.23809017952551,-0.04439878013774128,-43.99306353143497,1.0,26.698641070963465,1.0,-0.007602903484157358,4.138781519968073,0.934037696552859,1.0,-0.2091157974856451,6.626552167965981
1.3199999999999998,129.10293184048678,0.0,26.570111511867466,110.40582508025706,0.0,3.0548172666553994,110.44807884334148,17.88892926848337,0.0,6.297379499547931,0.0,0.0,1.1496823186320684,0.0,4.712467731100524,0.0,7452.711306455135,0.3246639574140429,110.44807884334148,2.11616936444702,1.2218783279816103,101006.21619181971,287.9772942751728,0.0,0.0,0.0,403.158947368421,0.21637248159931274,0.86,nominal,6359.952844150343,nan,pitch_program,12.34,0.0,0.0,-3.6982386469904305,-0.0,0.0,-3.6926140497372177,0.0,0.0,0.86,0.0,0.0,0.0,0.0,0.0,0.0,-0.0644482731733161,0.0,0.0,-0.0644482731733161,0.0,0.0,1.3199999999999998,1.0,19.964970604158523,-0.05642250734004022,5.6192280962892385,-0.004861475145653224,0.01702423654257204,0.0015863711442240184,20.740755992064873,0.017775689687223838,1.0,0.0,122.69864070999516,1.2635784847245528,23.55195437572899,109.07141491074586,0.07587462346497874,3.123761941181593,1.0,26.994079143240704,0.0,1.0,110.11079855510657,7542.740936424349,1.0,1.0,2.343208495041194,19.313109985149033,0.0007075656105720192,-43.90156941529524,1.0,26.6119323584853,1.0,-0.0018232912783413507,4.140862218862804,0.9335747212203314,1.0,0.33718862476710443,6.413065922708328
1.3499999999999999,132.43243242978554,0.0,26.65990551321894,110.98335297662541,0.0,2.9931333783824674,111.0237068618906,17.88243809403539,0.0,6.263657996313777,0.0,0.0,1.1240501402520144,0.0,4.718810542995136,0.0,7530.532152798922,0.3263563562335272,111.02370686189062,2.1157659153051713,1.2218677885226188,101005.14023686631,287.97671061416406,0.0,0.0,0.0,403.125,0.2163542622930144,0.86,nominal,6424.576105078716,nan,pitch_program,12.325,0.0,0.0,-3.7059514499765545,-0.0,0.0,-3.7006164898808196,0.0,0.0,0.86,0.0,0.0,0.0,0.0,0.0,0.0,-0.06458794210201572,0.0,0.0,-0.06458794210201572,0.0,0.0,1.3499999999999999,1.0,20.008988570469285,-0.016965971898601665,5.652908642199008,0.003531363877364551,0.01985461047098742,0.0018192982909093394,20.792192947700855,0.02024810939471397,1.0,0.0,122.69864070999516,1.2635784847245528,23.55195437572899,109.07141491074586,0.07587462346497874,3.123761941181593,1.0,26.994079143240704,0.0,1.0,110.89899022614674,7459.598824692239,1.0,1.0,2.343208495041194,19.313109985149033,0.0007075656105720192,-43.90156941529524,1.0,26.6119323584853,1.0,-0.0018232912783413507,4.140862218862804,0.9335747212203314,1.0,0.33718862476710443,6.413065922708328
1.38,135.77923451078817,0.0,26.747899707602013,111.56006936675419,0.0,2.933139812768999,111.59862179380289,17.8759474661666,0.0,6.230704532196425,0.0,0.0,1.0984488341917276,0.0,4.7246296002757395,0.0,7608.660595820995,0.32804665568592856,111.59862179380289,2.115377905598571,1.2218574603811987,101004.08585707011,287.97613865190056,0.0,0.0,0.0,403.0910526315789,0.21633604298671602,0.86,nominal,6489.433483805684,nan,pitch_program,12.31,0.0,0.0,-3.713252641189526,-0.0,0.0,-3.708198180666044,0.0,0.0,0.86,0.0,0.0,0.0,0.0,0.0,0.0,-0.064720267569086,0.0,0.0,-0.064720267569086,0.0,0.0,1.38,1.0,19.854106163966758,0.0787298552947129,5.7265918703239524,0.003672524473432786,0.020766529660306916,-0.0013600217789994829,20.6636295071664,0.021132577916092552,1.0,0.0,122.69864070999516,1.2635784847245528,23.55195437572899,109.07141491074586,0.07587462346497874,3.123761941181593,1.0,26.828339046800828,0.0,1.0,111.20519319272852,7432.8880741611265,1.0,1.0,-0.7350228423122661,19.371276468907602,-0.08352027316921831,-43.97465491603005,1.0,26.735656476945103,1.0,-0.0024368936974586363,4.157865873714539,0.933130250730995,1.0,-0.3972756753758616,6.524348466202987
1.41,139.14331365071186,0.0,26.83414493272843,112.1359713307897,0.0,2.8748408375472927,112.17281656507035,17.869457384877,0.0,6.198516899838682,0.0,0.0,1.072921106808957,0.0,4.729941099783887,0.0,7687.094158433389,0.32973483505693346,112.17281656507035,2.115005241251439,1.2218473375863335,101003.05244273499,287.97557805793724,0.0,0.0,0.0,403.0571052631579,0.2163178236804177,0.86,nominal,6554.523455475001,nan,pitch_program,12.295,0.0,0.0,-3.720153673839968,-0.0,0.0,-3.7153714765703985,0.0,0.0,0.86,0.0,0.0,0.0,0.0,0.0,0.0,-0.06484546520083681,0.0,0.0,-0.06484546520083681,0.0,0.0,1.41,1.0,19.886979552193065,0.028694482140956826,5.767173079240779,-0.0015848162640157194,0.019689788143968778,0.002182466887568209,20.70635323780047,0.01987366502335173,1.0,0.0,122.69864070999516,1.2635784847245528,23.55195437572899,109.07141491074586,0.07587462346497874,3.123761941181593,1.0,26.828339046800828,0.0,1.0,111.50757321550064,7722.9679277398,1.0,1.0,-0.7350228423122661,19.371276468907602,-0.08352027316921831,-43.97465491603005,1.0,26.735656476945103,1.0,-0.0024368936974586363,4.157865873714539,0.933130250730995,1.0,-0.3972756753758616,6.524348466202987
1.44,142.5246453278769,0.0,26.918692151480574,112.71105590550137,0.0,2.8182406250714127,112.74628421173736,17.862967850166587,0.0,6.167091806180519,0.0,0.0,1.0475031481980397,0.0,4.734759783071686,0.0,7765.830359512799,0.33142087396024567,112.74628421173738,2.1146478103216935,1.22183741415255,101002.03938269618,287.97502850101534,0.0,0.0,0.0,403.02315789473687,0.21629960437411935,0.86,nominal,6619.844494164246,nan,pitch_program,12.28,0.0,0.0,-3.7266649820415827,-0.0,0.0,-3.7221475798531087,0.0,0.0,0.86,0.0,0.0,0.0,0.0,0.0,0.0,-0.0649637305135753,0.0,0.0,-0.0649637305135753,0.0,0.0,1.44,1.0,19.876546929093802,0.011088751636152756,5.894192996102338,0.0028919504415087075,0.018414227601344323,-0.001200264707492466,20.732070611981403,0.018678538242547393,1.0,0.0,122.69864070999516,1.2635784847245528,23.55195437572899,109.07141491074586,0.07587462346497874,3.123761941181593,1.0,26.377770277317115,0.0,1.0,112.76693740518321,7696.325000137177,1.0,1.0,0.3774673232962958,19.465084318202514,0.03556427085910999,-43.93981828576848,1.0,27.02671145439471,1.0,-0.0029993561136232223,4.170131733607996,0.9327032696212986,1.0,0.16956155470215223,6.153703348459735
1.47,145.92320493082352,0.0,27.001592447699373,113.28532009822106,0.0,2.7633432072933353,113.31901788948625,17.856478862035363,0.0,6.136425041893645,0.0,0.0,1.022225500632823,0.0,4.73909913858823,0.0,7844.866715654959,0.3331047523657522,113.31901788948625,2.114305483276669,1.2218276840804005,101001.04606436938,287.97448964908995,0.0,0.0,0.0,402.9892105263158,0.21628138506782096,0.86,nominal,6685.395074296082,nan,pitch_program,12.265,0.0,0.0,-3.7327961035896666,-0.0,0.0,-3.7285366940950437,0.0,0.0,0.86,0.0,0.0,0.0,0.0,0.0,0.0,-0.06507524159338313,0.0,0.0,-0.06507524159338313,0.0,0.0,1.47,1.0,19.830808628773397,0.0301645980285489,6.007396576256339,0.0013454426220258751,0.018725811992802998,0.0019580746044872356,20.72077929032651,0.01887591870070716,1.0,0.0,144.7063902197289,-1.8251411168728504,26.850602645135876,113.12967367648925,-0.012172391676336727,2.772319553777488,1.0,26.377770277317115,0.0,1.0,113.81733396602365,7819.890854547041,1.0,1.0,0.3774673232962958,19.465084318202514,0.03556427085910999,-43.93981828576848,1.0,27.02671145439471,1.0,-0.0029993561136232223,4.170131733607996,0.9327032696212986,1.0,0.16956155470215223,6.153703348459735
