time_s,sensor_time_s,imu_valid,imu_ax_mps2,imu_ay_mps2,imu_az_mps2,gyro_p_rps,gyro_q_rps,gyro_r_rps,imu_accel_norm_mps2,imu_gyro_norm_rps,gps_valid,gps_latency_s,gps_x_m,gps_y_m,gps_z_m,gps_vx_mps,gps_vy_mps,gps_vz_mps,baro_valid,baro_alt_m,baro_bias_m,pitot_valid,pitot_airspeed_mps,pitot_qbar_pa,pitot_compressibility_factor,mag_valid,mag_heading_deg,mag_x_ut,mag_y_ut,mag_z_ut,radar_valid,radar_agl_m,optical_flow_valid,optical_flow_x_radps,optical_flow_y_radps,optical_flow_quality,horizon_valid,horizon_roll_deg,horizon_pitch_deg
0.0,0.0,1.0,16.91842950149934,0.03360019313667281,0.19252804635556503,0.0020496890485300055,0.0034670290373362495,0.0014289454661326477,16.91955829266283,0.004273570016576025,1.0,0.0,-0.6470631796003397,1.3313514358594836,21.640168148178226,85.17703608167885,0.05225276163995546,7.880257797746393,1.0,19.512552440544518,0.0,1.0,85.41832335897146,4436.473196535972,1.0,1.0,1.4356082144579825,19.448508450116893,0.02515073517330344,-43.862311760623584,1.0,19.865327484861723,1.0,0.014473502116766398,4.261962511288229,0.95,1.0,0.5447866360085145,6.047405196481685
0.03,0.03,1.0,17.230037847930703,-0.0016163759063853708,0.6392098659399584,-0.0021105250979690966,-0.15261394487601856,0.0005919929877585954,17.24189073467613,0.15262968565291335,1.0,0.0,-0.6470631796003397,1.3313514358594836,21.640168148178226,85.17703608167885,0.05225276163995546,7.880257797746393,1.0,19.512552440544518,0.0,1.0,85.62617868058982,4484.599534344628,1.0,1.0,1.4356082144579825,19.448508450116893,0.02515073517330344,-43.862311760623584,1.0,19.865327484861723,1.0,0.014473502116766398,4.261962511288229,0.95,1.0,0.5447866360085145,6.047405196481685
0.06,0.06,1.0,17.498407856113687,-0.07007731986236701,1.175357182759416,0.0009326160778534097,-0.21879882079677046,-0.0011897308595203064,17.537977444298544,0.21880404295698935,1.0,0.0,-0.6470631796003397,1.3313514358594836,21.640168148178226,85.17703608167885,0.05225276163995546,7.880257797746393,1.0,20.987700856098535,0.0,1.0,86.27170135189928,4533.105946304552,1.0,1.0,-0.1860659009684989,18.974750159330256,0.10596349990767918,-44.083772085827064,1.0,20.6027527978962,1.0,-0.016428768467397426,4.2248839949854595,0.9488517802693215,1.0,-0.025246987411663865,6.4702412864397365
0.09,0.09,1.0,17.755031359797805,-0.02196435665332064,1.578421864863689,-0.00022220417452295,-0.17670889740445775,-0.0037684916181763574,17.82506764654335,0.17674921591246343,1.0,0.0,-0.6470631796003397,1.3313514358594836,21.640168148178226,85.17703608167885,0.05225276163995546,7.880257797746393,1.0,20.987700856098535,0.0,1.0,86.95952149486621,4662.926587254203,1.0,1.0,-0.1860659009684989,18.974750159330256,0.10596349990767918,-44.083772085827064,1.0,20.6027527978962,1.0,-0.016428768467397426,4.2248839949854595,0.9488517802693215,1.0,-0.025246987411663865,6.4702412864397365
0.12,0.12,1.0,18.01759351304217,-0.004183726020221016,1.778918449882166,1.6112883147293734e-06,-0.10130329141958606,-0.0012905526276225012,18.105199373553273,0.1013115115923284,1.0,0.0,-0.6470631796003397,1.3313514358594836,21.640168148178226,85.17703608167885,0.05225276163995546,7.880257797746393,1.0,20.349884478756334,0.0,1.0,88.00193084740067,4587.78998858162,1.0,1.0,-0.5184851454225756,18.619457210579508,-0.016633890789648526,-44.21297215751445,1.0,20.85298417365836,1.0,0.005394144911624223,4.189489415031765,0.9477635982610787,1.0,0.18435028045357923,7.326135220795818
0.15,0.15,1.0,18.368130785263094,-0.00598832726180951,1.98250735787158,-0.0004697202894008365,-0.05346569361530918,-0.0036948701458046906,18.474809872597017,0.05359527121221373,1.0,0.0,-0.6470631796003397,1.3313514358594836,21.640168148178226,85.17703608167885,0.05225276163995546,7.880257797746393,1.0,20.349884478756334,0.0,1.0,87.89900233729367,4651.081810024774,1.0,1.0,-0.5184851454225756,18.619457210579508,-0.016633890789648526,-44.21297215751445,1.0,20.85298417365836,1.0,0.005394144911624223,4.189489415031765,0.9477635982610787,1.0,0.18435028045357923,7.326135220795818
0.18,0.18,1.0,18.557531878646916,0.03414216567189782,2.039361496736581,0.002947544280140692,-0.041720105428731634,-7.799038077289946e-05,18.669283607810048,0.04182417120239642,1.0,0.0,-0.6470631796003397,1.3313514358594836,21.640168148178226,85.17703608167885,0.05225276163995546,7.880257797746393,1.0,20.09605248988326,0.0,1.0,88.18680820097781,4784.439052222728,1.0,1.0,-1.0663968479720431,18.528311407157634,0.050319406766115064,-44.20446690487453,1.0,21.421915852741424,1.0,0.0054820180455927275,4.15986000212005,0.9467278372889392,1.0,0.5440663699802962,6.941721032606833
0.21,0.21,1.0,18.867791421727134,0.05059748149522134,2.25297661552539,0.0017357579311095077,-0.04175189451632929,0.0009609354194155189,19.001895086254894,0.04179900654535206,1.0,0.0,18.18663216074662,0.5405446002123574,20.859452118300215,88.7847264296618,-0.05866507085398046,6.672152407955734,1.0,20.09605248988326,0.0,1.0,89.0850119185263,4776.249758733493,1.0,1.0,-1.0663968479720431,18.528311407157634,0.050319406766115064,-44.20446690487453,1.0,21.421915852741424,1.0,0.0054820180455927275,4.15986000212005,0.9467278372889392,1.0,0.5440663699802962,6.941721032606833
0.24,0.24,1.0,19.277487352538746,0.008182701285868713,2.3630734909793003,-0.0035477899423726803,-0.03381453324499103,0.003279104514494998,19.42178421020223,0.034157898039381546,1.0,0.0,18.18663216074662,0.5405446002123574,20.859452118300215,88.7847264296618,-0.05866507085398046,6.672152407955734,1.0,22.855493966138855,0.0,1.0,89.66920972448325,4837.229701127414,1.0,1.0,-0.8956819503117156,18.41794405299292,0.018576909961339032,-44.27360559293205,1.0,21.78278769118029,1.0,-0.010356012571189472,4.1227533206463205,0.9457403956506348,1.0,0.30925341280238017,7.341913149029608
0.27,0.27,1.0,19.43194273752983,0.04716527903357265,2.6068842452295624,0.00018112037031823333,-0.026912591149339082,-0.0022644325505887537,19.606082438524293,0.027008295424483835,1.0,0.0,18.18663216074662,0.5405446002123574,20.859452118300215,88.7847264296618,-0.05866507085398046,6.672152407955734,1.0,22.855493966138855,0.0,1.0,89.74462284491655,4947.19325010424,1.0,1.0,-0.8956819503117156,18.41794405299292,0.018576909961339032,-44.27360559293205,1.0,21.78278769118029,1.0,-0.010356012571189472,4.1227533206463205,0.9457403956506348,1.0,0.30925341280238017,7.341913149029608
0.3,0.3,1.0,19.72994765534223,0.08300150387625659,2.758812219935196,-0.0029602996145941534,-0.010790166923056229,-0.0024852126405524107,19.922067377585435,0.01146156001181098,1.0,0.0,18.18663216074662,0.5405446002123574,20.859452118300215,88.7847264296618,-0.05866507085398046,6.672152407955734,1.0,21.106959300489187,0.0,1.0,90.27928528792317,5068.9593042313445,1.0,1.0,-0.7361027805542356,18.335004030833012,-0.012339104840071087,-44.302335959119844,1.0,22.13670069888137,1.0,0.0062581450402661035,4.110717125114974,0.9447970942564055,1.0,0.37575835305758565,7.5993855149357605
0.32999999999999996,0.32999999999999996,1.0,20.05596262774803,0.021896900889631084,2.922722506825801,0.001429065593385613,-0.002921290499340981,-0.0005674864375593363,20.26781742694068,0.0033012433276800785,1.0,0.0,18.18663216074662,0.5405446002123574,20.859452118300215,88.7847264296618,-0.05866507085398046,6.672152407955734,1.0,21.106959300489187,0.0,1.0,91.55888538786566,5111.686817168001,1.0,1.0,-0.7361027805542356,18.335004030833012,-0.012339104840071087,-44.302335959119844,1.0,22.13670069888137,1.0,0.0062581450402661035,4.110717125114974,0.9447970942564055,1.0,0.37575835305758565,7.5993855149357605
0.36,0.36,1.0,20.32997544145337,0.02683911409052275,2.9172154802216133,0.0010257048700631488,0.00021306369117332353,-0.001960870769925816,20.53822699130056,0.002223169087882684,1.0,0.0,18.18663216074662,0.5405446002123574,20.859452118300215,88.7847264296618,-0.05866507085398046,6.672152407955734,1.0,22.542716597141446,0.0,1.0,92.35646083718642,5223.695237711894,1.0,1.0,0.42320222778978833,18.36999385558103,0.021930061926981118,-44.3780198217787,1.0,22.38820906360504,1.0,0.007910669873120058,4.064027442526437,0.9438943480101493,1.0,0.7375318493048008,7.142450571671507
0.39,0.39,1.0,20.62063558690249,-0.060427488278233125,3.1688674404588424,-0.0006232289420774592,0.005261190833411564,0.0001130207006713474,20.862789467000074,0.005299180783724698,1.0,0.0,18.18663216074662,0.5405446002123574,20.859452118300215,88.7847264296618,-0.05866507085398046,6.672152407955734,1.0,22.542716597141446,0.0,1.0,92.039444313738,5144.825009823048,1.0,1.0,0.42320222778978833,18.36999385558103,0.021930061926981118,-44.3780198217787,1.0,22.38820906360504,1.0,0.007910669873120058,4.064027442526437,0.9438943480101493,1.0,0.7375318493048008,7.142450571671507
0.42,0.42,1.0,20.62619061154924,0.04089597466504258,3.279598236428409,-0.0034148923675843914,0.005302498335667314,-0.0028003634302080924,20.88533399821727,0.006900725601209455,1.0,0.0,35.61726163814134,1.023605206772128,20.14034727701816,92.84228074478527,-0.09413582407903479,5.770842191890166,1.0,22.378535962394764,0.0,1.0,92.59979336405114,5286.346724765697,1.0,1.0,0.2258058822644583,18.340134331581755,-0.0024981869415422586,-44.34053979261164,1.0,22.621554826039567,1.0,-0.022877269623071107,4.086215336760093,0.9430292393094087,1.0,0.04833935984877748,7.659853787668967
0.44999999999999996,0.44999999999999996,1.0,20.649892307464235,0.010842193161042879,3.4073756011823,0.002005921116758545,0.01458550066717941,-0.0001651694228211661,20.929127510494926,0.014723716588456325,1.0,0.0,35.61726163814134,1.023605206772128,20.14034727701816,92.84228074478527,-0.09413582407903479,5.770842191890166,1.0,22.378535962394764,0.0,1.0,93.01150693107567,5309.410123322354,1.0,1.0,0.2258058822644583,18.340134331581755,-0.0024981869415422586,-44.34053979261164,1.0,22.621554826039567,1.0,-0.022877269623071107,4.086215336760093,0.9430292393094087,1.0,0.04833935984877748,7.659853787668967
0.48,0.48,1.0,20.614608351575644,0.08117412421908833,3.411741294214113,0.00013009111186830277,0.01581897360015909,-0.0010244906973158891,20.895182348712368,0.01585264743343534,1.0,0.0,35.61726163814134,1.023605206772128,20.14034727701816,92.84228074478527,-0.09413582407903479,5.770842191890166,1.0,22.8224148161607,0.0,1.0,93.83993610942407,5381.091876011668,1.0,1.0,-0.44835325422229444,18.364762426658547,0.06078054862296529,-44.317358883347616,1.0,22.961202395613345,1.0,-0.018015801437440387,4.05297554477767,0.9421994101800826,1.0,0.8644117836381657,7.0054206660827765
0.51,0.51,1.0,20.660884743776663,-0.04282733459533814,3.5887751247298345,0.0031002261459097467,0.016440170150118096,-0.004438965997463413,20.97029564579602,0.017308813242023637,1.0,0.0,35.61726163814134,1.023605206772128,20.14034727701816,92.84228074478527,-0.09413582407903479,5.770842191890166,1.0,22.8224148161607,0.0,1.0,94.29597194442897,5392.231002766807,1.0,1.0,-0.44835325422229444,18.364762426658547,0.06078054862296529,-44.317358883347616,1.0,22.961202395613345,1.0,-0.018015801437440387,4.05297554477767,0.9421994101800826,1.0,0.8644117836381657,7.0054206660827765
0.54,0.54,1.0,20.516354952752035,0.047250432159362504,3.6970518971703616,-0.0009786856424852401,0.017634969494222157,-0.0024845426797583236,20.846852181589025,0.017836000868369947,1.0,0.0,35.61726163814134,1.023605206772128,20.14034727701816,92.84228074478527,-0.09413582407903479,5.770842191890166,1.0,23.632476861927685,0.0,1.0,94.98248552327497,5555.349194361112,1.0,1.0,0.27306392358222425,18.424738195192063,-0.03112406640833241,-44.33514685273989,1.0,23.62675769928803,1.0,-0.005040110493708324,4.055068587762323,0.941403208339281,1.0,-0.07653608652858225,7.229827545592668
0.57,0.57,1.0,20.523819097687817,-0.0017683905232157846,3.7227953323886585,-0.00022652583579164853,0.02014223638078832,0.0022634823542320224,20.85872380009561,0.02027028250276136,1.0,0.0,35.61726163814134,1.023605206772128,20.14034727701816,92.84228074478527,-0.09413582407903479,5.770842191890166,1.0,23.632476861927685,0.0,1.0,96.8876125940977,5637.424282938579,1.0,1.0,0.27306392358222425,18.424738195192063,-0.03112406640833241,-44.33514685273989,1.0,23.62675769928803,1.0,-0.005040110493708324,4.055068587762323,0.941403208339281,1.0,-0.07653608652858225,7.229827545592668
0.6,0.6,1.0,20.566203455114938,0.033620888055402906,3.8531096945936945,2.210985561369729e-06,0.01838893015612107,0.0032584746686290774,20.924060534223923,0.018675395962100865,1.0,0.0,35.61726163814134,1.023605206772128,20.14034727701816,92.84228074478527,-0.09413582407903479,5.770842191890166,1.0,24.206004333604458,0.0,1.0,96.09414384258405,5699.467276092214,1.0,1.0,-0.8355753364770961,18.51466973501929,-0.022957214540988088,-44.26228699819949,1.0,22.9306034219199,1.0,-0.004993264761310789,4.059949199851311,0.9406392175046899,1.0,-0.2189092737770617,7.0256550028995965
0.63,0.63,1.0,20.519635317175016,-0.07151951345962523,3.9083823749985176,0.0019905930935499943,0.02189965091349446,0.0010186785244192236,20.888657242146053,0.022013515778564783,1.0,0.0,58.37737887492821,-0.8727250188964341,23.811598417574956,96.87965185367996,0.017400044844858832,4.86176645502335,1.0,24.206004333604458,0.0,1.0,96.84873460573083,5725.971368228512,1.0,1.0,-0.8355753364770961,18.51466973501929,-0.022957214540988088,-44.26228699819949,1.0,22.9306034219199,1.0,-0.004993264761310789,4.059949199851311,0.9406392175046899,1.0,-0.2189092737770617,7.0256550028995965
0.6599999999999999,0.6599999999999999,1.0,20.47903999192219,-0.04258760265820153,3.9423283157797044,0.001149278757074794,0.024364069242438554,-0.001032035318481279,20.855091590401777,0.024412984426538196,1.0,0.0,58.37737887492821,-0.8727250188964341,23.811598417574956,96.87965185367996,0.017400044844858832,4.86176645502335,1.0,23.295101784034504,0.0,1.0,98.67451822589963,5827.872175607171,1.0,1.0,-1.3164851928707582,18.613233341708163,0.03662652844090456,-44.243481122297446,1.0,24.33499065323065,1.0,-0.006874824429951932,4.031720269974927,0.9399061539155444,1.0,-0.9712503199958397,7.25032246048456
0.69,0.69,1.0,20.44488897055307,0.00495566725317717,4.057675049157461,-0.0011420141139829667,0.025505033417008327,0.003259334376096453,20.843661779577875,0.025737796844610687,1.0,0.0,58.37737887492821,-0.8727250188964341,23.811598417574956,96.87965185367996,0.017400044844858832,4.86176645502335,1.0,23.295101784034504,0.0,1.0,98.3907978459298,5832.523802201137,1.0,1.0,-1.3164851928707582,18.613233341708163,0.03662652844090456,-44.243481122297446,1.0,24.33499065323065,1.0,-0.006874824429951932,4.031720269974927,0.9399061539155444,1.0,-0.9712503199958397,7.25032246048456
0.72,0.72,1.0,20.43212200542848,-0.04979932630460631,4.103302954183123,0.0015933037360369305,0.02803389277045872,0.0007235125367884649,20.840133990726237,0.028088453696345352,1.0,0.0,58.37737887492821,-0.8727250188964341,23.811598417574956,96.87965185367996,0.017400044844858832,4.86176645502335,1.0,24.470788967541544,0.0,1.0,98.1877648607836,5893.776364155205,1.0,1.0,-0.04289334429709171,18.720942315165352,-0.03568893955149394,-44.3383814775076,1.0,24.320525045739714,1.0,0.004666710619628197,4.050660576548574,0.9392028344972994,1.0,-0.139617224484398,6.8810641330307645
0.75,0.75,1.0,20.43156219715322,-0.05257865765788889,4.273526913817595,0.0005619878097981149,0.02427484661671336,-0.003251893751797856,20.873776146507485,0.024498139144357552,1.0,0.0,58.37737887492821,-0.8727250188964341,23.811598417574956,96.87965185367996,0.017400044844858832,4.86176645502335,1.0,24.470788967541544,0.0,1.0,98.59396598332242,5965.882841455999,1.0,1.0,-0.04289334429709171,18.720942315165352,-0.03568893955149394,-44.3383814775076,1.0,24.320525045739714,1.0,0.004666710619628197,4.050660576548574,0.9392028344972994,1.0,-0.139617224484398,6.8810641330307645
0.78,0.78,1.0,20.36181901443783,0.07548530540873434,4.320321183571823,0.0006083831183492699,0.023721240783553005,0.00038129226727659537,20.81524793840501,0.023732104376204727,1.0,0.0,58.37737887492821,-0.8727250188964341,23.811598417574956,96.87965185367996,0.017400044844858832,4.86176645502335,1.0,24.07306927337237,0.0,1.0,99.70624858337865,6049.047355362667,1.0,1.0,0.05837604837472245,18.749422531305985,0.026745813521722606,-44.1919476453279,1.0,24.53160112820309,1.0,0.004042564385297605,4.063249686639022,0.9385281457623054,1.0,0.2927129116882944,6.967791799547269
0.8099999999999999,0.8099999999999999,1.0,20.387007695700774,0.033709741502975184,4.364598639069514,-0.0026898504428129622,0.027744404856468913,0.00046201124676182513,20.84900334335918,0.02787832044145578,1.0,0.0,58.37737887492821,-0.8727250188964341,23.811598417574956,96.87965185367996,0.017400044844858832,4.86176645502335,1.0,24.07306927337237,0.0,1.0,100.82335511479309,6148.837654859505,1.0,1.0,0.05837604837472245,18.749422531305985,0.026745813521722606,-44.1919476453279,1.0,24.53160112820309,1.0,0.004042564385297605,4.063249686639022,0.9385281457623054,1.0,0.2927129116882944,6.967791799547269
0.84,0.84,1.0,20.363750208140605,0.008588911952788087,4.431784019268041,0.002164942192265008,0.025021909644701135,0.0014007998704423234,20.840420003022842,0.02515442659335466,1.0,0.0,80.02201194484222,-1.2910195730843237,26.888511202707363,101.04332470787311,-0.10925786054450534,4.359063287226888,1.0,24.3286129382644,0.0,1.0,100.98554366828292,6195.758886514741,1.0,1.0,1.2130102425103173,18.7663559103661,-0.07045180833672474,-44.163879316013805,1.0,24.744757759064615,1.0,-0.002274569317683613,4.051950725491703,0.9378810214541718,1.0,-0.27796316737448734,6.728857419136694
0.87,0.87,1.0,20.311884595177336,0.027989140902693017,4.433736920945902,-0.0005790133931385701,0.022699283787569188,0.0004651893925304308,20.79017706235254,0.022711431970462763,1.0,0.0,80.02201194484222,-1.2910195730843237,26.888511202707363,101.04332470787311,-0.10925786054450534,4.359063287226888,1.0,24.3286129382644,0.0,1.0,101.77428900933059,6395.14700911057,1.0,1.0,1.2130102425103173,18.7663559103661,-0.07045180833672474,-44.163879316013805,1.0,24.744757759064615,1.0,-0.002274569317683613,4.051950725491703,0.9378810214541718,1.0,-0.27796316737448734,6.728857419136694
0.8999999999999999,0.8999999999999999,1.0,20.321349478791053,0.05974692243366003,4.548109684499303,-0.001191316049702679,0.02912249227353529,0.0009064307300334876,20.8241714369657,0.029160939745158265,1.0,0.0,80.02201194484222,-1.2910195730843237,26.888511202707363,101.04332470787311,-0.10925786054450534,4.359063287226888,1.0,25.840781809627146,0.0,1.0,102.74184761818057,6300.843665439351,1.0,1.0,0.821149122779577,18.8914086566138,-0.04640960680669084,-44.144438864026434,1.0,25.133487997828105,1.0,-0.0007399525675377812,4.06143987745267,0.9372604271357512,1.0,-0.20912946511431732,7.253929936469654
0.9299999999999999,0.9299999999999999,1.0,20.259109608252356,0.006509293132599862,4.653408471967397,-0.0016755287817418352,0.023531749985939893,0.0013982675618079612,20.78667301174139,0.02363272744042955,1.0,0.0,80.02201194484222,-1.2910195730843237,26.888511202707363,101.04332470787311,-0.10925786054450534,4.359063287226888,1.0,25.840781809627146,0.0,1.0,102.75777246020803,6349.848686474157,1.0,1.0,0.821149122779577,18.8914086566138,-0.04640960680669084,-44.144438864026434,1.0,25.133487997828105,1.0,-0.0007399525675377812,4.06143987745267,0.9372604271357512,1.0,-0.20912946511431732,7.253929936469654
0.96,0.96,1.0,20.263883902300588,0.0022058329845778316,4.708193181107993,0.002116919551025329,0.023906611744191356,-8.783994913814637e-05,20.80365541683115,0.024000315608959936,1.0,0.0,80.02201194484222,-1.2910195730843237,26.888511202707363,101.04332470787311,-0.10925786054450534,4.359063287226888,1.0,25.365747100016804,0.0,1.0,103.25437790101708,6485.780321729668,1.0,1.0,-2.09905088076043,18.97242579066993,0.0002650234956609028,-44.09008857367422,1.0,25.63092171977055,1.0,0.008387405920836165,4.0550963057602285,0.9366653482640284,1.0,-0.36677457504017924,7.296171284994684
0.99,0.99,1.0,20.241110090790567,0.014162831083482113,4.781103427648117,0.0010676491373519247,0.02476110338336105,0.0011223014906537765,20.79811742151574,0.024809507775808575,1.0,0.0,80.02201194484222,-1.2910195730843237,26.888511202707363,101.04332470787311,-0.10925786054450534,4.359063287226888,1.0,25.365747100016804,0.0,1.0,103.87634986739226,6670.456597123021,1.0,1.0,-2.09905088076043,18.97242579066993,0.0002650234956609028,-44.09008857367422,1.0,25.63092171977055,1.0,0.008387405920836165,4.0550963057602285,0.9366653482640284,1.0,-0.36677457504017924,7.296171284994684
1.02,1.02,1.0,20.213734977282655,-0.07598225586171925,4.891887837681061,-0.0009838521636664314,0.023167297606587086,-0.0014032734170025846,20.7973897797651,0.023230600934004978,1.0,0.0,80.02201194484222,-1.2910195730843237,26.888511202707363,101.04332470787311,-0.10925786054450534,4.359063287226888,1.0,26.042425540348276,0.0,1.0,105.2327041718,6808.250546892354,1.0,1.0,-1.0100754859783532,19.05824285709423,0.06247031606901441,-44.074402476400294,1.0,25.766867649066306,1.0,-0.019123369001258418,4.071953796242775,0.936094781854699,1.0,-0.23127390375793436,6.445756222614641
1.05,1.05,1.0,20.232534679858706,0.054564925010077786,4.992196558069547,-0.0003895693448309605,0.02287024978785305,0.0017287324390145185,20.839396905312014,0.022938801308676215,1.0,0.0,100.17676264357,-3.433230619113083,26.996034605253435,105.03827038920329,-0.011617734101773037,3.554577035269456,1.0,26.042425540348276,0.0,1.0,105.30617704177895,6787.668286222031,1.0,1.0,-1.0100754859783532,19.05824285709423,0.06247031606901441,-44.074402476400294,1.0,25.766867649066306,1.0,-0.019123369001258418,4.071953796242775,0.936094781854699,1.0,-0.23127390375793436,6.445756222614641
1.08,1.08,1.0,20.1631641159064,0.018260324927685586,5.0184784718067155,-0.003936520198468383,0.022692862563379608,-0.002735565153676801,20.778321558211324,0.023193652564945353,1.0,0.0,100.17676264357,-3.433230619113083,26.996034605253435,105.03827038920329,-0.011617734101773037,3.554577035269456,1.0,26.69901480402281,0.0,1.0,105.23480315553799,6836.065935864611,1.0,1.0,0.9575255968750551,19.096059291683,-0.02142165905373478,-44.076187842711455,1.0,25.925468718787442,1.0,-0.0003966637897820549,4.099448832658052,0.9355477304797272,1.0,-0.27857637400984747,6.178045397309934
1.1099999999999999,1.1099999999999999,1.0,20.15843621050702,0.04473640939238005,5.019316480523552,-0.002222707635220856,0.019177361505312174,-0.0013297215366065518,20.773976261925913,0.01935148012173781,1.0,0.0,100.17676264357,-3.433230619113083,26.996034605253435,105.03827038920329,-0.011617734101773037,3.554577035269456,1.0,26.69901480402281,0.0,1.0,106.54397055042354,6834.663364007768,1.0,1.0,0.9575255968750551,19.096059291683,-0.02142165905373478,-44.076187842711455,1.0,25.925468718787442,1.0,-0.0003966637897820549,4.099448832658052,0.9355477304797272,1.0,-0.27857637400984747,6.178045397309934
1.14,1.14,1.0,20.125895453390463,-0.055651317150761194,5.251997501457023,0.0002710768789127717,0.025341570375117722,0.002647448603910711,20.799957755370905,0.025480927295953616,1.0,0.0,100.17676264357,-3.433230619113083,26.996034605253435,105.03827038920329,-0.011617734101773037,3.554577035269456,1.0,24.586810443346483,0.0,1.0,107.2169052170153,6917.2607457076965,1.0,1.0,0.14192325136431233,19.118722983735566,0.06568784692595254,-43.9949114502512,1.0,25.82520391866116,1.0,-0.006416207362762023,4.106566457843656,0.9350231980665555,1.0,0.11633829875831246,6.6055763411290975
1.17,1.17,1.0,20.067482940313678,-0.018396120557657394,5.29995282788187,-0.0018490106337137886,0.021363015315984828,-0.0002201676919286788,20.755570576469466,0.02144401402553072,1.0,0.0,100.17676264357,-3.433230619113083,26.996034605253435,105.03827038920329,-0.011617734101773037,3.554577035269456,1.0,24.586810443346483,0.0,1.0,107.28177491590972,6981.793763598911,1.0,1.0,0.14192325136431233,19.118722983735566,0.06568784692595254,-43.9949114502512,1.0,25.82520391866116,1.0,-0.006416207362762023,4.106566457843656,0.9350231980665555,1.0,0.11633829875831246,6.6055763411290975
1.2,1.2,1.0,20.070413429777087,-0.03828241398294344,5.301379895780511,-0.0009261963379740058,0.023257811836640076,-0.0003199987203739626,20.75879547528668,0.023278446044916155,1.0,0.0,100.17676264357,-3.433230619113083,26.996034605253435,105.03827038920329,-0.011617734101773037,3.554577035269456,1.0,25.238073556741583,0.0,1.0,107.42540182926966,7144.680863748388,1.0,1.0,-0.3549511777720282,19.178574622266034,-0.055356161619667145,-44.01116260765649,1.0,25.863932290020514,1.0,0.010127595496536513,4.109844830160808,0.93452018705633,1.0,0.34151170155462995,6.462159459329942
1.23,1.23,1.0,20.028141479370667,0.011540680377661903,5.368035337259596,-0.001686513461131309,0.02062641128377844,0.0006742300971600332,20.735052150574862,0.020706225062190258,1.0,0.0,100.17676264357,-3.433230619113083,26.996034605253435,105.03827038920329,-0.011617734101773037,3.554577035269456,1.0,25.238073556741583,0.0,1.0,108.60963818793087,7219.705888014942,1.0,1.0,-0.3549511777720282,19.178574622266034,-0.055356161619667145,-44.01116260765649,1.0,25.863932290020514,1.0,0.010127595496536513,4.109844830160808,0.93452018705633,1.0,0.34151170155462995,6.462159459329942
1.26,1.26,1.0,20.094728768794237,-0.010620549938968006,5.394548716584395,-0.002131570051678343,0.02365247155050878,0.0007348679302654714,20.806234472943203,0.023759693436738023,1.0,0.0,122.69864070999516,1.2635784847245528,23.55195437572899,109.07141491074586,0.07587462346497874,3.123761941181593,1.0,27.87963183109379,0.0,1.0,109.2660252751589,7318.88202084839,1.0,1.0,-1.7249840133220535,19.23809017952551,-0.04439878013774128,-43.99306353143497,1.0,26.698641070963465,1.0,-0.007602903484157358,4.138781519968073,0.934037696552859,1.0,-0.2091157974856451,6.626552167965981
1.29,1.29,1.0,19.985906729872035,-0.011828266213584857,5.479180058237313,0.001319078218174888,0.020150437842386855,-0.001237858313875776,20.72336897885118,0.02023147067790157,1.0,0.0,122.69864070999516,1.2635784847245528,23.55195437572899,109.07141491074586,0.07587462346497874,3.123761941181593,1.0,27.87963183109379,0.0,1.0,110.10565229254065,7313.414773365792,1.0,1.0,-1.7249840133220535,19.23809017952551,-0.04439878013774128,-43.99306353143497,1.0,26.698641070963465,1.0,-0.007602903484157358,4.138781519968073,0.934037696552859,1.0,-0.2091157974856451,6.626552167965981
1.3199999999999998,1.3199999999999998,1.0,19.964970604158523,-0.05642250734004022,5.6192280962892385,-0.004861475145653224,0.01702423654257204,0.0015863711442240184,20.740755992064873,0.017775689687223838,1.0,0.0,122.69864070999516,1.2635784847245528,23.55195437572899,109.07141491074586,0.07587462346497874,3.123761941181593,1.0,26.994079143240704,0.0,1.0,110.11079855510657,7542.740936424349,1.0,1.0,2.343208495041194,19.313109985149033,0.0007075656105720192,-43.90156941529524,1.0,26.6119323584853,1.0,-0.0018232912783413507,4.140862218862804,0.9335747212203314,1.0,0.33718862476710443,6.413065922708328
1.3499999999999999,1.3499999999999999,1.0,20.008988570469285,-0.016965971898601665,5.652908642199008,0.003531363877364551,0.01985461047098742,0.0018192982909093394,20.792192947700855,0.02024810939471397,1.0,0.0,122.69864070999516,1.2635784847245528,23.55195437572899,109.07141491074586,0.07587462346497874,3.123761941181593,1.0,26.994079143240704,0.0,1.0,110.89899022614674,7459.598824692239,1.0,1.0,2.343208495041194,19.313109985149033,0.0007075656105720192,-43.90156941529524,1.0,26.6119323584853,1.0,-0.0018232912783413507,4.140862218862804,0.9335747212203314,1.0,0.33718862476710443,6.413065922708328
1.38,1.38,1.0,19.854106163966758,0.0787298552947129,5.7265918703239524,0.003672524473432786,0.020766529660306916,-0.0013600217789994829,20.6636295071664,0.021132577916092552,1.0,0.0,122.69864070999516,1.2635784847245528,23.55195437572899,109.07141491074586,0.07587462346497874,3.123761941181593,1.0,26.828339046800828,0.0,1.0,111.20519319272852,7432.8880741611265,1.0,1.0,-0.7350228423122661,19.371276468907602,-0.08352027316921831,-43.97465491603005,1.0,26.735656476945103,1.0,-0.0024368936974586363,4.157865873714539,0.933130250730995,1.0,-0.3972756753758616,6.524348466202987
1.41,1.41,1.0,19.886979552193065,0.028694482140956826,5.767173079240779,-0.0015848162640157194,0.019689788143968778,0.002182466887568209,20.70635323780047,0.01987366502335173,1.0,0.0,122.69864070999516,1.2635784847245528,23.55195437572899,109.07141491074586,0.07587462346497874,3.123761941181593,1.0,26.828339046800828,0.0,1.0,111.50757321550064,7722.9679277398,1.0,1.0,-0.7350228423122661,19.371276468907602,-0.08352027316921831,-43.97465491603005,1.0,26.735656476945103,1.0,-0.0024368936974586363,4.157865873714539,0.933130250730995,1.0,-0.3972756753758616,6.524348466202987
1.44,1.44,1.0,19.876546929093802,0.011088751636152756,5.894192996102338,0.0028919504415087075,0.018414227601344323,-0.001200264707492466,20.732070611981403,0.018678538242547393,1.0,0.0,122.69864070999516,1.2635784847245528,23.55195437572899,109.07141491074586,0.07587462346497874,3.123761941181593,1.0,26.377770277317115,0.0,1.0,112.76693740518321,7696.325000137177,1.0,1.0,0.3774673232962958,19.465084318202514,0.03556427085910999,-43.93981828576848,1.0,27.02671145439471,1.0,-0.0029993561136232223,4.170131733607996,0.9327032696212986,1.0,0.16956155470215223,6.153703348459735
1.47,1.47,1.0,19.830808628773397,0.0301645980285489,6.007396576256339,0.0013454426220258751,0.018725811992802998,0.0019580746044872356,20.72077929032651,0.01887591870070716,1.0,0.0,144.7063902197289,-1.8251411168728504,26.850602645135876,113.12967367648925,-0.012172391676336727,2.772319553777488,1.0,26.377770277317115,0.0,1.0,113.81733396602365,7819.890854547041,1.0,1.0,0.3774673232962958,19.465084318202514,0.03556427085910999,-43.93981828576848,1.0,27.02671145439471,1.0,-0.0029993561136232223,4.170131733607996,0.9327032696212986,1.0,0.16956155470215223,6.153703348459735
1.5,1.5,1.0,19.914534192149368,0.03733986849264914,6.003562395434561,0.0008726882754002555,0.016147837332671746,0.0011060806505034835,20.79982759043789,0.0162091841174646,1.0,0.0,144.7063902197289,-1.8251411168728504,26.850602645135876,113.12967367648925,-0.012172391676336727,2.772319553777488,1.0,27.534445102254622,0.0,1.0,114.32762694205552,8020.193021770134,1.0,1.0,-0.2145946101763215,19.429088993343502,0.016266858357359488,-43.857424877211045,1.0,27.305746807120734,1.0,-0.004124003213932064,4.188976525240306,0.9322927574479398,1.0,0.09241235591505871,5.691313152724352
1.53,1.53,1.0,19.80812968427677,0.006442727274533544,6.028320663715633,-0.002831657629661167,0.017381908643795043,0.0037632363925824332,20.705136877655317,0.018008636294270366,1.0,0.0,144.7063902197289,-1.8251411168728504,26.850602645135876,113.12967367648925,-0.012172391676336727,2.772319553777488,1.0,27.534445102254622,0.0,1.0,114.38868778394337,7993.980923639562,1.0,1.0,-0.2145946101763215,19.429088993343502,0.016266858357359488,-43.857424877211045,1.0,27.305746807120734,1.0,-0.004124003213932064,4.188976525240306,0.9322927574479398,1.0,0.09241235591505871,5.691313152724352
1.56,1.56,1.0,19.7448914327609,0.045481192787848235,6.12740284662627,0.0036758924771654565,0.01700605537046829,-0.00104922189277106,20.673845115876627,0.017430403648435257,1.0,0.0,144.7063902197289,-1.8251411168728504,26.850602645135876,113.12967367648925,-0.012172391676336727,2.772319553777488,1.0,26.820774389124363,0.0,1.0,114.61455999436471,8034.334424875447,1.0,1.0,0.7016740696096815,19.383050450089208,-0.01395690306589013,-43.8220547187278,1.0,27.169955755081272,1.0,0.00977223531410652,4.206949343269642,0.9318976891632056,1.0,-0.0043760788871230576,5.835453364440834
1.5899999999999999,1.5899999999999999,1.0,19.772890919025517,-0.030487865959053097,6.222728908919491,-0.0005354402436391785,0.014218668141187316,-0.004962415457808486,20.728977299412406,0.015069266310594558,1.0,0.0,144.7063902197289,-1.8251411168728504,26.850602645135876,113.12967367648925,-0.012172391676336727,2.772319553777488,1.0,26.820774389124363,0.0,1.0,115.67092487645718,8106.599230087507,1.0,1.0,0.7016740696096815,19.383050450089208,-0.01395690306589013,-43.8220547187278,1.0,27.169955755081272,1.0,0.00977223531410652,4.206949343269642,0.9318976891632056,1.0,-0.0043760788871230576,5.835453364440834
1.6199999999999999,1.6199999999999999,1.0,19.75617591867616,-0.007502796455767977,6.27847846671093,-0.0009755522071803937,0.016010038494545322,-0.0002695267976135227,20.729829595985283,0.016041997363183593,1.0,0.0,144.7063902197289,-1.8251411168728504,26.850602645135876,113.12967367648925,-0.012172391676336727,2.772319553777488,1.0,26.810825713981554,0.0,1.0,115.64897974585166,8122.847833993719,1.0,1.0,-1.9247945066290102,19.488439935062072,-0.004059794244564778,-43.86628269745193,1.0,27.02358884513365,1.0,0.003402952434384164,4.229621809470939,0.9315170356489881,1.0,0.09388963021114301,5.757766827099645
1.65,1.65,1.0,19.719559830900124,0.000658685689026448,6.346027593405762,0.0016474229917523308,0.018625039874192787,-0.00036908113664808017,20.71552815099301,0.018701399244828044,1.0,0.0,144.7063902197289,-1.8251411168728504,26.850602645135876,113.12967367648925,-0.012172391676336727,2.772319553777488,1.0,26.810825713981554,0.0,1.0,116.78038845694617,8252.24174402845,1.0,1.0,-1.9247945066290102,19.488439935062072,-0.004059794244564778,-43.86628269745193,1.0,27.02358884513365,1.0,0.003402952434384164,4.229621809470939,0.9315170356489881,1.0,0.09388963021114301,5.757766827099645
1.68,1.68,1.0,19.661859786025175,0.09079802653593017,6.463400255750887,9.73430391841088e-05,0.017049257917520707,-0.0006421946907634596,20.69716206133047,0.01706162610146714,1.0,0.0,170.27058706362806,1.1616826670386402,26.509723854381985,117.22871227061424,-0.1350476125878369,2.43246366202941,1.0,27.481690242891773,0.0,1.0,117.21464356432352,8338.933424357832,1.0,1.0,0.6141124900480973,19.605781070951675,0.014448138265438218,-43.77177404044734,1.0,27.229434712760845,1.0,0.00516692655765323,4.242506252458282,0.9311497643640015,1.0,0.3417968524853713,5.9321216996179995
1.71,1.71,1.0,19.721003503350296,0.031221425406593555,6.485189055165665,-0.0012405214580751918,0.016094434602095014,-0.0012074403758289168,20.759976662746986,0.016187267555404162,1.0,0.0,170.27058706362806,1.1616826670386402,26.509723854381985,117.22871227061424,-0.1350476125878369,2.43246366202941,1.0,27.481690242891773,0.0,1.0,118.0390836736308,8472.412386884798,1.0,1.0,0.6141124900480973,19.605781070951675,0.014448138265438218,-43.77177404044734,1.0,27.229434712760845,1.0,0.00516692655765323,4.242506252458282,0.9311497643640015,1.0,0.3417968524853713,5.9321216996179995
1.74,1.74,1.0,19.711601968492047,-0.039043249960844344,6.6365987501823644,0.002825675115971677,0.014859575624573166,0.0010788518321795829,20.798875438603627,0.015164278712791709,1.0,0.0,170.27058706362806,1.1616826670386402,26.509723854381985,117.22871227061424,-0.1350476125878369,2.43246366202941,1.0,27.29132507952362,0.0,1.0,118.50814072548104,8636.061900265124,1.0,1.0,0.5627360852811235,19.56089004145207,0.04772053877719898,-43.76433988476545,1.0,27.52383732173894,1.0,-0.0038974118013305166,4.270805009691523,0.9307948400700677,1.0,0.16393896811623238,5.6546923583374955
1.77,1.77,1.0,19.594337613514437,-5.21496250691673e-05,6.693100408750173,0.0026513948078502663,0.008582272951273093,0.0027272566486043494,20.705932956443135,0.00938739752352087,1.0,0.0,170.27058706362806,1.1616826670386402,26.509723854381985,117.22871227061424,-0.1350476125878369,2.43246366202941,1.0,27.29132507952362,0.0,1.0,118.55566626273115,8651.358865380762,1.0,1.0,0.5627360852811235,19.56089004145207,0.04772053877719898,-43.76433988476545,1.0,27.52383732173894,1.0,-0.0038974118013305166,4.270805009691523,0.9307948400700677,1.0,0.16393896811623238,5.6546923583374955
1.7999999999999998,1.7999999999999998,1.0,19.60209893813614,0.008330107049172893,6.679954306500262,-0.0018961512389216997,0.014185514079138697,5.2914733411405245e-05,20.709035267440463,0.014311778337415601,1.0,0.0,170.27058706362806,1.1616826670386402,26.509723854381985,117.22871227061424,-0.1350476125878369,2.43246366202941,1.0,27.615828069978615,0.0,1.0,120.77252777984668,8767.01243904646,1.0,1.0,-0.3262443233519446,19.694405208759605,-0.04003954791055937,-43.733899618933215,1.0,27.580895428028082,1.0,0.011423955194210769,4.2790235596278805,0.9304512256118027,1.0,-0.5425658060755076,6.253567062746663
1.8299999999999998,1.8299999999999998,1.0,19.596982963440894,-0.028459740208587353,6.7220403189910805,0.001100360249402125,0.011095645126947365,-0.003124125759870651,20.717827523086175,0.01157947732953014,1.0,0.0,170.27058706362806,1.1616826670386402,26.509723854381985,117.22871227061424,-0.1350476125878369,2.43246366202941,1.0,27.615828069978615,0.0,1.0,119.55912796496887,8719.685525434968,1.0,1.0,-0.3262443233519446,19.694405208759605,-0.04003954791055937,-43.733899618933215,1.0,27.580895428028082,1.0,0.011423955194210769,4.2790235596278805,0.9304512256118027,1.0,-0.5425658060755076,6.253567062746663
1.8599999999999999,1.8599999999999999,1.0,19.52350226105085,-0.03712212611420318,6.84203899563128,0.0007273899546089776,0.012766961015999936,0.0005649541177773316,20.687726221294692,0.012800139174451258,1.0,0.0,170.27058706362806,1.1616826670386402,26.509723854381985,117.22871227061424,-0.1350476125878369,2.43246366202941,1.0,28.146249422025857,0.0,1.0,120.71085992281732,8875.86982407683,1.0,1.0,0.6800853980799426,19.652038524127207,-0.049028258619816384,-43.78075447954577,1.0,28.146338761999576,1.0,-0.01023668724633054,4.304121108439263,0.9301178827303993,1.0,-0.1367928239861043,5.331196668596158
1.89,1.89,1.0,19.492558301909554,-0.003671067969064331,6.833951411207931,0.0017711561968832262,0.011247112332231187,0.0004369467160500823,20.65581599745781,0.011394097266578501,1.0,0.0,195.21553707261936,0.23116065812675257,27.296629679954208,121.35864884675316,0.19296689994094515,2.0350220864225057,1.0,28.146249422025857,0.0,1.0,121.17998772295739,8975.440911593032,1.0,1.0,0.6800853980799426,19.652038524127207,-0.049028258619816384,-43.78075447954577,1.0,28.146338761999576,1.0,-0.01023668724633054,4.304121108439263,0.9301178827303993,1.0,-0.1367928239861043,5.331196668596158
1.92,1.92,1.0,19.490657935326144,0.015417722112750006,6.94250572245526,-0.00048014079212447386,0.013509642142076114,-0.004055419079505056,20.690199858009375,0.014113376275634205,1.0,0.0,195.21553707261936,0.23116065812675257,27.296629679954208,121.35864884675316,0.19296689994094515,2.0350220864225057,1.0,28.89000797353524,0.0,1.0,121.4320464840783,9122.44179865879,1.0,1.0,1.447368540283685,19.690406839566965,0.04539510991734096,-43.79583396799222,1.0,28.049374696232544,1.0,-0.010468594514496067,4.322848242248046,0.9297937728969646,1.0,-0.0702452194484693,6.3882612420993
1.95,1.95,1.0,19.444525838807603,0.043505741433301826,7.044323616976012,-0.000982549976114109,0.0117909579626374,0.0008587005398050328,20.681246893412403,0.011862944859911706,1.0,0.0,195.21553707261936,0.23116065812675257,27.296629679954208,121.35864884675316,0.19296689994094515,2.0350220864225057,1.0,28.89000797353524,0.0,1.0,122.58114126270743,9144.204965950434,1.0,1.0,1.447368540283685,19.690406839566965,0.04539510991734096,-43.79583396799222,1.0,28.049374696232544,1.0,-0.010468594514496067,4.322848242248046,0.9297937728969646,1.0,-0.0702452194484693,6.3882612420993
1.98,1.98,1.0,19.52906072038139,0.0240047518040423,7.080057675637511,0.0039010493608163427,0.009089983769952471,-0.0009739877122665004,20.77286705148825,0.00993954944236262,1.0,0.0,195.21553707261936,0.23116065812675257,27.296629679954208,121.35864884675316,0.19296689994094515,2.0350220864225057,1.0,27.641333776923744,0.0,1.0,123.12308816428164,9257.901989387956,1.0,1.0,-0.7842821761998161,19.700613593555587,0.05424620680794949,-43.75738690333347,1.0,27.968054980438556,1.0,0.012199013576344864,4.331309521423635,0.9294778581544446,1.0,-0.5278322184023769,5.542600289918252
2.01,2.01,1.0,19.441694720024437,0.05188712442353588,7.225912138022174,0.00092603375883204,0.012575375447316132,-0.001575059528903153,20.74116660380325,0.012707415893211595,1.0,0.0,195.21553707261936,0.23116065812675257,27.296629679954208,121.35864884675316,0.19296689994094515,2.0350220864225057,1.0,27.641333776923744,0.0,1.0,123.32927010681117,9224.362805381263,1.0,1.0,-0.7842821761998161,19.700613593555587,0.05424620680794949,-43.75738690333347,1.0,27.968054980438556,1.0,0.012199013576344864,4.331309521423635,0.9294778581544446,1.0,-0.5278322184023769,5.542600289918252
2.04,2.04,1.0,19.363253944570236,-0.07468004108789485,7.218600685983337,-0.0024309559510540977,0.010161176970601699,-0.00322055697449539,20.665173028410162,0.01093302572437395,1.0,0.0,195.21553707261936,0.23116065812675257,27.296629679954208,121.35864884675316,0.19296689994094515,2.0350220864225057,1.0,28.124078766167155,0.0,1.0,124.5768576388099,9524.621180383658,1.0,1.0,0.25023074053470734,19.75462804827452,0.015667559102302758,-43.77492773125695,1.0,28.626187050343635,1.0,-0.013415473284645428,4.363797037066796,0.9291691019598524,1.0,-0.3571401300028496,5.83547885071307
2.07,2.07,1.0,19.289490461698342,-0.005589076076516237,7.299362993888403,0.002332835248667213,0.00838772244109837,-0.002895341197080773,20.6243829877713,0.009174911917497766,1.0,0.0,195.21553707261936,0.23116065812675257,27.296629679954208,121.35864884675316,0.19296689994094515,2.0350220864225057,1.0,28.124078766167155,0.0,1.0,124.47053509204636,9351.45077139828,1.0,1.0,0.25023074053470734,19.75462804827452,0.015667559102302758,-43.77492773125695,1.0,28.626187050343635,1.0,-0.013415473284645428,4.363797037066796,0.9291691019598524,1.0,-0.3571401300028496,5.83547885071307
2.1,2.1,1.0,19.3063573537707,0.018497405739413244,7.350148527206257,0.0002752527406956336,0.006688137456275557,-0.0017296250356417025,20.658181425224907,0.006913649504365628,1.0,0.0,219.9903346360053,-1.8463969860715754,28.268115106055074,125.11504288135451,0.0690572774663752,2.2287445080890818,1.0,26.960750457301472,0.0,1.0,124.9515373584242,9434.091463188772,1.0,1.0,-0.5617045459950446,19.770548279490246,-0.02278387965379635,-43.72261853478756,1.0,28.20309667443076,1.0,-0.015107478000482445,4.377651200622552,0.9288664700205371,1.0,-0.17290034057281395,5.358260859914409
2.13,2.13,1.0,19.217845820808265,-0.0809043634566361,7.508442913163706,0.0014514770404693027,0.0033972279177155095,-0.001998127892228071,20.63271330893303,0.004200054546980905,1.0,0.0,219.9903346360053,-1.8463969860715754,28.268115106055074,125.11504288135451,0.0690572774663752,2.2287445080890818,1.0,26.960750457301472,0.0,1.0,126.07813361395273,9664.64071454637,1.0,1.0,-0.5617045459950446,19.770548279490246,-0.02278387965379635,-43.72261853478756,1.0,28.20309667443076,1.0,-0.015107478000482445,4.377651200622552,0.9288664700205371,1.0,-0.17290034057281395,5.358260859914409
2.16,2.16,1.0,19.329024462842426,0.03469971446569132,7.545539116790913,-0.0026563749982635295,0.008567014113843642,-0.002775817840203425,20.74963978767744,0.009389101322287844,1.0,0.0,219.9903346360053,-1.8463969860715754,28.268115106055074,125.11504288135451,0.0690572774663752,2.2287445080890818,1.0,28.226068425886744,0.0,1.0,126.01879534548748,9750.627137585983,1.0,1.0,0.4233164139812587,19.815537012705672,-0.050777528817849915,-43.73325840323473,1.0,28.545344768431246,1.0,-0.005930493680395344,4.408969370379807,0.9285689311197475,1.0,0.11237609426853262,5.651923471667409
2.19,2.19,1.0,19.2762936134089,-0.048149256925150576,7.583460629272602,0.0035438724631998313,0.007794308471830208,0.0013501696624255626,20.714407762159624,0.00866794293398408,1.0,0.0,219.9903346360053,-1.8463969860715754,28.268115106055074,125.11504288135451,0.0690572774663752,2.2287445080890818,1.0,28.226068425886744,0.0,1.0,126.78890996396022,9766.518216810226,1.0,1.0,0.4233164139812587,19.815537012705672,-0.050777528817849915,-43.73325840323473,1.0,28.545344768431246,1.0,-0.005930493680395344,4.408969370379807,0.9285689311197475,1.0,0.11237609426853262,5.651923471667409
2.2199999999999998,2.2199999999999998,1.0,19.274342960913334,0.03679771883258678,7.660399024623924,0.0005254121988434806,0.005293479187940212,-0.0028418205550242,20.74086217743804,0.006030996929099514,1.0,0.0,219.9903346360053,-1.8463969860715754,28.268115106055074,125.11504288135451,0.0690572774663752,2.2287445080890818,1.0,28.804412427388666,0.0,1.0,127.0156163427501,9802.468109454028,1.0,1.0,0.8695313828679716,19.80613787275052,-0.06388633268153332,-43.69968559655555,1.0,28.730689365600796,1.0,0.013958965406081755,4.437453429665804,0.9282754579278926,1.0,0.22677049440851155,5.6924327942788
2.25,2.25,1.0,19.13969903361587,0.01683244206164292,7.747284246498918,0.002284427537273557,0.00426334680161247,0.0005801917771573484,20.64821482900041,0.004871484129313572,1.0,0.0,219.9903346360053,-1.8463969860715754,28.268115106055074,125.11504288135451,0.0690572774663752,2.2287445080890818,1.0,28.804412427388666,0.0,1.0,127.57539382519673,9838.373013849487,1.0,1.0,0.8695313828679716,19.80613787275052,-0.06388633268153332,-43.69968559655555,1.0,28.730689365600796,1.0,0.013958965406081755,4.437453429665804,0.9282754579278926,1.0,0.22677049440851155,5.6924327942788
2.28,2.28,1.0,19.143930123129206,0.015720614708612243,7.834169748010823,0.00012819310559753644,0.00656124796510155,-0.0008190973864266151,20.684886350609435,0.0066134203601708914,1.0,0.0,219.9903346360053,-1.8463969860715754,28.268115106055074,125.11504288135451,0.0690572774663752,2.2287445080890818,1.0,29.735892224709346,0.0,1.0,128.65116775075924,10199.653732830022,1.0,1.0,-0.3600057011790012,19.881921782723005,-0.05568687176949306,-43.66063444108253,1.0,28.750146367368636,1.0,0.023842575143411617,4.447059713487987,0.9279850277967692,1.0,0.27307576099682407,6.042989499123282
2.31,2.31,1.0,19.14772263935588,0.04723938194106884,7.800296982039357,-0.0008454030478418302,0.004866183545242615,-0.0021867071196781133,20.675641388864342,0.005401493926363445,1.0,0.0,249.91250142345413,0.6382765030024893,27.542973566094687,128.9360492925318,0.05018331156885276,1.8809822260172258,1.0,29.735892224709346,0.0,1.0,129.17948036538778,10268.809093661155,1.0,1.0,-0.3600057011790012,19.881921782723005,-0.05568687176949306,-43.66063444108253,1.0,28.750146367368636,1.0,0.023842575143411617,4.447059713487987,0.9279850277967692,1.0,0.27307576099682407,6.042989499123282
2.34,2.34,1.0,19.194326665457222,0.026832935658258922,7.86650768578457,-0.001351838934137714,0.005528251395439981,-0.0035068434607985794,20.74379037970703,0.006684832313048731,1.0,0.0,249.91250142345413,0.6382765030024893,27.542973566094687,128.9360492925318,0.05018331156885276,1.8809822260172258,1.0,28.599978832287555,0.0,1.0,129.29230047459637,10218.161923503696,1.0,1.0,-0.028407032069796924,19.86805232684002,0.07201592768595502,-43.709027649112215,1.0,28.869337029415494,1.0,-0.004027085100744865,4.4553786511555815,0.927696623534683,1.0,0.25661548026180003,6.2061007972240585
2.37,2.37,1.0,19.090662240174478,0.0209639356716077,8.000990623056426,-0.0003632996270686625,0.006057159597072719,-0.00031711971375137575,20.69950905710711,0.006076325692084661,1.0,0.0,249.91250142345413,0.6382765030024893,27.542973566094687,128.9360492925318,0.05018331156885276,1.8809822260172258,1.0,28.599978832287555,0.0,1.0,129.9221904348304,10491.571805839336,1.0,1.0,-0.028407032069796924,19.86805232684002,0.07201592768595502,-43.709027649112215,1.0,28.869337029415494,1.0,-0.004027085100744865,4.4553786511555815,0.927696623534683,1.0,0.25661548026180003,6.2061007972240585
2.4,2.4,1.0,19.00403436636566,-0.03410933163630679,7.9928049283659535,0.0005610424703294004,0.00767118528808147,0.0010262624718933426,20.616484090829424,0.007759836792021307,1.0,0.0,249.91250142345413,0.6382765030024893,27.542973566094687,128.9360492925318,0.05018331156885276,1.8809822260172258,1.0,29.926847649804184,0.0,1.0,130.74929641752698,10480.52730876027,1.0,1.0,1.4372852833568526,19.91141317445398,-0.04755143383587196,-43.750105255962154,1.0,29.019814450731495,1.0,-0.0050456877378799135,4.498290548293703,0.9274092341608926,1.0,0.1994701051319033,5.723863271880668
2.4299999999999997,2.4299999999999997,1.0,19.071671276721478,-0.04878763864879689,8.147466627723507,0.0019669412489368575,0.01133529501574572,0.001431690440646607,20.739147474543792,0.011593425226765295,1.0,0.0,249.91250142345413,0.6382765030024893,27.542973566094687,128.9360492925318,0.05018331156885276,1.8809822260172258,1.0,29.926847649804184,0.0,1.0,130.61605106006644,10508.444941771755,1.0,1.0,1.4372852833568526,19.91141317445398,-0.04755143383587196,-43.750105255962154,1.0,29.019814450731495,1.0,-0.0050456877378799135,4.498290548293703,0.9274092341608926,1.0,0.1994701051319033,5.723863271880668
2.46,2.46,1.0,19.059310368067436,-0.003271115204295963,8.205884897117173,0.0031805564470128236,-0.0008734483109214914,0.0029295226477759266,20.750755874214637,0.0044114571524971795,1.0,0.0,249.91250142345413,0.6382765030024893,27.542973566094687,128.9360492925318,0.05018331156885276,1.8809822260172258,1.0,29.17385357969062,0.0,1.0,131.22551484968204,10529.699143771568,1.0,1.0,-1.1496667085429622,19.927099340374685,-0.010432449343574242,-43.68282527905594,1.0,28.79938448937636,1.0,-0.002541762481076083,4.4909146984223405,0.9271218577301401,1.0,-0.6922971500235268,5.111077163357295
2.4899999999999998,2.4899999999999998,1.0,19.012432137699697,0.008211598046294556,8.164556933224642,0.0002130542570270981,0.001082914104194961,0.0019500688686208795,20.69136614960079,0.0022407283784220836,1.0,0.0,249.91250142345413,0.6382765030024893,27.542973566094687,128.9360492925318,0.05018331156885276,1.8809822260172258,1.0,29.17385357969062,0.0,1.0,132.5801321245439,10700.694272945708,1.0,1.0,-1.1496667085429622,19.927099340374685,-0.010432449343574242,-43.68282527905594,1.0,28.79938448937636,1.0,-0.002541762481076083,4.4909146984223405,0.9271218577301401,1.0,-0.6922971500235268,5.111077163357295
2.52,2.52,1.0,19.00742320096222,-0.005877745223797088,8.241405219913128,0.0013611699576882368,-0.0022497187503354946,0.003726427663280579,20.717213405455308,0.004560732533155924,1.0,0.0,274.27558788816356,-0.10141783129519316,28.700771913905236,132.69746938116978,0.05831954638993039,1.8817793914156369,1.0,29.779231379298917,0.0,1.0,132.43543120044723,10703.75869340814,1.0,1.0,-0.035793915982271614,19.930199989438456,-0.013723817745243672,-43.69026273295727,1.0,28.850795996380533,1.0,0.001063280465829608,4.519561222597328,0.9268334822697055,1.0,0.03747997957349565,5.734974149599558
2.55,2.55,1.0,18.879431229236026,-0.021298789372486714,8.355799887463684,0.0004486182677916464,0.002266005454130751,0.0021347876640692826,20.64588988000322,0.003145370795154217,1.0,0.0,274.27558788816356,-0.10141783129519316,28.700771913905236,132.69746938116978,0.05831954638993039,1.8817793914156369,1.0,29.779231379298917,0.0,1.0,133.26846934181026,10894.960051249276,1.0,1.0,-0.035793915982271614,19.930199989438456,-0.013723817745243672,-43.69026273295727,1.0,28.850795996380533,1.0,0.001063280465829608,4.519561222597328,0.9268334822697055,1.0,0.03747997957349565,5.734974149599558
2.58,2.58,1.0,18.88320193354933,-0.01926697111859574,8.45891880918231,0.003485165484889403,-0.0006066697332001571,-0.0001281285792732277,20.691278208455742,0.0035398931558836793,1.0,0.0,274.27558788816356,-0.10141783129519316,28.700771913905236,132.69746938116978,0.05831954638993039,1.8817793914156369,1.0,29.32006927239449,0.0,1.0,133.13514770305557,10946.314156613653,1.0,1.0,0.5647550128728891,19.912044772161092,0.03583157218110569,-43.658688487448025,1.0,29.41626517066988,1.0,0.0018875132671970485,4.5468461804295055,0.9265428850209105,1.0,0.3524245659362993,5.572819462166202
2.61,2.61,1.0,18.90544263004841,0.024519108602965627,8.495893415237937,0.003217895832033121,-0.0036878110281962067,0.00012857675050212457,20.72671144074288,0.004896053078375619,1.0,0.0,274.27558788816356,-0.10141783129519316,28.700771913905236,132.69746938116978,0.05831954638993039,1.8817793914156369,1.0,29.32006927239449,0.0,1.0,134.67060865155005,11107.63532884143,1.0,1.0,0.5647550128728891,19.912044772161092,0.03583157218110569,-43.658688487448025,1.0,29.41626517066988,1.0,0.0018875132671970485,4.5468461804295055,0.9265428850209105,1.0,0.3524245659362993,5.572819462166202
2.6399999999999997,2.6399999999999997,1.0,18.842360525909978,0.03546196645901884,8.604981072810768,0.0024486760117629442,-0.003006318284034512,0.000879194221309615,20.714282681349772,0.003975795054361795,1.0,0.0,274.27558788816356,-0.10141783129519316,28.700771913905236,132.69746938116978,0.05831954638993039,1.8817793914156369,1.0,30.16813311038846,0.0,1.0,134.30617506966342,10886.348158495446,1.0,1.0,-1.199518438402929,19.886505470662957,0.01514703154260549,-43.7421873037512,1.0,29.578859994325782,1.0,-0.003942217274644855,4.558054299401965,0.9262487286855771,1.0,-0.21177598388487037,5.77632851547853
2.67,2.67,1.0,18.822807266487565,0.05963740229187786,8.67762742652424,0.001567179742336229,-0.0032826671947289833,-0.002552477933140352,20.726862950399777,0.0044437709049080535,1.0,0.0,274.27558788816356,-0.10141783129519316,28.700771913905236,132.69746938116978,0.05831954638993039,1.8817793914156369,1.0,30.16813311038846,0.0,1.0,135.280563341027,11322.37170285908,1.0,1.0,-1.199518438402929,19.886505470662957,0.01514703154260549,-43.7421873037512,1.0,29.578859994325782,1.0,-0.003942217274644855,4.558054299401965,0.9262487286855771,1.0,-0.21177598388487037,5.77632851547853
2.6999999999999997,2.6999999999999997,1.0,18.7846428124064,-0.0028292954792913595,8.776419019878922,-0.0026905972885592376,-0.004228708612285038,-0.001719619334487721,20.73374892312282,0.005298903750056229,1.0,0.0,274.27558788816356,-0.10141783129519316,28.700771913905236,132.69746938116978,0.05831954638993039,1.8817793914156369,1.0,29.188510856079677,0.0,1.0,136.00293275017412,11315.396746900013,1.0,1.0,-1.3895194828260844,19.890993947480418,-0.004248524881930543,-43.72514225671057,1.0,29.908191995676276,1.0,-0.00927188181434907,4.565729449863488,0.9259495749946022,1.0,-0.4880714942925164,5.329840779151819
2.73,2.73,1.0,18.717762774556483,-0.008191176937451571,8.811723174957645,0.0014038757809115674,-0.006601037448174431,0.0020528296269106366,20.688189280167506,0.007053982710324242,1.0,0.0,303.80901603405664,2.1045066895928883,29.466132553410755,136.65182908374268,0.08236413760060192,2.0973575706344256,1.0,29.188510856079677,0.0,1.0,136.59123313980135,11404.115344657665,1.0,1.0,-1.3895194828260844,19.890993947480418,-0.004248524881930543,-43.72514225671057,1.0,29.908191995676276,1.0,-0.00927188181434907,4.565729449863488,0.9259495749946022,1.0,-0.4880714942925164,5.329840779151819
2.76,2.76,1.0,18.743965889128948,0.045567308018234706,8.864391012963738,0.0017436887291553003,-0.004723218145425908,0.0004990966479443097,20.734410087173973,0.005059479963143744,1.0,0.0,303.80901603405664,2.1045066895928883,29.466132553410755,136.65182908374268,0.08236413760060192,2.0973575706344256,1.0,28.980541742712898,0.0,1.0,137.10715389947097,11430.56073616976,1.0,1.0,-0.06655597789322747,19.840337574985295,-0.002851054922081332,-43.66615206059315,1.0,29.483406828570008,1.0,-0.019988459020591324,4.5948670280027955,0.9256439224820601,1.0,0.18779289901944154,5.927213994483825
2.79,2.79,1.0,18.741597604450337,0.00019620147251575245,8.990363754097892,-0.002298897662990783,-0.005136242141429543,0.004382419867510089,20.786392694179305,0.007132427195243452,1.0,0.0,303.80901603405664,2.1045066895928883,29.466132553410755,136.65182908374268,0.08236413760060192,2.0973575706344256,1.0,28.980541742712898,0.0,1.0,138.432375954519,11557.004934816032,1.0,1.0,-0.06655597789322747,19.840337574985295,-0.002851054922081332,-43.66615206059315,1.0,29.483406828570008,1.0,-0.019988459020591324,4.5948670280027955,0.9256439224820601,1.0,0.18779289901944154,5.927213994483825
2.82,2.82,1.0,18.584771319257765,0.0028125404081379072,9.059606290203476,0.00262532892595012,-0.005037125585652527,-0.0009046991032261014,20.67535245244888,0.00575182289386972,1.0,0.0,303.80901603405664,2.1045066895928883,29.466132553410755,136.65182908374268,0.08236413760060192,2.0973575706344256,1.0,28.89815946587936,0.0,1.0,138.76627750569452,11683.313463405755,1.0,1.0,-0.7967127710274475,19.848227089727587,0.018753517826815114,-43.735613176689185,1.0,30.231517996561294,1.0,-0.0009114615284409984,4.612787343400547,0.9253302263385663,1.0,-0.5329192581886949,5.4074016931906925
2.85,2.85,1.0,18.643107922615645,-0.004158520780478598,9.2186432299748,-0.0038548633084929534,-0.00864781747609029,-0.001132038772847695,20.79780933918641,0.009535524632141034,1.0,0.0,303.80901603405664,2.1045066895928883,29.466132553410755,136.65182908374268,0.08236413760060192,2.0973575706344256,1.0,28.89815946587936,0.0,1.0,138.9674870774567,11689.515698599494,1.0,1.0,-0.7967127710274475,19.848227089727587,0.018753517826815114,-43.735613176689185,1.0,30.231517996561294,1.0,-0.0009114615284409984,4.612787343400547,0.9253302263385663,1.0,-0.5329192581886949,5.4074016931906925
2.88,2.88,1.0,18.63280050356121,-0.07283437324349089,9.285853048281368,0.0007463969521896042,-0.007769816110057455,0.003880229874275832,20.818588479666747,0.008716842012539227,1.0,0.0,303.80901603405664,2.1045066895928883,29.466132553410755,136.65182908374268,0.08236413760060192,2.0973575706344256,1.0,29.4863410752088,0.0,1.0,139.31837346467523,11805.519161888576,1.0,1.0,0.21708280963077903,19.767813834443157,-0.0732002931424448,-43.642403458219356,1.0,30.17820994134561,1.0,-8.939142644590762e-05,4.639700290479737,0.9250069150047052,1.0,0.17881758013921867,5.00502592718844
2.9099999999999997,2.9099999999999997,1.0,18.523906361252823,-0.010888856403826475,9.421227435835586,-0.000984223930346539,-0.008639932091634661,-0.0007834056625672416,20.782077659497805,0.00873102787335304,1.0,0.0,303.80901603405664,2.1045066895928883,29.466132553410755,136.65182908374268,0.08236413760060192,2.0973575706344256,1.0,29.4863410752088,0.0,1.0,140.36388193814884,11821.697096754851,1.0,1.0,0.21708280963077903,19.767813834443157,-0.0732002931424448,-43.642403458219356,1.0,30.17820994134561,1.0,-8.939142644590762e-05,4.639700290479737,0.9250069150047052,1.0,0.17881758013921867,5.00502592718844
2.94,2.94,1.0,18.553820045190275,-0.00930408198703304,9.435406650741577,0.0002715968642004433,-0.010284592809738194,-0.00039849616454513297,20.815168111262143,0.010295893031297442,1.0,0.0,332.24319066466285,0.0851464494274879,29.60155861228377,140.28290066501958,-0.0847152971834104,2.1878384870993766,1.0,30.83472807539092,0.0,1.0,140.78209075485728,11967.158339331067,1.0,1.0,1.1502424460955363,19.869594878514263,-0.035663396276983145,-43.754937808755734,1.0,30.21296771476685,1.0,0.01097240980800609,4.637386309831127,0.9246724038890973,1.0,0.18621641233170638,4.968499299763075
2.9699999999999998,2.9699999999999998,1.0,18.57030708386536,-0.011257863679068066,9.441493681329051,0.0005319998510075525,-0.011112913465784984,0.0018517141669418733,20.832624291316034,0.011278684094146377,1.0,0.0,332.24319066466285,0.0851464494274879,29.60155861228377,140.28290066501958,-0.0847152971834104,2.1878384870993766,1.0,30.83472807539092,0.0,1.0,141.03111452051976,11760.270030716098,1.0,1.0,1.1502424460955363,19.869594878514263,-0.035663396276983145,-43.754937808755734,1.0,30.21296771476685,1.0,0.01097240980800609,4.637386309831127,0.9246724038890973,1.0,0.18621641233170638,4.968499299763075
3.0,3.0,1.0,18.510427062840748,-0.031382838481664635,9.66125756441269,0.0004104119839422664,-0.007586708969499673,-0.002486773789839731,20.880057295352895,0.00799441272804226,1.0,0.0,332.24319066466285,0.0851464494274879,29.60155861228377,140.28290066501958,-0.0847152971834104,2.1878384870993766,1.0,32.05103408673648,0.0,1.0,141.78111263629157,12230.392309725828,1.0,1.0,-0.7531998674592495,19.820625379907174,0.044160189268739776,-43.70783953424942,1.0,30.134451109115002,1.0,-0.017199384283428727,4.644603273663185,0.9243251056545991,1.0,-0.5522174070039261,6.105623165297507
