time_s,x_m,y_m,altitude_m,vx_mps,vy_mps,vz_mps,speed_mps,mass_kg,roll_deg,pitch_deg,yaw_deg,p_dps,q_dps,r_dps,alpha_deg,beta_deg,qbar_pa,mach,airspeed_mps,load_factor_g,density_kgpm3,pressure_pa,temperature_k,wind_x_mps,wind_y_mps,wind_z_mps,thrust_n,mass_flow_kgps,propulsion_throttle_actual,propulsion_health,energy_j_per_kg,target_distance_m,guidance_mode,pitch_command_deg,heading_command_deg,roll_command_deg
0.0,0.0,0.0,20.0,85.0,0.0,8.0,85.37564055396598,18.1660882792304,0.0,6.000000000000002,0.0,0.0,0.0,0.0,0.623294571949261,0.0,4455.946741876431,0.2509445034436674,85.37564055396597,1.7300556725795753,1.2226496753673843,101084.96761777384,288.02,0.0,0.0,0.0,326.8,0.17539118863220368,0.86,nominal,3840.633,nan,pitch_program,13.0,0.0,0.0
0.03,2.565167608212382,0.0,20.23293464555932,85.50558694041274,0.0,7.764488185310674,85.85739732139747,18.160826543571435,0.0,6.265582975204377,0.0,0.0,-8.852781691043555,0.0,1.0769672822350613,0.0,4506.275744948701,0.25236119376303623,85.85739732139749,1.757876393433434,1.2226223218944803,101082.17473991861,288.0184859248038,0.0,0.0,0.0,332.605,0.1785066900092231,0.86,nominal,3884.1636459440297,nan,pitch_program,12.985,0.0,0.0
0.06,5.145686992251351,0.0,20.459287892271387,86.01731280129897,0.0,7.545108223735462,86.34759266861117,18.15547134287116,0.0,6.641288029579337,0.0,0.0,-12.523546686543249,0.0,1.6283528081208951,0.0,4557.77992752306,0.2538026763192919,86.34759266861116,1.7862653084432796,1.222595741722558,101079.46083265425,288.0170146287002,0.0,0.0,0.0,338.40999999999997,0.18162219138624247,0.86,nominal,3928.5904554409394,nan,pitch_program,12.97,0.0,0.0
0.09,7.741710543341638,0.0,20.679674126088784,86.53411836967625,0.0,7.346207793913228,86.84538220866146,18.150022677129574,0.0,6.946368289490534,0.0,0.0,-10.169366023831884,0.0,2.093948129938356,0.0,4610.384557534663,0.2552664708264356,86.84538220866145,1.8157375308733887,1.2225698626688035,101076.81852476638,288.0155821181804,0.0,0.0,0.0,344.215,0.18473769276326188,0.86,nominal,3973.8585317528546,nan,pitch_program,12.955,0.0,0.0
0.12,10.353410769548223,0.0,20.8945606955685,87.05667420688617,0.0,7.1628856493238295,87.35085262771743,18.144480546346674,0.0,7.124583724973241,0.0,0.0,-5.9405193055728756,0.0,2.420972463441553,0.0,4664.112568335505,0.256752833308275,87.35085262771743,1.8456343700647597,1.222544629821652,101074.24220863753,288.0141853554788,0.0,0.0,0.0,350.02,0.1878531941402813,0.86,nominal,4019.9913710398014,nan,pitch_program,12.94,0.0,0.0
0.15,12.980996356198022,0.0,21.10422751031109,87.58618622165997,0.0,6.988893824753048,87.86458133826719,18.138844950522465,0.0,7.2192834798157755,0.0,0.0,-3.156659213370558,0.0,2.657063190025597,0.0,4719.040111144546,0.25826346167678194,87.86458133826719,1.8758690809318113,1.222520010283161,101071.72852439675,288.01282252118295,0.0,0.0,0.0,355.825,0.1909686955173007,0.86,nominal,4067.054099588477,nan,pitch_program,12.925,0.0,0.0
0.18,15.624697131506492,0.0,21.308865084424323,88.12335917694901,0.0,6.821252470441106,88.38696690064131,18.133115889656946,0.0,7.288883712404517,0.0,0.0,-2.3200080382465824,0.0,2.8626883684656903,0.0,4775.225733643298,0.2597995279008305,88.3869669006413,1.9065523125916954,1.222495981654922,101069.27518426701,288.0114923769512,0.0,0.0,0.0,361.63,0.19408419689432013,0.86,nominal,4115.096540727701,nan,pitch_program,12.91,0.0,0.0
0.21,18.28474565264924,0.0,21.508664957512224,88.66828403809153,0.0,6.659995769596761,88.91805293589555,18.127293363750116,0.0,7.357996870062069,0.0,0.0,-2.303772201259288,0.0,3.062498589700943,0.0,4832.690680699311,0.26136116067744086,88.91805293589555,1.9376256078449021,1.2224725214201313,101066.87988844657,288.01019367777616,0.0,0.0,0.0,367.435,0.19719969827133954,0.86,nominal,4164.138018160949,nan,pitch_program,12.895,0.0,0.0
0.24,20.961371143677507,0.0,21.703841739746046,89.2208497009423,0.0,6.505892741127429,89.4577367348246,18.121377372801977,0.0,7.420881500549947,0.0,0.0,-2.0961545600152864,0.0,3.250313524566783,0.0,4891.440571696897,0.2629480586616805,89.45773673482462,1.968907904999611,1.2224496043550723,101064.54006081985,288.00892502869164,0.0,0.0,0.0,373.24,0.20031519964835895,0.86,nominal,4214.185310455675,nan,pitch_program,12.88,0.0,0.0
0.27,23.654803286870195,0.0,21.894610259965702,89.7810714397562,0.0,6.358950673988568,90.00598337080056,18.115367916812527,0.0,7.465642047380417,0.0,0.0,-1.4920183035641437,0.0,3.414302300036275,0.0,4951.488484164084,0.2645601197514261,90.00598337080055,2.0002397666321046,1.2224272052123708,101062.25312291924,288.0076850333102,0.0,0.0,0.0,379.045,0.20343070102537836,0.86,nominal,4265.251300978306,nan,pitch_program,12.865,0.0,0.0
0.3,26.36527713796484,0.0,22.08116229743782,90.34912836982141,0.0,6.218401249070599,90.56287048940594,18.109264995781764,0.0,7.489223674295524,0.0,0.0,-0.7860542415997575,0.0,3.5519731445345206,0.0,5012.860142381784,0.26619757267354704,90.56287048940592,2.0315773064398397,1.2224053014529024,101060.01677284656,288.0064724450666,0.0,0.0,0.0,384.84999999999997,0.20654620240239774,0.86,nominal,4317.358985884624,nan,pitch_program,12.850000000000001,0.0,0.0
0.32999999999999996,29.09303426823929,0.0,22.263663054387187,90.925237675815,0.0,6.083358564978852,91.12851418646936,18.10306860970969,0.0,7.496747103620109,0.0,0.0,-0.2507809778465624,0.0,3.669073938711552,0.0,5075.586047156502,0.26786075910299095,91.12851418646937,2.0629577061782376,1.2223838736596995,101057.82902752415,288.0052861901465,0.0,0.0,0.0,390.655,0.20966170377941715,0.86,nominal,4370.53500020908,nan,pitch_program,12.835,0.0,0.0
0.36,31.838320885286027,0.0,22.44226079594029,91.50955390155788,0.0,5.953258051770043,91.70299742480118,18.096778758596308,0.0,7.49444886806371,0.0,0.0,0.07660785189027264,0.0,3.77225204029515,0.0,5139.693590485069,0.2695499232807671,91.70299742480118,2.094411814318014,1.2223629044058504,101055.68810710104,288.00412530482635,0.0,0.0,0.0,396.46,0.21277720515643656,0.86,nominal,4424.803265181054,nan,pitch_program,12.82,0.0,0.0
0.39,34.60138575197232,0.0,22.61709603321371,92.10216222287654,0.0,5.827841242447365,92.28635879519919,18.090395442441615,0.0,7.485443435715505,0.0,0.0,0.30018107889145795,0.0,3.8648320883783787,0.0,5205.205678199174,0.2712651790040495,92.28635879519919,2.1259280640673386,1.222342377176147,101053.59232485043,288.00298887578407,0.0,0.0,0.0,402.265,0.21589270653345596,0.86,nominal,4480.183954652234,nan,pitch_program,12.805,0.0,0.0
0.42,37.38247939213886,0.0,22.788304276236516,92.7031213388846,0.0,5.706941434093616,92.8786191031291,18.08391866124561,0.0,7.470199059747253,0.0,0.0,0.508145868606096,0.0,3.94743174801184,0.0,5272.14359579096,0.273006587781619,92.8786191031291,2.1357840845082605,1.222322276043767,101051.54005415627,288.00187602220444,0.0,0.0,0.0,404.1773684210526,0.21691906078826353,0.86,nominal,4536.695867382623,nan,pitch_program,12.79,0.0,0.0
0.44999999999999996,40.18166214929957,0.0,22.955989555410206,93.30609190535692,0.0,5.589509305789603,93.47336198581081,18.077411089421965,0.0,7.448749771202352,0.0,0.0,0.714976293180133,0.0,4.0205381982121535,0.0,5339.793503808021,0.2747552896383264,93.4733619858108,2.1348267727078603,1.222302588778914,101049.53004589266,288.0007860678898,0.0,0.0,0.0,404.14342105263154,0.21690084148196515,0.86,nominal,4593.756055438775,nan,pitch_program,12.775,0.0,0.0
0.48,42.99890035212592,0.0,23.120235927966984,93.90794009421184,0.0,5.474879085225967,94.06739878265968,18.070904064177505,0.0,7.4218408743965805,0.0,0.0,0.8969632433460099,0.0,4.08524563800031,0.0,5407.794178102625,0.2765019119135571,94.06739878265968,2.133902110687099,1.2222833054976487,101047.56129046633,287.9997184664682,0.0,0.0,0.0,404.1094736842105,0.2168826221756668,0.86,nominal,4651.069818530959,nan,pitch_program,12.76,0.0,0.0
0.51,45.83416219260304,0.0,23.281120815380838,94.50872801590383,0.0,5.362829580461753,94.66076067882172,18.064397585512236,0.0,7.390684017864347,0.0,0.0,1.0385619100002743,0.0,4.14295915926398,0.0,5476.147698907021,0.2782465463013121,94.66076067882173,2.1330118324080685,1.2222644170958739,101045.63285792731,287.9986727147,0.0,0.0,0.0,404.0755263157895,0.21686440286936848,0.86,nominal,4708.639609590735,nan,pitch_program,12.745,0.0,0.0
0.54,48.68741732617188,0.0,23.43871666428758,95.10850445229468,0.0,5.253194963558053,95.25347067943146,18.057891653426154,0.0,7.356333592772238,0.0,0.0,1.14501420403338,0.0,4.194887806583764,0.0,5544.855287474057,0.27998926044267164,95.25347067943146,2.132155517316468,1.2222459150542742,101043.74387805216,287.9976483416821,0.0,0.0,0.0,404.0415789473684,0.2168461835630701,0.86,nominal,4766.467129014491,nan,pitch_program,12.73,0.0,0.0
0.57,51.558636542820345,0.0,23.593092203588792,95.70730722161537,0.0,5.145851310040465,95.84554471292714,18.051386267919263,0.0,7.319448355690936,0.0,0.0,1.2295079451730757,0.0,4.241815573319193,0.0,5613.917405007026,0.2817301011721466,95.84554471292714,2.1313280795053413,1.2222277912906685,101041.89352526807,287.99664490067664,0.0,0.0,0.0,404.0076315789474,0.21682796425677175,0.86,nominal,4824.553418317181,nan,pitch_program,12.715,0.0,0.0
0.6,54.44779159284921,0.0,23.744312998124038,96.30516833429539,0.0,5.040693151174883,96.4369951592296,18.04488142899156,0.0,7.280448868524557,0.0,0.0,1.2999829557372211,0.0,4.284273866869633,0.0,5683.334142610661,0.28346910488967664,96.4369951592296,2.1305236705116077,1.2222100380949765,101040.08101201174,287.99566196551217,0.0,0.0,0.0,403.9736842105263,0.21680974495047337,0.86,nominal,4882.899184733689,nan,pitch_program,12.7,0.0,0.0
0.63,57.35485508843523,0.0,23.892441708603023,96.90211651953399,0.0,4.937623682632816,97.0278326749425,18.038377136643046,0.0,7.239722571217089,0.0,0.0,1.3575433007402242,0.0,4.322752900398979,0.0,5753.105424767741,0.28520630292608184,97.02783267494249,2.1297390255326905,1.2221926480986551,101038.30558560793,287.99469912889407,0.0,0.0,0.0,403.9397368421053,0.21679152564417503,0.86,nominal,4941.5049702799915,nan,pitch_program,12.685,0.0,0.0
0.6599999999999999,60.27980039672265,0.0,24.037538433782238,97.49817694291396,0.0,4.836557505973814,97.61806592890657,18.03187339087372,0.0,7.197675628537048,0.0,0.0,1.4015648189020842,0.0,4.357752188456833,0.0,5823.230971375867,0.28694172076649876,97.61806592890657,2.1289732702555693,1.2221756142344944,101036.56652416373,287.9937560001804,0.0,0.0,0.0,403.9057894736842,0.21677330633787664,0.86,nominal,5000.371124131826,nan,pitch_program,12.67,0.0,0.0
0.69,63.222601512076594,0.0,24.179661164116613,98.09337051179821,0.0,4.737424344479199,98.20770095967315,18.025370191683585,0.0,7.1546795441019615,0.0,0.0,1.4332028817601061,0.0,4.389725278316468,0.0,5893.710213208914,0.28867537616287037,98.20770095967315,2.128226035844932,1.2221589296833326,101034.86313112747,287.9928322024332,0.0,0.0,0.0,403.8718421052631,0.21675508703157828,0.86,nominal,5059.497738047377,nan,pitch_program,12.655,0.0,0.0
0.72,66.18323293683902,0.0,24.31886620108025,98.68771415874735,0.0,4.640167898787892,98.79674126208599,18.018867539072637,0.0,7.11102973450663,0.0,0.0,1.4549937235496266,0.0,4.419039351634191,0.0,5964.542292669588,0.2904072793895354,98.79674126208599,2.1274964369515996,1.2221425878247998,101033.19473025893,287.991927369693,0.0,0.0,0.0,403.8378947368421,0.21673686772527995,0.86,nominal,5118.884651234606,nan,pitch_program,12.64,0.0,0.0
0.75,69.16166958934673,0.0,24.45520846102966,99.28122175025723,0.0,4.544741998313593,99.38518839371883,18.01236543304088,0.0,7.066955899801775,0.0,0.0,1.4691278959378484,0.0,4.445988157039476,0.0,6035.7261281366345,0.29213743502658096,99.38518839371882,2.1267833736899875,1.2221265822016196,101031.56066198421,287.9910411450033,0.0,0.0,0.0,403.80394736842106,0.21671864841898159,0.86,nominal,5178.531506081849,nan,pitch_program,12.625,0.0,0.0
0.78,72.15788673370488,0.0,24.588741695077836,99.8739048119383,0.0,4.451107801605839,99.97304248168919,18.00586387358831,0.0,7.022651681571535,0.0,0.0,1.47680734792607,0.0,4.470823530049122,0.0,6107.260468813703,0.29386584345013345,99.97304248168918,2.1260861165324076,1.2221109064937818,101029.96028075815,287.990173178982,0.0,0.0,0.0,403.77,0.21670042911268322,0.86,nominal,5238.43779526685,nan,pitch_program,12.61,0.0,0.0
0.8099999999999999,75.17185991864082,0.0,24.71951868279691,100.46577283119784,0.0,4.3592329239691185,100.56030241728227,17.999362860714932,0.0,6.9782896389365145,0.0,0.0,1.4787348283738828,0.0,4.493771054593148,0.0,6179.14391341748,0.29559250140493604,100.56030241728226,2.1254043989811096,1.222095554495777,101028.39295273952,287.9893231285618,0.0,0.0,0.0,403.73605263157896,0.21668220980638486,0.86,nominal,5298.602879018284,nan,pitch_program,12.595,0.0,0.0
0.84,78.20356492047149,0.0,24.84759141833126,101.05683339435582,0.0,4.269091184478292,101.1469659220482,17.99286239442074,0.0,6.93401994082262,0.0,0.0,1.4756566772093456,0.0,4.515029060546585,0.0,6251.374913826664,0.29731740219913183,101.14696592204821,2.124738139652376,1.2220805200947351,101026.85805355867,287.9884906557808,0.0,0.0,0.0,403.7021052631579,0.2166639905000865,0.86,nominal,5359.0259900005685,nan,pitch_program,12.58,0.0,0.0
0.87,81.25297769230136,0.0,24.973011276071563,101.64709239432865,0.0,4.180661924676839,101.733029672519,17.98636247470574,0.0,6.889967438034691,0.0,0.0,1.4684168319352258,0.0,4.53476623196066,0.0,6323.951786320711,0.2990405360713136,101.73302967251897,2.124087234295643,1.2220657972509599,101025.35496632948,287.9876754267055,0.0,0.0,0.0,403.66815789473685,0.21664577119378817,0.86,nominal,5419.706244205302,nan,pitch_program,12.565,0.0,0.0
0.8999999999999999,84.32007432150425,0.0,25.09582914569954,102.23655430676288,0.0,4.093928987599217,102.31848948784956,17.979863101569926,0.0,6.846234616760212,0.0,0.0,1.457760779923457,0.0,4.553125268578837,0.0,6396.872731245879,0.30076189074245757,102.31848948784956,2.123451566400453,1.2220513799820605,101023.88308002918,287.98687711055294,0.0,0.0,0.0,403.6342105263158,0.2166275518874898,0.86,nominal,5480.642658429265,nan,pitch_program,12.55,0.0,0.0
0.9299999999999999,87.40483099445503,0.0,25.2160955413405,102.82522243169245,0.0,4.008879854698664,102.90334049882169,17.9733642750133,0.0,6.802907255215718,0.0,0.0,1.4442454536403402,0.0,4.570229136331532,0.0,6470.135851162842,0.3024814519130063,102.90334049882169,2.1228310881087618,1.2220372623501226,101022.44178818786,287.98609537898125,0.0,0.0,0.0,403.6002631578947,0.21660933258119142,0.86,nominal,5541.8341662487055,nan,pitch_program,12.535000000000002,0.0,0.0
0.96,90.50722396629207,0.0,25.333860694388633,103.4130990612349,0.0,3.9255051016044606,103.48757726293289,17.966865995035864,0.0,6.760058141212047,0.0,0.0,1.4283038666922048,0.0,4.586185179498693,0.0,6543.739162914217,0.304199203601432,103.48757726293289,2.1222258314143394,1.2220234384508024,101021.03048777491,287.9853299054864,0.0,0.0,0.0,403.56631578947366,0.21659111327489305,0.86,nominal,5603.279628854379,nan,pitch_program,12.520000000000001,0.0,0.0
0.99,93.62722953449764,0.0,25.44917463443832,104.00018560685218,0.0,3.8437980016562565,104.07119384987011,17.960368261637615,0.0,6.7177484200472275,0.0,0.0,1.410324102914716,0.0,4.601086766924894,0.0,6617.680606428957,0.3059151283957195,104.07119384987011,2.1216358600933773,1.222009902403813,101019.64857822722,287.98458036487614,0.0,0.0,0.0,403.53236842105264,0.21657289396859472,0.86,nominal,5664.977843097436,nan,pitch_program,12.505,0.0,0.0
1.02,96.76482401612456,0.0,25.562087258120417,104.58648272089748,0.0,3.76375412273657,104.65418392508253,17.953871074818558,0.0,6.676028533213532,0.0,0.0,1.3906629559008195,0.0,4.615014521945421,0.0,6691.958053659637,0.30762920769923197,104.65418392508253,2.121061233762942,1.2219966483448281,101018.29546062234,287.9838464328222,0.0,0.0,0.0,403.49842105263156,0.21655467466229633,0.86,nominal,5726.927549522349,nan,pitch_program,12.49,0.0,0.0
1.05,99.91998372854464,0.0,25.672648385817435,105.17199041400241,0.0,3.6853709232339202,105.23654083294848,17.947374434578688,0.0,6.634939746947137,0.0,0.0,1.369626267577687,0.0,4.6280381322674895,0.0,6766.569317834822,0.3093414219753504,105.23654083294846,2.1205020072632883,1.221983670418823,101016.97053699818,287.9831277854922,0.0,0.0,0.0,403.46447368421053,0.216536455355998,0.86,nominal,5789.127440535193,nan,pitch_program,12.475,0.0,0.0
1.08,103.09268497322408,0.0,25.780907808109127,105.75670815598161,0.0,3.608647409723045,105.81825766906752,17.940878340918008,0.0,6.594515812650914,0.0,0.0,1.3474645324351475,0.0,4.64021824819676,0.0,6841.512161668814,0.31105175096012094,105.81825766906753,2.1199582395879606,1.2219709627746025,101015.6732097942,287.9824240992473,0.0,0.0,0.0,403.43052631578945,0.21651823604969964,0.86,nominal,5851.576167614977,nan,pitch_program,12.46,0.0,0.0
1.1099999999999999,106.28290402194646,0.0,25.886915324165496,106.34063495741287,0.0,3.533583868545583,106.39932733857759,17.934382793836516,0.0,6.5547841892572,0.0,0.0,1.3243874995286233,0.0,4.651607894438201,0.0,6916.784304069607,0.3127601738337995,106.39932733857759,2.119429991219322,1.2219585195602884,101014.40288139033,287.9817350503929,0.0,0.0,0.0,403.3965789473684,0.21650001674340127,0.86,nominal,5914.27234721462,nan,pitch_program,12.445,0.0,0.0
1.14,109.49061710510048,0.0,25.990720773377806,106.9237694384674,0.0,3.460181640410267,106.97974260538847,17.927887793334214,0.0,6.515766868204162,0.0,0.0,1.300577418694814,0.0,4.662253454729683,0.0,6992.383425913677,0.31446666936567874,106.97974260538845,2.118917314274755,1.2219463349195994,101013.15895372686,287.98106031497304,0.0,0.0,0.0,403.3626315789474,0.21648179743710294,0.86,nominal,5977.214565829829,nan,pitch_program,12.43,0.0,0.0
1.17,112.71580040180898,0.0,26.09237406085697,107.50610989028303,0.0,3.388442915972153,107.55949613649373,17.9213933394111,0.0,6.477481095617985,0.0,0.0,1.2761924670251497,0.0,4.672195536922306,0.0,7068.307175388515,0.3161712160444298,107.55949613649373,2.118420246790713,1.2219344029888426,101011.94082799707,287.9803995686044,0.0,0.0,0.0,403.3286842105263,0.21646357813080455,0.86,nominal,6040.401384652108,nan,pitch_program,12.415,0.0,0.0
1.2,115.95843003168662,0.0,26.19192517746799,108.08765432925472,0.0,3.3183705537006563,108.13858054150758,17.914899432067177,0.0,6.439940091056523,0.0,0.0,1.2513668634835753,0.0,4.681469817856532,0.0,7144.55317289715,0.3178737921943915,108.1385805415076,2.1179388125685943,1.2219227178945606,101010.7479044066,287.97975248634646,0.0,0.0,0.0,403.2947368421053,0.21644535882450622,0.86,nominal,6103.8313438076775,nan,pitch_program,12.4,0.0,0.0
1.23,119.218482047989,0.0,26.289424215234757,108.66840054341272,0.0,3.249967925558922,108.71698840650777,17.90840607130244,0.0,6.403153683753838,0.0,0.0,1.2262136188786914,0.0,4.690107786723052,0.0,7221.119015377858,0.3195743760751092,108.71698840650775,2.117473021492076,1.2219112737517062,101009.57958198704,287.979118742601,0.0,0.0,0.0,403.26078947368416,0.2164271395182078,0.86,nominal,6167.502966070703,nan,pitch_program,12.385,0.0,0.0
1.26,122.4959324319405,0.0,26.38492137885642,109.24834613171696,0.0,3.183238787388733,109.29471232265983,17.901913257116895,0.0,6.367128818371223,0.0,0.0,1.2008288856474068,0.0,4.698137341302845,0.0,7298.0022800736315,0.3212729459655212,109.29471232265983,2.1170228679802916,1.2219000646622866,101008.43525845716,287.9784980110374,0.0,0.0,0.0,403.22684210526313,0.21640892021190947,0.86,nominal,6231.414760086449,nan,pitch_program,12.37,0.0,0.0
1.29,125.79075708807908,0.0,26.478466993867805,109.82748853795263,0.0,3.1181871670462122,109.8717449108862,17.895420989510537,0.0,6.331869968065365,0.0,0.0,1.1752950472852937,0.0,4.705583279197062,0.0,7375.200527894462,0.3229694802365077,109.87174491088619,2.116588329196132,1.2218890847144006,101007.31433012421,287.9778899645398,0.0,0.0,0.0,403.1928947368421,0.21639070090561113,0.86,nominal,6295.5652232268385,nan,pitch_program,12.355,0.0,0.0
1.3199999999999998,129.10293184048678,0.0,26.570111511867466,110.40582508025706,0.0,3.0548172666553994,110.44807884334148,17.88892926848337,0.0,6.297379499547931,0.0,0.0,1.1496823186320684,0.0,4.712467731100524,0.0,7452.711306455135,0.3246639574140429,110.44807884334148,2.11616936444702,1.2218783279816103,101006.21619181971,287.9772942751728,0.0,0.0,0.0,403.158947368421,0.21637248159931274,0.86,nominal,6359.952844150343,nan,pitch_program,12.34,0.0,0.0
1.3499999999999999,132.43243242978554,0.0,26.65990551321894,110.98335297662541,0.0,2.9931333783824674,111.0237068618906,17.88243809403539,0.0,6.263657996313777,0.0,0.0,1.1240501402520144,0.0,4.718810542995136,0.0,7530.532152798922,0.3263563562335272,111.02370686189062,2.1157659153051713,1.2218677885226188,101005.14023686631,287.97671061416406,0.0,0.0,0.0,403.125,0.2163542622930144,0.86,nominal,6424.576105078716,nan,pitch_program,12.325,0.0,0.0
1.38,135.77923451078817,0.0,26.747899707602013,111.56006936675419,0.0,2.933139812768999,111.59862179380289,17.8759474661666,0.0,6.230704532196425,0.0,0.0,1.0984488341917276,0.0,4.7246296002757395,0.0,7608.660595820995,0.32804665568592856,111.59862179380289,2.115377905598571,1.2218574603811987,101004.08585707011,287.97613865190056,0.0,0.0,0.0,403.0910526315789,0.21633604298671602,0.86,nominal,6489.433483805684,nan,pitch_program,12.31,0.0,0.0
1.41,139.14331365071186,0.0,26.83414493272843,112.1359713307897,0.0,2.8748408375472927,112.17281656507035,17.869457384877,0.0,6.198516899838682,0.0,0.0,1.072921106808957,0.0,4.729941099783887,0.0,7687.094158433389,0.32973483505693346,112.17281656507035,2.115005241251439,1.2218473375863335,101003.05244273499,287.97557805793724,0.0,0.0,0.0,403.0571052631579,0.2163178236804177,0.86,nominal,6554.523455475001,nan,pitch_program,12.295,0.0,0.0
1.44,142.5246453278769,0.0,26.918692151480574,112.71105590550137,0.0,2.8182406250714127,112.74628421173736,17.862967850166587,0.0,6.167091806180519,0.0,0.0,1.0475031481980397,0.0,4.734759783071686,0.0,7765.830359512799,0.33142087396024567,112.74628421173738,2.1146478103216935,1.22183741415255,101002.03938269618,287.97502850101534,0.0,0.0,0.0,403.02315789473687,0.21629960437411935,0.86,nominal,6619.844494164246,nan,pitch_program,12.28,0.0,0.0
1.47,145.92320493082352,0.0,27.001592447699373,113.28532009822106,0.0,2.7633432072933353,113.31901788948625,17.856478862035363,0.0,6.136425041893645,0.0,0.0,1.022225500632823,0.0,4.73909913858823,0.0,7844.866715654959,0.3331047523657522,113.31901788948625,2.114305483276669,1.2218276840804005,101001.04606436938,287.97448964908995,0.0,0.0,0.0,402.9892105263158,0.21628138506782096,0.86,nominal,6685.395074296082,nan,pitch_program,12.265,0.0,0.0
1.5,149.33896775778783,0.0,27.08289702082409,113.85876089881008,0.0,2.710152437490515,113.89101088166194,17.84999042048333,0.0,6.10651162646025,0.0,0.0,0.9971138704288902,0.0,4.742971575075995,0.0,7924.200742752353,0.3347864506230976,113.89101088166193,2.1139781133245967,1.2218181413570872,101000.07187381428,287.9739611693646,0.0,0.0,0.0,402.9552631578947,0.2162631657615226,0.86,nominal,6751.173671892683,nan,pitch_program,12.25,0.0,0.0
1.53,152.7719090164855,0.0,27.16265717955924,114.4313752899223,0.0,2.6586719578383833,114.46225660593292,17.843502525510484,0.0,6.077345931164348,0.0,0.0,0.9721898641895192,0.0,4.746388569066553,0.0,8003.82995741485,0.33646594948124264,114.46225660593294,2.113665536729704,1.2218087799572006,100999.11619580968,287.9734427283328,0.0,0.0,0.0,402.9213157894737,0.21624494645522424,0.86,nominal,6817.178765691143,nan,pitch_program,12.235,0.0,0.0
1.56,156.22200382416003,0.0,27.24092433471774,115.0031602558173,0.0,2.6089051719500467,115.03274861977968,17.83701517711683,0.0,6.048921783922867,0.0,0.0,0.9474715941479205,0.0,4.749360790982836,0.0,8083.751878253236,0.3381432301045739,115.0327486197797,2.1133675731653967,1.2217995938435517,100998.17841393818,287.97293399182433,0.0,0.0,0.0,402.8873684210526,0.21622672714892588,0.86,nominal,6883.408838137771,nan,pitch_program,12.220000000000002,0.0,0.0
1.5899999999999999,159.6892272078578,0.0,27.31774999136899,115.57411278992629,0.0,2.560855221708389,115.6024806249639,17.83052837530236,0.0,6.021232559221409,0.0,0.0,0.9229741746785154,0.0,4.7518982135673555,0.0,8163.9640270414375,0.33981827408601334,115.60248062496392,2.1130840261302493,1.2217905769680815,100997.25791067905,287.97243462505605,0.0,0.0,0.0,402.8534210526316,0.21620850784262752,0.86,nominal,6949.862376275436,nan,pitch_program,12.205000000000002,0.0,0.0
1.6199999999999999,163.17355410489787,0.0,27.393185740404757,116.1442299013351,0.0,2.514524967858867,116.17144647110221,17.824042120067084,0.0,5.994271255062241,0.0,0.0,0.8987101552223833,0.0,4.754010204908477,0.0,8244.463929769907,0.3414910634574912,116.17144647110221,2.112814683392009,1.2217817232728585,100996.3540675096,287.97194429268734,0.0,0.0,0.0,402.8194736842105,0.21619028853632916,0.86,nominal,7016.537872535224,nan,pitch_program,12.19,0.0,0.0
1.65,166.67495936350784,0.0,27.467283249620888,116.71350862033168,0.0,2.46991697387107,116.73964015845712,17.817556411410994,0.0,5.968030558505923,0.0,0.0,0.874689900499601,0.0,4.755705607975685,0.0,8325.249117601492,0.3431615806981158,116.73964015845712,2.112559317434657,1.221773026691103,100995.46626500975,287.97146265887744,0.0,0.0,0.0,402.78552631578947,0.21617206923003082,0.86,nominal,7083.433825442921,nan,pitch_program,12.175,0.0,0.0
1.68,170.19341774360237,0.0,27.5400942543994,117.28194600315099,0.0,2.4270334926170807,117.30705584004872,17.81107124933409,0.0,5.942502901543787,0.0,0.0,0.8509219128140076,0.0,4.756992808697309,0.0,8406.317127741007,0.3448298087403434,117.30705584004872,2.112317685914264,1.2217644811482873,100994.59388297398,287.9709893873464,0.0,0.0,0.0,402.75157894736844,0.21615384992373246,0.86,nominal,7150.54874025006,nan,pitch_program,12.16,0.0,0.0
1.71,173.72890391768325,0.0,27.611670548064023,117.84953913602983,0.0,2.3858764554874727,117.8736878231757,17.80458663383638,0.0,5.917680508835874,0.0,0.0,0.827413103205253,0.0,4.757879794363763,0.0,8487.66550422763,0.34649573097440883,117.87368782317569,2.112089532128802,1.2217560805632548,100993.73630052569,287.9705241414376,0.0,0.0,0.0,402.71763157894736,0.2161356306174341,0.86,nominal,7217.881129497911,nan,pitch_program,12.145,0.0,0.0
1.74,177.28139247184325,0.0,27.68206397197289,118.41628513866634,0.0,2.3464474636289228,118.4395305704202,17.798102564917855,0.0,5.8935554384636175,0.0,0.0,0.8041690242896088,0.0,4.758374203713269,0.0,8569.29179865803,0.3481593312512369,118.4395305704202,2.1118745854945415,1.221747818849382,100992.89289623528,287.9700665841822,0.0,0.0,0.0,402.68368421052634,0.21611741131113574,0.86,nominal,7285.429513521499,nan,pitch_program,12.13,0.0,0.0
1.77,180.85085790685824,0.0,27.75132640540365,118.98218116716666,0.0,2.308747781025242,119.0045787002032,17.79161904257852,0.0,5.870119616650576,0.0,0.0,0.7811940713264083,0.0,4.7584833698341376,0.0,8651.19357084729,0.34982059388402975,119.00457870020321,2.1116725620221937,1.2217396899157547,100992.06304824042,287.96961637836483,0.0,0.0,0.0,402.64973684210526,0.21609919200483738,0.86,nominal,7353.19242089998,nan,pitch_program,12.115,0.0,0.0
1.7999999999999998,184.43727463935477,0.0,27.819509755278908,119.54722441655097,0.0,2.272778329175237,119.56882698694827,17.785136066818374,0.0,5.847364867339083,0.0,0.0,0.7584916536858314,0.0,4.758214356929895,0.0,8733.368389433936,0.35147950364870156,119.56882698694825,2.1114831647930092,1.2217316876683768,100991.24613436901,287.96917318659064,0.0,0.0,0.0,402.6157894736842,0.216080972698539,0.86,nominal,7421.1683888589905,nan,pitch_program,12.1,0.0,0.0
1.8299999999999998,188.0406170030412,0.0,27.886665945773586,120.11141212288098,0.0,2.238539683155896,120.13227036090521,17.77865363763742,0.0,5.825282937394127,0.0,0.0,0.736064340609444,0.0,4.757573991853646,0.0,8815.813832434535,0.35313604578331126,120.13227036090521,2.1113060844352685,1.2217238060113795,100990.4415322626,287.9687366713525,0.0,0.0,0.0,402.58184210526315,0.21606275339224065,0.86,nominal,7489.3559636299315,nan,pitch_program,12.085,0.0,0.0
1.8599999999999999,191.66085924999305,0.0,27.952846907840286,120.67474156506178,0.0,2.206032068889996,120.69490390767714,17.77217175503565,0.0,5.8038655180649625,0.0,0.0,0.7139139859517726,0.0,4.756568891157435,0.0,8898.527487752643,0.35479020598662153,120.69490390767714,2.111140999599368,1.2217160388482438,100989.64861950102,287.968306495099,0.0,0.0,0.0,402.54789473684207,0.2160445340859423,0.86,nominal,7557.753700770481,nan,pitch_program,12.07,0.0,0.0
1.89,195.29797555198397,0.0,28.018104568684105,121.2372100663641,0.0,2.175255361460615,121.25672286748994,17.765690419013072,0.0,5.7831042632371235,0.0,0.0,0.6920418351666431,0.0,4.755205484288736,0.0,8981.506953646538,0.3564419704158992,121.25672286748996,2.110987577429756,1.2217083800830386,100988.86677372869,287.96788232030354,0.0,0.0,0.0,402.51394736842104,0.21602631477964393,0.86,nominal,7626.360165450115,nan,pitch_program,12.055,0.0,0.0
1.92,198.95194000185515,0.0,28.082490841214153,121.79881499570628,0.0,2.146209084334883,121.81772263423728,17.759209629569682,0.0,5.762990804945393,0.0,0.0,0.67044861660949,0.0,4.753490033490907,0.0,9064.749839159145,0.35809132568405416,121.81772263423728,2.110845474033666,1.221700823621648,100988.09537277963,287.9674638095321,0.0,0.0,0.0,402.48,0.2160080954733456,0.86,nominal,7695.173932703976,nan,pitch_program,12.040000000000001,0.0,0.0
1.95,202.62272661491707,0.0,28.146057613495497,122.35955376873044,0.0,2.1188924093781005,122.37789875433127,17.752729386705482,0.0,5.743516766551013,0.0,0.0,0.6491346193951443,0.0,4.75142865088487,0.0,9148.253764513793,0.35973825885620553,122.37789875433127,2.110714334946569,1.2216933633730078,100987.33379480375,287.96705062551223,0.0,0.0,0.0,402.44605263157894,0.2159898761670472,0.86,nominal,7764.193587658064,nan,pitch_program,12.025,0.0,0.0
1.98,206.31030933037812,0.0,28.208856738222163,122.91942384870185,0.0,2.09330415755557,122.93724692538406,17.74624969042047,0.0,5.72467377392209,0.0,0.0,0.6280997599586338,0.0,4.749027313134602,0.0,9232.016361478496,0.36138275744574977,122.93724692538406,2.110593795593814,1.221685993250339,100986.5814183925,287.96664243120154,0.0,0.0,0.0,402.4121052631579,0.21597165686074887,0.86,nominal,7833.417725728313,nan,pitch_program,12.01,0.0,0.0
2.01,210.01466201279584,0.0,28.270940022229148,123.47842274725693,0.0,2.069442800232788,123.49576299474299,17.739770540714648,0.0,5.70645346490768,0.0,0.0,0.6073436389318558,0.0,4.746291874041786,0.0,9316.03527370139,0.36302480940999693,123.49576299474299,2.1104834817481892,1.2216787071723711,100985.8376227036,287.9662388898555,0.0,0.0,0.0,402.37815789473683,0.2159534375544505,0.86,nominal,7902.84495279586,nan,pitch_program,11.995000000000001,0.0,0.0
2.04,213.73575845354648,0.0,28.33235921605904,124.03654802502137,0.0,2.047306460996369,124.05344295789888,17.733291937588014,0.0,5.688847497355517,0.0,0.0,0.5868655896899267,0.0,4.743228075367027,0.0,9400.308157019594,0.3646644031454324,124.05344295789888,2.110383009983292,1.2216714990645636,100985.10178758591,287.9658396650956,0.0,0.0,0.0,402.3442105263158,0.21593521824815215,0.86,nominal,7972.473885360501,nan,pitch_program,11.98,0.0,0.0
2.07,217.47357237231,0.0,28.39316600359689,124.59379729211733,0.0,2.026892917928304,124.6102829567848,17.72681388104057,0.0,5.671847555887918,0.0,0.0,0.5666647197437449,0.0,4.739841556133001,0.0,9484.832679743566,0.3663015274826566,124.6102829567848,2.110291988122736,1.221664362860324,100984.37329370329,287.9654444209766,0.0,0.0,0.0,402.3102631578947,0.2159169989418538,0.86,nominal,8042.30315067416,nan,pitch_program,11.965,0.0,0.0
2.1,221.22807741856727,0.0,28.453411991785142,125.15016820857528,0.0,2.0081996062751193,125.16627927798018,17.720336371072314,0.0,5.655445357617689,0.0,0.0,0.5467399460748971,0.0,4.736137860626601,0.0,9569.60652291857,0.36793617168104453,125.16627927798018,2.1102100156850496,1.2216572925022056,100983.65152265703,287.9650528220534,0.0,0.0,0.0,402.27631578947364,0.2158987796355554,0.86,nominal,8112.331386855905,nan,pitch_program,11.95,0.0,0.0
2.13,224.99924717310722,0.0,28.513148700428975,125.70565848466472,0.0,1.991223621461035,125.72142835083376,17.71385940768325,0.0,5.6396326569595985,0.0,0.0,0.527090025281865,0.0,4.732122445286089,0.0,9654.627380565047,0.36956832542316637,125.72142835083376,2.110136684324165,1.2216502819431039,100982.93585710788,287.9646645334472,0.0,0.0,0.0,402.2423684210526,0.21588056032925707,0.86,nominal,8182.557242989975,nan,pitch_program,11.935,0.0,0.0
2.16,228.78705514954189,0.0,28.572427552100997,126.26026588115514,0.0,1.975961722400803,126.27572674551661,17.70738299087337,0.0,5.624401249671716,0.0,0.0,0.5077135792528169,0.0,4.727800684633891,0.0,9739.892959899118,0.3711979788090012,126.27572674551661,2.110071578265572,1.22164332514744,100982.2256808966,287.9642792209113,0.0,0.0,0.0,402.2084210526316,0.2158623410229587,0.86,nominal,8252.979379208002,nan,pitch_program,11.92,0.0,0.0
2.19,232.5914747958274,0.0,28.63129986215321,126.81398820951738,0.0,1.962410335073707,126.82917117101577,17.700907120642682,0.0,5.609742976240044,0.0,0.0,0.48860911705409515,0.0,4.723177876391187,0.0,9825.400981534613,0.3728251223499758,126.82917117101576,2.110014274738001,1.22163641609233,100981.5203791635,287.963896550896,0.0,0.0,0.0,402.1744736842105,0.21584412171666034,0.86,nominal,8323.596466756593,nan,pitch_program,11.905,0.0,0.0
2.2199999999999998,236.41247949578963,0.0,28.68981682884296,127.36682333207423,0.0,1.9505655563250963,127.38175847307703,17.694431796991182,0.0,5.595649724704106,0.0,0.0,0.4697750535664176,0.0,4.718259245891665,0.0,9911.14917966757,0.3744497469628533,127.38175847307701,2.1099643444006357,1.2216295487687374,100980.81933846581,287.9635161906125,0.0,0.0,0.0,402.1405263157895,0.215825902410362,0.86,nominal,8394.407188051238,nan,pitch_program,11.890000000000002,0.0,0.0
2.25,240.25004257065285,0.0,28.748029523578943,127.91876916210731,0.0,1.9404231578661146,127.93348563210525,17.687957019918873,0.0,5.582113433006925,0.0,0.0,0.451209725338115,0.0,4.713049949894931,0.0,9997.135302244478,0.3760718439634954,127.93348563210525,2.1099213517657884,1.2216227171826208,100980.12194689493,287.9631378080967,0.0,0.0,0.0,402.1065789473684,0.21580768310406362,0.86,nominal,8465.410236717446,nan,pitch_program,11.875,0.0,0.0
2.28,244.10413728057065,0.0,28.805988881292322,128.46982366392658,0.0,1.9319785904460247,128.4843497610286,17.68148278942575,0.0,5.569126090940215,0.0,0.0,0.43291140407730105,0.0,4.707555079885186,0.0,10083.357111114896,0.377691405060519,128.48434976102862,2.109884855616968,1.2216159153560608,100979.4275941913,287.9627610722716,0.0,0.0,0.0,402.0726315789474,0.21578946379776529,0.86,nominal,8536.604317619891,nan,pitch_program,11.86,0.0,0.0
2.31,247.97473682615788,0.0,28.863745690937563,129.01998485290798,0.0,1.9252269881746813,129.03434810313337,17.67500910551182,0.0,5.55667974174605,0.0,0.0,0.41487830810358955,0.0,4.701779664929253,0.0,10169.812382169435,0.37930842234886497,129.03434810313337,2.1098544094222955,1.2216091373283724,100978.73567185795,287.9623856530089,0.0,0.0,0.0,402.03868421052636,0.21577124449146692,0.86,nominal,8607.988146880334,nan,pitch_program,11.845,0.0,0.0
2.34,251.861814350023,0.0,28.92135058612683,129.56925079550345,0.0,1.9201631729755535,129.58347802987433,17.668535968177075,0.0,5.544766483426508,0.0,0.0,0.39710861208213777,0.0,4.695728674156641,0.0,10256.498905463797,0.3809228883032953,129.58347802987433,2.1098295617431564,1.2216023771572022,100978.04557327257,287.96201122119015,0.0,0.0,0.0,402.0047368421053,0.21575302518516856,0.86,nominal,8679.560451884903,nan,pitch_program,11.83,0.0,0.0
2.37,255.76534293829982,0.0,28.978854035901392,130.11761960922726,0.0,1.9167816591520472,130.13173703866565,17.66206337742152,0.0,5.533378469805609,0.0,0.0,0.3796004552796023,0.0,4.689407018915631,0.0,10343.414485329502,0.3825347957718316,130.13173703866565,2.1098098566379733,1.2215956289196126,100977.35669379786,287.9616374487666,0.0,0.0,0.0,401.9707894736842,0.21573480587887017,0.86,nominal,8751.319971281386,nan,pitch_program,11.815,0.0,0.0
2.4,259.6852956221785,0.0,29.03630633564295,130.66508946262203,0.0,1.9150766580519614,130.67912275065683,17.655591333245155,0.0,5.522507911381865,0.0,0.0,0.3623519485450895,0.0,4.682819554652201,0.0,10430.556940471999,0.38414413796914976,130.67912275065683,2.109794834061079,1.2215888867131455,100976.66843089041,287.9612640088183,0.0,0.0,0.0,401.9368421052631,0.2157165865725718,0.86,nominal,8823.265454967051,nan,pitch_program,11.8,0.0,0.0
2.4299999999999997,263.6216453794347,0.0,29.093757598127453,131.21165857520683,0.0,1.9150420828167822,131.22563290849698,17.649119835647976,0.0,5.51214707600324,0.0,0.0,0.3453611802286814,0.0,4.675971082550926,0.0,10517.924104056618,0.3857509084699399,131.22563290849695,2.109746889332376,1.2215821446568695,100975.98018420745,287.96089057561215,0.0,0.0,0.0,401.9028947368421,0.21569836726627348,0.86,nominal,8895.39566406748,nan,pitch_program,11.785,0.0,0.0
2.46,267.57436521670877,0.0,29.15125690794398,131.75732790913528,0.0,1.9166436605508916,131.77126765982382,17.64264888462999,0.0,5.5033239314164515,0.0,0.0,0.2941048201407299,0.0,4.6699141368082575,0.0,10605.514192566636,0.38735510791772926,131.77126765982382,2.1096540744139647,1.221575396990616,100975.29136573701,287.96051683009836,0.0,0.0,0.0,401.86894736842106,0.21568014795997512,0.86,nominal,8967.709663894755,nan,pitch_program,11.77,0.0,0.0
2.4899999999999998,271.54342771956254,0.0,29.20885294285352,132.30208342845944,0.0,1.9198678303180547,132.31601253059637,17.636178480191187,0.0,5.499550121485593,0.0,0.0,0.12579366440739098,0.0,4.668175430513764,0.0,10693.323061140127,0.38895669397586313,132.31601253059637,2.109974798561668,1.2215686380020543,100974.6013923536,287.96014245587145,0.0,0.0,0.0,401.835,0.21566192865367675,0.86,nominal,9040.2045837105,nan,pitch_program,11.755,0.0,0.0
2.52,275.5288024530272,0.0,29.266607092117773,132.84582444882253,0.0,1.9251383088083345,132.85977280951303,17.629708622331577,0.0,5.498335041500046,0.0,0.0,0.04050266618643941,0.0,4.668090054973155,0.0,10781.333492306596,0.39055538850118,132.859772809513,2.1103581416338946,1.2215618604872425,100973.9095286679,287.9597670539012,0.0,0.0,0.0,401.80105263157895,0.2156437093473784,0.86,nominal,9112.866987937625,nan,pitch_program,11.74,0.0,0.0
2.55,279.53045789050964,0.0,29.324583329372633,133.38851458274831,0.0,1.9325412418286743,133.40251323810742,17.623239311051154,0.0,5.498723858594712,0.0,0.0,-0.012960569822253649,0.0,4.668677052048154,0.0,10869.537704222552,0.3921510881336633,133.40251323810745,2.110740907930745,1.2215550569390887,100973.21500834827,287.9593902083591,0.0,0.0,0.0,401.7671052631579,0.21562549004108003,0.86,nominal,9185.691194228706,nan,pitch_program,11.725000000000001,0.0,0.0
2.58,283.548361983468,0.0,29.38284599163579,133.93013643194473,0.0,1.9420887421051825,133.94421657302544,17.616770546349922,0.0,5.50161593098822,0.0,0.0,-0.09640241313737312,0.0,4.670841819378443,0.0,10957.930770484583,0.3937437424766114,133.94421657302541,2.111279256372031,1.221548219807982,100972.51706072676,287.95901150105436,0.0,0.0,0.0,401.73315789473685,0.2156072707347817,0.86,nominal,9258.673863324646,nan,pitch_program,11.71,0.0,0.0
2.61,287.58248140572186,0.0,29.441463899031135,134.47064740846199,0.0,1.9539302465114268,134.48484248367598,17.610302328227878,0.0,5.506535958896231,0.0,0.0,-0.16400093036784122,0.0,4.6740563010753995,0.0,11046.503923339536,0.3953332332902514,134.484842483676,2.1119117914201873,1.221541341018357,100971.81486144911,287.9586304846563,0.0,0.0,0.0,401.6992105263158,0.21558905142848334,0.86,nominal,9331.808560875,nan,pitch_program,11.695,0.0,0.0
2.6399999999999997,291.63278191131883,0.0,29.50050852576918,135.01001685323124,0.0,1.9681542246015356,135.02436180838478,17.603834656685024,0.0,5.51294905273923,0.0,0.0,-0.21376979498978052,0.0,4.677759590603809,0.0,11135.250129793052,0.3969194751835567,135.02436180838478,2.1125875707885875,1.2215344121833345,100971.10755438611,287.9582466945825,0.0,0.0,0.0,401.6652631578947,0.21557083212218495,0.86,nominal,9405.090302815035,nan,pitch_program,11.68,0.0,0.0
2.67,295.6992286922672,0.0,29.560052412198193,135.5482260316109,0.0,1.9847962143003468,135.56275667132542,17.597367531721357,0.0,5.520955660315177,0.0,0.0,-0.26688691963251576,0.0,4.682048925321899,0.0,11224.164149779603,0.39850241595115676,135.5627566713254,2.1133435944856074,1.2215274247910752,100970.39427065715,287.95785965932066,0.0,0.0,0.0,401.63131578947366,0.21555261281588659,0.86,nominal,9478.515586152575,nan,pitch_program,11.665,0.0,0.0
2.6999999999999997,299.7817862504703,0.0,29.620170002159114,136.0852519401035,0.0,2.0039196653639784,136.1000054725446,17.59090095333688,0.0,5.530411420109335,0.0,0.0,-0.31519199385402763,0.0,4.686764956894516,0.0,11313.240077185113,0.4000819924537054,136.1000054725446,2.114169671739164,1.221520370106526,100969.67411860055,287.95746889498594,0.0,0.0,0.0,401.59736842105264,0.21553439350958825,0.86,nominal,9552.08038496501,nan,pitch_program,11.65,0.0,0.0
2.73,303.8804184871539,0.0,29.680937263042537,136.62107455612022,0.0,2.0255753627807973,136.63608955330676,17.584434921531592,0.0,5.541079363151598,0.0,0.0,-0.35559810243603773,0.0,4.6916612400151285,0.0,11402.47244071055,0.4016581502098384,136.63608955330676,2.1150441214843614,1.221513239216009,100968.94618832543,287.9570739077902,0.0,0.0,0.0,401.56342105263155,0.21551617420328986,0.86,nominal,9625.781047620249,nan,pitch_program,11.635,0.0,0.0
2.76,307.99508885947574,0.0,29.742431007176,137.1556790773947,0.0,2.049791471115345,137.17099528783896,17.577969436305494,0.0,5.552904079436616,0.0,0.0,-0.39415721089962125,0.0,4.696682461158357,0.0,11491.856564931455,0.40323084954215743,137.17099528783896,2.1159721831954914,1.2215060231068682,100968.20955984243,287.95667419845336,0.0,0.0,0.0,401.52947368421053,0.21549795489699153,0.86,nominal,9699.614585164692,nan,pitch_program,11.620000000000001,0.0,0.0
2.79,312.1257603936793,0.0,29.804728935400778,137.68905114011804,0.0,2.0765976074926376,137.70470965616784,17.571504497658584,0.0,5.565798068572248,0.0,0.0,-0.42979963966828927,0.0,4.701740557827897,0.0,11581.387842178621,0.4048000525633274,137.70470965616784,2.1169498531784665,1.2214987126623555,100967.4633025419,287.9562692619199,0.0,0.0,0.0,401.49552631578945,0.21547973559069317,0.86,nominal,9773.578075759091,nan,pitch_program,11.605,0.0,0.0
2.82,316.2723957334031,0.0,29.86790946457348,138.2211779907934,0.0,2.106017639090002,138.2372213098149,17.565040105590864,0.0,5.579644381089062,0.0,0.0,-0.46154375280669313,0.0,4.706720364010238,0.0,11671.06191479946,0.40636572630808265,138.23722130981488,2.117967829345919,1.221491298681886,100966.70647726185,287.9558585884802,0.0,0.0,0.0,401.4615789473684,0.2154615162843948,0.86,nominal,9847.668812080132,nan,pitch_program,11.59,0.0,0.0
2.85,320.43495721304606,0.0,29.93205143095067,138.7520493214321,0.0,2.138065545906248,138.76852134102936,17.55857626010233,0.0,5.594378418830328,0.0,0.0,-0.49113459408213167,0.0,4.711563078522819,0.0,11760.87481144916,0.4079278449931659,138.76852134102936,2.1190244472551485,1.2214837719158522,100965.9381398419,287.9554416656988,0.0,0.0,0.0,401.4276315789474,0.21544329697809647,0.86,nominal,9921.884409753191,nan,pitch_program,11.575,0.0,0.0
2.88,324.6134068898122,0.0,29.997233998117927,139.2816558922048,0.0,2.172752238908591,139.29860200434976,17.55211296119299,0.0,5.609935644873807,0.0,0.0,-0.5185742046353651,0.0,4.716211085888972,0.0,11850.822737701148,0.40948638625879547,139.29860200434973,2.120116206206033,1.2214761230764308,100965.15734222677,287.9550179790122,0.0,0.0,0.0,401.3936842105263,0.21542507767179808,0.86,nominal,9996.22263497076,nan,pitch_program,11.56,0.0,0.0
2.9099999999999997,328.80770657961347,0.0,30.06353653161642,139.8099896600413,0.0,2.210084449949772,139.82745682453347,17.545650208862835,0.0,5.626247348729823,0.0,0.0,-0.5437234655395631,0.0,4.720604156215469,0.0,11940.90209848457,0.41104133148536354,139.82745682453344,2.1212380635617962,1.2214683428523057,100964.36313396951,287.9545870125445,0.0,0.0,0.0,401.3597368421053,0.21540685836549975,0.86,nominal,10070.681421536161,nan,pitch_program,11.545,0.0,0.0
2.94,333.0178178981618,0.0,30.131038444361078,140.33704395161186,0.0,2.250063758155172,140.3550807487652,17.53918800311187,0.0,5.643262162835478,0.0,0.0,-0.5671604743565878,0.0,4.7247013314857265,0.0,12031.109528544428,0.41259266624015123,140.3550807487652,2.122387189162172,1.2214604219268141,100963.55456408398,287.95414825011164,0.0,0.0,0.0,401.3257894736842,0.21538863905920136,0.86,nominal,10145.258894156595,nan,pitch_program,11.53,0.0,0.0
2.9699999999999998,337.24370228896197,0.0,30.19981910402186,140.86281302667152,0.0,2.2926886553593517,140.88146973629085,17.532726343940094,0.0,5.660931956592371,0.0,0.0,-0.588993129897983,0.0,4.728465941703387,0.0,12121.441826587828,0.41414037907055296,140.88146973629085,2.123560345924164,1.2214523509888224,100962.7306821554,287.9537011758238,0.0,0.0,0.0,401.29184210526313,0.215370419752903,0.86,nominal,10219.953313545173,nan,pitch_program,11.515,0.0,0.0
3.0,341.4853210505624,0.0,30.269957738160333,141.3872920533466,0.0,2.337954471282402,141.40662072649965,17.52626523134751,0.0,5.679210634224298,0.0,0.0,-0.6092892595650864,0.0,4.731864414407444,0.0,12211.895953195026,0.4156844614097792,141.40662072649965,2.1247540136816037,1.22144412074387,100961.89053947809,287.95324527470194,0.0,0.0,0.0,401.2578947368421,0.21535220044660466,0.86,nominal,10294.763073696991,nan,pitch_program,11.5,0.0,0.0
3.03,345.74263536337673,0.0,30.34153333868646,141.9104770938112,0.0,2.3858533508709727,141.93053161742534,17.51980466533411,0.0,5.698059125603277,0.0,0.0,-0.628283051632058,0.0,4.734871256137987,0.0,12302.469030397246,0.4172249075131722,141.93053161742534,2.1259653663174363,1.2214357219253793,100961.03319020024,287.9527800332985,0.0,0.0,0.0,401.223947368421,0.21533398114030627,0.86,nominal,10369.68670051832,nan,pitch_program,11.485,0.0,0.0
3.06,350.01560631159117,0.0,30.414624588058317,142.43236494048074,0.0,2.436374979061817,142.4532011068087,17.513344645899902,0.0,5.717441078475774,0.0,0.0,-0.6460651019108149,0.0,4.7374644341320336,0.0,12393.158317215732,0.4187617139905952,142.45320110680873,2.1271914958731397,1.221427145303337,100960.15769221008,287.9523049401776,0.0,0.0,0.0,401.19,0.21531576183400794,0.86,nominal,10444.722831004925,nan,pitch_program,11.47,0.0,0.0
3.09,354.30419490389517,0.0,30.489309788378424,142.95295307680072,0.0,2.4895066773368786,142.97462864744392,17.506885173044882,0.0,5.737322748754605,0.0,0.0,-0.6627223492775404,0.0,4.739625215578302,0.0,12483.961204530604,0.4202948796747799,142.97462864744395,2.128429531309091,1.221418381692612,100959.26310798549,287.95181948637554,0.0,0.0,0.0,401.156052631579,0.21529754252770958,0.86,nominal,10519.870208273449,nan,pitch_program,11.455,0.0,0.0
3.12,358.6083620928417,0.0,30.565666795392147,143.47223963155105,0.0,2.5452335671241046,143.4948143969127,17.500426246769052,0.0,5.757673820883661,0.0,0.0,-0.6783690781005316,0.0,4.741338911464847,0.0,12574.875208776068,0.4218244054731922,143.4948143969127,2.1296768486054214,1.2214094219607166,100958.34850538643,287.95132316582993,0.0,0.0,0.0,401.1221052631579,0.21527932322141122,0.86,nominal,10595.127675681242,nan,pitch_program,11.44,0.0,0.0
3.15,362.9280687919934,0.0,30.64377296169021,143.99022330505633,0.0,2.603538876602084,144.0137591416944,17.49396786707241,0.0,5.778465972060809,0.0,0.0,-0.6930717135107983,0.0,4.742593308816002,0.0,12665.89796091263,0.42335029414461006,144.01375914169438,2.130930837556442,1.221400257034477,100957.41295833621,287.950815475749,0.0,0.0,0.0,401.08815789473687,0.21526110391511288,0.86,nominal,10670.494167175744,nan,pitch_program,11.425,0.0,0.0
3.1799999999999997,367.26327589205516,0.0,30.723705083343,144.50690333539225,0.0,2.664404055092976,144.53146425797118,17.48751003395496,0.0,5.799672888341862,0.0,0.0,-0.7068972174386099,0.0,4.743378634284837,0.0,12757.027201572517,0.42487255018358033,144.53146425797118,2.1321889737558477,1.2213908779063056,100956.45554746203,287.9502959169582,0.0,0.0,0.0,401.0542105263158,0.2152428846088145,0.86,nominal,10745.968702732165,nan,pitch_program,11.410000000000002,0.0,0.0
3.21,371.61394427583673,0.0,30.805539351137355,145.02227945938594,0.0,2.7278089264785312,145.04793166789938,17.481052747416694,0.0,5.821270181887104,0.0,0.0,-0.7199097933655924,0.0,4.74368740464441,0.0,12848.260775236793,0.4263911796915671,145.04793166789938,2.133448840567871,1.2213812756399343,100955.47536068052,287.94976399421756,0.0,0.0,0.0,401.0202631578947,0.21522466530251613,0.86,nominal,10821.550383045635,nan,pitch_program,11.395000000000001,0.0,0.0
3.2399999999999998,375.98003483204235,0.0,30.889351306550186,145.53635187352003,0.0,2.793731847094343,145.56316379594978,17.474596007457617,0.0,5.843234889026822,0.0,0.0,-0.7321569136238139,0.0,4.743513857819487,0.0,12939.596624243313,0.4279061902483195,145.56316379594978,2.134708065269958,1.2213714413755874,100954.4714937262,287.9492192165074,0.0,0.0,0.0,400.9863157894737,0.21520644599621777,0.86,nominal,10897.238384133634,nan,pitch_program,11.38,0.0,0.0
3.27,380.3615084682738,0.0,30.97521580072847,146.04912120771655,0.0,2.8621498059428183,146.07716353714545,17.46813981407773,0.0,5.865545429100901,0.0,0.0,-0.7436846785328439,0.0,4.742853868877348,0.0,13031.032784739553,0.4294175908182251,146.07716353714545,2.1359643491700253,1.2213613663348082,100953.44305064435,287.94866109729526,0.0,0.0,0.0,400.9523684210526,0.2151882266899194,0.86,nominal,10973.031953561183,nan,pitch_program,11.365,0.0,0.0
3.3,384.7583261232074,0.0,31.063206956848276,146.56058849778577,0.0,2.9330385373268832,146.58993422428003,17.46168416727703,0.0,5.888181421785321,0.0,0.0,-0.7545330992947568,0.0,4.741704720587204,0.0,13122.567382320438,0.4309253916536783,146.58993422428003,2.1372154568728776,1.2213510418248832,100952.38914424309,287.94808915478046,0.0,0.0,0.0,400.9184210526316,0.21517000738362105,0.86,nominal,11048.930406442747,nan,pitch_program,11.35,0.0,0.0
3.33,389.1704487780598,0.0,31.15339813537932,147.07075516174626,0.0,3.00637261770139,147.10147959882246,17.455229067055523,0.0,5.9111234978015466,0.0,0.0,-0.7647358774251586,0.0,4.740064874549588,0.0,13214.198628193779,0.43242960420929705,147.10147959882246,2.1384592030019305,1.2213404592429313,100951.30889651105,287.94750291212,0.0,0.0,0.0,400.8844736842105,0.2151517880773227,0.86,nominal,11124.933121905708,nan,pitch_program,11.335,0.0,0.0
3.36,393.59783746746933,0.0,31.245861901753774,147.57962298031822,0.0,3.0821255458151904,147.61180378578482,17.448774513413202,0.0,5.934353225270551,0.0,0.0,-0.7743242595736435,0.0,4.737933865336524,0.0,13305.924815940674,0.4339302410677986,147.61180378578482,2.1396934599373814,1.221329610079708,100950.201439006,287.94690189763855,0.0,0.0,0.0,400.85052631578947,0.21513356877102435,0.86,nominal,11201.039540065352,nan,pitch_program,11.32,0.0,0.0
3.3899999999999997,398.0404532898147,0.0,31.34066999641469,148.0871940781784,0.0,3.16026982203053,148.12091126946297,17.44232050635007,0.0,5.957852982028581,0.0,0.0,-0.7833252362486608,0.0,4.735312141603542,0.0,13397.744318329942,0.4354273158684494,148.12091126946294,2.1409161492543327,1.2213184859231274,100949.06591321486,287.9462856450233,0.0,0.0,0.0,400.81657894736844,0.215115349464726,0.86,nominal,11277.249159068399,nan,pitch_program,11.305,0.0,0.0
3.42,402.4982574170554,0.0,31.437893306898214,148.59347090802262,0.0,3.2407770161175486,148.62880687188996,17.43586704586613,0.0,5.981605869042699,0.0,0.0,-0.7917629118103305,0.0,4.732200953420621,0.0,13489.65558452559,0.43692084324349856,148.62880687188994,2.1421252405462217,1.2213070784615514,100947.90147088956,287.94565369350516,0.0,0.0,0.0,400.78263157894736,0.21509713015842763,0.86,nominal,11353.561532478874,nan,pitch_program,11.29,0.0,0.0
3.4499999999999997,406.97121110414224,0.0,31.53760184177767,149.09845623622735,0.0,3.3236178293151584,149.13549573291243,17.429414131961376,0.0,6.00559564182732,0.0,0.0,-0.7996591045029977,0.0,4.728602260360983,0.0,13581.657137501354,0.43841083875938797,149.13549573291243,2.143318751315432,1.2212953794868577,100946.70727436079,287.94500558802844,0.0,0.0,0.0,400.74868421052633,0.21507891085212927,0.86,nominal,11429.97626685244,nan,pitch_program,11.275,0.0,0.0
3.48,411.459275698034,0.0,31.639864706337434,149.60215312972554,0.0,3.408762151992141,149.64098329153916,17.42296176463581,0.0,6.029806637618756,0.0,0.0,-0.8070332050563988,0.0,4.724518637519804,0.0,13673.747571606076,0.43989731886170985,149.64098329153916,2.1444947437592536,1.221283380897305,100945.4824968307,287.9443408794088,0.0,0.0,0.0,400.71473684210525,0.2150606915458309,0.86,nominal,11506.493019451756,nan,pitch_program,11.26,0.0,0.0
3.51,415.96241264636546,0.0,31.744750079795278,150.1045649443834,0.0,3.496179115261491,150.14527526881625,17.416509943889437,0.0,6.054223724580677,0.0,0.0,-0.8139029110484868,0.0,4.71995320631011,0.0,13765.925550332835,0.44138030082465823,150.14527526881625,2.145651324987633,1.221271074700215,100944.22632264704,287.9436591244813,0.0,0.0,0.0,400.6807894736842,0.21504247223953252,0.86,nominal,11583.111496144327,nan,pitch_program,11.245000000000001,0.0,0.0
3.54,420.4805835057932,0.0,31.85232519397461,150.60569531425875,0.0,3.5858371393110566,150.64837765167272,17.41005866972225,0.0,6.078832253023871,0.0,0.0,-0.8202842940497249,0.0,4.714909568894446,0.0,13858.189804196754,0.4428598027033385,150.64837765167272,2.1467866458995455,1.2212584530144903,100942.9379475605,287.9429598862391,0.0,0.0,0.0,400.64684210526315,0.21502425293323418,0.86,nominal,11659.831449403993,nan,pitch_program,11.23,0.0,0.0
3.57,425.0137499500471,0.0,31.962656313312138,151.10554814179568,0.0,3.6777039779175564,151.15029667778268,17.403607942134254,0.0,6.103618014479345,0.0,0.0,-0.8261920614000469,0.0,4.709391752251725,0.0,13950.539128734708,0.4443358432890707,151.1502966777827,2.1478989006280815,1.2212455080729663,100941.61657896511,287.94224273396344,0.0,0.0,0.0,400.61289473684207,0.21500603362693582,0.86,nominal,11736.652676425803,nan,pitch_program,11.215,0.0,0.0
3.5999999999999996,429.5618737777104,0.0,32.07580871610739,151.60412758877715,0.0,3.771746759841687,151.65103882128403,17.397157761125445,0.0,6.12856720815731,0.0,0.0,-0.8316398024062573,0.0,4.703404161101598,0.0,14042.972382602353,0.4458084420672162,151.65103882128403,2.1489863265147795,1.2212322322246223,100940.26143612448,287.94150724334526,0.0,0.0,0.0,400.57894736842104,0.21498781432063746,0.86,nominal,11813.575017333113,nan,pitch_program,11.2,0.0,0.0
3.63,434.1249169197464,0.0,32.19184667693949,152.10143806786684,0.0,3.867932027736745,152.15061077920234,17.390708126695827,0.0,6.153666410513878,0.0,0.0,-0.8366400919315287,0.0,4.696951535131156,0.0,14135.488485744629,0.4472776191770826,152.15061077920237,2.150047203763683,1.221218617936662,100938.87175038416,287.9407529965999,0.0,0.0,0.0,400.545,0.21496959501433913,0.86,nominal,11890.598353456568,nan,pitch_program,11.185,0.0,0.0
3.6599999999999997,438.70284144678755,0.0,32.31083345017753,152.5974842347045,0.0,3.966225774601409,152.64901945854746,17.384259038845396,0.0,6.178902550511878,0.0,0.0,-0.8412046801993363,0.0,4.690038913067943,0.0,14228.08641763679,0.4487433953738095,152.64901945854743,2.1510798556064477,1.2212046577964482,100937.44676536984,287.9399795825738,0.0,0.0,0.0,400.51105263157893,0.21495137570804074,0.86,nominal,11967.722605682184,nan,pitch_program,11.17,0.0,0.0
3.69,443.29560957620004,0.0,32.432831254527244,153.0922709804163,0.0,4.066593478323659,153.14627196395983,17.377810497574156,0.0,6.204262887797986,0.0,0.0,-0.8453445900048843,0.0,4.682671600586437,0.0,14320.765215577003,0.4502057919918774,153.14627196395983,2.152082648369538,1.2211903445133383,100935.98573717478,287.93918659684556,0.0,0.0,0.0,400.4771052631579,0.2149331564017424,0.86,nominal,12044.947732851786,nan,pitch_program,11.155,0.0,0.0
3.7199999999999998,447.9031836789348,0.0,32.557901258560406,153.58580342449213,0.0,4.169000134438814,153.64237558586396,17.371362502882103,0.0,6.229734994208947,0.0,0.0,-0.8490702276831492,0.0,4.674855142390889,0.0,14413.52397302444,0.45166483091010795,153.642375585864,2.153053991696127,1.221175670920384,100934.4879345337,287.93837364181934,0.0,0.0,0.0,400.4431578947368,0.21491493709544401,0.86,nominal,12122.273730211105,nan,pitch_program,11.14,0.0,0.0
3.75,452.5255262861735,0.0,32.68610356718137,154.07808690795716,0.0,4.273410287365415,154.13733778906447,17.36491505476924,0.0,6.255306737960502,0.0,0.0,-0.8523914725344582,0.0,4.666595297707932,0.0,14506.361837974046,0.45312053451797357,154.13733778906445,2.1539923388387496,1.2211606299759319,100932.95263898664,287.9375403268133,0.0,0.0,0.0,400.4092105263158,0.21489671778914568,0.86,nominal,12199.700627897178,nan,pitch_program,11.125,0.0,0.0
3.78,457.16260009577695,0.0,32.817497208990666,154.56912698678178,0.0,4.3797880603097985,154.63116620173665,17.358468153235567,0.0,6.2809662699339235,0.0,0.0,-0.8553177467428691,0.0,4.657898018513862,0.0,14599.278011360824,0.4545729256830689,154.63116620173665,2.1548961869607273,1.2211452147651198,100931.37914503184,287.93668626814156,0.0,0.0,0.0,400.3752631578947,0.21487849848284732,0.86,nominal,12277.228489459101,nan,pitch_program,11.11,0.0,0.0
3.81,461.8143679785416,0.0,32.95214012450988,155.05892942548905,0.0,4.488097183973947,155.12386860477528,17.352021798281083,0.0,6.306702012006681,0.0,0.0,-0.8578580835151413,0.0,4.648769430376778,0.0,14692.271745488653,0.45602202771963907,155.12386860477528,2.1557640775073152,1.2211294185012649,100929.7667602677,287.9358110891907,0.0,0.0,0.0,400.34131578947364,0.21486027917654893,0.86,nominal,12354.85741040782,nan,pitch_program,11.095,0.0,0.0
3.84,466.4807929842691,0.0,33.09008915523666,155.54750019091563,0.0,4.59830102422608,155.61545292146374,17.345575989905786,0.0,6.332502646882156,0.0,0.0,-0.8600211770484071,0.0,4.639215815294634,0.0,14785.342342478645,0.4574678643580546,155.61545292146374,2.1565945965611477,1.2211132345271563,100928.1148055253,287.93491442049094,0.0,0.0,0.0,400.3073684210526,0.2148420598702506,0.86,nominal,12432.587516790349,nan,pitch_program,11.080000000000002,0.0,0.0
3.8699999999999997,471.161838347652,0.0,33.23140003350149,156.0348454460974,0.0,4.710362608827579,156.10592720743867,17.33913072810968,0.0,6.358357109353974,0.0,0.0,-0.8618154303510437,0.0,4.62924359641734,0.0,14878.489152733824,0.4589104597151592,156.10592720743867,2.1573863752228437,1.2210966563162582,100926.42261499132,287.9339958997822,0.0,0.0,0.0,400.2734210526316,0.21482384056395223,0.86,nominal,12510.418963785607,nan,pitch_program,11.065000000000001,0.0,0.0
3.9,475.8574674939795,0.0,33.37612737310125,156.52097154425016,0.0,4.824244653325335,156.59529964092505,17.33268601289276,0.0,6.384254578679977,0.0,0.0,-0.8632489922302371,0.0,4.618859324276179,0.0,14971.711573416898,0.4603498382654151,156.59529964092508,2.1581380899726508,1.2210796774738186,100924.68953632144,287.93305517207483,0.0,0.0,0.0,400.2394736842105,0.21480562125765387,0.86,nominal,12588.351934318976,nan,pitch_program,11.05,0.0,0.0
3.9299999999999997,480.56764404466423,0.0,33.524324660686716,157.00588502282406,0.0,4.939909586182359,157.08357851322305,17.326241844255033,0.0,6.410184471949026,0.0,0.0,-0.8643297903870987,0.0,4.608069664366654,0.0,15065.009046938896,0.4617860248127941,157.08357851322305,2.158848463023255,1.2210622917378835,100922.91493074431,287.93209188970553,0.0,0.0,0.0,400.2055263157895,0.21478740195135554,0.86,nominal,12666.386637693677,nan,pitch_program,11.035,0.0,0.0
3.96,485.2923318225926,0.0,33.67604424788327,157.48959259761256,0.0,5.0573195732183365,157.57077221943044,17.319798222196493,0.0,6.4361364382587025,0.0,0.0,-0.8650655584457321,0.0,4.596881385867319,0.0,15158.381059457219,0.4632190444633639,157.57077221943047,2.159516262647173,1.2210444929802347,100921.09817315744,287.9311057123887,0.0,0.0,0.0,400.1715789473684,0.21476918264505715,0.86,nominal,12744.523308237322,nan,pitch_program,11.02,0.0,0.0
