time_s,x_m,y_m,altitude_m,vx_mps,vy_mps,vz_mps,speed_mps,mass_kg,roll_deg,pitch_deg,yaw_deg,p_dps,q_dps,r_dps,alpha_deg,beta_deg,qbar_pa,mach,airspeed_mps,load_factor_g,density_kgpm3,pressure_pa,temperature_k,wind_x_mps,wind_y_mps,wind_z_mps,thrust_n,mass_flow_kgps,propulsion_throttle_actual,propulsion_health,energy_j_per_kg,target_distance_m,guidance_mode,pitch_command_deg,heading_command_deg,roll_command_deg,elevator_command_deg,aileron_command_deg,rudder_command_deg,elevator_deg,aileron_deg,rudder_deg,throttle,elevator_saturated,aileron_saturated,rudder_saturated,elevator_failed,aileron_failed,rudder_failed,elevator_raw_rad,aileron_raw_rad,rudder_raw_rad,elevator_effective_rad,aileron_effective_rad,rudder_effective_rad,sensor_time_s,imu_valid,imu_ax_mps2,imu_ay_mps2,imu_az_mps2,gyro_p_rps,gyro_q_rps,gyro_r_rps,imu_accel_norm_mps2,imu_gyro_norm_rps,gps_valid,gps_latency_s,gps_x_m,gps_y_m,gps_z_m,gps_vx_mps,gps_vy_mps,gps_vz_mps,baro_valid,baro_alt_m,baro_bias_m,pitot_valid,pitot_airspeed_mps,pitot_qbar_pa,pitot_compressibility_factor,mag_valid,mag_heading_deg,mag_x_ut,mag_y_ut,mag_z_ut,radar_valid,radar_agl_m,optical_flow_valid,optical_flow_x_radps,optical_flow_y_radps,optical_flow_quality,horizon_valid,horizon_roll_deg,horizon_pitch_deg
0.0,0.0,0.0,20.0,85.0,0.0,8.0,85.37564055396598,17.633519126604632,0.0,6.000000000000002,0.0,0.0,0.0,0.0,0.623294571949261,0.0,4455.946741876431,0.2509445034436674,85.37564055396597,1.7823069717630136,1.2226496753673843,101084.96761777384,288.02,0.0,0.0,0.0,326.8,0.17539118863220368,0.86,nominal,3840.633,nan,pitch_program,13.0,0.0,0.0,-20.05352282957881,-0.0,0.0,-2.6999999999999997,0.0,0.0,0.86,0.0,0.0,0.0,0.0,0.0,0.0,-0.047123889803846894,0.0,0.0,-0.047123889803846894,0.0,0.0,0.0,1.0,17.44767878518841,-0.0015031124337014448,0.17938216685823574,-0.00041663729163987705,-0.0007873491565204804,0.002827713925469424,17.448600952862883,0.002964704263725511,1.0,0.0,-0.245673998367889,-1.6935992341378452,18.988461048442854,84.93652578647725,-0.05802398367878919,7.9916836480015006,1.0,20.222815898508227,0.0,1.0,85.06098414776324,4518.709200718251,1.0,1.0,-0.5417128263890634,19.546582590338236,-0.0032372630234107527,-43.912301700596245,1.0,20.027074900609485,1.0,0.021251598833740712,4.288711711651136,0.95,1.0,0.09558769260067916,6.0754624275550455
0.03,2.565625701698715,0.0,20.232987818606677,85.5208567232905,0.0,7.766260620222598,85.87276482509925,17.628257390945667,0.0,6.265582975204377,0.0,0.0,-8.852781691043555,0.0,1.0767109014596983,0.0,4507.889011144531,0.25240636371580677,85.87276482509925,1.8109440825236895,1.2226223156504323,101082.17410238285,288.018485579179,0.0,0.0,0.0,332.605,0.1785066900092231,0.86,nominal,3885.4836993447407,nan,pitch_program,12.985,0.0,0.0,-1.430813724064029,-0.0,0.0,-1.9384882344384171,0.0,0.0,0.86,0.0,0.0,0.0,0.0,0.0,0.0,-0.03383300220212211,0.0,0.0,-0.03383300220212211,0.0,0.0,0.03,1.0,17.634513501449486,0.02279568363577392,0.6692298358607266,-0.0015872213422248478,-0.15571949410929223,-0.0007944118500221467,17.64722229273499,0.15572960928298307,1.0,0.0,-0.245673998367889,-1.6935992341378452,18.988461048442854,84.93652578647725,-0.05802398367878919,7.9916836480015006,1.0,20.222815898508227,0.0,1.0,86.10170099047613,4524.146234975189,1.0,1.0,-0.5417128263890634,19.546582590338236,-0.0032372630234107527,-43.912301700596245,1.0,20.027074900609485,1.0,0.021251598833740712,4.288711711651136,0.95,1.0,0.09558769260067916,6.0754624275550455
0.06,5.147066620164839,0.0,20.45946204167272,86.04803061553747,0.0,7.549140768868069,86.37854536376878,17.62290219024539,0.0,6.641356440464407,0.0,0.0,-12.525827073896348,0.0,1.6275370407905987,0.0,4561.0480571834,0.25389365650424967,86.37854536376878,1.8401667022994574,1.2225957212727405,101079.45874467805,288.0170134967291,0.0,0.0,0.0,338.40999999999997,0.18162219138624247,0.86,nominal,3931.2653330113,nan,pitch_program,12.97,0.0,0.0,-0.2975236858568475,-0.0,0.0,-0.9539095052894754,0.0,0.0,0.86,0.0,0.0,0.0,0.0,0.0,0.0,-0.01664886163337161,0.0,0.0,-0.01664886163337161,0.0,0.0,0.06,1.0,18.032480824375323,0.013309757003285629,1.2029763905540416,0.0013346753198576304,-0.22095101108504198,0.0001672614771654271,18.07256744425998,0.2209551054719341,1.0,0.0,-0.245673998367889,-1.6935992341378452,18.988461048442854,84.93652578647725,-0.05802398367878919,7.9916836480015006,1.0,20.03279515961774,0.0,1.0,86.62805580542968,4578.823016976808,1.0,1.0,0.7416521871881084,18.970658312330087,0.0358276670844619,-44.05015332606024,1.0,20.239408400905273,1.0,0.004170144288541773,4.204080537708416,0.9488513448958182,1.0,-0.141659952522294,6.545423909243618
0.09,7.744479493623357,0.0,20.68005583317126,86.58042911528393,0.0,7.353126383284668,86.89211226224889,17.617453524503805,0.0,6.946481817862219,0.0,0.0,-10.170869950713783,0.0,2.0920990572876184,0.0,4615.347265459059,0.25540382656250876,86.89211226224889,1.870506425256795,1.2225698178468658,101076.81394836008,288.0155796370844,0.0,0.0,0.0,344.215,0.18473769276326188,0.86,nominal,3977.9216562340002,nan,pitch_program,12.955,0.0,0.0,-0.7105926509419019,-0.0,0.0,-0.8079193926809313,0.0,0.0,0.86,0.0,0.0,0.0,0.0,0.0,0.0,-0.014100853492995228,0.0,0.0,-0.014100853492995228,0.0,0.0,0.09,1.0,18.301927287993962,-0.027552548437577932,1.6152476724004643,-0.0017652257035824478,-0.1802342808179961,-0.002165020868041619,18.373087019908727,0.1802559272787553,1.0,0.0,-0.245673998367889,-1.6935992341378452,18.988461048442854,84.93652578647725,-0.05802398367878919,7.9916836480015006,1.0,20.03279515961774,0.0,1.0,86.67249011974846,4660.6113957329735,1.0,1.0,0.7416521871881084,18.970658312330087,0.0358276670844619,-44.05015332606024,1.0,20.239408400905273,1.0,0.004170144288541773,4.204080537708416,0.9488513448958182,1.0,-0.141659952522294,6.545423909243618
0.12,10.358041815374254,0.0,20.895250712775702,87.11874405836318,0.0,7.173162653481409,87.41355632143043,17.611911393720906,0.0,7.124718523475968,0.0,0.0,-5.9412283116560145,0.0,2.4177299678979804,0.0,4670.810809402923,0.25693714205040985,87.41355632143042,1.9012828215212016,1.2225445487976923,101074.23393597509,288.01418087036694,0.0,0.0,0.0,350.02,0.1878531941402813,0.86,nominal,4025.477324782387,nan,pitch_program,12.94,0.0,0.0,-1.6632748628846596,-0.0,0.0,-1.3211326748031682,0.0,0.0,0.86,0.0,0.0,0.0,0.0,0.0,0.0,-0.023058115030994815,0.0,0.0,-0.023058115030994815,0.0,0.0,0.12,1.0,18.565085505267444,-0.051052200388989506,1.7863996157666935,0.0018658243022460503,-0.10333657279344201,-0.0018091557397115216,18.650904260444513,0.10336924891626001,1.0,0.0,-0.245673998367889,-1.6935992341378452,18.988461048442854,84.93652578647725,-0.05802398367878919,7.9916836480015006,1.0,20.08134358178471,0.0,1.0,87.38984747057907,4631.777096708023,1.0,1.0,-0.44418082701150463,18.654086587937204,0.0028895723939396287,-44.192529900967905,1.0,21.007985320690025,1.0,-0.004597031006598721,4.178566449444179,0.9477618732180607,1.0,-0.13153995095384025,7.095628127708933
0.15,12.987968403244157,0.0,21.10533483353081,87.66421959566347,0.0,7.00280402517025,87.9434742407397,17.606275797896696,0.0,7.219573572192968,0.0,0.0,-3.161835679393859,0.0,2.652363245710175,0.0,4727.517789369363,0.2584953575964351,87.94347424073969,1.9324068270049541,1.22251988025984,101071.71524889217,288.012815323582,0.0,0.0,0.0,355.825,0.1909686955173007,0.86,nominal,4073.999962611069,nan,pitch_program,12.925,0.0,0.0,-2.3000264322661343,-0.0,0.0,-1.9084689292809482,0.0,0.0,0.86,0.0,0.0,0.0,0.0,0.0,0.0,-0.03330906648796336,0.0,0.0,-0.03330906648796336,0.0,0.0,0.15,1.0,18.839199657759895,0.042496999003781025,2.02278149671613,-0.0012692154737407126,-0.05282026184965516,-0.0016053412010296566,18.94753004281355,0.05285989112887617,1.0,0.0,-0.245673998367889,-1.6935992341378452,18.988461048442854,84.93652578647725,-0.05802398367878919,7.9916836480015006,1.0,20.08134358178471,0.0,1.0,87.948008808509,4712.428261796497,1.0,1.0,-0.44418082701150463,18.654086587937204,0.0028895723939396287,-44.192529900967905,1.0,21.007985320690025,1.0,-0.004597031006598721,4.178566449444179,0.9477618732180607,1.0,-0.13153995095384025,7.095628127708933
0.18,15.634495840974317,0.0,21.3105043239851,88.217581257672,0.0,6.838983015142906,88.48227693518841,17.600546737031177,0.0,7.289578926436303,0.0,0.0,-2.3335120984104183,0.0,2.8566452282487247,0.0,4785.529040453736,0.26007968150339045,88.48227693518841,1.963993299380951,1.222495789176197,101069.25553209726,288.0114817218941,0.0,0.0,0.0,361.63,0.19408419689432013,0.86,nominal,4123.541323046496,nan,pitch_program,12.91,0.0,0.0,-2.4628764738145836,-0.0,0.0,-2.2411134560011297,0.0,0.0,0.86,0.0,0.0,0.0,0.0,0.0,0.0,-0.03911480871796878,0.0,0.0,-0.03911480871796878,0.0,0.0,0.18,1.0,19.169444497032245,-0.007828965917436204,2.1036811743588526,0.0008095229665121388,-0.03892322237879878,0.0005479621809490378,19.284531057323093,0.038935495763306814,1.0,0.0,-0.245673998367889,-1.6935992341378452,18.988461048442854,84.93652578647725,-0.05802398367878919,7.9916836480015006,1.0,21.346712430188493,0.0,1.0,88.58078164050528,4764.0006274822945,1.0,1.0,-2.6065003095312695,18.536540570158778,-0.028597559099836346,-44.29502460258165,1.0,21.17023884477913,1.0,0.010674844649940814,4.1277112051626395,0.9467237391900373,1.0,0.7266369921740294,7.005701885836281
0.21,18.297863442161276,0.0,21.510956724407272,88.77892003956525,0.0,6.6817466807390975,89.03000832358205,17.594724211124348,0.0,7.359285631753385,0.0,0.0,-2.323557130502511,0.0,3.055161685913377,0.0,4844.86681227429,0.2616902433649699,89.03000832358205,1.9959819306857758,1.2224722523259142,101066.85241392258,288.0101787812913,0.0,0.0,0.0,367.435,0.19719969827133954,0.86,nominal,4174.121614809953,nan,pitch_program,12.895,0.0,0.0,-2.421250888509952,-0.0,0.0,-2.349195915506423,0.0,0.0,0.86,0.0,0.0,0.0,0.0,0.0,0.0,-0.04100120349998959,0.0,0.0,-0.04100120349998959,0.0,0.0,0.21,1.0,19.48600209947304,-0.050098832778981875,2.3872252876830475,-0.002102070710750061,-0.040212759918084616,-0.0014216869692023678,19.631750616994577,0.04029275313677269,1.0,0.0,17.55544485686449,0.1778236450502667,22.897988213469915,88.5434718260959,0.005777022466206368,6.654161202259804,1.0,21.346712430188493,0.0,1.0,88.24334541891145,4828.620241799469,1.0,1.0,-2.6065003095312695,18.536540570158778,-0.028597559099836346,-44.29502460258165,1.0,21.17023884477913,1.0,0.010674844649940814,4.1277112051626395,0.9467237391900373,1.0,0.7266369921740294,7.005701885836281
0.24,20.978307018603957,0.0,21.70691360060242,89.34811921475605,0.0,6.531895873171558,89.58656188799867,17.588808220176208,0.0,7.422808220118241,0.0,0.0,-2.117419829050494,0.0,3.241573388317197,0.0,4905.537274481279,0.2633267306663312,89.58656188799867,2.0281852928279527,1.2224492436691259,101064.50323494132,288.00890506159607,0.0,0.0,0.0,373.24,0.20031519964835895,0.86,nominal,4225.748139717455,nan,pitch_program,12.88,0.0,0.0,-2.4320868620287808,-0.0,0.0,-2.3989304834198375,0.0,0.0,0.86,0.0,0.0,0.0,0.0,0.0,0.0,-0.041869235462135404,0.0,0.0,-0.041869235462135404,0.0,0.0,0.24,1.0,19.68121512865923,-0.012448829461058335,2.5258410960854825,0.0019314670890153924,-0.035441253270388696,-0.00039174736746875244,19.84263735385481,0.03549600631749586,1.0,0.0,17.55544485686449,0.1778236450502667,22.897988213469915,88.5434718260959,0.005777022466206368,6.654161202259804,1.0,21.836306629242607,0.0,1.0,90.55909782768659,4860.315717265481,1.0,1.0,-1.4062643091429938,18.545566525790196,-0.00340055161425171,-44.34712885127181,1.0,21.849372617778773,1.0,-0.018201359899392932,4.135443820225991,0.945732715998494,1.0,-0.2301136412682371,7.674167619005921
0.27,23.676062846510696,0.0,21.898596715315435,89.92519426355803,0.0,6.389437157100474,90.15190220135783,17.58279876418676,0.0,7.46818925082731,0.0,0.0,-1.5127011027172719,0.0,3.403993669745866,0.0,4967.55442685779,0.2649890398604661,90.15190220135783,2.0604385276687354,1.222426737144875,101062.2053336374,288.0076591213504,0.0,0.0,0.0,379.045,0.20343070102537836,0.86,nominal,4278.434608739841,nan,pitch_program,12.865,0.0,0.0,-2.5526912184127757,-0.0,0.0,-2.4911869244156004,0.0,0.0,0.86,0.0,0.0,0.0,0.0,0.0,0.0,-0.04347941411368334,0.0,0.0,-0.04347941411368334,0.0,0.0,0.27,1.0,20.021636587169596,-0.037154193907578306,2.72267893982816,-0.0009167527104810118,-0.027536460122531057,0.0007885714579627108,20.20594696301554,0.027562999048656348,1.0,0.0,17.55544485686449,0.1778236450502667,22.897988213469915,88.5434718260959,0.005777022466206368,6.654161202259804,1.0,21.836306629242607,0.0,1.0,90.30890508833407,5012.382678205836,1.0,1.0,-1.4062643091429938,18.545566525790196,-0.00340055161425171,-44.34712885127181,1.0,21.849372617778773,1.0,-0.018201359899392932,4.135443820225991,0.945732715998494,1.0,-0.2301136412682371,7.674167619005921
0.3,26.391372762868812,0.0,22.086203930576847,90.51033054527056,0.0,6.2535738420471185,90.72611047108806,17.576695843155996,0.0,7.492430495991483,0.0,0.0,-0.8080415175259967,0.0,3.5400102326419933,0.0,5030.945398968597,0.2666774101683027,90.72611047108806,2.0926970041286777,1.2224047095004162,101059.95633527078,288.0064396744512,0.0,0.0,0.0,384.84999999999997,0.20654620240239774,0.86,nominal,4332.205232381829,nan,pitch_program,12.850000000000001,0.0,0.0,-2.7100955423640327,-0.0,0.0,-2.6225320951846594,0.0,0.0,0.86,0.0,0.0,0.0,0.0,0.0,0.0,-0.045771819800197636,0.0,0.0,-0.045771819800197636,0.0,0.0,0.3,1.0,20.30734567403309,0.0314871864965117,2.930054503536783,0.0005045038175934576,-0.014444984376425928,-0.0006476206511055024,20.517663101856414,0.014468293273392472,1.0,0.0,17.55544485686449,0.1778236450502667,22.897988213469915,88.5434718260959,0.005777022466206368,6.654161202259804,1.0,22.382244481016176,0.0,1.0,90.7898424192153,5001.599377143171,1.0,1.0,-0.03095624262570015,18.37856924123533,0.033965320472555176,-44.33722073437075,1.0,22.046105900333274,1.0,-0.003045961655824597,4.090558496172637,0.9447844901735579,1.0,-0.8115118905792419,7.662088943071205
0.32999999999999996,29.124485321757398,0.0,22.26990568655918,91.10375196295278,0.0,6.123391866077745,91.30930702657189,17.570499457083923,0.0,7.500733917689299,0.0,0.0,-0.27678072374497176,0.0,3.6554739752862737,0.0,5095.742211502371,0.26839219573159356,91.30930702657189,2.1249999528224013,1.2223831407043637,101057.75419405075,288.00524561303735,0.0,0.0,0.0,390.655,0.20966170377941715,0.86,nominal,4387.087945437481,nan,pitch_program,12.835,0.0,0.0,-2.833061381415631,-0.0,0.0,-2.7488496669232423,0.0,0.0,0.86,0.0,0.0,0.0,0.0,0.0,0.0,-0.04797647733016004,0.0,0.0,-0.04797647733016004,0.0,0.0,0.32999999999999996,1.0,20.700091637884412,0.03660103743511395,2.98450037958559,-0.00031969483290209737,-0.005078197676516332,0.0025293729856275746,20.914166872445577,0.0056822551974003,1.0,0.0,17.55544485686449,0.1778236450502667,22.897988213469915,88.5434718260959,0.005777022466206368,6.654161202259804,1.0,22.382244481016176,0.0,1.0,91.22645097559432,5109.082429137013,1.0,1.0,-0.03095624262570015,18.37856924123533,0.033965320472555176,-44.33722073437075,1.0,22.046105900333274,1.0,-0.003045961655824597,4.090558496172637,0.9447844901735579,1.0,-0.8115118905792419,7.662088943071205
0.36,31.875653822060055,0.0,22.44985509513773,91.70561667675528,0.0,5.998313619284915,91.90157722443764,17.56420960597054,0.0,7.4993535295205875,0.0,0.0,0.04601293895927256,0.0,3.7570615370390277,0.0,5161.973598434977,0.270133647850138,91.90157722443764,2.1573792686550592,1.2223620127613262,101055.59707210405,288.0040759418816,0.0,0.0,0.0,396.46,0.21277720515643656,0.86,nominal,4443.10781963837,nan,pitch_program,12.82,0.0,0.0,-2.9093252022268996,-0.0,0.0,-2.8451349881054364,0.0,0.0,0.86,0.0,0.0,0.0,0.0,0.0,0.0,-0.04965697320612957,0.0,0.0,-0.04965697320612957,0.0,0.0,0.36,1.0,20.983492645728617,-0.018184549633935735,3.096230285103706,-0.0008505562897498171,-0.0001737637299944199,0.0003059780389867867,21.21070334217104,0.0009204685742798327,1.0,0.0,17.55544485686449,0.1778236450502667,22.897988213469915,88.5434718260959,0.005777022466206368,6.654161202259804,1.0,23.037942824762947,0.0,1.0,92.12413928914539,5168.91432656504,1.0,1.0,0.15484895499477355,18.40015804716357,-0.005148254748973163,-44.384209937456966,1.0,22.934443826578562,1.0,0.014198818101723385,4.070831685294531,0.9438753622621556,1.0,0.0004073352126957333,7.7320661284643455
0.39,34.64513415250543,0.0,22.626197435914897,92.31601101484569,0.0,5.878078025905624,92.50296044436493,17.557826289815846,0.0,7.491360691038274,0.0,0.0,0.2664279498425086,0.0,3.848059663683777,0.0,5229.663643490299,0.271901882662952,92.50296044436493,2.18982240589363,1.2223413085968142,101053.48322562061,288.00292971666653,0.0,0.0,0.0,402.265,0.21589270653345596,0.86,nominal,4500.2860445707865,nan,pitch_program,12.805,0.0,0.0,-2.963693127975532,-0.0,0.0,-2.916269872027494,0.0,0.0,0.86,0.0,0.0,0.0,0.0,0.0,0.0,-0.05089851114359345,0.0,0.0,-0.05089851114359345,0.0,0.0,0.39,1.0,21.260855049697927,0.04315714012793678,3.233981274835679,0.004856934015385476,0.0058338008422948225,0.0004932818001466812,21.505451747615012,0.007606994625456509,1.0,0.0,17.55544485686449,0.1778236450502667,22.897988213469915,88.5434718260959,0.005777022466206368,6.654161202259804,1.0,23.037942824762947,0.0,1.0,91.97132659263542,5289.769048999538,1.0,1.0,0.15484895499477355,18.40015804716357,-0.005148254748973163,-44.384209937456966,1.0,22.934443826578562,1.0,0.014198818101723385,4.070831685294531,0.9438753622621556,1.0,0.0004073352126957333,7.7320661284643455
0.42,37.43318398948645,0.0,22.799072911078383,92.93499456603422,0.0,5.762515838782921,93.11347809947297,17.551349508619843,0.0,7.477179561494418,0.0,0.0,0.47270432054168615,0.0,3.9290470560861745,0.0,5298.834805204961,0.2736969634885201,93.11347809947297,2.1999477440939788,1.222321011733689,101051.41097181679,288.001806026078,0.0,0.0,0.0,404.1773684210526,0.21691906078826353,0.86,nominal,4558.6424302539435,nan,pitch_program,12.79,0.0,0.0,-3.01799134496283,-0.0,0.0,-2.9773027557886955,0.0,0.0,0.86,0.0,0.0,0.0,0.0,0.0,0.0,-0.0519637359172134,0.0,0.0,-0.0519637359172134,0.0,0.0,0.42,1.0,21.35793781748832,0.004564024093700977,3.373180981508281,0.0003163080279290465,0.00828852348911067,-5.237155477658966e-05,21.622670477534054,0.008294722127824498,1.0,0.0,36.65237594396821,0.8716177416782652,23.21549705868745,92.76912858220781,0.041478366560691045,5.590621506692295,1.0,23.42066134446315,0.0,1.0,92.71764152537749,5331.166541892723,1.0,1.0,-1.3209815806031382,18.414481247167494,-0.043216175400646595,-44.46833628754336,1.0,22.882854031851526,1.0,0.0028563245139462718,4.063730335105801,0.943002317722304,1.0,-0.10080426273681829,8.053385330499966
0.44999999999999996,40.23986505268377,0.0,22.9685892619158,93.55603543991047,0.0,5.65054502791381,93.72651933335766,17.544841936796196,0.0,7.45683673332162,0.0,0.0,0.6780942795500566,0.0,4.000516966007756,0.0,5368.750092882846,0.2754994586761056,93.72651933335766,2.1989310429782276,1.222301109507047,101049.37901716167,288.00070416979753,0.0,0.0,0.0,404.14342105263154,0.21690084148196515,0.86,nominal,4617.5751290585,nan,pitch_program,12.775,0.0,0.0,-3.075521715274167,-0.0,0.0,-3.036234131479979,0.0,0.0,0.86,0.0,0.0,0.0,0.0,0.0,0.0,-0.05299228245575604,0.0,0.0,-0.05299228245575604,0.0,0.0,0.44999999999999996,1.0,21.315207718382286,-0.0230021075991523,3.475239927636759,-0.0011514189343556924,0.011445021515744893,0.003218603671291732,21.596664134291167,0.01194460935531627,1.0,0.0,36.65237594396821,0.8716177416782652,23.21549705868745,92.76912858220781,0.041478366560691045,5.590621506692295,1.0,23.42066134446315,0.0,1.0,93.41320730091624,5242.070487064391,1.0,1.0,-1.3209815806031382,18.414481247167494,-0.043216175400646595,-44.46833628754336,1.0,22.882854031851526,1.0,0.0028563245139462718,4.063730335105801,0.943002317722304,1.0,-0.10080426273681829,8.053385330499966
0.48,43.06514219003184,0.0,23.134833618355696,94.1759045782691,0.0,5.541478547996556,94.33879895161456,17.538334911551736,0.0,7.431093866198037,0.0,0.0,0.8580955852212686,0.0,4.063590709963722,0.0,5439.036347493926,0.27729971182689406,94.33879895161456,2.197947622724307,1.2222815916727674,101047.3863153063,287.99962358148065,0.0,0.0,0.0,404.1094736842105,0.2168826221756668,0.86,nominal,4676.779709920024,nan,pitch_program,12.76,0.0,0.0,-3.1297353891335002,-0.0,0.0,-3.092334886072092,0.0,0.0,0.86,0.0,0.0,0.0,0.0,0.0,0.0,-0.05397142533624174,0.0,0.0,-0.05397142533624174,0.0,0.0,0.48,1.0,21.176930655410832,0.030697728934728528,3.590574331802859,-0.0017206007112812302,0.016681377485035787,-0.0009038052666367568,21.479188959708008,0.016794215836588522,1.0,0.0,36.65237594396821,0.8716177416782652,23.21549705868745,92.76912858220781,0.041478366560691045,5.590621506692295,1.0,22.84506413179373,0.0,1.0,94.70155291951447,5455.598656725887,1.0,1.0,-1.091905470304788,18.407614357243286,-0.034253136144314314,-44.276700343467205,1.0,23.247378053063365,1.0,0.016558340952538643,4.080185353559172,0.9421629159541107,1.0,-0.1503956182272835,7.237342680424653
0.51,45.90898215698584,0.0,23.297886289086037,94.79466556513329,0.0,5.435089024344689,94.95034919529269,17.531828432886467,0.0,7.401172783901379,0.0,0.0,0.9973694325550668,0.0,4.119689622382324,0.0,5509.695606875685,0.2790978177513476,94.95034919529267,2.196999467155954,1.2222624487883387,101045.43190176737,287.9985637391209,0.0,0.0,0.0,404.0755263157895,0.21686440286936848,0.86,nominal,4736.258622730875,nan,pitch_program,12.745,0.0,0.0,-3.1761159513249577,-0.0,0.0,-3.1426035252238114,0.0,0.0,0.86,0.0,0.0,0.0,0.0,0.0,0.0,-0.05484877859993618,0.0,0.0,-0.05484877859993618,0.0,0.0,0.51,1.0,21.182056249094245,-0.018397308805816696,3.66006124219845,0.0026637992346403077,0.01430047445217237,-0.001430083764545863,21.495950634884867,0.014616584262177077,1.0,0.0,36.65237594396821,0.8716177416782652,23.21549705868745,92.76912858220781,0.041478366560691045,5.590621506692295,1.0,22.84506413179373,0.0,1.0,95.29030132934388,5541.279595375741,1.0,1.0,-1.091905470304788,18.407614357243286,-0.034253136144314314,-44.276700343467205,1.0,23.247378053063365,1.0,0.016558340952538643,4.080185353559172,0.9421629159541107,1.0,-0.1503956182272835,7.237342680424653
0.54,48.771353198891305,0.0,23.457822496613396,95.41236806351547,0.0,5.331206917578612,95.56119372781917,17.525322500800385,0.0,7.3681208462159,0.0,0.0,1.1017312867349374,0.0,4.170020092122464,0.0,5580.7290065211755,0.2808938460383228,95.56119372781916,2.196086026499765,1.2222436720090917,101043.51487312118,287.99752415377196,0.0,0.0,0.0,404.0415789473684,0.2168461835630701,0.86,nominal,4796.0135283293075,nan,pitch_program,12.73,0.0,0.0,-3.2155326254943595,-0.0,0.0,-3.1863609853861403,0.0,0.0,0.86,0.0,0.0,0.0,0.0,0.0,0.0,-0.05561249035207907,0.0,0.0,-0.05561249035207907,0.0,0.0,0.54,1.0,21.20893167581007,-0.04728152899850868,3.7231086181608326,-0.002364080842476127,0.022302468331454373,0.00014015805567226683,21.53328948755363,0.02242785357955276,1.0,0.0,36.65237594396821,0.8716177416782652,23.21549705868745,92.76912858220781,0.041478366560691045,5.590621506692295,1.0,22.00955575885337,0.0,1.0,94.9977622193089,5510.89471951069,1.0,1.0,-1.1655158380230606,18.46340423134964,0.010477133529951957,-44.23743407572235,1.0,23.351919467736888,1.0,-0.011136952670865565,4.0645712583818945,0.9413554437584665,1.0,-0.42257771626401436,7.331794406918109
0.57,51.652224714193125,0.0,23.614713660722458,96.02905051006061,0.0,5.229705470302071,96.17134896199534,17.518817115293494,0.0,7.332583000652132,0.0,0.0,1.1845948901030352,0.0,4.21535600706965,0.0,5652.136902815701,0.2826878449589699,96.17134896199535,2.195201847682639,1.2222252529374702,101041.63437161317,287.99650436120527,0.0,0.0,0.0,404.0076315789474,0.21682796425677175,0.86,nominal,4856.045412305864,nan,pitch_program,12.715,0.0,0.0,-3.2509791681956894,-0.0,0.0,-3.2251318950718697,0.0,0.0,0.86,0.0,0.0,0.0,0.0,0.0,0.0,-0.056289170380088405,0.0,0.0,-0.056289170380088405,0.0,0.0,0.57,1.0,21.20532589902131,0.011281626606316502,3.7890270422044323,-0.004153810255208671,0.022586953826321025,-0.001804383325805992,21.54118612531258,0.02303650194745464,1.0,0.0,36.65237594396821,0.8716177416782652,23.21549705868745,92.76912858220781,0.041478366560691045,5.590621506692295,1.0,22.00955575885337,0.0,1.0,95.73684718663667,5666.537618655131,1.0,1.0,-1.1655158380230606,18.46340423134964,0.010477133529951957,-44.23743407572235,1.0,23.351919467736888,1.0,-0.011136952670865565,4.0645712583818945,0.9413554437584665,1.0,-0.42257771626401436,7.331794406918109
0.6,54.5515670801127,0.0,23.768627945707962,96.64474553065239,0.0,5.130476166183476,96.78082777273778,17.51231227636579,0.0,7.294971830803902,0.0,0.0,1.2537057066273303,0.0,4.256224480124602,0.0,5723.919284860633,0.28447985238119805,96.78082777273778,2.194340832158145,1.2222071835587345,101039.78957859204,287.9955039183529,0.0,0.0,0.0,403.9736842105263,0.21680974495047337,0.86,nominal,4916.354927431943,nan,pitch_program,12.7,0.0,0.0,-3.2841621425826153,-0.0,0.0,-3.2605500435783172,0.0,0.0,0.86,0.0,0.0,0.0,0.0,0.0,0.0,-0.056907333686486226,0.0,0.0,-0.056907333686486226,0.0,0.0,0.6,1.0,21.18671853441816,0.02733145270047143,3.938062816393045,0.0001088178486146654,0.020058316378802697,0.00018813094123335274,21.549620136114285,0.02005949377545134,1.0,0.0,36.65237594396821,0.8716177416782652,23.21549705868745,92.76912858220781,0.041478366560691045,5.590621506692295,1.0,23.55406507697564,0.0,1.0,96.486408170904,5745.268012849455,1.0,1.0,0.2082262092221237,18.548249832057643,-0.08577104778429483,-44.32763378368789,1.0,23.920040564173227,1.0,0.012850241149878547,4.052027096999359,0.9405784301357301,1.0,-0.5056109686841002,6.950736713535242
0.63,57.469351553761896,0.0,23.919630518719668,97.25948245497325,0.0,5.033419100390189,97.38964131389653,17.505807984017277,0.0,7.255674145983241,0.0,0.0,1.309922878706931,0.0,4.293118654279945,0.0,5796.075977398576,0.2862699011104668,97.38964131389653,2.1934996872523365,1.2221894562105946,101037.97971140852,287.9945224016283,0.0,0.0,0.0,403.9397368421053,0.21679152564417503,0.86,nominal,4976.942562251113,nan,pitch_program,12.685,0.0,0.0,-3.315080733031579,-0.0,0.0,-3.2932684572502744,0.0,0.0,0.86,0.0,0.0,0.0,0.0,0.0,0.0,-0.05747837773109141,0.0,0.0,-0.05747837773109141,0.0,0.0,0.63,1.0,21.137893650723974,0.01725586709422622,3.9860405682351185,0.0010764846035257675,0.02495224613441415,0.0009283359939563103,21.510447814164216,0.024992703214572223,1.0,0.0,55.835735869431375,1.9079333370870313,23.565974306258084,97.05430645955447,0.14294803533334222,5.135856677738244,1.0,23.55406507697564,0.0,1.0,97.25915342892802,5763.306343313339,1.0,1.0,0.2082262092221237,18.548249832057643,-0.08577104778429483,-44.32763378368789,1.0,23.920040564173227,1.0,0.012850241149878547,4.052027096999359,0.9405784301357301,1.0,-0.5056109686841002,6.950736713535242
0.6599999999999999,60.40555016119346,0.0,24.067783907423657,97.87328691438556,0.0,4.938446290133009,97.99779866500147,17.49930423824795,0.0,7.215096681704763,0.0,0.0,1.352582199149603,0.0,4.326541733172858,0.0,5868.606591892558,0.2880580178522109,97.99779866500147,2.192677581198822,1.2221720635411923,101036.20401912407,287.99355940460174,0.0,0.0,0.0,403.9057894736842,0.21677330633787664,0.86,nominal,5037.808604648818,nan,pitch_program,12.67,0.0,0.0,-3.343341883833648,-0.0,0.0,-3.3233125132002987,0.0,0.0,0.86,0.0,0.0,0.0,0.0,0.0,0.0,-0.058002745428072724,0.0,0.0,-0.058002745428072724,0.0,0.0,0.6599999999999999,1.0,21.136582552094037,-0.02749763082139706,4.06933939801613,0.0025808992404335136,0.026495471980682653,2.2148545458613724e-05,21.52476251291598,0.02662088591550769,1.0,0.0,55.835735869431375,1.9079333370870313,23.565974306258084,97.05430645955447,0.14294803533334222,5.135856677738244,1.0,24.156264255991193,0.0,1.0,98.16103286046543,5765.820325380332,1.0,1.0,-0.9025035140678309,18.59457308159794,-0.021676540853266098,-44.27846891523972,1.0,24.0120144943498,1.0,-0.0006244414976546234,4.038324209032583,0.9398305402314409,1.0,0.09892726755355975,6.485252672757861
0.69,63.36013556453146,0.0,24.213148473216577,98.48618011126669,0.0,4.845485526430672,98.60530615994107,17.492801039057817,0.0,7.173608464744402,0.0,0.0,1.3829406257717776,0.0,4.356947413898725,0.0,5941.510437647208,0.28984422123973935,98.60530615994107,2.1918741154989263,1.2221549984535038,101034.461776834,287.9926145349241,0.0,0.0,0.0,403.8718421052631,0.21675508703157828,0.86,nominal,5098.953073922725,nan,pitch_program,12.655,0.0,0.0,-3.3690537259347915,-0.0,0.0,-3.350757240840994,0.0,0.0,0.86,0.0,0.0,0.0,0.0,0.0,0.0,-0.058481746287715956,0.0,0.0,-0.058481746287715956,0.0,0.0,0.69,1.0,21.1711779232184,0.019790298798510762,4.207845047229784,-0.0013168738921928705,0.02652174962452686,0.00043157465589579834,21.585298845603067,0.026557929450121698,1.0,0.0,55.835735869431375,1.9079333370870313,23.565974306258084,97.05430645955447,0.14294803533334222,5.135856677738244,1.0,24.156264255991193,0.0,1.0,98.9463581157664,5949.9175529618005,1.0,1.0,-0.9025035140678309,18.59457308159794,-0.021676540853266098,-44.27846891523972,1.0,24.0120144943498,1.0,-0.0006244414976546234,4.038324209032583,0.9398305402314409,1.0,0.09892726755355975,6.485252672757861
0.72,66.3330809393864,0.0,24.355782841609084,99.09817916183128,0.0,4.7544789464169295,99.21216751609822,17.48629838644687,0.0,7.131500419493788,0.0,0.0,1.4036015715290808,0.0,4.384700707736687,0.0,6014.786527037289,0.2916285222149344,99.21216751609822,2.191088312551581,1.2221382540547994,101032.75228050652,287.99168741152954,0.0,0.0,0.0,403.8378947368421,0.21673686772527995,0.86,nominal,5160.3757294248335,nan,pitch_program,12.64,0.0,0.0,-3.392704566775812,-0.0,0.0,-3.375925636401885,0.0,0.0,0.86,0.0,0.0,0.0,0.0,0.0,0.0,-0.058921017657697826,0.0,0.0,-0.058921017657697826,0.0,0.0,0.72,1.0,21.116331002254515,-0.013968907828443813,4.2502587253733815,0.003609639664623819,0.024907725035913618,-0.0006502398864281112,21.539831228674323,0.025176319764473234,1.0,0.0,55.835735869431375,1.9079333370870313,23.565974306258084,97.05430645955447,0.14294803533334222,5.135856677738244,1.0,24.73144257824661,0.0,1.0,99.1940910180216,5918.338541456054,1.0,1.0,0.2921936191121457,18.618742035349005,0.002061413747142439,-44.1592467750281,1.0,24.37102617620904,1.0,-0.0026946152146732462,4.057729417759404,0.9391105428959773,1.0,0.16123055866548794,6.822737629701891
0.75,69.32435988135558,0.0,24.49574420947788,99.70929806563923,0.0,4.665378928959821,99.8183844854908,17.479796280415112,0.0,7.088998544596181,0.0,0.0,1.4167292282180757,0.0,4.410093835370578,0.0,6088.433645076068,0.2934109259430082,99.8183844854908,2.1903189993335377,1.2221218236205411,101031.07484329636,287.9907776626384,0.0,0.0,0.0,403.80394736842106,0.21671864841898159,0.86,nominal,5222.076130598512,nan,pitch_program,12.625,0.0,0.0,-3.414709131316531,-0.0,0.0,-3.399195733350673,0.0,0.0,0.86,0.0,0.0,0.0,0.0,0.0,0.0,-0.05932715746671246,0.0,0.0,-0.05932715746671246,0.0,0.0,0.75,1.0,21.023144166559952,-0.0038190883229666764,4.3950550249415725,0.002085466353789146,0.025001011561176845,-0.0003069366866501068,21.477642186833812,0.025089718195398222,1.0,0.0,55.835735869431375,1.9079333370870313,23.565974306258084,97.05430645955447,0.14294803533334222,5.135856677738244,1.0,24.73144257824661,0.0,1.0,100.24936334906532,6034.338876240017,1.0,1.0,0.2921936191121457,18.618742035349005,0.002061413747142439,-44.1592467750281,1.0,24.37102617620904,1.0,-0.0026946152146732462,4.057729417759404,0.9391105428959773,1.0,0.16123055866548794,6.822737629701891
0.78,72.33394633458818,0.0,24.633088567784903,100.31954844108675,0.0,4.5781452769006865,100.42395736874722,17.473294720962542,0.0,7.046294433210169,0.0,0.0,1.4234704454301128,0.0,4.4333786231789185,0.0,6162.450405103445,0.2951914333238473,100.42395736874721,2.1895654241600684,1.2221057005682183,101029.42879287271,287.98988492430937,0.0,0.0,0.0,403.77,0.21670042911268322,0.86,nominal,5284.053684803248,nan,pitch_program,12.61,0.0,0.0,-3.4352469611027483,-0.0,0.0,-3.4208264700019178,0.0,0.0,0.86,0.0,0.0,0.0,0.0,0.0,0.0,-0.0597046850409085,0.0,0.0,-0.0597046850409085,0.0,0.0,0.78,1.0,20.985012982798125,-0.02057912740869238,4.426167613989046,0.0031867430941013757,0.022009190438419556,0.00020818199598445373,21.446728261807586,0.022239674796315563,1.0,0.0,55.835735869431375,1.9079333370870313,23.565974306258084,97.05430645955447,0.14294803533334222,5.135856677738244,1.0,25.15448293031508,0.0,1.0,100.734010626163,6222.3416085163235,1.0,1.0,-0.321917396298134,18.742060185636642,0.025937556294620214,-44.18354968674051,1.0,24.82824192258693,1.0,-0.0189763422428002,4.054763041217613,0.9384172785805377,1.0,-0.24195526577607995,7.179463955402016
0.8099999999999999,75.36181452896518,0.0,24.767870900672953,100.92893981256668,0.0,4.492744429601722,101.02888519724657,17.466793708089163,0.0,7.003559182082852,0.0,0.0,1.4245084369511303,0.0,4.454781055748802,0.0,6236.835265806919,0.2969700415279057,101.02888519724657,2.1888273173392485,1.2220898784339573,101027.81346903075,287.9890088391456,0.0,0.0,0.0,403.73605263157896,0.21668220980638486,0.86,nominal,5346.307663267297,nan,pitch_program,12.595,0.0,0.0,-3.45439306406899,-0.0,0.0,-3.4409664264421616,0.0,0.0,0.86,0.0,0.0,0.0,0.0,0.0,0.0,-0.060056193591998985,0.0,0.0,-0.060056193591998985,0.0,0.0,0.8099999999999999,1.0,21.00004005215952,0.06355760230276253,4.543336397840047,0.0018041719934568058,0.025307575541328946,0.0012664632772009718,21.48598676777617,0.025403392403270546,1.0,0.0,55.835735869431375,1.9079333370870313,23.565974306258084,97.05430645955447,0.14294803533334222,5.135856677738244,1.0,25.15448293031508,0.0,1.0,100.43892887858718,6235.289387797921,1.0,1.0,-0.321917396298134,18.742060185636642,0.025937556294620214,-44.18354968674051,1.0,24.82824192258693,1.0,-0.0189763422428002,4.054763041217613,0.9384172785805377,1.0,-0.24195526577607995,7.179463955402016
0.84,78.40793892131087,0.0,24.900145377405067,101.53747974485638,0.0,4.4091492244038335,101.63316579650652,17.46029324179497,0.0,6.96094111032491,0.0,0.0,1.4206024574302893,0.0,4.474499300378256,0.0,6311.58653431192,0.2987467441830369,101.63316579650652,2.188104579531491,1.2220743508499698,101026.22822138856,287.98814905504685,0.0,0.0,0.0,403.7021052631579,0.2166639905000865,0.86,nominal,5408.837205575421,nan,pitch_program,12.58,0.0,0.0,-3.4722541248424865,-0.0,0.0,-3.4597390454823564,0.0,0.0,0.86,0.0,0.0,0.0,0.0,0.0,0.0,-0.06038383760347297,0.0,0.0,-0.06038383760347297,0.0,0.0,0.84,1.0,20.91937819468708,-0.02067003108490698,4.6265606341807946,-0.0014102523407278625,0.02333864858246362,0.002487630517248943,21.424889138669673,0.02351318002547949,1.0,0.0,77.33708612881226,-0.014854156805058695,21.996240395186717,101.42844200783802,0.2078095000292168,4.369352744426489,1.0,24.89304180520394,0.0,1.0,101.69741956602917,6330.095648988213,1.0,1.0,-0.8440938294910778,18.808983817311148,0.017115652064601174,-44.17401191382466,1.0,24.816164020077977,1.0,0.017781503754251547,4.064411323633896,0.9377496365564874,1.0,-0.0216298920039087,6.91917950193616
0.87,81.47229414328378,0.0,25.029965521901794,102.14517406576341,0.0,4.327338149890878,102.23679592196055,17.45379332207997,0.0,6.918562919336976,0.0,0.0,1.4126064306635322,0.0,4.492701447293127,0.0,6386.702378617378,0.3005215317740635,102.23679592196054,2.1873970750085427,1.222059111524634,101024.6724073532,287.9873052241076,0.0,0.0,0.0,403.66815789473685,0.21664577119378817,0.86,nominal,5471.641331579662,nan,pitch_program,12.565,0.0,0.0,-3.4889747676275134,-0.0,0.0,-3.4772804787694502,0.0,0.0,0.86,0.0,0.0,0.0,0.0,0.0,0.0,-0.06068999336985169,0.0,0.0,-0.06068999336985169,0.0,0.0,0.87,1.0,20.88500929783564,0.03933402328032324,4.645950119376029,0.0038623529184958973,0.026603502235520566,0.0010925862185049585,21.395560592043356,0.02690460640684469,1.0,0.0,77.33708612881226,-0.014854156805058695,21.996240395186717,101.42844200783802,0.2078095000292168,4.369352744426489,1.0,24.89304180520394,0.0,1.0,101.75436583249598,6558.173074481073,1.0,1.0,-0.8440938294910778,18.808983817311148,0.017115652064601174,-44.17401191382466,1.0,24.816164020077977,1.0,0.017781503754251547,4.064411323633896,0.9377496365564874,1.0,-0.0216298920039087,6.91917950193616
0.8999999999999999,84.5548549580005,0.0,25.15738434985544,102.75202715722443,0.0,4.247294265121591,102.8397714578048,17.447293948944157,0.0,6.876525170737841,0.0,0.0,1.4012583494973094,0.0,4.509529733570443,0.0,6462.180848584157,0.30229439222765137,102.8397714578048,2.186704660147781,1.222044154226385,101023.14539047555,287.9864770017259,0.0,0.0,0.0,403.6342105263158,0.2166275518874898,0.86,nominal,5534.718959981271,nan,pitch_program,12.55,0.0,0.0,-3.5046829718337733,-0.0,0.0,-3.493721974608044,0.0,0.0,0.86,0.0,0.0,0.0,0.0,0.0,0.0,-0.060976951606188094,0.0,0.0,-0.060976951606188094,0.0,0.0,0.8999999999999999,1.0,20.968843987404515,0.0009704842433505109,4.698099186656198,0.0005801456115207546,0.02130171930928112,0.0024257765891410998,21.4887076176677,0.021447242399021647,1.0,0.0,77.33708612881226,-0.014854156805058695,21.996240395186717,101.42844200783802,0.2078095000292168,4.369352744426489,1.0,25.325362692607072,0.0,1.0,102.17380889979877,6388.118609100257,1.0,1.0,0.15776780712983493,18.944673502083194,-0.012895089733089836,-44.134353384592124,1.0,25.285058201827578,1.0,-0.0056066842085552935,4.076972779983712,0.9371065391253615,1.0,0.01868575054700425,6.418529473363802
0.9299999999999999,87.65559622405907,0.0,25.282454479561764,103.35804220195195,0.0,4.1690043235441445,103.4420875894827,17.44079512238753,0.0,6.8349121100850505,0.0,0.0,1.3871020827331493,0.0,4.52510697105739,0.0,6538.019894491194,0.30406531141962667,103.4420875894827,2.1860272703937995,1.222029472770693,101021.6465391204,287.9856640458828,0.0,0.0,0.0,403.6002631578947,0.21660933258119142,0.86,nominal,5598.068924657099,nan,pitch_program,12.535000000000002,0.0,0.0,-3.5194672723137703,-0.0,0.0,-3.50916915323148,0.0,0.0,0.86,0.0,0.0,0.0,0.0,0.0,0.0,-0.06124655573331073,0.0,0.0,-0.06124655573331073,0.0,0.0,0.9299999999999999,1.0,20.921658094119366,-0.037599246816812606,4.6723039750583775,-0.002385058294704891,0.025201239456346614,-0.0002928854695437433,21.437061728369816,0.025315543744970834,1.0,0.0,77.33708612881226,-0.014854156805058695,21.996240395186717,101.42844200783802,0.2078095000292168,4.369352744426489,1.0,25.325362692607072,0.0,1.0,104.45619125710284,6510.211126778752,1.0,1.0,0.15776780712983493,18.944673502083194,-0.012895089733089836,-44.134353384592124,1.0,25.285058201827578,1.0,-0.0056066842085552935,4.076972779983712,0.9371065391253615,1.0,0.01868575054700425,6.418529473363802
0.96,90.77449286459533,0.0,25.405228226611733,103.96322135120893,0.0,4.092458234998988,104.0437389184264,17.434296842410095,0.0,6.79379517500601,0.0,0.0,1.3705645614532507,0.0,4.539540448792035,0.0,6614.21737902573,0.3058342735125203,104.04373891842638,2.1853649236635735,1.222015061008932,101020.17522532964,287.984866016527,0.0,0.0,0.0,403.56631578947366,0.21659111327489305,0.86,nominal,5661.68998545134,nan,pitch_program,12.520000000000001,0.0,0.0,-3.5333940990718133,-0.0,0.0,-3.5237041207356796,0.0,0.0,0.86,0.0,0.0,0.0,0.0,0.0,0.0,-0.06150023877292941,0.0,0.0,-0.06150023877292941,0.0,0.0,0.96,1.0,20.88763605333934,0.01162707423078923,4.895432788545589,0.002089418651337445,0.02570450961862295,7.482265188995563e-05,21.453641585352912,0.02578939866425102,1.0,0.0,77.33708612881226,-0.014854156805058695,21.996240395186717,101.42844200783802,0.2078095000292168,4.369352744426489,1.0,25.31138335774892,0.0,1.0,104.51318882475223,6589.138986496254,1.0,1.0,0.10056404098837812,18.904893840050786,0.021993032445855806,-44.144626104442494,1.0,25.435649627747168,1.0,-0.003073815519975798,4.082246310390876,0.9364869294334707,1.0,-0.36610685814831967,7.053045103341474
0.99,93.91151984023054,0.0,25.525757686471476,104.56756585450694,0.0,4.017648661991417,104.64471954909071,17.427799109011847,0.0,6.753234162729324,0.0,0.0,1.3520337990210942,0.0,4.5529234060988735,0.0,6690.771086247652,0.3076012612116396,104.64471954909071,2.1847176654704743,1.2220009128186746,101018.7308238312,287.9840825750379,0.0,0.0,0.0,403.53236842105264,0.21657289396859472,0.86,nominal,5725.580836369959,nan,pitch_program,12.505,0.0,0.0,-3.5465266354295353,-0.0,0.0,-3.537397629551993,0.0,0.0,0.86,0.0,0.0,0.0,0.0,0.0,0.0,-0.06173923558792495,0.0,0.0,-0.06173923558792495,0.0,0.0,0.99,1.0,20.840142251870297,0.014673959908105669,4.985235749089015,-0.002559193354803452,0.025483660766907456,0.002343009821336352,21.428119839997258,0.02571878946865437,1.0,0.0,77.33708612881226,-0.014854156805058695,21.996240395186717,101.42844200783802,0.2078095000292168,4.369352744426489,1.0,25.31138335774892,0.0,1.0,104.73708075382379,6663.996098610907,1.0,1.0,0.10056404098837812,18.904893840050786,0.021993032445855806,-44.144626104442494,1.0,25.435649627747168,1.0,-0.003073815519975798,4.082246310390876,0.9364869294334707,1.0,-0.36610685814831967,7.053045103341474
1.02,97.0666521258196,0.0,25.644094804371708,105.17107618630216,0.0,3.944570596674383,105.24502317628668,17.42130192219279,0.0,6.713278192407167,0.0,0.0,1.3318657313808422,0.0,4.565336299752226,0.0,6767.678730986995,0.3093662560219888,105.24502317628668,2.184085534141261,1.221987022095478,101017.3127111999,287.9833133837716,0.0,0.0,0.0,403.49842105263156,0.21655467466229633,0.86,nominal,5789.740114001853,nan,pitch_program,12.49,0.0,0.0,-3.558925995606848,-0.0,0.0,-3.5503146491849065,0.0,0.0,0.86,0.0,0.0,0.0,0.0,0.0,0.0,-0.06196468011006403,0.0,0.0,-0.06196468011006403,0.0,0.0,1.02,1.0,20.78045604713376,-0.0059975673905396645,5.073343312920071,-0.0043133137640786225,0.022237810567674536,-0.0018175385701308857,21.390797130271313,0.022725059756248844,1.0,0.0,77.33708612881226,-0.014854156805058695,21.996240395186717,101.42844200783802,0.2078095000292168,4.369352744426489,1.0,26.28079857964269,0.0,1.0,105.3939646430524,6726.710028135213,1.0,1.0,0.4990549434845948,19.004829495598063,-0.027314173992976132,-44.043131463870644,1.0,25.643933313865407,1.0,-0.0007814875964664684,4.097870936752486,0.9358897629890708,1.0,0.15597178786028623,7.153191590302745
1.05,100.23986469085258,0.0,25.760291432606692,105.77375216776613,0.0,3.873220941166179,105.84464317152333,17.41480528195292,0.0,6.67396732113575,0.0,0.0,1.3103624271171355,0.0,4.576848711946746,0.0,6844.937968508323,0.3111292385022406,105.84464317152333,2.183468563900114,1.2219733827461465,101015.92026516945,287.98255810568804,0.0,0.0,0.0,403.46447368421053,0.216536455355998,0.86,nominal,5854.166406031122,nan,pitch_program,12.475,0.0,0.0,-3.5706448777032618,-0.0,0.0,-3.56251278629592,0.0,0.0,0.86,0.0,0.0,0.0,0.0,0.0,0.0,-0.06217757776526092,0.0,0.0,-0.06217757776526092,0.0,0.0,1.05,1.0,20.84080962258034,0.006294316748618854,5.0693929047530855,-0.00025022506368724956,0.02326167345605037,0.0016259684245969624,21.448499475856618,0.023319773538270094,1.0,0.0,100.29892594540023,-1.4000183805838766,25.41662230271226,105.6590965822974,0.2163186446566681,3.679357030349704,1.0,26.28079857964269,0.0,1.0,105.9533178694953,6820.18221662243,1.0,1.0,0.4990549434845948,19.004829495598063,-0.027314173992976132,-44.043131463870644,1.0,25.643933313865407,1.0,-0.0007814875964664684,4.097870936752486,0.9358897629890708,1.0,0.15597178786028623,7.153191590302745
1.08,103.43113248295077,0.0,25.874399377381955,106.3755930699396,0.0,3.803598159175478,106.44357265677371,17.40830918829224,0.0,6.635334213538751,0.0,0.0,1.2877703020233158,0.0,4.587521262701793,0.0,6922.546402927971,0.31289018848171457,106.44357265677371,2.1828667942376905,1.2219599886832233,101014.5528640698,287.981816404047,0.0,0.0,0.0,403.43052631578945,0.21651823604969964,0.86,nominal,5918.858258623134,nan,pitch_program,12.46,0.0,0.0,-3.581726186809112,-0.0,0.0,-3.574040826603835,0.0,0.0,0.86,0.0,0.0,0.0,0.0,0.0,0.0,-0.062378780024936666,0.0,0.0,-0.062378780024936666,0.0,0.0,1.08,1.0,20.789559924091574,-0.08022010984825682,5.1744158459300875,-0.0009179176968658699,0.019206878994328696,0.0038115160796727025,21.42397760571157,0.01960291887517285,1.0,0.0,100.29892594540023,-1.4000183805838766,25.41662230271226,105.6590965822974,0.2163186446566681,3.679357030349704,1.0,26.152708241459095,0.0,1.0,106.63895361425928,6775.044828864441,1.0,1.0,-1.7522247904185575,19.057071121682164,-0.03530440705471901,-44.03140488780603,1.0,25.47035221103356,1.0,0.00668912744890648,4.097723889718013,0.9353140015565451,1.0,-0.030144116883291633,6.427199768656311
1.1099999999999999,106.64043041385392,0.0,25.98647043750923,106.97659769677183,0.0,3.735702004242425,107.04180456364452,17.401813641210747,0.0,6.597405314854707,0.0,0.0,1.2642966689718815,0.0,4.5974069758082985,0.0,7000.501594053177,0.3146490852344261,107.04180456364453,2.1822802652669804,1.2219468338204404,101013.20988636215,287.9810879421562,0.0,0.0,0.0,403.3965789473684,0.21650001674340127,0.86,nominal,5983.814182436734,nan,pitch_program,12.445,0.0,0.0,-3.5922065192754484,-0.0,0.0,-3.5849402422068035,0.0,0.0,0.86,0.0,0.0,0.0,0.0,0.0,0.0,-0.0625690107137517,0.0,0.0,-0.0625690107137517,0.0,0.0,1.1099999999999999,1.0,20.692770051947647,0.02583383695630733,5.335304395367711,0.002681047121602505,0.02461345578668596,0.0014124974286078872,21.369531412764843,0.024799301772776214,1.0,0.0,100.29892594540023,-1.4000183805838766,25.41662230271226,105.6590965822974,0.2163186446566681,3.679357030349704,1.0,26.152708241459095,0.0,1.0,106.92381047816399,6983.991156659093,1.0,1.0,-1.7522247904185575,19.057071121682164,-0.03530440705471901,-44.03140488780603,1.0,25.47035221103356,1.0,0.00668912744890648,4.097723889718013,0.9353140015565451,1.0,-0.030144116883291633,6.427199768656311
1.14,109.86773334752851,0.0,26.09655643616298,107.57676445581974,0.0,3.6695332884584255,107.63933168381355,17.395318640708446,0.0,6.5602016468998166,0.0,0.0,1.2401223087351934,0.0,4.606552239101743,0.0,7078.801063338248,0.3164059076274501,107.63933168381355,2.1817090068632345,1.2219339120689752,101011.8907102567,287.98037238316493,0.0,0.0,0.0,403.3626315789474,0.21648179743710294,0.86,nominal,6049.032657843711,nan,pitch_program,12.43,0.0,0.0,-3.6021188629323957,-0.0,0.0,-3.5952474146421594,0.0,0.0,0.86,0.0,0.0,0.0,0.0,0.0,0.0,-0.06274890480931947,0.0,0.0,-0.06274890480931947,0.0,0.0,1.14,1.0,20.742742364271187,-0.05398046888658883,5.342480591169698,-0.0011452726945359174,0.019443593421801308,0.002251068078740928,21.419765954570483,0.019606944743949552,1.0,0.0,100.29892594540023,-1.4000183805838766,25.41662230271226,105.6590965822974,0.2163186446566681,3.679357030349704,1.0,26.27594707737393,0.0,1.0,107.57002141821584,6994.484087269583,1.0,1.0,-0.558893579582928,19.09763280073603,-0.04017247485593943,-44.035814184466815,1.0,26.39659528508002,1.0,-0.012486757012568317,4.118500327418269,0.9347586089095925,1.0,-0.7167721148877013,6.525573360520375
1.17,113.11301609017846,0.0,26.20470924629905,108.17609142166508,0.0,3.6050936712022903,108.2361467147024,17.38882418678533,0.0,6.523739537439378,0.0,0.0,1.2154036896995846,0.0,4.614997681684659,0.0,7157.44229943709,0.31816063425525953,108.2361467147024,2.1811530335636573,1.2219212173344651,101010.59471340751,287.979669389899,0.0,0.0,0.0,403.3286842105263,0.21646357813080455,0.86,nominal,6114.51213975351,nan,pitch_program,12.415,0.0,0.0,-3.611492746387455,-0.0,0.0,-3.6049946136893363,0.0,0.0,0.86,0.0,0.0,0.0,0.0,0.0,0.0,-0.06291902552553996,0.0,0.0,-0.06291902552553996,0.0,0.0,1.17,1.0,20.676935548915253,0.012454294601991612,5.373887109730908,0.000672167468932055,0.021576034866341846,-0.0003144208295576836,21.3638592363735,0.021588792233887225,1.0,0.0,100.29892594540023,-1.4000183805838766,25.41662230271226,105.6590965822974,0.2163186446566681,3.679357030349704,1.0,26.27594707737393,0.0,1.0,107.63803464050542,7175.198540854472,1.0,1.0,-0.558893579582928,19.09763280073603,-0.04017247485593943,-44.035814184466815,1.0,26.39659528508002,1.0,-0.012486757012568317,4.118500327418269,0.9347586089095925,1.0,-0.7167721148877013,6.525573360520375
1.2,116.37625338193246,0.0,26.31098081046406,108.77457639179966,0.0,3.542385472166925,108.83224230001365,17.38233027944141,0.0,6.488031347901022,0.0,0.0,1.1902730231379617,0.0,4.622779031463022,0.0,7236.422763277283,0.3199132435589524,108.83224230001363,2.180612345043518,1.2219087435146718,101009.32127267377,287.97897862473195,0.0,0.0,0.0,403.2947368421053,0.21644535882450622,0.86,nominal,6180.2510619893765,nan,pitch_program,12.4,0.0,0.0,-3.6203538477028214,-0.0,0.0,-3.614210154097427,0.0,0.0,0.86,0.0,0.0,0.0,0.0,0.0,0.0,-0.06307986704801173,0.0,0.0,-0.06307986704801173,0.0,0.0,1.2,1.0,20.67274809949349,-0.002747335349514131,5.3703221276776905,-0.0015321141450910384,0.01971533109171556,0.001836664954244688,21.358906369193807,0.019859883986662788,1.0,0.0,100.29892594540023,-1.4000183805838766,25.41662230271226,105.6590965822974,0.2163186446566681,3.679357030349704,1.0,26.426748097202942,0.0,1.0,108.51502872811372,7087.41601357432,1.0,1.0,-1.050132314341444,19.142378508422674,0.010853396006525184,-43.97087229918063,1.0,25.92137166616676,1.0,0.0076661197953733695,4.142809571356368,0.9342225479738399,1.0,-0.2542592892197279,7.4121290184299875
1.23,119.65741988995612,0.0,26.41542315588835,109.37221693412222,0.0,3.481411514143129,109.42761106418936,17.375836918676672,0.0,6.453086102063164,0.0,0.0,1.164841564037732,0.0,4.629927853490651,0.0,7315.739892502518,0.3216637139275955,109.42761106418936,2.180086926251481,1.221896484497701,101008.06976393773,287.9782997494867,0.0,0.0,0.0,403.26078947368416,0.2164271395182078,0.86,nominal,6246.247841099442,nan,pitch_program,12.385,0.0,0.0,-3.6287244695398893,-0.0,0.0,-3.6229187433629044,0.0,0.0,0.86,0.0,0.0,0.0,0.0,0.0,0.0,-0.06323186060389814,0.0,0.0,-0.06323186060389814,0.0,0.0,1.23,1.0,20.613717121788838,0.007997254256884951,5.573060511687509,-0.0006995275036115531,0.023325781470712906,-0.0008565029667728281,21.35379125589029,0.023351981014035045,1.0,0.0,100.29892594540023,-1.4000183805838766,25.41662230271226,105.6590965822974,0.2163186446566681,3.679357030349704,1.0,26.426748097202942,0.0,1.0,108.60213830730157,7374.265718612711,1.0,1.0,-1.050132314341444,19.142378508422674,0.010853396006525184,-43.97087229918063,1.0,25.92137166616676,1.0,0.0076661197953733695,4.142809571356368,0.9342225479738399,1.0,-0.2542592892197279,7.4121290184299875
1.26,122.95649020277251,0.0,26.51808840561353,109.96901042721309,0.0,3.422174990839262,110.02224564154481,17.369344104491127,0.0,6.418909979533571,0.0,0.0,1.1392041180967327,0.0,4.636472136222261,0.0,7395.391105352717,0.3234120237839045,110.0222456415448,2.17957674547574,1.221884434160686,101006.83956197024,287.9776324253635,0.0,0.0,0.0,403.22684210526313,0.21640892021190947,0.86,nominal,6312.500879667124,nan,pitch_program,12.37,0.0,0.0,-3.6366243912665728,-0.0,0.0,-3.631142132105105,0.0,0.0,0.86,0.0,0.0,0.0,0.0,0.0,0.0,-0.06337538581312098,0.0,0.0,-0.06337538581312098,0.0,0.0,1.26,1.0,20.602491142977765,-0.044511744654879656,5.610039731324993,-0.0009238140369937525,0.020507292307178515,0.00043821553080682264,21.35268527326094,0.020532766569521264,1.0,0.0,120.80419897582334,2.170336206222668,27.396550267874915,109.95639827813318,0.14343212788724377,3.2513963870609697,1.0,25.910842713286783,0.0,1.0,110.20648033207252,7225.141429983702,1.0,1.0,1.109897538604017,19.238992170611358,0.026902360281671304,-43.91851446224067,1.0,26.762565204675475,1.0,-0.003882205520036612,4.135265915697641,0.9337047789859662,1.0,0.16776575136652688,5.980625425803282
1.29,126.27343882562866,0.0,26.61902878618172,110.56495409520504,0.0,3.364679352273034,110.61613870144993,17.36285183688477,0.0,6.3855067239778345,0.0,0.0,1.1134418833947626,0.0,4.642436780201044,0.0,7475.373804139761,0.32515815165829487,110.61613870144994,2.17908175255092,1.2218725863688837,101005.63004033807,287.9769763128898,0.0,0.0,0.0,403.1928947368421,0.21639070090561113,0.86,nominal,6379.008569255213,nan,pitch_program,12.355,0.0,0.0,-3.644071352227868,-0.0,0.0,-3.638899664178763,0.0,0.0,0.86,0.0,0.0,0.0,0.0,0.0,0.0,-0.06351078028963537,0.0,0.0,-0.06351078028963537,0.0,0.0,1.29,1.0,20.56426961609795,-0.08701661502147114,5.66948954415409,-0.002618127009388246,0.017696536011525637,-0.0014830117123373306,21.331663517553704,0.01795052365763856,1.0,0.0,120.80419897582334,2.170336206222668,27.396550267874915,109.95639827813318,0.14343212788724377,3.2513963870609697,1.0,25.910842713286783,0.0,1.0,111.61571824179241,7379.065185172503,1.0,1.0,1.109897538604017,19.238992170611358,0.026902360281671304,-43.91851446224067,1.0,26.762565204675475,1.0,-0.003882205520036612,4.135265915697641,0.9337047789859662,1.0,0.16776575136652688,5.980625425803282
1.3199999999999998,129.6082401767739,0.0,26.7182966323221,111.16004503817518,0.0,3.308928204679428,111.20928297023076,17.3563601158576,0.0,6.352878007986158,0.0,0.0,1.087623895782788,0.0,4.647844033147536,0.0,7555.685378389174,0.3269020762532808,111.20928297023076,2.1786018784715813,1.2218609349751093,101004.44057134601,287.9763310718899,0.0,0.0,0.0,403.158947368421,0.21637248159931274,0.86,nominal,6445.769293045791,nan,pitch_program,12.34,0.0,0.0,-3.651081210011236,-0.0,0.0,-3.646208591678247,0.0,0.0,0.86,0.0,0.0,0.0,0.0,0.0,0.0,-0.06363834513929092,0.0,0.0,-0.06363834513929092,0.0,0.0,1.3199999999999998,1.0,20.600700204844237,-0.033961490431829514,5.77794472348342,0.0010906050844962248,0.02004788177041687,-0.0002150394257631861,21.395668896772815,0.02007867587480745,1.0,0.0,120.80419897582334,2.170336206222668,27.396550267874915,109.95639827813318,0.14343212788724377,3.2513963870609697,1.0,26.479607700485587,0.0,1.0,110.39631799668467,7644.61756659765,1.0,1.0,0.911110936978999,19.24352424332087,-0.03201668356638865,-43.95910433530581,1.0,26.69537139536131,1.0,0.028331530256250126,4.145395117969516,0.9332042584191947,1.0,0.2743950419447296,6.307687571803376
1.3499999999999999,132.9608685845241,0.0,26.815944389061368,111.75428025833928,0.0,3.25492522464219,111.80167124993012,17.34986894140962,0.0,6.3210237540959895,0.0,0.0,1.0618084903553968,0.0,4.652713871526646,0.0,7636.323207649887,0.32864377649863413,111.80167124993012,2.1781370355892946,1.2218494738194883,101003.27052601133,287.9756963614711,0.0,0.0,0.0,403.125,0.2163542622930144,0.86,nominal,6512.781428181715,nan,pitch_program,12.325,0.0,0.0,-3.6576681270914486,-0.0,0.0,-3.653084312926168,0.0,0.0,0.86,0.0,0.0,0.0,0.0,0.0,0.0,-0.06375834911351648,0.0,0.0,-0.06375834911351648,0.0,0.0,1.3499999999999999,1.0,20.526927511996025,0.044840666582815984,5.797248229960173,0.0008373450632732557,0.017803690294047023,0.0008282930567959912,21.32990508201795,0.017842606430375264,1.0,0.0,120.80419897582334,2.170336206222668,27.396550267874915,109.95639827813318,0.14343212788724377,3.2513963870609697,1.0,26.479607700485587,0.0,1.0,112.50713566943242,7599.136811797874,1.0,1.0,0.911110936978999,19.24352424332087,-0.03201668356638865,-43.95910433530581,1.0,26.69537139536131,1.0,0.028331530256250126,4.145395117969516,0.9332042584191947,1.0,0.2743950419447296,6.307687571803376
1.38,136.33129828499804,0.0,26.912024611647357,112.34765668246494,0.0,3.2026740861996332,112.39329643418874,17.343378313540832,0.0,6.289942403959808,0.0,0.0,1.0360450299463368,0.0,4.657064321603709,0.0,7717.284663991207,0.3303832315980689,112.39329643418874,2.177687117553191,1.221838196729454,101002.11927406333,287.97507184002427,0.0,0.0,0.0,403.0910526315789,0.21633604298671602,0.86,nominal,6580.043347829524,nan,pitch_program,12.31,0.0,0.0,-3.6638448531088774,-0.0,0.0,-3.659540637035794,0.0,0.0,0.86,0.0,0.0,0.0,0.0,0.0,0.0,-0.06387103322680535,0.0,0.0,-0.06387103322680535,0.0,0.0,1.38,1.0,20.522532997224697,-0.06385290333035687,5.860301071797747,-0.004403423037915526,0.01983445818243343,0.0017035834838175345,21.34295121269676,0.02038867485953615,1.0,0.0,120.80419897582334,2.170336206222668,27.396550267874915,109.95639827813318,0.14343212788724377,3.2513963870609697,1.0,27.890715323737243,0.0,1.0,112.08756175770004,7718.823434506201,1.0,1.0,0.3692740687851507,19.376999356450124,0.02490536688625263,-43.91568486610223,1.0,27.334571536133772,1.0,0.009588206864598688,4.168510990377756,0.9327199384708816,1.0,0.3211600153801137,6.715410910964921
1.41,139.71950342043206,0.0,27.006589963604654,112.94017118113359,0.0,3.152178398576526,112.98415152170773,17.33688823225123,0.0,6.259631143399432,0.0,0.0,1.0103753755773202,0.0,4.66091172926623,0.0,7798.567114235815,0.33212042106881146,112.98415152170774,2.1772519991526367,1.2218270975199723,101000.98618396602,287.9744571652366,0.0,0.0,0.0,403.0571052631579,0.2163178236804177,0.86,nominal,6647.553423006689,nan,pitch_program,12.295,0.0,0.0,-3.669622967204676,-0.0,0.0,-3.6655900351371233,0.0,0.0,0.86,0.0,0.0,0.0,0.0,0.0,0.0,-0.06397661514143743,0.0,0.0,-0.06397661514143743,0.0,0.0,1.41,1.0,20.470719199514864,0.08092671615086715,5.989983768209375,0.0001441981932302793,0.016404807528717716,0.0018595619638336512,21.329247507171583,0.016510495869916843,1.0,0.0,120.80419897582334,2.170336206222668,27.396550267874915,109.95639827813318,0.14343212788724377,3.2513963870609697,1.0,27.890715323737243,0.0,1.0,113.04008612707791,7817.673949389874,1.0,1.0,0.3692740687851507,19.376999356450124,0.02490536688625263,-43.91568486610223,1.0,27.334571536133772,1.0,0.009588206864598688,4.168510990377756,0.9327199384708816,1.0,0.3211600153801137,6.715410910964921
1.44,143.12545803799318,0.0,27.099693213185937,113.5318205853708,0.0,3.1034416527094413,113.57422962767828,17.33039869754082,0.0,6.230086096087484,0.0,0.0,0.9848349322208395,0.0,4.664270992557989,0.0,7880.167921969555,0.3338553247751864,113.57422962767829,2.176831536437401,1.2218161699939467,100999.87062295926,287.9738519941143,0.0,0.0,0.0,403.02315789473687,0.21629960437411935,0.86,nominal,6715.310024209387,nan,pitch_program,12.28,0.0,0.0,-3.675013031638332,-0.0,0.0,-3.671243833037848,0.0,0.0,0.86,0.0,0.0,0.0,0.0,0.0,0.0,-0.06407529253004743,0.0,0.0,-0.06407529253004743,0.0,0.0,1.44,1.0,20.477661231951366,0.02838297016024823,6.093329525028566,0.0006814394658877251,0.017899458826810124,0.002055030518493567,21.365020005236218,0.018029923362850996,1.0,0.0,120.80419897582334,2.170336206222668,27.396550267874915,109.95639827813318,0.14343212788724377,3.2513963870609697,1.0,26.74366414388173,0.0,1.0,114.24258405710178,7973.721769733959,1.0,1.0,-0.7693999061919029,19.318373455360376,-0.010689525499941632,-43.91281460272709,1.0,27.371232100744717,1.0,-0.010277291724983357,4.163545909357345,0.9322507669670351,1.0,-0.06775566337612891,5.8316902537020745
1.47,146.54913608902228,0.0,27.191387228453472,114.12260170096992,0.0,3.0564671755845283,114.1635239934089,17.323909709409595,0.0,6.201302491337401,0.0,0.0,0.9594535118479072,0.0,4.6671557631303004,0.0,7962.0844493496825,0.3355879229569003,114.16352399340889,2.1764255670682626,1.221805407942795,100998.77195711755,287.973255983015,0.0,0.0,0.0,402.9892105263158,0.21628138506782096,0.86,nominal,6783.311522860738,nan,pitch_program,12.265,0.0,0.0,-3.6800247141212776,-0.0,0.0,-3.676512361687906,0.0,0.0,0.86,0.0,0.0,0.0,0.0,0.0,0.0,-0.06416724570172659,0.0,0.0,-0.06416724570172659,0.0,0.0,1.47,1.0,20.490684584556554,-0.0396149910265475,6.13044370745744,0.0014049393030088567,0.018772563137039754,0.0014165815732264276,21.388129047244927,0.018878286059197415,1.0,0.0,145.07258587235103,1.285237834230469,26.813452716850612,114.05461786139186,-0.21260345491423635,3.155395905578754,1.0,26.74366414388173,0.0,1.0,114.11471186883308,7918.424254451839,1.0,1.0,-0.7693999061919029,19.318373455360376,-0.010689525499941632,-43.91281460272709,1.0,27.371232100744717,1.0,-0.010277291724983357,4.163545909357345,0.9322507669670351,1.0,-0.06775566337612891,5.8316902537020745
