time_s,sensor_time_s,imu_valid,imu_ax_mps2,imu_ay_mps2,imu_az_mps2,gyro_p_rps,gyro_q_rps,gyro_r_rps,imu_accel_norm_mps2,imu_gyro_norm_rps,gps_valid,gps_latency_s,gps_x_m,gps_y_m,gps_z_m,gps_vx_mps,gps_vy_mps,gps_vz_mps,baro_valid,baro_alt_m,baro_bias_m,pitot_valid,pitot_airspeed_mps,pitot_qbar_pa,pitot_compressibility_factor,mag_valid,mag_heading_deg,mag_x_ut,mag_y_ut,mag_z_ut,radar_valid,radar_agl_m,optical_flow_valid,optical_flow_x_radps,optical_flow_y_radps,optical_flow_quality,horizon_valid,horizon_roll_deg,horizon_pitch_deg
0.0,0.0,1.0,17.44767878518841,-0.0015031124337014448,0.17938216685823574,-0.00041663729163987705,-0.0007873491565204804,0.002827713925469424,17.448600952862883,0.002964704263725511,1.0,0.0,-0.245673998367889,-1.6935992341378452,18.988461048442854,84.93652578647725,-0.05802398367878919,7.9916836480015006,1.0,20.222815898508227,0.0,1.0,85.06098414776324,4518.709200718251,1.0,1.0,-0.5417128263890634,19.546582590338236,-0.0032372630234107527,-43.912301700596245,1.0,20.027074900609485,1.0,0.021251598833740712,4.288711711651136,0.95,1.0,0.09558769260067916,6.0754624275550455
0.03,0.03,1.0,17.634513501449486,0.02279568363577392,0.6692298358607266,-0.0015872213422248478,-0.15571949410929223,-0.0007944118500221467,17.64722229273499,0.15572960928298307,1.0,0.0,-0.245673998367889,-1.6935992341378452,18.988461048442854,84.93652578647725,-0.05802398367878919,7.9916836480015006,1.0,20.222815898508227,0.0,1.0,86.10170099047613,4524.146234975189,1.0,1.0,-0.5417128263890634,19.546582590338236,-0.0032372630234107527,-43.912301700596245,1.0,20.027074900609485,1.0,0.021251598833740712,4.288711711651136,0.95,1.0,0.09558769260067916,6.0754624275550455
0.06,0.06,1.0,18.032480824375323,0.013309757003285629,1.2029763905540416,0.0013346753198576304,-0.22095101108504198,0.0001672614771654271,18.07256744425998,0.2209551054719341,1.0,0.0,-0.245673998367889,-1.6935992341378452,18.988461048442854,84.93652578647725,-0.05802398367878919,7.9916836480015006,1.0,20.03279515961774,0.0,1.0,86.62805580542968,4578.823016976808,1.0,1.0,0.7416521871881084,18.970658312330087,0.0358276670844619,-44.05015332606024,1.0,20.239408400905273,1.0,0.004170144288541773,4.204080537708416,0.9488513448958182,1.0,-0.141659952522294,6.545423909243618
0.09,0.09,1.0,18.301927287993962,-0.027552548437577932,1.6152476724004643,-0.0017652257035824478,-0.1802342808179961,-0.002165020868041619,18.373087019908727,0.1802559272787553,1.0,0.0,-0.245673998367889,-1.6935992341378452,18.988461048442854,84.93652578647725,-0.05802398367878919,7.9916836480015006,1.0,20.03279515961774,0.0,1.0,86.67249011974846,4660.6113957329735,1.0,1.0,0.7416521871881084,18.970658312330087,0.0358276670844619,-44.05015332606024,1.0,20.239408400905273,1.0,0.004170144288541773,4.204080537708416,0.9488513448958182,1.0,-0.141659952522294,6.545423909243618
0.12,0.12,1.0,18.565085505267444,-0.051052200388989506,1.7863996157666935,0.0018658243022460503,-0.10333657279344201,-0.0018091557397115216,18.650904260444513,0.10336924891626001,1.0,0.0,-0.245673998367889,-1.6935992341378452,18.988461048442854,84.93652578647725,-0.05802398367878919,7.9916836480015006,1.0,20.08134358178471,0.0,1.0,87.38984747057907,4631.777096708023,1.0,1.0,-0.44418082701150463,18.654086587937204,0.0028895723939396287,-44.192529900967905,1.0,21.007985320690025,1.0,-0.004597031006598721,4.178566449444179,0.9477618732180607,1.0,-0.13153995095384025,7.095628127708933
0.15,0.15,1.0,18.839199657759895,0.042496999003781025,2.02278149671613,-0.0012692154737407126,-0.05282026184965516,-0.0016053412010296566,18.94753004281355,0.05285989112887617,1.0,0.0,-0.245673998367889,-1.6935992341378452,18.988461048442854,84.93652578647725,-0.05802398367878919,7.9916836480015006,1.0,20.08134358178471,0.0,1.0,87.948008808509,4712.428261796497,1.0,1.0,-0.44418082701150463,18.654086587937204,0.0028895723939396287,-44.192529900967905,1.0,21.007985320690025,1.0,-0.004597031006598721,4.178566449444179,0.9477618732180607,1.0,-0.13153995095384025,7.095628127708933
0.18,0.18,1.0,19.169444497032245,-0.007828965917436204,2.1036811743588526,0.0008095229665121388,-0.03892322237879878,0.0005479621809490378,19.284531057323093,0.038935495763306814,1.0,0.0,-0.245673998367889,-1.6935992341378452,18.988461048442854,84.93652578647725,-0.05802398367878919,7.9916836480015006,1.0,21.346712430188493,0.0,1.0,88.58078164050528,4764.0006274822945,1.0,1.0,-2.6065003095312695,18.536540570158778,-0.028597559099836346,-44.29502460258165,1.0,21.17023884477913,1.0,0.010674844649940814,4.1277112051626395,0.9467237391900373,1.0,0.7266369921740294,7.005701885836281
0.21,0.21,1.0,19.48600209947304,-0.050098832778981875,2.3872252876830475,-0.002102070710750061,-0.040212759918084616,-0.0014216869692023678,19.631750616994577,0.04029275313677269,1.0,0.0,17.55544485686449,0.1778236450502667,22.897988213469915,88.5434718260959,0.005777022466206368,6.654161202259804,1.0,21.346712430188493,0.0,1.0,88.24334541891145,4828.620241799469,1.0,1.0,-2.6065003095312695,18.536540570158778,-0.028597559099836346,-44.29502460258165,1.0,21.17023884477913,1.0,0.010674844649940814,4.1277112051626395,0.9467237391900373,1.0,0.7266369921740294,7.005701885836281
0.24,0.24,1.0,19.68121512865923,-0.012448829461058335,2.5258410960854825,0.0019314670890153924,-0.035441253270388696,-0.00039174736746875244,19.84263735385481,0.03549600631749586,1.0,0.0,17.55544485686449,0.1778236450502667,22.897988213469915,88.5434718260959,0.005777022466206368,6.654161202259804,1.0,21.836306629242607,0.0,1.0,90.55909782768659,4860.315717265481,1.0,1.0,-1.4062643091429938,18.545566525790196,-0.00340055161425171,-44.34712885127181,1.0,21.849372617778773,1.0,-0.018201359899392932,4.135443820225991,0.945732715998494,1.0,-0.2301136412682371,7.674167619005921
0.27,0.27,1.0,20.021636587169596,-0.037154193907578306,2.72267893982816,-0.0009167527104810118,-0.027536460122531057,0.0007885714579627108,20.20594696301554,0.027562999048656348,1.0,0.0,17.55544485686449,0.1778236450502667,22.897988213469915,88.5434718260959,0.005777022466206368,6.654161202259804,1.0,21.836306629242607,0.0,1.0,90.30890508833407,5012.382678205836,1.0,1.0,-1.4062643091429938,18.545566525790196,-0.00340055161425171,-44.34712885127181,1.0,21.849372617778773,1.0,-0.018201359899392932,4.135443820225991,0.945732715998494,1.0,-0.2301136412682371,7.674167619005921
0.3,0.3,1.0,20.30734567403309,0.0314871864965117,2.930054503536783,0.0005045038175934576,-0.014444984376425928,-0.0006476206511055024,20.517663101856414,0.014468293273392472,1.0,0.0,17.55544485686449,0.1778236450502667,22.897988213469915,88.5434718260959,0.005777022466206368,6.654161202259804,1.0,22.382244481016176,0.0,1.0,90.7898424192153,5001.599377143171,1.0,1.0,-0.03095624262570015,18.37856924123533,0.033965320472555176,-44.33722073437075,1.0,22.046105900333274,1.0,-0.003045961655824597,4.090558496172637,0.9447844901735579,1.0,-0.8115118905792419,7.662088943071205
0.32999999999999996,0.32999999999999996,1.0,20.700091637884412,0.03660103743511395,2.98450037958559,-0.00031969483290209737,-0.005078197676516332,0.0025293729856275746,20.914166872445577,0.0056822551974003,1.0,0.0,17.55544485686449,0.1778236450502667,22.897988213469915,88.5434718260959,0.005777022466206368,6.654161202259804,1.0,22.382244481016176,0.0,1.0,91.22645097559432,5109.082429137013,1.0,1.0,-0.03095624262570015,18.37856924123533,0.033965320472555176,-44.33722073437075,1.0,22.046105900333274,1.0,-0.003045961655824597,4.090558496172637,0.9447844901735579,1.0,-0.8115118905792419,7.662088943071205
0.36,0.36,1.0,20.983492645728617,-0.018184549633935735,3.096230285103706,-0.0008505562897498171,-0.0001737637299944199,0.0003059780389867867,21.21070334217104,0.0009204685742798327,1.0,0.0,17.55544485686449,0.1778236450502667,22.897988213469915,88.5434718260959,0.005777022466206368,6.654161202259804,1.0,23.037942824762947,0.0,1.0,92.12413928914539,5168.91432656504,1.0,1.0,0.15484895499477355,18.40015804716357,-0.005148254748973163,-44.384209937456966,1.0,22.934443826578562,1.0,0.014198818101723385,4.070831685294531,0.9438753622621556,1.0,0.0004073352126957333,7.7320661284643455
0.39,0.39,1.0,21.260855049697927,0.04315714012793678,3.233981274835679,0.004856934015385476,0.0058338008422948225,0.0004932818001466812,21.505451747615012,0.007606994625456509,1.0,0.0,17.55544485686449,0.1778236450502667,22.897988213469915,88.5434718260959,0.005777022466206368,6.654161202259804,1.0,23.037942824762947,0.0,1.0,91.97132659263542,5289.769048999538,1.0,1.0,0.15484895499477355,18.40015804716357,-0.005148254748973163,-44.384209937456966,1.0,22.934443826578562,1.0,0.014198818101723385,4.070831685294531,0.9438753622621556,1.0,0.0004073352126957333,7.7320661284643455
0.42,0.42,1.0,21.35793781748832,0.004564024093700977,3.373180981508281,0.0003163080279290465,0.00828852348911067,-5.237155477658966e-05,21.622670477534054,0.008294722127824498,1.0,0.0,36.65237594396821,0.8716177416782652,23.21549705868745,92.76912858220781,0.041478366560691045,5.590621506692295,1.0,23.42066134446315,0.0,1.0,92.71764152537749,5331.166541892723,1.0,1.0,-1.3209815806031382,18.414481247167494,-0.043216175400646595,-44.46833628754336,1.0,22.882854031851526,1.0,0.0028563245139462718,4.063730335105801,0.943002317722304,1.0,-0.10080426273681829,8.053385330499966
0.44999999999999996,0.44999999999999996,1.0,21.315207718382286,-0.0230021075991523,3.475239927636759,-0.0011514189343556924,0.011445021515744893,0.003218603671291732,21.596664134291167,0.01194460935531627,1.0,0.0,36.65237594396821,0.8716177416782652,23.21549705868745,92.76912858220781,0.041478366560691045,5.590621506692295,1.0,23.42066134446315,0.0,1.0,93.41320730091624,5242.070487064391,1.0,1.0,-1.3209815806031382,18.414481247167494,-0.043216175400646595,-44.46833628754336,1.0,22.882854031851526,1.0,0.0028563245139462718,4.063730335105801,0.943002317722304,1.0,-0.10080426273681829,8.053385330499966
0.48,0.48,1.0,21.176930655410832,0.030697728934728528,3.590574331802859,-0.0017206007112812302,0.016681377485035787,-0.0009038052666367568,21.479188959708008,0.016794215836588522,1.0,0.0,36.65237594396821,0.8716177416782652,23.21549705868745,92.76912858220781,0.041478366560691045,5.590621506692295,1.0,22.84506413179373,0.0,1.0,94.70155291951447,5455.598656725887,1.0,1.0,-1.091905470304788,18.407614357243286,-0.034253136144314314,-44.276700343467205,1.0,23.247378053063365,1.0,0.016558340952538643,4.080185353559172,0.9421629159541107,1.0,-0.1503956182272835,7.237342680424653
0.51,0.51,1.0,21.182056249094245,-0.018397308805816696,3.66006124219845,0.0026637992346403077,0.01430047445217237,-0.001430083764545863,21.495950634884867,0.014616584262177077,1.0,0.0,36.65237594396821,0.8716177416782652,23.21549705868745,92.76912858220781,0.041478366560691045,5.590621506692295,1.0,22.84506413179373,0.0,1.0,95.29030132934388,5541.279595375741,1.0,1.0,-1.091905470304788,18.407614357243286,-0.034253136144314314,-44.276700343467205,1.0,23.247378053063365,1.0,0.016558340952538643,4.080185353559172,0.9421629159541107,1.0,-0.1503956182272835,7.237342680424653
0.54,0.54,1.0,21.20893167581007,-0.04728152899850868,3.7231086181608326,-0.002364080842476127,0.022302468331454373,0.00014015805567226683,21.53328948755363,0.02242785357955276,1.0,0.0,36.65237594396821,0.8716177416782652,23.21549705868745,92.76912858220781,0.041478366560691045,5.590621506692295,1.0,22.00955575885337,0.0,1.0,94.9977622193089,5510.89471951069,1.0,1.0,-1.1655158380230606,18.46340423134964,0.010477133529951957,-44.23743407572235,1.0,23.351919467736888,1.0,-0.011136952670865565,4.0645712583818945,0.9413554437584665,1.0,-0.42257771626401436,7.331794406918109
0.57,0.57,1.0,21.20532589902131,0.011281626606316502,3.7890270422044323,-0.004153810255208671,0.022586953826321025,-0.001804383325805992,21.54118612531258,0.02303650194745464,1.0,0.0,36.65237594396821,0.8716177416782652,23.21549705868745,92.76912858220781,0.041478366560691045,5.590621506692295,1.0,22.00955575885337,0.0,1.0,95.73684718663667,5666.537618655131,1.0,1.0,-1.1655158380230606,18.46340423134964,0.010477133529951957,-44.23743407572235,1.0,23.351919467736888,1.0,-0.011136952670865565,4.0645712583818945,0.9413554437584665,1.0,-0.42257771626401436,7.331794406918109
0.6,0.6,1.0,21.18671853441816,0.02733145270047143,3.938062816393045,0.0001088178486146654,0.020058316378802697,0.00018813094123335274,21.549620136114285,0.02005949377545134,1.0,0.0,36.65237594396821,0.8716177416782652,23.21549705868745,92.76912858220781,0.041478366560691045,5.590621506692295,1.0,23.55406507697564,0.0,1.0,96.486408170904,5745.268012849455,1.0,1.0,0.2082262092221237,18.548249832057643,-0.08577104778429483,-44.32763378368789,1.0,23.920040564173227,1.0,0.012850241149878547,4.052027096999359,0.9405784301357301,1.0,-0.5056109686841002,6.950736713535242
0.63,0.63,1.0,21.137893650723974,0.01725586709422622,3.9860405682351185,0.0010764846035257675,0.02495224613441415,0.0009283359939563103,21.510447814164216,0.024992703214572223,1.0,0.0,55.835735869431375,1.9079333370870313,23.565974306258084,97.05430645955447,0.14294803533334222,5.135856677738244,1.0,23.55406507697564,0.0,1.0,97.25915342892802,5763.306343313339,1.0,1.0,0.2082262092221237,18.548249832057643,-0.08577104778429483,-44.32763378368789,1.0,23.920040564173227,1.0,0.012850241149878547,4.052027096999359,0.9405784301357301,1.0,-0.5056109686841002,6.950736713535242
0.6599999999999999,0.6599999999999999,1.0,21.136582552094037,-0.02749763082139706,4.06933939801613,0.0025808992404335136,0.026495471980682653,2.2148545458613724e-05,21.52476251291598,0.02662088591550769,1.0,0.0,55.835735869431375,1.9079333370870313,23.565974306258084,97.05430645955447,0.14294803533334222,5.135856677738244,1.0,24.156264255991193,0.0,1.0,98.16103286046543,5765.820325380332,1.0,1.0,-0.9025035140678309,18.59457308159794,-0.021676540853266098,-44.27846891523972,1.0,24.0120144943498,1.0,-0.0006244414976546234,4.038324209032583,0.9398305402314409,1.0,0.09892726755355975,6.485252672757861
0.69,0.69,1.0,21.1711779232184,0.019790298798510762,4.207845047229784,-0.0013168738921928705,0.02652174962452686,0.00043157465589579834,21.585298845603067,0.026557929450121698,1.0,0.0,55.835735869431375,1.9079333370870313,23.565974306258084,97.05430645955447,0.14294803533334222,5.135856677738244,1.0,24.156264255991193,0.0,1.0,98.9463581157664,5949.9175529618005,1.0,1.0,-0.9025035140678309,18.59457308159794,-0.021676540853266098,-44.27846891523972,1.0,24.0120144943498,1.0,-0.0006244414976546234,4.038324209032583,0.9398305402314409,1.0,0.09892726755355975,6.485252672757861
0.72,0.72,1.0,21.116331002254515,-0.013968907828443813,4.2502587253733815,0.003609639664623819,0.024907725035913618,-0.0006502398864281112,21.539831228674323,0.025176319764473234,1.0,0.0,55.835735869431375,1.9079333370870313,23.565974306258084,97.05430645955447,0.14294803533334222,5.135856677738244,1.0,24.73144257824661,0.0,1.0,99.1940910180216,5918.338541456054,1.0,1.0,0.2921936191121457,18.618742035349005,0.002061413747142439,-44.1592467750281,1.0,24.37102617620904,1.0,-0.0026946152146732462,4.057729417759404,0.9391105428959773,1.0,0.16123055866548794,6.822737629701891
0.75,0.75,1.0,21.023144166559952,-0.0038190883229666764,4.3950550249415725,0.002085466353789146,0.025001011561176845,-0.0003069366866501068,21.477642186833812,0.025089718195398222,1.0,0.0,55.835735869431375,1.9079333370870313,23.565974306258084,97.05430645955447,0.14294803533334222,5.135856677738244,1.0,24.73144257824661,0.0,1.0,100.24936334906532,6034.338876240017,1.0,1.0,0.2921936191121457,18.618742035349005,0.002061413747142439,-44.1592467750281,1.0,24.37102617620904,1.0,-0.0026946152146732462,4.057729417759404,0.9391105428959773,1.0,0.16123055866548794,6.822737629701891
0.78,0.78,1.0,20.985012982798125,-0.02057912740869238,4.426167613989046,0.0031867430941013757,0.022009190438419556,0.00020818199598445373,21.446728261807586,0.022239674796315563,1.0,0.0,55.835735869431375,1.9079333370870313,23.565974306258084,97.05430645955447,0.14294803533334222,5.135856677738244,1.0,25.15448293031508,0.0,1.0,100.734010626163,6222.3416085163235,1.0,1.0,-0.321917396298134,18.742060185636642,0.025937556294620214,-44.18354968674051,1.0,24.82824192258693,1.0,-0.0189763422428002,4.054763041217613,0.9384172785805377,1.0,-0.24195526577607995,7.179463955402016
0.8099999999999999,0.8099999999999999,1.0,21.00004005215952,0.06355760230276253,4.543336397840047,0.0018041719934568058,0.025307575541328946,0.0012664632772009718,21.48598676777617,0.025403392403270546,1.0,0.0,55.835735869431375,1.9079333370870313,23.565974306258084,97.05430645955447,0.14294803533334222,5.135856677738244,1.0,25.15448293031508,0.0,1.0,100.43892887858718,6235.289387797921,1.0,1.0,-0.321917396298134,18.742060185636642,0.025937556294620214,-44.18354968674051,1.0,24.82824192258693,1.0,-0.0189763422428002,4.054763041217613,0.9384172785805377,1.0,-0.24195526577607995,7.179463955402016
0.84,0.84,1.0,20.91937819468708,-0.02067003108490698,4.6265606341807946,-0.0014102523407278625,0.02333864858246362,0.002487630517248943,21.424889138669673,0.02351318002547949,1.0,0.0,77.33708612881226,-0.014854156805058695,21.996240395186717,101.42844200783802,0.2078095000292168,4.369352744426489,1.0,24.89304180520394,0.0,1.0,101.69741956602917,6330.095648988213,1.0,1.0,-0.8440938294910778,18.808983817311148,0.017115652064601174,-44.17401191382466,1.0,24.816164020077977,1.0,0.017781503754251547,4.064411323633896,0.9377496365564874,1.0,-0.0216298920039087,6.91917950193616
0.87,0.87,1.0,20.88500929783564,0.03933402328032324,4.645950119376029,0.0038623529184958973,0.026603502235520566,0.0010925862185049585,21.395560592043356,0.02690460640684469,1.0,0.0,77.33708612881226,-0.014854156805058695,21.996240395186717,101.42844200783802,0.2078095000292168,4.369352744426489,1.0,24.89304180520394,0.0,1.0,101.75436583249598,6558.173074481073,1.0,1.0,-0.8440938294910778,18.808983817311148,0.017115652064601174,-44.17401191382466,1.0,24.816164020077977,1.0,0.017781503754251547,4.064411323633896,0.9377496365564874,1.0,-0.0216298920039087,6.91917950193616
0.8999999999999999,0.8999999999999999,1.0,20.968843987404515,0.0009704842433505109,4.698099186656198,0.0005801456115207546,0.02130171930928112,0.0024257765891410998,21.4887076176677,0.021447242399021647,1.0,0.0,77.33708612881226,-0.014854156805058695,21.996240395186717,101.42844200783802,0.2078095000292168,4.369352744426489,1.0,25.325362692607072,0.0,1.0,102.17380889979877,6388.118609100257,1.0,1.0,0.15776780712983493,18.944673502083194,-0.012895089733089836,-44.134353384592124,1.0,25.285058201827578,1.0,-0.0056066842085552935,4.076972779983712,0.9371065391253615,1.0,0.01868575054700425,6.418529473363802
0.9299999999999999,0.9299999999999999,1.0,20.921658094119366,-0.037599246816812606,4.6723039750583775,-0.002385058294704891,0.025201239456346614,-0.0002928854695437433,21.437061728369816,0.025315543744970834,1.0,0.0,77.33708612881226,-0.014854156805058695,21.996240395186717,101.42844200783802,0.2078095000292168,4.369352744426489,1.0,25.325362692607072,0.0,1.0,104.45619125710284,6510.211126778752,1.0,1.0,0.15776780712983493,18.944673502083194,-0.012895089733089836,-44.134353384592124,1.0,25.285058201827578,1.0,-0.0056066842085552935,4.076972779983712,0.9371065391253615,1.0,0.01868575054700425,6.418529473363802
0.96,0.96,1.0,20.88763605333934,0.01162707423078923,4.895432788545589,0.002089418651337445,0.02570450961862295,7.482265188995563e-05,21.453641585352912,0.02578939866425102,1.0,0.0,77.33708612881226,-0.014854156805058695,21.996240395186717,101.42844200783802,0.2078095000292168,4.369352744426489,1.0,25.31138335774892,0.0,1.0,104.51318882475223,6589.138986496254,1.0,1.0,0.10056404098837812,18.904893840050786,0.021993032445855806,-44.144626104442494,1.0,25.435649627747168,1.0,-0.003073815519975798,4.082246310390876,0.9364869294334707,1.0,-0.36610685814831967,7.053045103341474
0.99,0.99,1.0,20.840142251870297,0.014673959908105669,4.985235749089015,-0.002559193354803452,0.025483660766907456,0.002343009821336352,21.428119839997258,0.02571878946865437,1.0,0.0,77.33708612881226,-0.014854156805058695,21.996240395186717,101.42844200783802,0.2078095000292168,4.369352744426489,1.0,25.31138335774892,0.0,1.0,104.73708075382379,6663.996098610907,1.0,1.0,0.10056404098837812,18.904893840050786,0.021993032445855806,-44.144626104442494,1.0,25.435649627747168,1.0,-0.003073815519975798,4.082246310390876,0.9364869294334707,1.0,-0.36610685814831967,7.053045103341474
1.02,1.02,1.0,20.78045604713376,-0.0059975673905396645,5.073343312920071,-0.0043133137640786225,0.022237810567674536,-0.0018175385701308857,21.390797130271313,0.022725059756248844,1.0,0.0,77.33708612881226,-0.014854156805058695,21.996240395186717,101.42844200783802,0.2078095000292168,4.369352744426489,1.0,26.28079857964269,0.0,1.0,105.3939646430524,6726.710028135213,1.0,1.0,0.4990549434845948,19.004829495598063,-0.027314173992976132,-44.043131463870644,1.0,25.643933313865407,1.0,-0.0007814875964664684,4.097870936752486,0.9358897629890708,1.0,0.15597178786028623,7.153191590302745
1.05,1.05,1.0,20.84080962258034,0.006294316748618854,5.0693929047530855,-0.00025022506368724956,0.02326167345605037,0.0016259684245969624,21.448499475856618,0.023319773538270094,1.0,0.0,100.29892594540023,-1.4000183805838766,25.41662230271226,105.6590965822974,0.2163186446566681,3.679357030349704,1.0,26.28079857964269,0.0,1.0,105.9533178694953,6820.18221662243,1.0,1.0,0.4990549434845948,19.004829495598063,-0.027314173992976132,-44.043131463870644,1.0,25.643933313865407,1.0,-0.0007814875964664684,4.097870936752486,0.9358897629890708,1.0,0.15597178786028623,7.153191590302745
1.08,1.08,1.0,20.789559924091574,-0.08022010984825682,5.1744158459300875,-0.0009179176968658699,0.019206878994328696,0.0038115160796727025,21.42397760571157,0.01960291887517285,1.0,0.0,100.29892594540023,-1.4000183805838766,25.41662230271226,105.6590965822974,0.2163186446566681,3.679357030349704,1.0,26.152708241459095,0.0,1.0,106.63895361425928,6775.044828864441,1.0,1.0,-1.7522247904185575,19.057071121682164,-0.03530440705471901,-44.03140488780603,1.0,25.47035221103356,1.0,0.00668912744890648,4.097723889718013,0.9353140015565451,1.0,-0.030144116883291633,6.427199768656311
1.1099999999999999,1.1099999999999999,1.0,20.692770051947647,0.02583383695630733,5.335304395367711,0.002681047121602505,0.02461345578668596,0.0014124974286078872,21.369531412764843,0.024799301772776214,1.0,0.0,100.29892594540023,-1.4000183805838766,25.41662230271226,105.6590965822974,0.2163186446566681,3.679357030349704,1.0,26.152708241459095,0.0,1.0,106.92381047816399,6983.991156659093,1.0,1.0,-1.7522247904185575,19.057071121682164,-0.03530440705471901,-44.03140488780603,1.0,25.47035221103356,1.0,0.00668912744890648,4.097723889718013,0.9353140015565451,1.0,-0.030144116883291633,6.427199768656311
1.14,1.14,1.0,20.742742364271187,-0.05398046888658883,5.342480591169698,-0.0011452726945359174,0.019443593421801308,0.002251068078740928,21.419765954570483,0.019606944743949552,1.0,0.0,100.29892594540023,-1.4000183805838766,25.41662230271226,105.6590965822974,0.2163186446566681,3.679357030349704,1.0,26.27594707737393,0.0,1.0,107.57002141821584,6994.484087269583,1.0,1.0,-0.558893579582928,19.09763280073603,-0.04017247485593943,-44.035814184466815,1.0,26.39659528508002,1.0,-0.012486757012568317,4.118500327418269,0.9347586089095925,1.0,-0.7167721148877013,6.525573360520375
1.17,1.17,1.0,20.676935548915253,0.012454294601991612,5.373887109730908,0.000672167468932055,0.021576034866341846,-0.0003144208295576836,21.3638592363735,0.021588792233887225,1.0,0.0,100.29892594540023,-1.4000183805838766,25.41662230271226,105.6590965822974,0.2163186446566681,3.679357030349704,1.0,26.27594707737393,0.0,1.0,107.63803464050542,7175.198540854472,1.0,1.0,-0.558893579582928,19.09763280073603,-0.04017247485593943,-44.035814184466815,1.0,26.39659528508002,1.0,-0.012486757012568317,4.118500327418269,0.9347586089095925,1.0,-0.7167721148877013,6.525573360520375
1.2,1.2,1.0,20.67274809949349,-0.002747335349514131,5.3703221276776905,-0.0015321141450910384,0.01971533109171556,0.001836664954244688,21.358906369193807,0.019859883986662788,1.0,0.0,100.29892594540023,-1.4000183805838766,25.41662230271226,105.6590965822974,0.2163186446566681,3.679357030349704,1.0,26.426748097202942,0.0,1.0,108.51502872811372,7087.41601357432,1.0,1.0,-1.050132314341444,19.142378508422674,0.010853396006525184,-43.97087229918063,1.0,25.92137166616676,1.0,0.0076661197953733695,4.142809571356368,0.9342225479738399,1.0,-0.2542592892197279,7.4121290184299875
1.23,1.23,1.0,20.613717121788838,0.007997254256884951,5.573060511687509,-0.0006995275036115531,0.023325781470712906,-0.0008565029667728281,21.35379125589029,0.023351981014035045,1.0,0.0,100.29892594540023,-1.4000183805838766,25.41662230271226,105.6590965822974,0.2163186446566681,3.679357030349704,1.0,26.426748097202942,0.0,1.0,108.60213830730157,7374.265718612711,1.0,1.0,-1.050132314341444,19.142378508422674,0.010853396006525184,-43.97087229918063,1.0,25.92137166616676,1.0,0.0076661197953733695,4.142809571356368,0.9342225479738399,1.0,-0.2542592892197279,7.4121290184299875
1.26,1.26,1.0,20.602491142977765,-0.044511744654879656,5.610039731324993,-0.0009238140369937525,0.020507292307178515,0.00043821553080682264,21.35268527326094,0.020532766569521264,1.0,0.0,120.80419897582334,2.170336206222668,27.396550267874915,109.95639827813318,0.14343212788724377,3.2513963870609697,1.0,25.910842713286783,0.0,1.0,110.20648033207252,7225.141429983702,1.0,1.0,1.109897538604017,19.238992170611358,0.026902360281671304,-43.91851446224067,1.0,26.762565204675475,1.0,-0.003882205520036612,4.135265915697641,0.9337047789859662,1.0,0.16776575136652688,5.980625425803282
1.29,1.29,1.0,20.56426961609795,-0.08701661502147114,5.66948954415409,-0.002618127009388246,0.017696536011525637,-0.0014830117123373306,21.331663517553704,0.01795052365763856,1.0,0.0,120.80419897582334,2.170336206222668,27.396550267874915,109.95639827813318,0.14343212788724377,3.2513963870609697,1.0,25.910842713286783,0.0,1.0,111.61571824179241,7379.065185172503,1.0,1.0,1.109897538604017,19.238992170611358,0.026902360281671304,-43.91851446224067,1.0,26.762565204675475,1.0,-0.003882205520036612,4.135265915697641,0.9337047789859662,1.0,0.16776575136652688,5.980625425803282
1.3199999999999998,1.3199999999999998,1.0,20.600700204844237,-0.033961490431829514,5.77794472348342,0.0010906050844962248,0.02004788177041687,-0.0002150394257631861,21.395668896772815,0.02007867587480745,1.0,0.0,120.80419897582334,2.170336206222668,27.396550267874915,109.95639827813318,0.14343212788724377,3.2513963870609697,1.0,26.479607700485587,0.0,1.0,110.39631799668467,7644.61756659765,1.0,1.0,0.911110936978999,19.24352424332087,-0.03201668356638865,-43.95910433530581,1.0,26.69537139536131,1.0,0.028331530256250126,4.145395117969516,0.9332042584191947,1.0,0.2743950419447296,6.307687571803376
1.3499999999999999,1.3499999999999999,1.0,20.526927511996025,0.044840666582815984,5.797248229960173,0.0008373450632732557,0.017803690294047023,0.0008282930567959912,21.32990508201795,0.017842606430375264,1.0,0.0,120.80419897582334,2.170336206222668,27.396550267874915,109.95639827813318,0.14343212788724377,3.2513963870609697,1.0,26.479607700485587,0.0,1.0,112.50713566943242,7599.136811797874,1.0,1.0,0.911110936978999,19.24352424332087,-0.03201668356638865,-43.95910433530581,1.0,26.69537139536131,1.0,0.028331530256250126,4.145395117969516,0.9332042584191947,1.0,0.2743950419447296,6.307687571803376
1.38,1.38,1.0,20.522532997224697,-0.06385290333035687,5.860301071797747,-0.004403423037915526,0.01983445818243343,0.0017035834838175345,21.34295121269676,0.02038867485953615,1.0,0.0,120.80419897582334,2.170336206222668,27.396550267874915,109.95639827813318,0.14343212788724377,3.2513963870609697,1.0,27.890715323737243,0.0,1.0,112.08756175770004,7718.823434506201,1.0,1.0,0.3692740687851507,19.376999356450124,0.02490536688625263,-43.91568486610223,1.0,27.334571536133772,1.0,0.009588206864598688,4.168510990377756,0.9327199384708816,1.0,0.3211600153801137,6.715410910964921
1.41,1.41,1.0,20.470719199514864,0.08092671615086715,5.989983768209375,0.0001441981932302793,0.016404807528717716,0.0018595619638336512,21.329247507171583,0.016510495869916843,1.0,0.0,120.80419897582334,2.170336206222668,27.396550267874915,109.95639827813318,0.14343212788724377,3.2513963870609697,1.0,27.890715323737243,0.0,1.0,113.04008612707791,7817.673949389874,1.0,1.0,0.3692740687851507,19.376999356450124,0.02490536688625263,-43.91568486610223,1.0,27.334571536133772,1.0,0.009588206864598688,4.168510990377756,0.9327199384708816,1.0,0.3211600153801137,6.715410910964921
1.44,1.44,1.0,20.477661231951366,0.02838297016024823,6.093329525028566,0.0006814394658877251,0.017899458826810124,0.002055030518493567,21.365020005236218,0.018029923362850996,1.0,0.0,120.80419897582334,2.170336206222668,27.396550267874915,109.95639827813318,0.14343212788724377,3.2513963870609697,1.0,26.74366414388173,0.0,1.0,114.24258405710178,7973.721769733959,1.0,1.0,-0.7693999061919029,19.318373455360376,-0.010689525499941632,-43.91281460272709,1.0,27.371232100744717,1.0,-0.010277291724983357,4.163545909357345,0.9322507669670351,1.0,-0.06775566337612891,5.8316902537020745
1.47,1.47,1.0,20.490684584556554,-0.0396149910265475,6.13044370745744,0.0014049393030088567,0.018772563137039754,0.0014165815732264276,21.388129047244927,0.018878286059197415,1.0,0.0,145.07258587235103,1.285237834230469,26.813452716850612,114.05461786139186,-0.21260345491423635,3.155395905578754,1.0,26.74366414388173,0.0,1.0,114.11471186883308,7918.424254451839,1.0,1.0,-0.7693999061919029,19.318373455360376,-0.010689525499941632,-43.91281460272709,1.0,27.371232100744717,1.0,-0.010277291724983357,4.163545909357345,0.9322507669670351,1.0,-0.06775566337612891,5.8316902537020745
1.5,1.5,1.0,20.45011961080968,-0.022318931192407878,6.1919538149629245,-0.00022022228984108235,0.016130184988214478,0.001993899133690833,21.366988142406644,0.016254445526264365,1.0,0.0,145.07258587235103,1.285237834230469,26.813452716850612,114.05461786139186,-0.21260345491423635,3.155395905578754,1.0,27.74130567732361,0.0,1.0,115.04715108886886,8014.127107535927,1.0,1.0,-0.18936452035955187,19.331920026520937,-0.04117617528289461,-43.92005968845634,1.0,27.20651973479673,1.0,0.0017285212237608241,4.203068192792532,0.931795687572,1.0,-0.23855978523464,6.121578040399423
1.53,1.53,1.0,20.371944109666156,0.05397069285683505,6.220223441359898,-0.0012721749823737583,0.01496500831672051,0.001085954552010128,21.300474156776236,0.015058193795881471,1.0,0.0,145.07258587235103,1.285237834230469,26.813452716850612,114.05461786139186,-0.21260345491423635,3.155395905578754,1.0,27.74130567732361,0.0,1.0,115.23440051404084,8143.048873178888,1.0,1.0,-0.18936452035955187,19.331920026520937,-0.04117617528289461,-43.92005968845634,1.0,27.20651973479673,1.0,0.0017285212237608241,4.203068192792532,0.931795687572,1.0,-0.23855978523464,6.121578040399423
1.56,1.56,1.0,20.395456171659163,-0.014762936430179117,6.329844027320543,-0.0012932817770770605,0.016069522327346507,0.0007057694199482686,21.35513464730596,0.016136921517381858,1.0,0.0,145.07258587235103,1.285237834230469,26.813452716850612,114.05461786139186,-0.21260345491423635,3.155395905578754,1.0,27.354530424441325,0.0,1.0,115.42885502549649,8281.641602830077,1.0,1.0,-1.716637531712618,19.43492135017974,-0.07539707457682089,-43.9301396668279,1.0,27.763462446834613,1.0,0.006633958561392312,4.214237850001929,0.9313536402205936,1.0,-0.18885814448501087,5.907262210253495
1.5899999999999999,1.5899999999999999,1.0,20.34735233474998,0.0460753712251011,6.412795055202671,-0.004091554314499282,0.017395990847076857,-0.0010977129097168325,21.334029398927925,0.017904365051356567,1.0,0.0,145.07258587235103,1.285237834230469,26.813452716850612,114.05461786139186,-0.21260345491423635,3.155395905578754,1.0,27.354530424441325,0.0,1.0,115.88257265113873,8339.413280213077,1.0,1.0,-1.716637531712618,19.43492135017974,-0.07539707457682089,-43.9301396668279,1.0,27.763462446834613,1.0,0.006633958561392312,4.214237850001929,0.9313536402205936,1.0,-0.18885814448501087,5.907262210253495
1.6199999999999999,1.6199999999999999,1.0,20.293496370748663,0.01695175296803813,6.41627435002766,0.004058788298746421,0.011472433124565863,0.0002811627836409256,21.283675877214932,0.012172490984288369,1.0,0.0,145.07258587235103,1.285237834230469,26.813452716850612,114.05461786139186,-0.21260345491423635,3.155395905578754,1.0,27.01275673877985,0.0,1.0,117.57161976150876,8403.413894627267,1.0,1.0,0.7872093206569164,19.51086092083618,-0.023716885412741306,-43.85670708401458,1.0,27.45774263389569,1.0,0.0041673456274837805,4.23167459304139,0.9309235617103508,1.0,0.09251368693784552,5.98101524399011
1.65,1.65,1.0,20.24698202934952,-0.01684796485160632,6.595189836509407,-0.0008403564747178426,0.01453386037036222,-0.0028475925079808192,21.29406241491555,0.014834017640588611,1.0,0.0,145.07258587235103,1.285237834230469,26.813452716850612,114.05461786139186,-0.21260345491423635,3.155395905578754,1.0,27.01275673877985,0.0,1.0,117.76827560718998,8360.081292416084,1.0,1.0,0.7872093206569164,19.51086092083618,-0.023716885412741306,-43.85670708401458,1.0,27.45774263389569,1.0,0.0041673456274837805,4.23167459304139,0.9309235617103508,1.0,0.09251368693784552,5.98101524399011
1.68,1.68,1.0,20.25332657189976,0.004956606282936433,6.605356434077869,-0.001563871790817123,0.013964415479408895,-0.0022486439725847127,21.30323908275877,0.014230495225926253,1.0,0.0,169.27313364312934,1.3972259894224142,24.793640182151904,118.15388088051013,0.29370275940436513,2.692783024821761,1.0,28.01753203137268,0.0,1.0,118.17512726984182,8507.471464479824,1.0,1.0,-0.5965879598278213,19.483341885158662,0.03744857038101555,-43.86231836775201,1.0,27.786350251613033,1.0,-0.004451663926684424,4.2442790244334585,0.9305043864071918,1.0,-0.3377676974193589,6.315066174388612
1.71,1.71,1.0,20.223631616417855,0.0044550337850444,6.720282504339737,-0.00010514068914829958,0.016123284707062698,0.0027557793621785353,21.3109711778238,0.016357435135207647,1.0,0.0,169.27313364312934,1.3972259894224142,24.793640182151904,118.15388088051013,0.29370275940436513,2.692783024821761,1.0,28.01753203137268,0.0,1.0,119.84976430645222,8667.465692899941,1.0,1.0,-0.5965879598278213,19.483341885158662,0.03744857038101555,-43.86231836775201,1.0,27.786350251613033,1.0,-0.004451663926684424,4.2442790244334585,0.9305043864071918,1.0,-0.3377676974193589,6.315066174388612
1.74,1.74,1.0,20.28207100903895,0.014016123790119787,6.739709193465719,-0.0015239814435285093,0.014422260057976966,-0.0031625220096054294,21.37255906249672,0.014843370576839203,1.0,0.0,169.27313364312934,1.3972259894224142,24.793640182151904,118.15388088051013,0.29370275940436513,2.692783024821761,1.0,27.333363775943802,0.0,1.0,119.56169835504332,8696.410181355526,1.0,1.0,2.606821890880659,19.527214960335492,-0.022607898449791327,-43.894738683540844,1.0,27.615931265123923,1.0,-0.0066081468956746825,4.261652484976979,0.9300950470294408,1.0,0.08889709594733501,5.796942459361018
1.77,1.77,1.0,20.246790493307294,0.02468041201445792,6.838755925316037,-0.0031397023602378667,0.014998443031486975,-0.0008734861276497517,21.370580642758892,0.015348420188893708,1.0,0.0,169.27313364312934,1.3972259894224142,24.793640182151904,118.15388088051013,0.29370275940436513,2.692783024821761,1.0,27.333363775943802,0.0,1.0,119.5878406183432,8846.009849470545,1.0,1.0,2.606821890880659,19.527214960335492,-0.022607898449791327,-43.894738683540844,1.0,27.615931265123923,1.0,-0.0066081468956746825,4.261652484976979,0.9300950470294408,1.0,0.08889709594733501,5.796942459361018
1.7999999999999998,1.7999999999999998,1.0,20.174384648723617,0.06741922021700093,6.893065075753763,0.006450343029375977,0.012814291650288313,-0.00152065374021283,21.319584598309742,0.014426551337478105,1.0,0.0,169.27313364312934,1.3972259894224142,24.793640182151904,118.15388088051013,0.29370275940436513,2.692783024821761,1.0,26.899555003568427,0.0,1.0,119.62604177840097,8829.80584886852,1.0,1.0,-0.1922887867123145,19.598272600538724,0.03182178317033914,-43.83553495517291,1.0,28.10062232427107,1.0,-0.01743687996779373,4.266728095836086,0.9296944754838461,1.0,0.13495512495122733,6.077867054221211
1.8299999999999998,1.8299999999999998,1.0,20.11222197522681,-0.0032833252613487336,6.953874928519276,-0.004728656098403269,0.0136074305777244,0.00026770698096393187,21.28045723386859,0.014408123488234415,1.0,0.0,169.27313364312934,1.3972259894224142,24.793640182151904,118.15388088051013,0.29370275940436513,2.692783024821761,1.0,26.899555003568427,0.0,1.0,120.8419769078313,8913.889364975299,1.0,1.0,-0.1922887867123145,19.598272600538724,0.03182178317033914,-43.83553495517291,1.0,28.10062232427107,1.0,-0.01743687996779373,4.266728095836086,0.9296944754838461,1.0,0.13495512495122733,6.077867054221211
1.8599999999999999,1.8599999999999999,1.0,20.071633371504507,0.009908710106866987,7.0300332767822695,0.0020500116917655945,0.011112061596507634,-0.0017643376722034157,21.26715618636623,0.011436491956999384,1.0,0.0,169.27313364312934,1.3972259894224142,24.793640182151904,118.15388088051013,0.29370275940436513,2.692783024821761,1.0,28.228147606140492,0.0,1.0,121.3357435825272,9044.309694465708,1.0,1.0,-2.372196514037646,19.670548200231927,0.0253871106666094,-43.85756412792704,1.0,28.417456657588957,1.0,-0.0026528301708539552,4.270281162764403,0.9293016037337869,1.0,-0.3373051467834271,6.5859771292679765
1.89,1.89,1.0,20.125973476534426,0.0074971301129373984,7.132230904940911,0.0015845214479679052,0.010972601983146509,-0.0005296513673102584,21.3523671349694,0.011099064513305373,1.0,0.0,196.00123314297372,0.7482928659391355,27.588369381912468,122.37807207984535,-0.12115622363455657,2.2673111956855436,1.0,28.228147606140492,0.0,1.0,121.98073899616236,9015.976161550638,1.0,1.0,-2.372196514037646,19.670548200231927,0.0253871106666094,-43.85756412792704,1.0,28.417456657588957,1.0,-0.0026528301708539552,4.270281162764403,0.9293016037337869,1.0,-0.3373051467834271,6.5859771292679765
1.92,1.92,1.0,20.072075627517293,0.034472931409666265,7.143702838281932,-0.00010944645605842277,0.007859108243760236,-0.000998907448692165,21.305442934176494,0.007923091379312531,1.0,0.0,196.00123314297372,0.7482928659391355,27.588369381912468,122.37807207984535,-0.12115622363455657,2.2673111956855436,1.0,28.75083270561001,0.0,1.0,122.83345264135781,9086.94397984722,1.0,1.0,-0.781429770071985,19.623866616465886,0.06324396098074161,-43.779366527192266,1.0,28.295634120575215,1.0,0.0035345218223630883,4.309165036548676,0.9289153646847476,1.0,0.14151895369452103,5.746176256584448
1.95,1.95,1.0,20.05519579305556,0.034785312582677835,7.2934377307373035,0.000529425315439008,0.009115417556291772,0.0003752249509749289,21.340251222699028,0.009138485769207835,1.0,0.0,196.00123314297372,0.7482928659391355,27.588369381912468,122.37807207984535,-0.12115622363455657,2.2673111956855436,1.0,28.75083270561001,0.0,1.0,123.41634736074472,9212.810294740326,1.0,1.0,-0.781429770071985,19.623866616465886,0.06324396098074161,-43.779366527192266,1.0,28.295634120575215,1.0,0.0035345218223630883,4.309165036548676,0.9289153646847476,1.0,0.14151895369452103,5.746176256584448
1.98,1.98,1.0,19.939464274595036,-0.037690803331428276,7.3140386577692516,-0.004926351440058331,0.008669695757936701,0.0010695931096964461,21.23861618942841,0.010028788185342261,1.0,0.0,196.00123314297372,0.7482928659391355,27.588369381912468,122.37807207984535,-0.12115622363455657,2.2673111956855436,1.0,28.526371581182847,0.0,1.0,123.69417409482536,9474.171175742878,1.0,1.0,0.32251997922074466,19.662565974741085,-0.0580980182714003,-43.774265763827245,1.0,28.38321817816998,1.0,0.0006821260314896599,4.333803304192168,0.9285346930758223,1.0,-0.24481390352941715,6.002959141095128
2.01,2.01,1.0,20.02027346396003,-0.031330535832225594,7.375156328983853,0.0008972086749886908,0.01274828351513629,-0.00037647858279354457,21.3355398818771,0.012785360851852124,1.0,0.0,196.00123314297372,0.7482928659391355,27.588369381912468,122.37807207984535,-0.12115622363455657,2.2673111956855436,1.0,28.526371581182847,0.0,1.0,124.10075849887045,9625.42445277176,1.0,1.0,0.32251997922074466,19.662565974741085,-0.0580980182714003,-43.774265763827245,1.0,28.38321817816998,1.0,0.0006821260314896599,4.333803304192168,0.9285346930758223,1.0,-0.24481390352941715,6.002959141095128
2.04,2.04,1.0,19.93584433463954,-0.013971165280871228,7.467881762113205,0.002523743794383648,0.010414092607919923,-0.0012587587175894165,21.288666997755914,0.010789211328689863,1.0,0.0,196.00123314297372,0.7482928659391355,27.588369381912468,122.37807207984535,-0.12115622363455657,2.2673111956855436,1.0,28.4032796554828,0.0,1.0,124.53374498906456,9571.515050753,1.0,1.0,0.03446626988985877,19.689652086119146,0.02107644647970843,-43.8004037776488,1.0,28.92556007932286,1.0,-0.0025560784427998747,4.354390993564707,0.9281585263687661,1.0,-0.4731746098812088,5.551577048223656
2.07,2.07,1.0,19.854340070593388,0.016772131874736133,7.426649843285282,0.00024308503402177057,0.00874733673055033,-0.0031551756428912802,21.19788264987678,0.009302156929921937,1.0,0.0,196.00123314297372,0.7482928659391355,27.588369381912468,122.37807207984535,-0.12115622363455657,2.2673111956855436,1.0,28.4032796554828,0.0,1.0,125.98581521680475,9440.795280183487,1.0,1.0,0.03446626988985877,19.689652086119146,0.02107644647970843,-43.8004037776488,1.0,28.92556007932286,1.0,-0.0025560784427998747,4.354390993564707,0.9281585263687661,1.0,-0.4731746098812088,5.551577048223656
2.1,2.1,1.0,19.901645975567188,-0.041957903086435426,7.620783173285597,0.0014077966677365215,0.009815258498600113,0.0007996982491951806,21.310880065747494,0.009947899684948459,1.0,0.0,222.1614739426577,-2.2284796786325756,28.26993120665475,126.17775514072926,-0.05469649609568262,2.5252829699256125,1.0,28.390671373558657,0.0,1.0,126.53662914229398,9776.522138395192,1.0,1.0,-1.5939374174887908,19.679850514139865,0.008508163911066374,-43.7860630398308,1.0,28.884067837011973,1.0,-0.009727035598144043,4.359989879525329,0.9277858056281943,1.0,-0.3693653055211866,5.5195146521563
2.13,2.13,1.0,19.86170025939052,0.03305100592561845,7.646910003554754,-0.001967893663750523,0.0063433308359237255,-2.2852162007997018e-05,21.282938287871154,0.006641609276908623,1.0,0.0,222.1614739426577,-2.2284796786325756,28.26993120665475,126.17775514072926,-0.05469649609568262,2.5252829699256125,1.0,28.390671373558657,0.0,1.0,126.89800242206664,9863.60305348561,1.0,1.0,-1.5939374174887908,19.679850514139865,0.008508163911066374,-43.7860630398308,1.0,28.884067837011973,1.0,-0.009727035598144043,4.359989879525329,0.9277858056281943,1.0,-0.3693653055211866,5.5195146521563
2.16,2.16,1.0,19.855263137344,-0.05724070074852108,7.795763689838657,-0.0006438130072942103,0.009482831755824737,-0.0034364530112581024,21.330932522016013,0.010106819608374543,1.0,0.0,222.1614739426577,-2.2284796786325756,28.26993120665475,126.17775514072926,-0.05469649609568262,2.5252829699256125,1.0,29.441095492437775,0.0,1.0,127.59842093635953,9937.210861413283,1.0,1.0,-0.12261761864412848,19.739981280908047,-0.010515699758730415,-43.75196267123746,1.0,29.043286476080198,1.0,-0.025884539967591297,4.380049167942488,0.9274154763880887,1.0,0.41696178274613693,5.585521244296718
2.19,2.19,1.0,19.878004740618024,-0.005918813565982786,7.816824590984298,-0.0021816882630021806,0.009329390785014234,0.0037693701547719684,21.359725049414926,0.010295894689637984,1.0,0.0,222.1614739426577,-2.2284796786325756,28.26993120665475,126.17775514072926,-0.05469649609568262,2.5252829699256125,1.0,29.441095492437775,0.0,1.0,128.7110529587911,9972.406028117928,1.0,1.0,-0.12261761864412848,19.739981280908047,-0.010515699758730415,-43.75196267123746,1.0,29.043286476080198,1.0,-0.025884539967591297,4.380049167942488,0.9274154763880887,1.0,0.41696178274613693,5.585521244296718
2.2199999999999998,2.2199999999999998,1.0,19.794256085630217,-0.05059689634475818,7.854910328604689,0.0002936132743896784,0.008499948762821969,0.0006116066501216562,21.29588575992671,0.008526980732942323,1.0,0.0,222.1614739426577,-2.2284796786325756,28.26993120665475,126.17775514072926,-0.05469649609568262,2.5252829699256125,1.0,29.09222818014401,0.0,1.0,128.83164514319054,10312.468707308919,1.0,1.0,0.161564071589239,19.68027375616899,-0.02909239791049542,-43.74055634075081,1.0,28.973213759721066,1.0,0.022371710103927574,4.404735990969253,0.9270464895009551,1.0,-0.08405875450202793,5.568913095668188
2.25,2.25,1.0,19.78442663783639,0.07341426991716574,7.927643786421253,-0.002676218136313209,0.008675578638255972,0.0005247021233636997,21.313762292175003,0.009094125606123849,1.0,0.0,222.1614739426577,-2.2284796786325756,28.26993120665475,126.17775514072926,-0.05469649609568262,2.5252829699256125,1.0,29.09222818014401,0.0,1.0,129.8999031982061,10162.669565311931,1.0,1.0,0.161564071589239,19.68027375616899,-0.02909239791049542,-43.74055634075081,1.0,28.973213759721066,1.0,0.022371710103927574,4.404735990969253,0.9270464895009551,1.0,-0.08405875450202793,5.568913095668188
2.28,2.28,1.0,19.730875782226036,-0.004776907242374402,7.9465799784922195,0.001676097610898022,0.005434948033925094,-0.0003787951705940818,21.27100409729287,0.005700127113844892,1.0,0.0,222.1614739426577,-2.2284796786325756,28.26993120665475,126.17775514072926,-0.05469649609568262,2.5252829699256125,1.0,29.346347116476036,0.0,1.0,129.66571950999023,10352.185324056543,1.0,1.0,-1.6408168950112119,19.818192065367626,0.06290214113069309,-43.760609598700896,1.0,30.15531482589061,1.0,0.010944358981536489,4.406096555924652,0.9266778019668702,1.0,0.3157705649301772,5.275066651104217
2.31,2.31,1.0,19.66856920472348,-0.023879113466153023,8.039700441904381,0.0009275740947256192,0.006791082055285934,-0.003007777642578669,21.24829329542997,0.007485046127448299,1.0,0.0,249.138830471416,1.4788124121560187,30.830851257518777,130.4786232910134,-0.03353279581935896,2.4397477325551864,1.0,29.346347116476036,0.0,1.0,129.6994994763563,10266.407446337742,1.0,1.0,-1.6408168950112119,19.818192065367626,0.06290214113069309,-43.760609598700896,1.0,30.15531482589061,1.0,0.010944358981536489,4.406096555924652,0.9266778019668702,1.0,0.3157705649301772,5.275066651104217
2.34,2.34,1.0,19.66929378345131,-0.05284885159926353,8.066729497767774,0.003359279303871047,0.010020451881743206,0.0024967946887641842,21.259257647692884,0.010859474990697678,1.0,0.0,249.138830471416,1.4788124121560187,30.830851257518777,130.4786232910134,-0.03353279581935896,2.4397477325551864,1.0,29.760626158284342,0.0,1.0,131.40456369710844,10438.471303333861,1.0,1.0,1.524630114340248,19.783687557467164,-0.0318739347603001,-43.736870784735366,1.0,29.693685003698697,1.0,-0.008423637191768814,4.442498231932302,0.9263083777403326,1.0,-0.05067663182681074,5.656892966795661
2.37,2.37,1.0,19.562371297087246,0.02254504754436662,8.133619939411382,-1.1022748044384552e-05,0.005472034767296223,0.00019605239853245015,21.185906928027936,0.005475556824510491,1.0,0.0,249.138830471416,1.4788124121560187,30.830851257518777,130.4786232910134,-0.03353279581935896,2.4397477325551864,1.0,29.760626158284342,0.0,1.0,131.35481122246,10492.462591114836,1.0,1.0,1.524630114340248,19.783687557467164,-0.0318739347603001,-43.736870784735366,1.0,29.693685003698697,1.0,-0.008423637191768814,4.442498231932302,0.9263083777403326,1.0,-0.05067663182681074,5.656892966795661
2.4,2.4,1.0,19.57138676980306,-0.04318961500879507,8.2442414061939,-0.0039179078391016,0.003257917309102958,-0.0023087258754494228,21.23696216033896,0.005594125686522974,1.0,0.0,249.138830471416,1.4788124121560187,30.830851257518777,130.4786232910134,-0.03353279581935896,2.4397477325551864,1.0,29.144349878990866,0.0,1.0,131.66504881261116,10517.744150017987,1.0,1.0,-2.2732520711570947,19.753211279725267,0.02684823137697315,-43.77408684800543,1.0,29.789460720834235,1.0,0.020256686867666743,4.447664131890866,0.9259371948580725,1.0,-0.4536234149851542,5.325139938562114
2.4299999999999997,2.4299999999999997,1.0,19.594874464869054,0.07102346304511575,8.373634708735715,-0.0025960971443275897,-0.005325768880048556,-0.0008694095988588212,21.30919772918783,0.005988272505244511,1.0,0.0,249.138830471416,1.4788124121560187,30.830851257518777,130.4786232910134,-0.03353279581935896,2.4397477325551864,1.0,29.144349878990866,0.0,1.0,132.46099713766657,10813.300327667956,1.0,1.0,-2.2732520711570947,19.753211279725267,0.02684823137697315,-43.77408684800543,1.0,29.789460720834235,1.0,0.020256686867666743,4.447664131890866,0.9259371948580725,1.0,-0.4536234149851542,5.325139938562114
2.46,2.46,1.0,19.59199649531121,-0.02496582145480364,8.392732093940225,-0.0014855611652218775,0.0020395383184816066,-0.0003526149847994304,21.31396026000757,0.0025477334742227777,1.0,0.0,249.138830471416,1.4788124121560187,30.830851257518777,130.4786232910134,-0.03353279581935896,2.4397477325551864,1.0,30.123998850408086,0.0,1.0,133.31875482350827,10648.879810608001,1.0,1.0,-2.669348801949921,19.848905706860286,-0.03055044610602501,-43.74828749004854,1.0,30.264200177939717,1.0,0.018448580195941568,4.466171980768206,0.9255631797129011,1.0,0.37294227656793894,5.328684678101788
2.4899999999999998,2.4899999999999998,1.0,19.48368128486769,-0.06639889208901766,8.42896929543082,0.0012669273063012632,-0.00415992845414411,-0.0005235846871883242,21.228889952291183,0.004379982930070353,1.0,0.0,249.138830471416,1.4788124121560187,30.830851257518777,130.4786232910134,-0.03353279581935896,2.4397477325551864,1.0,30.123998850408086,0.0,1.0,133.81520409485697,10837.973576840004,1.0,1.0,-2.669348801949921,19.848905706860286,-0.03055044610602501,-43.74828749004854,1.0,30.264200177939717,1.0,0.018448580195941568,4.466171980768206,0.9255631797129011,1.0,0.37294227656793894,5.328684678101788
2.52,2.52,1.0,19.593410459299132,0.057803713494330944,8.512472175278136,-0.001648347567361843,-0.003244615120775451,0.00031740605094076176,21.362753971123453,0.0036531251807139335,1.0,0.0,277.42874592404837,1.431491961141875,32.41808587051631,134.18965786035398,-0.20659639893164686,2.5025758609701856,1.0,30.738020917789665,0.0,1.0,134.5679195174404,11046.04252942895,1.0,1.0,-1.040639502474938,19.7888909232296,-0.05060859784559846,-43.69368422312638,1.0,29.471790209551553,1.0,0.0031810529150164547,4.46018191769207,0.925185046702944,1.0,0.1833938421980453,6.344828040496649
2.55,2.55,1.0,19.495927503197944,-0.08297775685493106,8.643365472317237,0.0016147680520062259,-0.003191971298687338,0.0011731274338112692,21.32617736975214,0.0037646227711929285,1.0,0.0,277.42874592404837,1.431491961141875,32.41808587051631,134.18965786035398,-0.20659639893164686,2.5025758609701856,1.0,30.738020917789665,0.0,1.0,134.81575059347472,11074.27072477935,1.0,1.0,-1.040639502474938,19.7888909232296,-0.05060859784559846,-43.69368422312638,1.0,29.471790209551553,1.0,0.0031810529150164547,4.46018191769207,0.925185046702944,1.0,0.1833938421980453,6.344828040496649
2.58,2.58,1.0,19.475358378808096,0.0246446114376785,8.749884910374687,0.0019141014960747725,-0.005698485714987505,0.0014666460267742213,21.35065987937343,0.006187695415018821,1.0,0.0,277.42874592404837,1.431491961141875,32.41808587051631,134.18965786035398,-0.20659639893164686,2.5025758609701856,1.0,30.161708563423574,0.0,1.0,135.22174595921166,11185.897944811048,1.0,1.0,-1.6694967232549183,19.763888989312495,0.0037988276471314845,-43.76289800563033,1.0,30.384507567878916,1.0,0.017602322579103855,4.4897696460602985,0.9248013954142765,1.0,-0.19146824683226255,5.295844443266689
2.61,2.61,1.0,19.421548986435543,-0.02955076685107684,8.788175430655217,0.0002525843164480631,-0.006485435526083796,0.0001472968995164711,21.31735128200286,0.006492023504001854,1.0,0.0,277.42874592404837,1.431491961141875,32.41808587051631,134.18965786035398,-0.20659639893164686,2.5025758609701856,1.0,30.161708563423574,0.0,1.0,135.94918010229773,11171.48220501373,1.0,1.0,-1.6694967232549183,19.763888989312495,0.0037988276471314845,-43.76289800563033,1.0,30.384507567878916,1.0,0.017602322579103855,4.4897696460602985,0.9248013954142765,1.0,-0.19146824683226255,5.295844443266689
2.6399999999999997,2.6399999999999997,1.0,19.34270962020358,-0.019182731240553717,8.918912104656915,0.00035191746517779666,-0.0046759761804311874,0.001184293996801787,21.299947806492145,0.004836439952394504,1.0,0.0,277.42874592404837,1.431491961141875,32.41808587051631,134.18965786035398,-0.20659639893164686,2.5025758609701856,1.0,31.016884669066144,0.0,1.0,136.33735278368798,11323.654756287988,1.0,1.0,-0.12072397666394498,19.797241272067037,-0.030935090930710982,-43.7372159999169,1.0,30.154981494952462,1.0,-0.009278582295461123,4.487894791039407,0.9244107315471924,1.0,0.43429886532332906,6.33631676313881
2.67,2.67,1.0,19.3539737291981,-0.028419024864508376,9.0185689843046,0.0009183772178728384,-0.006826785575925928,0.0014645511017866032,21.352088733332984,0.007042253044567662,1.0,0.0,277.42874592404837,1.431491961141875,32.41808587051631,134.18965786035398,-0.20659639893164686,2.5025758609701856,1.0,31.016884669066144,0.0,1.0,137.0312310267274,11442.31071930504,1.0,1.0,-0.12072397666394498,19.797241272067037,-0.030935090930710982,-43.7372159999169,1.0,30.154981494952462,1.0,-0.009278582295461123,4.487894791039407,0.9244107315471924,1.0,0.43429886532332906,6.33631676313881
2.6999999999999997,2.6999999999999997,1.0,19.30763459650974,0.06712206000035544,9.130042014465706,-0.0036438949506911364,-0.008263966728399266,0.0034029412700867247,21.35759645346797,0.009651483087454584,1.0,0.0,277.42874592404837,1.431491961141875,32.41808587051631,134.18965786035398,-0.20659639893164686,2.5025758609701856,1.0,31.05127593653836,0.0,1.0,137.57194079674497,11506.998242163902,1.0,1.0,-0.09697787372877681,19.827355756312112,0.11163822907721334,-43.70348280809438,1.0,30.633499207823597,1.0,0.00892749385843177,4.5231369954167056,0.924011498297614,1.0,-0.27795939789596424,5.505564467172628
2.73,2.73,1.0,19.317449518531614,-0.015637538206455272,9.102129041079076,-0.003088614270834717,-0.006311339168902046,-0.0012389345045659206,21.354457462414576,0.007134949118636029,1.0,0.0,307.7017573289417,2.896506286654396,31.77038992123186,138.07224969196935,0.0386337205384135,2.599527718250055,1.0,31.05127593653836,0.0,1.0,137.7901688415846,11515.673226434415,1.0,1.0,-0.09697787372877681,19.827355756312112,0.11163822907721334,-43.70348280809438,1.0,30.633499207823597,1.0,0.00892749385843177,4.5231369954167056,0.924011498297614,1.0,-0.27795939789596424,5.505564467172628
2.76,2.76,1.0,19.29201389929027,0.010449318417742626,9.258043364418386,-0.0022843183876562955,-0.011134205262976517,-0.0014193671574628767,21.398440980971387,0.011454398302048122,1.0,0.0,307.7017573289417,2.896506286654396,31.77038992123186,138.07224969196935,0.0386337205384135,2.599527718250055,1.0,30.97044494509119,0.0,1.0,138.4869715169042,11528.55636388178,1.0,1.0,-0.4747975943824989,19.665607821744832,-0.04580960847562288,-43.731844304261024,1.0,30.64040658899548,1.0,0.018493334612755926,4.506114203217726,0.9236020986312239,1.0,0.016762414663514254,5.1823985041988765
2.79,2.79,1.0,19.286323103815707,0.007992895240503636,9.349357062124417,0.0021525452616003417,-0.010235566951958779,0.0007905566107108496,21.432983931927108,0.01048929271619433,1.0,0.0,307.7017573289417,2.896506286654396,31.77038992123186,138.07224969196935,0.0386337205384135,2.599527718250055,1.0,30.97044494509119,0.0,1.0,139.70553932346894,11799.809204746269,1.0,1.0,-0.4747975943824989,19.665607821744832,-0.04580960847562288,-43.731844304261024,1.0,30.64040658899548,1.0,0.018493334612755926,4.506114203217726,0.9236020986312239,1.0,0.016762414663514254,5.1823985041988765
2.82,2.82,1.0,19.21787339491229,0.007534677549448241,9.42303289621841,0.0031468332406663067,-0.011132039299501269,0.0015271266905074398,21.4037441481031,0.011668632068030224,1.0,0.0,307.7017573289417,2.896506286654396,31.77038992123186,138.07224969196935,0.0386337205384135,2.599527718250055,1.0,30.30218927155183,0.0,1.0,140.17591613963862,12082.533429727882,1.0,1.0,1.1057067624750865,19.679937269371692,-0.04621373822345402,-43.79356558644979,1.0,30.506840546153015,1.0,0.007638384491136302,4.533814487720574,0.9231809115111682,1.0,0.6820846089156285,5.699680247901983
2.85,2.85,1.0,19.083821556730122,0.034913584691036365,9.558616167994323,-0.0003446015259975511,-0.010855330535183718,-0.0005247670789415206,21.343865798269903,0.010873469167057618,1.0,0.0,307.7017573289417,2.896506286654396,31.77038992123186,138.07224969196935,0.0386337205384135,2.599527718250055,1.0,30.30218927155183,0.0,1.0,140.19846466755928,12058.597717513485,1.0,1.0,1.1057067624750865,19.679937269371692,-0.04621373822345402,-43.79356558644979,1.0,30.506840546153015,1.0,0.007638384491136302,4.533814487720574,0.9231809115111682,1.0,0.6820846089156285,5.699680247901983
2.88,2.88,1.0,19.122182296700874,0.003953405748775375,9.495096104241572,0.0014367124913808717,-0.006594369973725531,0.0004106220920854445,21.349817831692636,0.006761543361967837,1.0,0.0,307.7017573289417,2.896506286654396,31.77038992123186,138.07224969196935,0.0386337205384135,2.599527718250055,1.0,31.578895541295378,0.0,1.0,141.2205320148841,12068.95019551659,1.0,1.0,-0.7077099033744029,19.673313361942505,-0.011881082605671974,-43.78076747640612,1.0,31.0818292789673,1.0,0.01760710987602202,4.531175359439252,0.9227463054699804,1.0,-0.09685443449758144,5.765367602411181
2.9099999999999997,2.9099999999999997,1.0,19.090320743932637,0.012230301644864506,9.63678656177156,-0.00023959147302692909,-0.011203834136096066,-0.0010870055416899477,21.384764457988403,0.011258991272345998,1.0,0.0,307.7017573289417,2.896506286654396,31.77038992123186,138.07224969196935,0.0386337205384135,2.599527718250055,1.0,31.578895541295378,0.0,1.0,140.87853357077782,12445.078729706334,1.0,1.0,-0.7077099033744029,19.673313361942505,-0.011881082605671974,-43.78076747640612,1.0,31.0818292789673,1.0,0.01760710987602202,4.531175359439252,0.9227463054699804,1.0,-0.09685443449758144,5.765367602411181
2.94,2.94,1.0,19.115897695587126,-0.06288473299363333,9.739875476926901,0.0031129423101411116,-0.012336164792066631,-0.0026593447374647,21.454292659135582,0.01299782620425324,1.0,0.0,336.50740561105624,0.5966773473968999,29.30494757207471,142.02557989722382,-0.14408787878006526,3.1707606624197715,1.0,30.985614788785966,0.0,1.0,142.1318949163285,12109.054330884877,1.0,1.0,-1.041194859540679,19.63913120837404,-0.028211017588062274,-43.78348156729253,1.0,30.877843364349655,1.0,-0.02245254959407632,4.526965909134814,0.9222966491000767,1.0,-0.23177214647981836,5.710099666803111
2.9699999999999998,2.9699999999999998,1.0,18.967281882048386,-0.036378548969127796,9.858327604362279,-0.0007863693486785422,-0.00784763159133032,0.0009166473793037782,21.376288932993898,0.007940021458646775,1.0,0.0,336.50740561105624,0.5966773473968999,29.30494757207471,142.02557989722382,-0.14408787878006526,3.1707606624197715,1.0,30.985614788785966,0.0,1.0,142.30870638638507,12435.291509523193,1.0,1.0,-1.041194859540679,19.63913120837404,-0.028211017588062274,-43.78348156729253,1.0,30.877843364349655,1.0,-0.02245254959407632,4.526965909134814,0.9222966491000767,1.0,-0.23177214647981836,5.710099666803111
3.0,3.0,1.0,18.985016950789607,0.07954157170803879,9.985039188556696,-0.0009769234117035111,-0.011747528470171313,0.0023018766271614647,21.450832223492203,0.012010721898224611,1.0,0.0,336.50740561105624,0.5966773473968999,29.30494757207471,142.02557989722382,-0.14408787878006526,3.1707606624197715,1.0,31.325381032826844,0.0,1.0,142.46481837166547,12431.237883165073,1.0,1.0,2.0652461105420143,19.60670815465382,0.026775486905290795,-43.814967430593136,1.0,31.01535325941174,1.0,-0.00793541826838424,4.562851702043287,0.9218303194089847,1.0,-0.42203087432990666,6.777345184780982
