time_s,x_m,y_m,altitude_m,vx_mps,vy_mps,vz_mps,speed_mps,mass_kg,roll_deg,pitch_deg,yaw_deg,p_dps,q_dps,r_dps,alpha_deg,beta_deg,qbar_pa,mach,airspeed_mps,load_factor_g,density_kgpm3,pressure_pa,temperature_k,wind_x_mps,wind_y_mps,wind_z_mps,thrust_n,mass_flow_kgps,propulsion_throttle_actual,propulsion_health,energy_j_per_kg,target_distance_m,guidance_mode,pitch_command_deg,heading_command_deg,roll_command_deg
0.0,0.0,0.0,20.0,85.0,0.0,8.0,85.37564055396598,17.633519126604632,0.0,6.000000000000002,0.0,0.0,0.0,0.0,0.623294571949261,0.0,4455.946741876431,0.2509445034436674,85.37564055396597,1.7823069717630136,1.2226496753673843,101084.96761777384,288.02,0.0,0.0,0.0,326.8,0.17539118863220368,0.86,nominal,3840.633,nan,pitch_program,13.0,0.0,0.0
0.03,2.565625701698715,0.0,20.232987818606677,85.5208567232905,0.0,7.766260620222598,85.87276482509925,17.628257390945667,0.0,6.265582975204377,0.0,0.0,-8.852781691043555,0.0,1.0767109014596983,0.0,4507.889011144531,0.25240636371580677,85.87276482509925,1.8109440825236895,1.2226223156504323,101082.17410238285,288.018485579179,0.0,0.0,0.0,332.605,0.1785066900092231,0.86,nominal,3885.4836993447407,nan,pitch_program,12.985,0.0,0.0
0.06,5.147066620164839,0.0,20.45946204167272,86.04803061553747,0.0,7.549140768868069,86.37854536376878,17.62290219024539,0.0,6.641356440464407,0.0,0.0,-12.525827073896348,0.0,1.6275370407905987,0.0,4561.0480571834,0.25389365650424967,86.37854536376878,1.8401667022994574,1.2225957212727405,101079.45874467805,288.0170134967291,0.0,0.0,0.0,338.40999999999997,0.18162219138624247,0.86,nominal,3931.2653330113,nan,pitch_program,12.97,0.0,0.0
0.09,7.744479493623357,0.0,20.68005583317126,86.58042911528393,0.0,7.353126383284668,86.89211226224889,17.617453524503805,0.0,6.946481817862219,0.0,0.0,-10.170869950713783,0.0,2.0920990572876184,0.0,4615.347265459059,0.25540382656250876,86.89211226224889,1.870506425256795,1.2225698178468658,101076.81394836008,288.0155796370844,0.0,0.0,0.0,344.215,0.18473769276326188,0.86,nominal,3977.9216562340002,nan,pitch_program,12.955,0.0,0.0
0.12,10.358041815374254,0.0,20.895250712775702,87.11874405836318,0.0,7.173162653481409,87.41355632143043,17.611911393720906,0.0,7.124718523475968,0.0,0.0,-5.9412283116560145,0.0,2.4177299678979804,0.0,4670.810809402923,0.25693714205040985,87.41355632143042,1.9012828215212016,1.2225445487976923,101074.23393597509,288.01418087036694,0.0,0.0,0.0,350.02,0.1878531941402813,0.86,nominal,4025.477324782387,nan,pitch_program,12.94,0.0,0.0
0.15,12.987968403244157,0.0,21.10533483353081,87.66421959566347,0.0,7.00280402517025,87.9434742407397,17.606275797896696,0.0,7.219573572192968,0.0,0.0,-3.161835679393859,0.0,2.652363245710175,0.0,4727.517789369363,0.2584953575964351,87.94347424073969,1.9324068270049541,1.22251988025984,101071.71524889217,288.012815323582,0.0,0.0,0.0,355.825,0.1909686955173007,0.86,nominal,4073.999962611069,nan,pitch_program,12.925,0.0,0.0
0.18,15.634495840974317,0.0,21.3105043239851,88.217581257672,0.0,6.838983015142906,88.48227693518841,17.600546737031177,0.0,7.289578926436303,0.0,0.0,-2.3335120984104183,0.0,2.8566452282487247,0.0,4785.529040453736,0.26007968150339045,88.48227693518841,1.963993299380951,1.222495789176197,101069.25553209726,288.0114817218941,0.0,0.0,0.0,361.63,0.19408419689432013,0.86,nominal,4123.541323046496,nan,pitch_program,12.91,0.0,0.0
0.21,18.297863442161276,0.0,21.510956724407272,88.77892003956525,0.0,6.6817466807390975,89.03000832358205,17.594724211124348,0.0,7.359285631753385,0.0,0.0,-2.323557130502511,0.0,3.055161685913377,0.0,4844.86681227429,0.2616902433649699,89.03000832358205,1.9959819306857758,1.2224722523259142,101066.85241392258,288.0101787812913,0.0,0.0,0.0,367.435,0.19719969827133954,0.86,nominal,4174.121614809953,nan,pitch_program,12.895,0.0,0.0
0.24,20.978307018603957,0.0,21.70691360060242,89.34811921475605,0.0,6.531895873171558,89.58656188799867,17.588808220176208,0.0,7.422808220118241,0.0,0.0,-2.117419829050494,0.0,3.241573388317197,0.0,4905.537274481279,0.2633267306663312,89.58656188799867,2.0281852928279527,1.2224492436691259,101064.50323494132,288.00890506159607,0.0,0.0,0.0,373.24,0.20031519964835895,0.86,nominal,4225.748139717455,nan,pitch_program,12.88,0.0,0.0
0.27,23.676062846510696,0.0,21.898596715315435,89.92519426355803,0.0,6.389437157100474,90.15190220135783,17.58279876418676,0.0,7.46818925082731,0.0,0.0,-1.5127011027172719,0.0,3.403993669745866,0.0,4967.55442685779,0.2649890398604661,90.15190220135783,2.0604385276687354,1.222426737144875,101062.2053336374,288.0076591213504,0.0,0.0,0.0,379.045,0.20343070102537836,0.86,nominal,4278.434608739841,nan,pitch_program,12.865,0.0,0.0
0.3,26.391372762868812,0.0,22.086203930576847,90.51033054527056,0.0,6.2535738420471185,90.72611047108806,17.576695843155996,0.0,7.492430495991483,0.0,0.0,-0.8080415175259967,0.0,3.5400102326419933,0.0,5030.945398968597,0.2666774101683027,90.72611047108806,2.0926970041286777,1.2224047095004162,101059.95633527078,288.0064396744512,0.0,0.0,0.0,384.84999999999997,0.20654620240239774,0.86,nominal,4332.205232381829,nan,pitch_program,12.850000000000001,0.0,0.0
0.32999999999999996,29.124485321757398,0.0,22.26990568655918,91.10375196295278,0.0,6.123391866077745,91.30930702657189,17.570499457083923,0.0,7.500733917689299,0.0,0.0,-0.27678072374497176,0.0,3.6554739752862737,0.0,5095.742211502371,0.26839219573159356,91.30930702657189,2.1249999528224013,1.2223831407043637,101057.75419405075,288.00524561303735,0.0,0.0,0.0,390.655,0.20966170377941715,0.86,nominal,4387.087945437481,nan,pitch_program,12.835,0.0,0.0
0.36,31.875653822060055,0.0,22.44985509513773,91.70561667675528,0.0,5.998313619284915,91.90157722443764,17.56420960597054,0.0,7.4993535295205875,0.0,0.0,0.04601293895927256,0.0,3.7570615370390277,0.0,5161.973598434977,0.270133647850138,91.90157722443764,2.1573792686550592,1.2223620127613262,101055.59707210405,288.0040759418816,0.0,0.0,0.0,396.46,0.21277720515643656,0.86,nominal,4443.10781963837,nan,pitch_program,12.82,0.0,0.0
0.39,34.64513415250543,0.0,22.626197435914897,92.31601101484569,0.0,5.878078025905624,92.50296044436493,17.557826289815846,0.0,7.491360691038274,0.0,0.0,0.2664279498425086,0.0,3.848059663683777,0.0,5229.663643490299,0.271901882662952,92.50296044436493,2.18982240589363,1.2223413085968142,101053.48322562061,288.00292971666653,0.0,0.0,0.0,402.265,0.21589270653345596,0.86,nominal,4500.2860445707865,nan,pitch_program,12.805,0.0,0.0
0.42,37.43318398948645,0.0,22.799072911078383,92.93499456603422,0.0,5.762515838782921,93.11347809947297,17.551349508619843,0.0,7.477179561494418,0.0,0.0,0.47270432054168615,0.0,3.9290470560861745,0.0,5298.834805204961,0.2736969634885201,93.11347809947297,2.1999477440939788,1.222321011733689,101051.41097181679,288.001806026078,0.0,0.0,0.0,404.1773684210526,0.21691906078826353,0.86,nominal,4558.6424302539435,nan,pitch_program,12.79,0.0,0.0
0.44999999999999996,40.23986505268377,0.0,22.9685892619158,93.55603543991047,0.0,5.65054502791381,93.72651933335766,17.544841936796196,0.0,7.45683673332162,0.0,0.0,0.6780942795500566,0.0,4.000516966007756,0.0,5368.750092882846,0.2754994586761056,93.72651933335766,2.1989310429782276,1.222301109507047,101049.37901716167,288.00070416979753,0.0,0.0,0.0,404.14342105263154,0.21690084148196515,0.86,nominal,4617.5751290585,nan,pitch_program,12.775,0.0,0.0
0.48,43.06514219003184,0.0,23.134833618355696,94.1759045782691,0.0,5.541478547996556,94.33879895161456,17.538334911551736,0.0,7.431093866198037,0.0,0.0,0.8580955852212686,0.0,4.063590709963722,0.0,5439.036347493926,0.27729971182689406,94.33879895161456,2.197947622724307,1.2222815916727674,101047.3863153063,287.99962358148065,0.0,0.0,0.0,404.1094736842105,0.2168826221756668,0.86,nominal,4676.779709920024,nan,pitch_program,12.76,0.0,0.0
0.51,45.90898215698584,0.0,23.297886289086037,94.79466556513329,0.0,5.435089024344689,94.95034919529269,17.531828432886467,0.0,7.401172783901379,0.0,0.0,0.9973694325550668,0.0,4.119689622382324,0.0,5509.695606875685,0.2790978177513476,94.95034919529267,2.196999467155954,1.2222624487883387,101045.43190176737,287.9985637391209,0.0,0.0,0.0,404.0755263157895,0.21686440286936848,0.86,nominal,4736.258622730875,nan,pitch_program,12.745,0.0,0.0
0.54,48.771353198891305,0.0,23.457822496613396,95.41236806351547,0.0,5.331206917578612,95.56119372781917,17.525322500800385,0.0,7.3681208462159,0.0,0.0,1.1017312867349374,0.0,4.170020092122464,0.0,5580.7290065211755,0.2808938460383228,95.56119372781916,2.196086026499765,1.2222436720090917,101043.51487312118,287.99752415377196,0.0,0.0,0.0,404.0415789473684,0.2168461835630701,0.86,nominal,4796.0135283293075,nan,pitch_program,12.73,0.0,0.0
0.57,51.652224714193125,0.0,23.614713660722458,96.02905051006061,0.0,5.229705470302071,96.17134896199534,17.518817115293494,0.0,7.332583000652132,0.0,0.0,1.1845948901030352,0.0,4.21535600706965,0.0,5652.136902815701,0.2826878449589699,96.17134896199535,2.195201847682639,1.2222252529374702,101041.63437161317,287.99650436120527,0.0,0.0,0.0,404.0076315789474,0.21682796425677175,0.86,nominal,4856.045412305864,nan,pitch_program,12.715,0.0,0.0
0.6,54.5515670801127,0.0,23.768627945707962,96.64474553065239,0.0,5.130476166183476,96.78082777273778,17.51231227636579,0.0,7.294971830803902,0.0,0.0,1.2537057066273303,0.0,4.256224480124602,0.0,5723.919284860633,0.28447985238119805,96.78082777273778,2.194340832158145,1.2222071835587345,101039.78957859204,287.9955039183529,0.0,0.0,0.0,403.9736842105263,0.21680974495047337,0.86,nominal,4916.354927431943,nan,pitch_program,12.7,0.0,0.0
0.63,57.469351553761896,0.0,23.919630518719668,97.25948245497325,0.0,5.033419100390189,97.38964131389653,17.505807984017277,0.0,7.255674145983241,0.0,0.0,1.309922878706931,0.0,4.293118654279945,0.0,5796.075977398576,0.2862699011104668,97.38964131389653,2.1934996872523365,1.2221894562105946,101037.97971140852,287.9945224016283,0.0,0.0,0.0,403.9397368421053,0.21679152564417503,0.86,nominal,4976.942562251113,nan,pitch_program,12.685,0.0,0.0
0.6599999999999999,60.40555016119346,0.0,24.067783907423657,97.87328691438556,0.0,4.938446290133009,97.99779866500147,17.49930423824795,0.0,7.215096681704763,0.0,0.0,1.352582199149603,0.0,4.326541733172858,0.0,5868.606591892558,0.2880580178522109,97.99779866500147,2.192677581198822,1.2221720635411923,101036.20401912407,287.99355940460174,0.0,0.0,0.0,403.9057894736842,0.21677330633787664,0.86,nominal,5037.808604648818,nan,pitch_program,12.67,0.0,0.0
0.69,63.36013556453146,0.0,24.213148473216577,98.48618011126669,0.0,4.845485526430672,98.60530615994107,17.492801039057817,0.0,7.173608464744402,0.0,0.0,1.3829406257717776,0.0,4.356947413898725,0.0,5941.510437647208,0.28984422123973935,98.60530615994107,2.1918741154989263,1.2221549984535038,101034.461776834,287.9926145349241,0.0,0.0,0.0,403.8718421052631,0.21675508703157828,0.86,nominal,5098.953073922725,nan,pitch_program,12.655,0.0,0.0
0.72,66.3330809393864,0.0,24.355782841609084,99.09817916183128,0.0,4.7544789464169295,99.21216751609822,17.48629838644687,0.0,7.131500419493788,0.0,0.0,1.4036015715290808,0.0,4.384700707736687,0.0,6014.786527037289,0.2916285222149344,99.21216751609822,2.191088312551581,1.2221382540547994,101032.75228050652,287.99168741152954,0.0,0.0,0.0,403.8378947368421,0.21673686772527995,0.86,nominal,5160.3757294248335,nan,pitch_program,12.64,0.0,0.0
0.75,69.32435988135558,0.0,24.49574420947788,99.70929806563923,0.0,4.665378928959821,99.8183844854908,17.479796280415112,0.0,7.088998544596181,0.0,0.0,1.4167292282180757,0.0,4.410093835370578,0.0,6088.433645076068,0.2934109259430082,99.8183844854908,2.1903189993335377,1.2221218236205411,101031.07484329636,287.9907776626384,0.0,0.0,0.0,403.80394736842106,0.21671864841898159,0.86,nominal,5222.076130598512,nan,pitch_program,12.625,0.0,0.0
0.78,72.33394633458818,0.0,24.633088567784903,100.31954844108675,0.0,4.5781452769006865,100.42395736874722,17.473294720962542,0.0,7.046294433210169,0.0,0.0,1.4234704454301128,0.0,4.4333786231789185,0.0,6162.450405103445,0.2951914333238473,100.42395736874721,2.1895654241600684,1.2221057005682183,101029.42879287271,287.98988492430937,0.0,0.0,0.0,403.77,0.21670042911268322,0.86,nominal,5284.053684803248,nan,pitch_program,12.61,0.0,0.0
0.8099999999999999,75.36181452896518,0.0,24.767870900672953,100.92893981256668,0.0,4.492744429601722,101.02888519724657,17.466793708089163,0.0,7.003559182082852,0.0,0.0,1.4245084369511303,0.0,4.454781055748802,0.0,6236.835265806919,0.2969700415279057,101.02888519724657,2.1888273173392485,1.2220898784339573,101027.81346903075,287.9890088391456,0.0,0.0,0.0,403.73605263157896,0.21668220980638486,0.86,nominal,5346.307663267297,nan,pitch_program,12.595,0.0,0.0
0.84,78.40793892131087,0.0,24.900145377405067,101.53747974485638,0.0,4.4091492244038335,101.63316579650652,17.46029324179497,0.0,6.96094111032491,0.0,0.0,1.4206024574302893,0.0,4.474499300378256,0.0,6311.58653431192,0.2987467441830369,101.63316579650652,2.188104579531491,1.2220743508499698,101026.22822138856,287.98814905504685,0.0,0.0,0.0,403.7021052631579,0.2166639905000865,0.86,nominal,5408.837205575421,nan,pitch_program,12.58,0.0,0.0
0.87,81.47229414328378,0.0,25.029965521901794,102.14517406576341,0.0,4.327338149890878,102.23679592196055,17.45379332207997,0.0,6.918562919336976,0.0,0.0,1.4126064306635322,0.0,4.492701447293127,0.0,6386.702378617378,0.3005215317740635,102.23679592196054,2.1873970750085427,1.222059111524634,101024.6724073532,287.9873052241076,0.0,0.0,0.0,403.66815789473685,0.21664577119378817,0.86,nominal,5471.641331579662,nan,pitch_program,12.565,0.0,0.0
0.8999999999999999,84.5548549580005,0.0,25.15738434985544,102.75202715722443,0.0,4.247294265121591,102.8397714578048,17.447293948944157,0.0,6.876525170737841,0.0,0.0,1.4012583494973094,0.0,4.509529733570443,0.0,6462.180848584157,0.30229439222765137,102.8397714578048,2.186704660147781,1.222044154226385,101023.14539047555,287.9864770017259,0.0,0.0,0.0,403.6342105263158,0.2166275518874898,0.86,nominal,5534.718959981271,nan,pitch_program,12.55,0.0,0.0
0.9299999999999999,87.65559622405907,0.0,25.282454479561764,103.35804220195195,0.0,4.1690043235441445,103.4420875894827,17.44079512238753,0.0,6.8349121100850505,0.0,0.0,1.3871020827331493,0.0,4.52510697105739,0.0,6538.019894491194,0.30406531141962667,103.4420875894827,2.1860272703937995,1.222029472770693,101021.6465391204,287.9856640458828,0.0,0.0,0.0,403.6002631578947,0.21660933258119142,0.86,nominal,5598.068924657099,nan,pitch_program,12.535000000000002,0.0,0.0
0.96,90.77449286459533,0.0,25.405228226611733,103.96322135120893,0.0,4.092458234998988,104.0437389184264,17.434296842410095,0.0,6.79379517500601,0.0,0.0,1.3705645614532507,0.0,4.539540448792035,0.0,6614.21737902573,0.3058342735125203,104.04373891842638,2.1853649236635735,1.222015061008932,101020.17522532964,287.984866016527,0.0,0.0,0.0,403.56631578947366,0.21659111327489305,0.86,nominal,5661.68998545134,nan,pitch_program,12.520000000000001,0.0,0.0
0.99,93.91151984023054,0.0,25.525757686471476,104.56756585450694,0.0,4.017648661991417,104.64471954909071,17.427799109011847,0.0,6.753234162729324,0.0,0.0,1.3520337990210942,0.0,4.5529234060988735,0.0,6690.771086247652,0.3076012612116396,104.64471954909071,2.1847176654704743,1.2220009128186746,101018.7308238312,287.9840825750379,0.0,0.0,0.0,403.53236842105264,0.21657289396859472,0.86,nominal,5725.580836369959,nan,pitch_program,12.505,0.0,0.0
1.02,97.0666521258196,0.0,25.644094804371708,105.17107618630216,0.0,3.944570596674383,105.24502317628668,17.42130192219279,0.0,6.713278192407167,0.0,0.0,1.3318657313808422,0.0,4.565336299752226,0.0,6767.678730986995,0.3093662560219888,105.24502317628668,2.184085534141261,1.221987022095478,101017.3127111999,287.9833133837716,0.0,0.0,0.0,403.49842105263156,0.21655467466229633,0.86,nominal,5789.740114001853,nan,pitch_program,12.49,0.0,0.0
1.05,100.23986469085258,0.0,25.760291432606692,105.77375216776613,0.0,3.873220941166179,105.84464317152333,17.41480528195292,0.0,6.67396732113575,0.0,0.0,1.3103624271171355,0.0,4.576848711946746,0.0,6844.937968508323,0.3111292385022406,105.84464317152333,2.183468563900114,1.2219733827461465,101015.92026516945,287.98255810568804,0.0,0.0,0.0,403.46447368421053,0.216536455355998,0.86,nominal,5854.166406031122,nan,pitch_program,12.475,0.0,0.0
1.08,103.43113248295077,0.0,25.874399377381955,106.3755930699396,0.0,3.803598159175478,106.44357265677371,17.40830918829224,0.0,6.635334213538751,0.0,0.0,1.2877703020233158,0.0,4.587521262701793,0.0,6922.546402927971,0.31289018848171457,106.44357265677371,2.1828667942376905,1.2219599886832233,101014.5528640698,287.981816404047,0.0,0.0,0.0,403.43052631578945,0.21651823604969964,0.86,nominal,5918.858258623134,nan,pitch_program,12.46,0.0,0.0
1.1099999999999999,106.64043041385392,0.0,25.98647043750923,106.97659769677183,0.0,3.735702004242425,107.04180456364452,17.401813641210747,0.0,6.597405314854707,0.0,0.0,1.2642966689718815,0.0,4.5974069758082985,0.0,7000.501594053177,0.3146490852344261,107.04180456364453,2.1822802652669804,1.2219468338204404,101013.20988636215,287.9810879421562,0.0,0.0,0.0,403.3965789473684,0.21650001674340127,0.86,nominal,5983.814182436734,nan,pitch_program,12.445,0.0,0.0
1.14,109.86773334752851,0.0,26.09655643616298,107.57676445581974,0.0,3.6695332884584255,107.63933168381355,17.395318640708446,0.0,6.5602016468998166,0.0,0.0,1.2401223087351934,0.0,4.606552239101743,0.0,7078.801063338248,0.3164059076274501,107.63933168381355,2.1817090068632345,1.2219339120689752,101011.8907102567,287.98037238316493,0.0,0.0,0.0,403.3626315789474,0.21648179743710294,0.86,nominal,6049.032657843711,nan,pitch_program,12.43,0.0,0.0
1.17,113.11301609017846,0.0,26.20470924629905,108.17609142166508,0.0,3.6050936712022903,108.2361467147024,17.38882418678533,0.0,6.523739537439378,0.0,0.0,1.2154036896995846,0.0,4.614997681684659,0.0,7157.44229943709,0.31816063425525953,108.2361467147024,2.1811530335636573,1.2219212173344651,101010.59471340751,287.979669389899,0.0,0.0,0.0,403.3286842105263,0.21646357813080455,0.86,nominal,6114.51213975351,nan,pitch_program,12.415,0.0,0.0
1.2,116.37625338193246,0.0,26.31098081046406,108.77457639179966,0.0,3.542385472166925,108.83224230001365,17.38233027944141,0.0,6.488031347901022,0.0,0.0,1.1902730231379617,0.0,4.622779031463022,0.0,7236.422763277283,0.3199132435589524,108.83224230001363,2.180612345043518,1.2219087435146718,101009.32127267377,287.97897862473195,0.0,0.0,0.0,403.2947368421053,0.21644535882450622,0.86,nominal,6180.2510619893765,nan,pitch_program,12.4,0.0,0.0
1.23,119.65741988995612,0.0,26.41542315588835,109.37221693412222,0.0,3.481411514143129,109.42761106418936,17.375836918676672,0.0,6.453086102063164,0.0,0.0,1.164841564037732,0.0,4.629927853490651,0.0,7315.739892502518,0.3216637139275955,109.42761106418936,2.180086926251481,1.221896484497701,101008.06976393773,287.9782997494867,0.0,0.0,0.0,403.26078947368416,0.2164271395182078,0.86,nominal,6246.247841099442,nan,pitch_program,12.385,0.0,0.0
1.26,122.95649020277251,0.0,26.51808840561353,109.96901042721309,0.0,3.422174990839262,110.02224564154481,17.369344104491127,0.0,6.418909979533571,0.0,0.0,1.1392041180967327,0.0,4.636472136222261,0.0,7395.391105352717,0.3234120237839045,110.0222456415448,2.17957674547574,1.221884434160686,101006.83956197024,287.9776324253635,0.0,0.0,0.0,403.22684210526313,0.21640892021190947,0.86,nominal,6312.500879667124,nan,pitch_program,12.37,0.0,0.0
1.29,126.27343882562866,0.0,26.61902878618172,110.56495409520504,0.0,3.364679352273034,110.61613870144993,17.36285183688477,0.0,6.3855067239778345,0.0,0.0,1.1134418833947626,0.0,4.642436780201044,0.0,7475.373804139761,0.32515815165829487,110.61613870144994,2.17908175255092,1.2218725863688837,101005.63004033807,287.9769763128898,0.0,0.0,0.0,403.1928947368421,0.21639070090561113,0.86,nominal,6379.008569255213,nan,pitch_program,12.355,0.0,0.0
1.3199999999999998,129.6082401767739,0.0,26.7182966323221,111.16004503817518,0.0,3.308928204679428,111.20928297023076,17.3563601158576,0.0,6.352878007986158,0.0,0.0,1.087623895782788,0.0,4.647844033147536,0.0,7555.685378389174,0.3269020762532808,111.20928297023076,2.1786018784715813,1.2218609349751093,101004.44057134601,287.9763310718899,0.0,0.0,0.0,403.158947368421,0.21637248159931274,0.86,nominal,6445.769293045791,nan,pitch_program,12.34,0.0,0.0
1.3499999999999999,132.9608685845241,0.0,26.815944389061368,111.75428025833928,0.0,3.25492522464219,111.80167124993012,17.34986894140962,0.0,6.3210237540959895,0.0,0.0,1.0618084903553968,0.0,4.652713871526646,0.0,7636.323207649887,0.32864377649863413,111.80167124993012,2.1781370355892946,1.2218494738194883,101003.27052601133,287.9756963614711,0.0,0.0,0.0,403.125,0.2163542622930144,0.86,nominal,6512.781428181715,nan,pitch_program,12.325,0.0,0.0
1.38,136.33129828499804,0.0,26.912024611647357,112.34765668246494,0.0,3.2026740861996332,112.39329643418874,17.343378313540832,0.0,6.289942403959808,0.0,0.0,1.0360450299463368,0.0,4.657064321603709,0.0,7717.284663991207,0.3303832315980689,112.39329643418874,2.177687117553191,1.221838196729454,101002.11927406333,287.97507184002427,0.0,0.0,0.0,403.0910526315789,0.21633604298671602,0.86,nominal,6580.043347829524,nan,pitch_program,12.31,0.0,0.0
1.41,139.71950342043206,0.0,27.006589963604654,112.94017118113359,0.0,3.152178398576526,112.98415152170773,17.33688823225123,0.0,6.259631143399432,0.0,0.0,1.0103753755773202,0.0,4.66091172926623,0.0,7798.567114235815,0.33212042106881146,112.98415152170774,2.1772519991526367,1.2218270975199723,101000.98618396602,287.9744571652366,0.0,0.0,0.0,403.0571052631579,0.2163178236804177,0.86,nominal,6647.553423006689,nan,pitch_program,12.295,0.0,0.0
1.44,143.12545803799318,0.0,27.099693213185937,113.5318205853708,0.0,3.1034416527094413,113.57422962767828,17.33039869754082,0.0,6.230086096087484,0.0,0.0,0.9848349322208395,0.0,4.664270992557989,0.0,7880.167921969555,0.3338553247751864,113.57422962767829,2.176831536437401,1.2218161699939467,100999.87062295926,287.9738519941143,0.0,0.0,0.0,403.02315789473687,0.21629960437411935,0.86,nominal,6715.310024209387,nan,pitch_program,12.28,0.0,0.0
1.47,146.54913608902228,0.0,27.191387228453472,114.12260170096992,0.0,3.0564671755845283,114.1635239934089,17.323909709409595,0.0,6.201302491337401,0.0,0.0,0.9594535118479072,0.0,4.6671557631303004,0.0,7962.0844493496825,0.3355879229569003,114.16352399340889,2.1764255670682626,1.221805407942795,100998.77195711755,287.973255983015,0.0,0.0,0.0,402.9892105263158,0.21628138506782096,0.86,nominal,6783.311522860738,nan,pitch_program,12.265,0.0,0.0
1.5,149.9905114286457,0.0,27.281724971199978,114.71251132078055,0.0,3.011258091550151,114.75202799434149,17.31742126785756,0.0,6.1732748071243675,0.0,0.0,0.9342561590644884,0.0,4.669578618351812,0.0,8044.314058728869,0.33731819625258336,114.75202799434149,2.1760339106861344,1.2217948051471534,100997.68955142164,287.97266878768716,0.0,0.0,0.0,402.9552631578947,0.2162631657615226,0.86,nominal,6851.556292595885,nan,pitch_program,12.25,0.0,0.0
1.53,153.4495578157032,0.0,27.37075948988832,115.30154623525011,0.0,2.9678172896114843,115.33973514667024,17.310933372884715,0.0,6.145996891183308,0.0,0.0,0.9092638818765316,0.0,4.67155120759213,0.0,8126.854114116766,0.3390461257192186,115.33973514667022,2.1756563692671467,1.221784355377701,100996.62276984235,287.9720900633157,0.0,0.0,0.0,402.9213157894737,0.21624494645522424,0.86,nominal,6920.0427104035325,nan,pitch_program,12.235,0.0,0.0
1.56,156.92624891294759,0.0,27.45854391176254,115.8897032414796,0.0,2.9261473958072286,115.92663911276043,17.30444602449106,0.0,6.119462064426748,0.0,0.0,0.8844942410275703,0.0,4.673084377515966,0.0,8209.70198249983,0.340771692848041,115.92663911276041,2.1752927275370664,1.221774052396076,100995.57097543424,287.97151946457353,0.0,0.0,0.0,402.8873684210526,0.21622672714892588,0.86,nominal,6988.769157642384,nan,pitch_program,12.220000000000002,0.0,0.0
1.5899999999999999,160.42055828747746,0.0,27.54513143426267,116.47697915099586,0.0,2.8862507500044163,116.51273370552003,17.297959222676592,0.0,6.093663209679991,0.0,0.0,0.859961839421463,0.0,4.674188279837149,0.0,8292.855035034892,0.3424948795773519,116.51273370552003,2.1749427534513592,1.221763889955882,100994.53353043793,287.9709566456773,0.0,0.0,0.0,402.8534210526316,0.21620850784262752,0.86,nominal,7057.734020946524,nan,pitch_program,12.205000000000002,0.0,0.0
1.6199999999999999,163.9324594113697,0.0,27.630575315859673,117.06337079640834,0.0,2.8481293865666997,117.09801289185062,17.291472967441315,0.0,6.068592847439143,0.0,0.0,0.8356787546947728,0.0,4.674872463611581,0.0,8376.31064812915,0.3442156683026261,117.09801289185062,2.17460619869421,1.2217538618037562,100993.50979638906,287.97040126044686,0.0,0.0,0.0,402.8194736842105,0.21619028853632916,0.86,nominal,7126.935693031282,nan,pitch_program,12.19,0.0,0.0
1.65,167.46192566248283,0.0,27.714928866410965,117.6488750371043,0.0,2.8117850183763813,117.68247079529623,17.284987258785225,0.0,6.044243200320858,0.0,0.0,0.8116549161588775,0.0,4.6751459540835825,0.0,8460.06620441892,0.34593404188425597,117.68247079529624,2.1742827991794322,1.2217439616805001,100992.49913423351,287.9698529623683,0.0,0.0,0.0,402.78552631578947,0.21617206923003082,0.86,nominal,7196.372573410664,nan,pitch_program,12.175,0.0,0.0
1.68,171.00893032540642,0.0,27.798245437123278,118.23348876411968,0.0,2.777219023743763,118.26610169799739,17.278502096708323,0.0,6.020606248019011,0.0,0.0,0.7878984212361214,0.0,4.675017320205667,0.0,8544.11909365833,0.34764998365325106,118.26610169799739,2.173972275564823,1.2217341833222457,100991.50090444644,287.9693114046587,0.0,0.0,0.0,402.75157894736844,0.21615384992373246,0.86,nominal,7266.043069036495,nan,pitch_program,12.16,0.0,0.0
1.71,174.57344659253542,0.0,27.88057841019789,118.81720890429987,0.0,2.7444324358204857,118.84890004204003,17.27201748121061,0.0,5.997673774247122,0.0,0.0,0.7644158026010213,0.0,4.674494732562454,0.0,8628.466713527652,0.34936347741515683,118.84890004204001,2.1736743337813054,1.2217245204616682,100990.51446715574,287.9687762403337,0.0,0.0,0.0,402.71763157894736,0.2161356306174341,0.86,nominal,7335.945594867778,nan,pitch_program,12.145,0.0,0.0
1.74,178.15544756525082,0.0,27.961981188223685,119.40003242384734,0.0,2.7134259341931597,119.43086043027634,17.265533412292086,0.0,5.975437406758839,0.0,0.0,0.7412122589128392,0.0,4.673586013003569,0.0,8713.106470369234,0.351074507452417,119.43086043027634,2.1733886655660593,1.221714966829233,100989.5391822693,287.9682471222765,0.0,0.0,0.0,402.68368421052634,0.21611741131113574,0.86,nominal,7406.078574377567,nan,pitch_program,12.13,0.0,0.0
1.77,181.75490625519106,0.0,28.04250718337473,119.98195633134128,0.0,2.6841998383681656,120.011977626686,17.259049889952752,0.0,5.95388865140974,0.0,0.0,0.7182918534367642,0.0,4.672298677135964,0.0,8798.035779858259,0.3527830585253841,120.011977626686,2.1731149489944963,1.221705516154449,100988.57440960284,287.967723703308,0.0,0.0,0.0,402.64973684210526,0.21609919200483738,0.86,nominal,7476.440440003932,nan,pitch_program,12.115,0.0,0.0
1.7999999999999998,185.37179558560018,0.0,28.122209806461537,120.56297768030377,0.0,2.656754102893547,120.59224655633822,17.252566914192606,0.0,5.9330189211599915,0.0,0.0,0.6956576826829669,0.0,4.670639970737924,0.0,8883.252067615193,0.3544891158721536,120.59224655633824,2.1728528490126906,1.221696162167157,100987.6195090112,287.967205636258,0.0,0.0,0.0,402.6157894736842,0.216080972698539,0.86,nominal,7547.029633550869,nan,pitch_program,12.1,0.0,0.0
1.8299999999999998,189.00608839274145,0.0,28.201142455878596,121.14309357137566,0.0,2.631088313901942,121.1716623050069,17.24608448501165,0.0,5.912819560771551,0.0,0.0,0.6733120199217522,0.0,4.668616900986423,0.0,8968.752769765251,0.35619266520737686,121.1716623050069,2.172602017969682,1.2216868985988185,100986.67384051991,287.96669257403676,0.0,0.0,0.0,402.58184210526315,0.21606275339224065,0.86,nominal,7617.844606544257,nan,pitch_program,12.085,0.0,0.0
1.8599999999999999,192.65775742736614,0.0,28.27935850648526,121.72230115415661,0.0,2.607201686888738,121.75022011848402,17.23960260240988,0.0,5.89328186781357,0.0,0.0,0.6512564382433318,0.0,4.666236263229599,0.0,9054.535333450141,0.3578936927201849,121.75022011848402,2.1723620961470336,1.2216777191838206,100985.73676445821,287.96618416970784,0.0,0.0,0.0,402.54789473684207,0.2160445340859423,0.86,nominal,7688.88382054728,nan,pitch_program,12.07,0.0,0.0
1.89,196.32677535622884,0.0,28.35691129845214,122.30059762875646,0.0,2.5850930655627327,122.32791540163109,17.233121266387304,0.0,5.874397110507802,0.0,0.0,0.6294919158911091,0.0,4.6635046639386175,0.0,9140.597217296248,0.3595921850713409,122.32791540163109,2.1721327122843563,1.2216686176607767,100984.8076415917,287.96568007656003,0.0,0.0,0.0,402.51394736842104,0.21602631477964393,0.86,nominal,7760.145747439272,nan,pitch_program,12.055,0.0,0.0
1.92,200.0131147636418,0.0,28.433854126100968,122.87798024709853,0.0,2.56476092162766,122.90474371720339,17.226640476943913,0.0,5.8561565428822755,0.0,0.0,0.6080189259862137,0.0,4.660428540395686,0.0,9226.935891843363,0.3612881293897225,122.90474371720339,2.1719134841009335,1.2216595877738377,100983.88583325614,287.9651799481803,0.0,0.0,0.0,402.48,0.2160080954733456,0.86,nominal,7831.62886966145,nan,pitch_program,12.040000000000001,0.0,0.0
1.95,203.7167481530621,0.0,28.510240226762146,123.45444631400989,0.0,2.546203355372621,123.48070078447749,17.220160234079714,0.0,5.838551417628555,0.0,0.0,0.5868375130744781,0.0,4.657014177589325,0.0,9313.548839937252,0.36298151326822575,123.48070078447749,2.1717040188130157,1.2216506232739943,100982.97070149033,287.96468343852604,0.0,0.0,0.0,402.44605263157894,0.2159898761670472,0.86,nominal,7903.331680432607,nan,pitch_program,12.025,0.0,0.0
1.98,207.43764794870594,0.0,28.586122769671118,124.02999318812857,0.0,2.529418096965682,124.05578247770829,17.2136805377947,0.0,5.821572996996839,0.0,0.0,0.5659473585318867,0.0,4.653267722716449,0.0,9400.43355708913,0.36467232475916483,124.05578247770829,2.171503913646238,1.221641717920377,100982.06160916854,287.9641902019971,0.0,0.0,0.0,402.4121052631579,0.21597165686074887,0.86,nominal,7975.252683937433,nan,pitch_program,12.01,0.0,0.0
2.01,211.17578649718556,0.0,28.661554844921877,124.60461828265365,0.0,2.514402508358681,124.62998482443888,17.20720138808888,0.0,5.805212562015087,0.0,0.0,0.5453478364305158,0.0,4.649195197633817,0.0,9487.587551804754,0.3663605523692396,124.62998482443886,2.1713127563427674,1.2216328654815496,100981.15792013283,287.96369989350796,0.0,0.0,0.0,402.37815789473683,0.2159534375544505,0.86,nominal,8047.390395489885,nan,pitch_program,11.995000000000001,0.0,0.0
2.04,214.93113606916435,0.0,28.736589452493572,125.17831906596032,0.0,2.501153585723211,125.20330400368331,17.200722784962245,0.0,5.7894614202802535,0.0,0.0,0.5250380611344033,0.0,4.644802509555609,0.0,9575.008345885442,0.3680461850541275,125.2033040036833,2.1711301256632405,1.221624059736798,100980.2589993241,287.96321216855875,0.0,0.0,0.0,402.3442105263158,0.21593521824815215,0.86,nominal,8119.743341673668,nan,pitch_program,11.98,0.0,0.0
2.07,218.70366886102732,0.0,28.811279491364026,125.75109306209939,0.0,2.4896679623485016,125.77573634400049,17.1942447284148,0.0,5.774310912531992,0.0,0.0,0.5050169278846675,0.0,4.640095460249419,0.0,9662.693474703154,0.36972921221275434,125.77573634400049,2.1709555918833208,1.221615294477399,100979.3642129119,287.96272668330613,0.0,0.0,0.0,402.3102631578947,0.2159169989418538,0.86,nominal,8192.310060461748,nan,pitch_program,11.965,0.0,0.0
2.1,222.49335699656325,0.0,28.885677748722255,126.32293785119705,0.0,2.479941911940981,126.34727832147392,17.187767218446545,0.0,5.759752418187557,0.0,0.0,0.4852831474255189,0.0,4.635079753945537,0.0,9750.64048745152,0.37140962368128766,126.34727832147392,2.1707887172847125,1.2216065635078905,100978.4729284238,287.96224309463327,0.0,0.0,0.0,402.27631578947364,0.2158987796355554,0.86,nominal,8265.089101316504,nan,pitch_program,11.95,0.0,0.0
2.13,226.30017252865633,0.0,28.959836889290447,126.89385106976962,0.0,2.471971352273018,126.91792655761176,17.18129025505748,0.0,5.7457773599916715,0.0,0.0,0.465835275505597,0.0,4.629761004144586,0.0,9838.846947374454,0.37308740972689486,126.91792655761175,2.1706290566405433,1.2215978606473197,100977.58451487296,287.9617610602196,0.0,0.0,0.0,402.2423684210526,0.21588056032925707,0.86,nominal,8338.079025272027,nan,pitch_program,11.935,0.0,0.0
2.16,230.12408744098528,0.0,29.0338094447645,127.46383041096482,0.0,2.465751849135178,127.48767781717852,17.1748138382476,0.0,5.73237720791317,0.0,0.0,0.4466717379861411,0.0,4.624144739482398,0.0,9927.310431973847,0.3747625610412997,127.48767781717852,2.1704761576951337,1.22158917973048,100976.69834288418,287.961280238609,0.0,0.0,0.0,402.2084210526316,0.2158623410229587,0.86,nominal,8411.278404999855,nan,pitch_program,11.92,0.0,0.0
2.19,233.9650736497275,0.0,29.10764780338107,128.03287362474003,0.0,2.4612786205522754,128.05652900596922,17.168337968016914,0.0,5.719543482399889,0.0,0.0,0.42779085223126806,0.0,4.618236408786905,0.0,10016.028533197634,0.37643506873416804,128.05652900596922,2.170329561637987,1.2215805146091387,100975.81378481913,287.960800289278,0.0,0.0,0.0,402.1744736842105,0.21584412171666034,0.86,nominal,8484.685824859347,nan,pitch_program,11.905,0.0,0.0
2.2199999999999998,237.8231030052671,0.0,29.181404199617923,128.60097851798653,0.0,2.4585465412284764,128.62447716853515,17.161862644365414,0.0,5.707267757088177,0.0,0.0,0.4091908452890543,0.0,4.612041385443717,0.0,10104.998857609482,0.37810492432635207,128.62447716853515,2.170188803572044,1.2215718591532385,100974.93021489923,287.9603208727025,0.0,0.0,0.0,402.1405263157895,0.215825902410362,0.86,nominal,8558.299880933693,nan,pitch_program,11.890000000000002,0.0,0.0
2.25,241.6981472939053,0.0,29.25513070403366,129.16814295460694,0.0,2.457550147191237,129.19151948586926,17.155387867293104,0.0,5.695541661047879,0.0,0.0,0.39086986937418217,0.0,4.605564971168774,0.0,10194.21902654107,0.3797721197430142,129.19151948586926,2.170053412975967,1.2215632072520886,100974.04700932701,287.95984165042375,0.0,0.0,0.0,402.1065789473684,0.21580768310406362,0.86,nominal,8632.11918105258,nan,pitch_program,11.875,0.0,0.0
2.28,245.59017823957186,0.0,29.328879213251888,129.73436485555246,0.0,2.458283640607511,129.75765327305857,17.148913636799982,0.0,5.684356880633615,0.0,0.0,0.3728260149927578,0.0,4.598812399274084,0.0,10283.68667622815,0.38143664730665333,129.75765327305857,2.169922914160539,1.221554552815549,100973.16354640694,287.95936228511385,0.0,0.0,0.0,402.0726315789474,0.21578946379776529,0.86,nominal,8706.14234480228,nan,pitch_program,11.86,0.0,0.0
2.31,249.4991675055366,0.0,29.40270144009436,130.29964219882527,0.0,2.460740894749111,130.32287597690964,17.14243995288605,0.0,5.673705161001539,0.0,0.0,0.3550573220917838,0.0,4.591788837498997,0.0,10373.39945793085,0.383098499730052,130.32287597690964,2.1697968267190153,1.2215458897751728,100972.27920666224,287.95888244063934,0.0,0.0,0.0,402.03868421052636,0.21577124449146692,0.86,nominal,8780.368003523989,nan,pitch_program,11.845,0.0,0.0
2.34,253.42508669612013,0.0,29.47664890386697,130.8639730194508,0.0,2.464915459086908,130.88718517355315,17.135966815551306,0.0,5.663578307341983,0.0,0.0,0.33756178953065347,0.0,4.584499390468849,0.0,10463.355038039575,0.38475767010916107,130.88718517355315,2.169674665971268,1.2215372120853616,100971.39337295252,287.95840178212484,0.0,0.0,0.0,402.0047368421053,0.21575302518516856,0.86,nominal,8854.794800301104,nan,pitch_program,11.83,0.0,0.0
2.37,257.3679073584028,0.0,29.550772920801847,131.4273554094237,0.0,2.4708005644959585,131.45057856603177,17.129494224795753,0.0,5.653968185872238,0.0,0.0,0.32033738307584864,0.0,4.576949101835307,0.0,10553.551098166612,0.38641415191593553,131.45057856603177,2.1694450897903548,1.2215285137244738,100970.50543058716,287.95791997601475,0.0,0.0,0.0,401.9707894736842,0.21573480587887017,0.86,nominal,8929.421389936026,nan,pitch_program,11.815,0.0,0.0
2.4,261.3276012351875,0.0,29.625122056771026,131.9897958928222,0.0,2.4783045323060153,132.0130607674245,17.123022180619387,0.0,5.647922666286344,0.0,0.0,0.20151731971676554,0.0,4.572235675700488,0.0,10643.986432033835,0.3880679589269381,132.0130607674245,2.1694336953482294,1.22151978899375,100969.61479783991,287.957436706631,0.0,0.0,0.0,401.9368421052631,0.2157165865725718,0.86,nominal,9004.24730980989,nan,pitch_program,11.8,0.0,0.0
2.4299999999999997,265.30413807872213,0.0,29.699752264600846,132.55122811782175,0.0,2.4876735943273194,132.57456994256,17.116550683022208,0.0,5.645935642509309,0.0,0.0,0.06623412590782865,0.0,4.570755361120401,0.0,10734.649079073495,0.38971890962222644,132.57456994256,2.1696845026523057,1.2215110313277175,100968.7208045134,287.95695161028004,0.0,0.0,0.0,401.9028947368421,0.21569836726627348,0.86,nominal,9079.263373273016,nan,pitch_program,11.785,0.0,0.0
2.46,269.2974853372947,0.0,29.77472811483954,133.11157528575254,0.0,2.4991950079565086,133.13503464806834,17.11007973200422,0.0,5.645931905671225,0.0,0.0,0.00012456126939179097,0.0,4.570319181520189,0.0,10825.525339261096,0.39136679427895327,133.13503464806834,2.169943574636311,1.2215022331497931,100967.82267719958,287.9564642672535,0.0,0.0,0.0,401.86894736842106,0.21568014795997512,0.86,nominal,9154.45906283857,nan,pitch_program,11.77,0.0,0.0
2.4899999999999998,273.3076097262234,0.0,29.850115095082675,133.6708129642897,0.0,2.512899341437844,133.69443107936215,17.10360932756542,0.0,5.648037573846733,0.0,0.0,-0.07018893919150944,0.0,4.571051761239485,0.0,10916.609097625507,0.3930115432225424,133.69443107936215,2.1702835608093736,1.2214933867759485,100966.91963152771,287.9559742518819,0.0,0.0,0.0,401.835,0.21566192865367675,0.86,nominal,9229.83008201435,nan,pitch_program,11.755,0.0,0.0
2.52,277.33447699668494,0.0,29.925981318822398,134.22890901538463,0.0,2.528874124657492,134.25272891006261,17.09713946970581,0.0,5.6525298968313225,0.0,0.0,-0.14974409956302626,0.0,4.573204468242317,0.0,11007.893103819079,0.39465306762301827,134.25272891006261,2.1707602124155225,1.2214844842141945,100966.01085169573,287.9554811214276,0.0,0.0,0.0,401.80105263157895,0.2156437093473784,0.86,nominal,9305.371234599612,nan,pitch_program,11.74,0.0,0.0
2.55,281.3780516796996,0.0,30.002398919929185,134.78582276715426,0.0,2.54725337022627,134.80989028536015,17.090670158425386,0.0,5.658791041189469,0.0,0.0,-0.20870481214583547,0.0,4.576114146780421,0.0,11099.3687829074,0.3962912565422293,134.80989028536015,2.1713009945369133,1.2214755170009546,100965.09547376745,287.95498440702045,0.0,0.0,0.0,401.7671052631579,0.21562549004108003,0.86,nominal,9381.076284743545,nan,pitch_program,11.725000000000001,0.0,0.0
2.58,285.43829754892977,0.0,30.079441834289405,135.3415289743387,0.0,2.568097145340687,135.3658915238978,17.084201393724154,0.0,5.666622379786821,0.0,0.0,-0.2610446203182013,0.0,4.5795689569887275,0.0,11191.029800760789,0.3979260407197011,135.3658915238978,2.17190352576357,1.221466476461396,100964.1726122477,287.95448362807707,0.0,0.0,0.0,401.73315789473685,0.2156072707347817,0.86,nominal,9456.940852294068,nan,pitch_program,11.71,0.0,0.0
2.61,289.5151777201406,0.0,30.157185534107338,135.8960057070287,0.0,2.5914566605977383,135.92071223602582,17.07773317560211,0.0,5.676030962791105,0.0,0.0,-0.31361943418083554,0.0,4.583566656873925,0.0,11282.870306127248,0.399557360583387,135.9207122360258,2.172585907953993,1.2214573537406164,100963.24136326634,287.9539782940283,0.0,0.0,0.0,401.6992105263158,0.21558905142848334,0.86,nominal,9532.960970892322,nan,pitch_program,11.695,0.0,0.0
2.6399999999999997,293.6086546065733,0.0,30.23570738112302,136.4492295477559,0.0,2.617394900522726,136.4743309206587,17.071265504059255,0.0,5.686792939934839,0.0,0.0,-0.3587325725124715,0.0,4.58786924453227,0.0,11374.884207631947,0.40118515330776994,136.4743309206587,2.1733272324222472,1.2214481397622015,100962.30080034798,287.9534679020227,0.0,0.0,0.0,401.6652631578947,0.21557083212218495,0.86,nominal,9609.132499909821,nan,pitch_program,11.68,0.0,0.0
2.67,297.71869007395964,0.0,30.31508594380034,137.00118224621264,0.0,2.6459520892439694,137.0267309663284,17.06479837909559,0.0,5.698760526242466,0.0,0.0,-0.3989195450379335,0.0,4.592324510217339,0.0,11467.066175387856,0.40280937045182347,137.02673096632842,2.1741197967766333,1.221438825308364,100961.34998259295,287.95295194136526,0.0,0.0,0.0,401.63131578947366,0.21555261281588659,0.86,nominal,9685.45193723004,nan,pitch_program,11.665,0.0,0.0
2.6999999999999997,301.845245528124,0.0,30.39540068095443,137.55184847214525,0.0,2.6771579051363283,137.5778986340213,17.058331800711112,0.0,5.711870475208696,0.0,0.0,-0.4369983007809,0.0,4.5968692091077274,0.0,11559.41131906557,0.40442997202796566,137.5778986340213,2.1749658954859887,1.221429401057076,100960.38795846811,287.9524298955738,0.0,0.0,0.0,401.59736842105264,0.21553439350958825,0.86,nominal,9761.916152364402,nan,pitch_program,11.65,0.0,0.0
2.73,305.9882819390618,0.0,30.476731914919466,138.10121369792552,0.0,2.711041132167802,138.12782112543582,17.051865768905824,0.0,5.726009831830062,0.0,0.0,-0.47131188977079935,0.0,4.601390705651966,0.0,11651.914871845942,0.40604692082338134,138.12782112543582,2.175857330858604,1.2214198575852209,100959.41376612871,287.951901242553,0.0,0.0,0.0,401.56342105263155,0.21551617420328986,0.86,nominal,9838.522127463642,nan,pitch_program,11.635,0.0,0.0
2.76,310.1477599127482,0.0,30.559160547510466,138.6492657895473,0.0,2.7476210863667228,138.6764880057711,17.045400283679726,0.0,5.741085209272921,0.0,0.0,-0.5025125843276386,0.0,4.6057997978059,0.0,11744.572435042553,0.40766018658126785,138.6764880057711,2.1767885684326966,1.2214101854019426,100958.42643682315,287.9513654564412,0.0,0.0,0.0,401.52947368421053,0.21549795489699153,0.86,nominal,9915.267154590632,nan,pitch_program,11.620000000000001,0.0,0.0
2.79,314.3236397471545,0.0,30.642767856973343,139.19599448020995,0.0,2.786910315429271,139.22389072440436,17.038935345032815,0.0,5.757033142031614,0.0,0.0,-0.5315977620552697,0.0,4.6100398791042165,0.0,11837.379904873245,0.40926974459090437,139.22389072440436,2.1777574679815084,1.2214003749724704,100957.42499732517,287.95082200892966,0.0,0.0,0.0,401.49552631578945,0.21547973559069317,0.86,nominal,9992.14877362503,nan,pitch_program,11.605,0.0,0.0
2.82,318.51588146589137,0.0,30.727635395532705,139.74139062456135,0.0,2.8289179519787164,139.77002193054585,17.032470952965095,0.0,5.773782644131611,0.0,0.0,-0.5583167406426317,0.0,4.61404806451326,0.0,11930.333362159092,0.41087557367546096,139.77002193054585,2.178759187851086,1.2213904167301546,100956.40847116285,287.950270369929,0.0,0.0,0.0,401.4615789473684,0.2154615162843948,0.86,nominal,10069.164680884236,nan,pitch_program,11.59,0.0,0.0
2.85,322.7244448614969,0.0,30.813844830099235,140.28544652018428,0.0,2.8736478188843173,140.31487575148424,17.026007107476563,0.0,5.791271818314462,0.0,0.0,-0.5829724772881577,0.0,4.6177725522155475,0.0,12023.429124291313,0.4124776570092083,140.31487575148424,2.1797896873174185,1.2213803010951705,100955.37588052795,287.9497100086043,0.0,0.0,0.0,401.4276315789474,0.21544329697809647,0.86,nominal,10146.312769980323,nan,pitch_program,11.575,0.0,0.0
2.88,326.9492895323329,0.0,30.901477812007833,140.82815569453268,0.0,2.9210993969532546,140.85844759193685,17.01954380856722,0.0,5.809450101142377,0.0,0.0,-0.6059427660134099,0.0,4.6211744358063696,0.0,12116.66371586214,0.4140759815270608,140.85844759193685,2.1808459578713095,1.221370018489804,100954.32624783684,287.9491403942219,0.0,0.0,0.0,401.3936842105263,0.21542507767179808,0.86,nominal,10223.591106390335,nan,pitch_program,11.56,0.0,0.0
2.9099999999999997,331.1903749114832,0.0,30.990615880878764,141.36951263834317,0.0,2.9712689623643183,141.40073388370155,17.013081056237066,0.0,5.828268070996754,0.0,0.0,-0.6272656674511203,0.0,4.624217020427675,0.0,12210.033829849779,0.41567053718816693,141.40073388370155,2.181924340270843,1.2213595593497482,100953.25859688377,287.9485609967743,0.0,0.0,0.0,401.3597368421053,0.21540685836549975,0.86,nominal,10300.99789465291,nan,pitch_program,11.545,0.0,0.0
2.94,335.44766029646127,0.0,31.081340359969328,141.90951283260176,0.0,3.024149303018821,141.9417320994545,17.006618850486102,0.0,5.84768176264989,0.0,0.0,-0.6471230612957655,0.0,4.626870232923769,0.0,12303.536333590824,0.417261317015946,141.9417320994545,2.1830215477062906,1.2213489141363891,100952.1719540952,287.94797128766015,0.0,0.0,0.0,401.3257894736842,0.21538863905920136,0.86,nominal,10378.531482137749,nan,pitch_program,11.53,0.0,0.0
2.9699999999999998,339.7211048753044,0.0,31.173732266709067,142.4481526281046,0.0,3.0797302246578946,142.4814406349699,17.000157191314326,0.0,5.867652299550287,0.0,0.0,-0.6656845700860149,0.0,4.62911002901128,0.0,12397.168251873658,0.41884831675138995,142.48144063496989,2.1841346112701507,1.2213380733473183,100951.06534960336,287.94737074026636,0.0,0.0,0.0,401.29184210526313,0.215370419752903,0.86,nominal,10456.19034424155,nan,pitch_program,11.515,0.0,0.0
3.0,344.01066774936515,0.0,31.267872236406124,142.98542913536,0.0,3.1379989899018614,143.01985870040454,16.99369607872174,0.0,5.888143124153616,0.0,0.0,-0.6830274940575882,0.0,4.6309154307127365,0.0,12490.926751116016,0.4204315345330656,143.01985870040454,2.1852604560400595,1.2213270275252863,100949.9378181606,287.94675883046335,0.0,0.0,0.0,401.2578947368421,0.21535220044660466,0.86,nominal,10533.973070608992,nan,pitch_program,11.5,0.0,0.0
3.03,348.3163079551334,0.0,31.363840448253168,143.52134019227532,0.0,3.198940394901456,143.55698628153544,16.98723551270834,0.0,5.909121068815975,0.0,0.0,-0.6992648298902301,0.0,4.632269554107125,0.0,12584.809135360041,0.4220109707827559,143.55698628153544,2.1863962117393623,1.2213157672669013,100948.78840002732,287.9461350370863,0.0,0.0,0.0,401.223947368421,0.21533398114030627,0.86,nominal,10611.87836105034,nan,pitch_program,11.485,0.0,0.0
3.06,352.63798448386666,0.0,31.461716560248398,144.0558842911075,0.0,3.2625370665076256,144.09282406491758,16.980775493274134,0.0,5.930555702252437,0.0,0.0,-0.7144877895483476,0.0,4.633158825728687,0.0,12678.812835739995,0.42358662798507496,144.09282406491758,2.187539127441144,1.2213042832302736,100947.616141753,287.94549884235835,0.0,0.0,0.0,401.19,0.21531576183400794,0.86,nominal,10689.905016207205,nan,pitch_program,11.47,0.0,0.0
3.09,356.9756562995519,0.0,31.56157965051977,144.58906052284132,0.0,3.3287696757123983,144.62737337873426,16.974316020419113,0.0,5.9524185651957815,0.0,0.0,-0.7287621069540082,0.0,4.633572124474109,0.0,12772.935402406685,0.42515851051323617,144.6273733787343,2.1886864859399644,1.2212925661419116,100946.42009688017,287.9448497322716,0.0,0.0,0.0,401.156052631579,0.21529754252770958,0.86,nominal,10768.051930295675,nan,pitch_program,11.455,0.0,0.0
3.12,361.32928235578044,0.0,31.66350816256885,145.12086854095264,0.0,3.397617068302576,145.1606361512076,16.967857094143284,0.0,5.974683315256311,0.0,0.0,-0.7421583446900581,0.0,4.633500867712052,0.0,12867.174499316197,0.4267266245064546,145.1606361512076,2.189835688917698,1.221280606803154,100945.1993266015,287.9441871969433,0.0,0.0,0.0,401.1221052631579,0.21527932322141122,0.86,nominal,10846.318086234094,nan,pitch_program,11.44,0.0,0.0
3.15,365.6988216112783,0.0,31.76757985594065,145.65130851659555,0.0,3.469056445726652,145.69261486163305,16.96139871444664,0.0,5.9973252920846045,0.0,0.0,-0.754732570765077,0.0,4.6329384992430205,0.0,12961.527897525793,0.4282909777256876,145.69261486163305,2.1909842059700906,1.2212683960959743,100943.95290035251,287.94351073093634,0.0,0.0,0.0,401.08815789473687,0.21526110391511288,0.86,nominal,10924.70254960433,nan,pitch_program,11.425,0.0,0.0
3.1799999999999997,370.0842330444302,0.0,31.87387176080317,146.18038110506487,0.0,3.5430634954172917,146.22331250164785,16.95494088132919,0.0,6.020321278131869,0.0,0.0,-0.7665328785319374,0.0,4.631880194503751,0.0,13055.993470110923,0.4298515794394723,146.22331250164785,2.192129567385305,1.2212559249883148,100942.67989635664,287.9428198335548,0.0,0.0,0.0,401.0542105263158,0.2152428846088145,0.86,nominal,11003.204463980363,nan,pitch_program,11.410000000000002,0.0,0.0
3.21,374.4854756669406,0.0,31.982460135941192,146.70808741701222,0.0,3.6196125046007404,146.75273254096894,16.948483594790925,0.0,6.043649409206942,0.0,0.0,-0.7776043799113085,0.0,4.630322723312849,0.0,13150.5691877189,0.4314084403229162,146.75273254096894,2.193269379226968,1.221243184539031,100941.37940212991,287.9421140091164,0.0,0.0,0.0,401.0202631578947,0.21522466530251613,0.86,nominal,11081.82304681271,nan,pitch_program,11.395000000000001,0.0,0.0
3.2399999999999998,378.90250853664674,0.0,32.09342043021266,147.23442899020452,0.0,3.698676475715613,147.2808788938455,16.94202685483185,0.0,6.067288944728551,0.0,0.0,-0.7879845285650421,0.0,4.628264172761474,0.0,13245.253114104793,0.4329615723587999,147.2808788938455,2.194401302532588,1.221230165902422,100940.0505149441,287.9413927672036,0.0,0.0,0.0,400.9863157894737,0.21520644599621777,0.86,nominal,11160.55758533374,nan,pitch_program,11.38,0.0,0.0
3.27,383.3352907696528,0.0,32.206827246761826,147.7594077668676,0.0,3.78022721830551,147.80775589067534,16.935570661451962,0.0,6.091220158769543,0.0,0.0,-0.7977071462967403,0.0,4.625703801111139,0.0,13340.043402457874,0.4345109887538705,147.80775589067537,2.195523056804365,1.221216860332444,100938.69234225692,287.94065562289603,0.0,0.0,0.0,400.9523684210526,0.2151882266899194,0.86,nominal,11239.407433138193,nan,pitch_program,11.365,0.0,0.0
3.3,387.78378155183543,0.0,32.322754309842786,148.28302607275612,0.0,3.8642354360319566,148.33336825137746,16.929115014651263,0.0,6.115424230570399,0.0,0.0,-0.8068024053601435,0.0,4.622641893876121,0.0,13434.93829192554,0.43605670386030737,148.33336825137744,2.1966324180452363,1.2212032591866089,100937.30400211056,287.939902096986,0.0,0.0,0.0,400.9184210526316,0.21517000738362105,0.86,nominal,11318.372006951997,nan,pitch_program,11.35,0.0,0.0
3.33,392.2479401497859,0.0,32.44127443401794,148.8052865983495,0.0,3.950670805838424,148.8577210608608,16.922659914429754,0.0,6.139883130392575,0.0,0.0,-0.8152966731204417,0.0,4.619079619031429,0.0,13529.936104405784,0.4375987331033594,148.85772106086077,2.197727213037409,1.2211893539296161,100935.88462350256,287.93913171617885,0.0,0.0,0.0,400.8844736842105,0.2151517880773227,0.86,nominal,11397.450783644883,nan,pitch_program,11.335,0.0,0.0
3.36,396.72772592126177,0.0,32.56245949543788,149.32619238252948,0.0,4.0395020473313,149.3808197468959,16.916205360787433,0.0,6.164579547825315,0.0,0.0,-0.823213927170047,0.0,4.615018929104638,0.0,13625.035241674215,0.4391370929160531,149.3808197468959,2.198805320676094,1.2211751361367278,100934.43334673077,287.9383440132796,0.0,0.0,0.0,400.85052631578947,0.21513356877102435,0.86,nominal,11476.643297538236,nan,pitch_program,11.32,0.0,0.0
3.3899999999999997,401.2230983251861,0.0,32.68638040507911,149.84574679747737,0.0,4.130696988041259,149.90267005927785,16.909751353724303,0.0,6.189496814241209,0.0,0.0,-0.8305755602869123,0.0,4.610462459555539,0.0,13720.234182654222,0.44067180067770423,149.90267005927782,2.1998646691223196,1.2211605974969235,100932.94932371582,287.93753852736694,0.0,0.0,0.0,400.81657894736844,0.215115349464726,0.86,nominal,11555.949137849828,nan,pitch_program,11.305,0.0,0.0
3.42,405.7340169312419,0.0,32.813107083745685,150.36395353519382,0.0,4.22422262221897,150.42327805062615,16.90329789324036,0.0,6.214618841974871,0.0,0.0,-0.8374009378711833,0.0,4.605413446857268,0.0,13815.531480900185,0.44220287465725,150.42327805062615,2.2009032350537874,1.2211457298158435,100931.4317183017,287.9367148039556,0.0,0.0,0.0,400.78263157894736,0.21509713015842763,0.86,nominal,11635.36794633081,nan,pitch_program,11.29,0.0,0.0
3.4499999999999997,410.26044142909757,0.0,32.94270843869911,150.88081659518897,0.0,4.3200451651139975,150.94265005842342,16.896844979335608,0.0,6.239930073624687,0.0,0.0,-0.843707735381722,0.0,4.599875658857517,0.0,13910.925762228322,0.4437303339602268,150.94265005842342,2.201919043358838,1.2211305250185407,100929.87970653722,287.9358723951484,0.0,0.0,0.0,400.74868421052633,0.21507891085212927,0.86,nominal,11714.899415040207,nan,pitch_program,11.275,0.0,0.0
3.48,414.8023316372914,0.0,33.075252341803505,151.39634027312647,0.0,4.418130103480026,151.46079268809987,16.890392612010043,0.0,6.265415435325227,0.0,0.0,-0.8495120706910049,0.0,4.593853330927465,0.0,14006.415722465956,0.4452541984788308,151.4607926880999,2.2029101661940724,1.2211149751520576,100928.29247693937,287.93501085977823,0.0,0.0,0.0,400.71473684210525,0.2150606915458309,0.86,nominal,11794.543284231533,nan,pitch_program,11.26,0.0,0.0
3.51,419.35964751180313,0.0,33.210805609070825,151.9105291503918,0.0,4.518442242243933,151.97771279713527,16.88394079126367,0.0,6.291060299882307,0.0,0.0,-0.8548288328403332,0.0,4.58735111376582,0.0,14102.000125318986,0.44677448884497345,151.97771279713524,2.203874723111881,1.2210990723878383,100926.66923073964,287.934129763541,0.0,0.0,0.0,400.6807894736842,0.21504247223953252,0.86,nominal,11874.299340350459,nan,pitch_program,11.245000000000001,0.0,0.0
3.54,423.93234915433294,0.0,33.34943398152253,152.4233880843264,0.0,4.6209457483902305,152.49341747995138,16.877489517096482,0.0,6.316850453476982,0.0,0.0,-0.8596718010040452,0.0,4.580374026120001,0.0,14197.677800320578,0.4482912263856683,152.49341747995138,2.2048108808143714,1.2210828090239807,100925.00918211462,287.9332286791201,0.0,0.0,0.0,400.64684210526315,0.21502425293323418,0.86,nominal,11954.167414112268,nan,pitch_program,11.23,0.0,0.0
3.57,428.5203968203055,0.0,33.49120210728536,152.93492219908543,0.0,4.725604192094294,153.0079140535569,16.871038789508486,0.0,6.34277206791035,0.0,0.0,-0.8640538291835764,0.0,4.572927414347858,0.0,14293.447640857932,0.4498044330806325,153.0079140535569,2.2057168532811473,1.2210661774873532,100923.31155840213,287.93230718630264,0.0,0.0,0.0,400.61289473684207,0.21500603362693582,0.86,nominal,12034.147378655738,nan,pitch_program,11.215,0.0,0.0
3.5999999999999996,433.1237509266151,0.0,33.63617352485341,153.44513687698776,0.0,4.832380585601646,153.52121004382948,16.864588608499677,0.0,6.368811676831355,0.0,0.0,-0.8679869789737225,0.0,4.5650169170412465,0.0,14389.308602259363,0.4513141315217684,153.52121004382946,2.206590901979818,1.2210491703355624,100921.57560030252,287.9313648720884,0.0,0.0,0.0,400.57894736842104,0.21498781432063746,0.86,nominal,12114.239147758308,nan,pitch_program,11.2,0.0,0.0
3.63,437.7423720591234,0.0,33.784410647457214,153.95403775027543,0.0,4.941237420126767,154.0333131723631,16.85813897407006,0.0,6.3949561551418945,0.0,0.0,-0.8714826254726677,0.0,4.55664843377487,0.0,14485.259699931696,0.45282034487431166,154.03331317236314,2.2074313360998885,1.221031780258805,100919.80056206796,287.9304013307915,0.0,0.0,0.0,400.545,0.21496959501433913,0.86,nominal,12194.442674103533,nan,pitch_program,11.185,0.0,0.0
3.6599999999999997,442.37622097991994,0.0,33.93597474848657,154.46163069321878,0.0,5.052136700978625,154.54423134382495,16.851689886219628,0.0,6.421192701633636,0.0,0.0,-0.8745515650064529,0.0,4.547828097932457,0.0,14581.300007539932,0.45432309683947997,154.54423134382495,2.208236512936079,1.2210140000815835,100917.98571167796,287.9294161641348,0.0,0.0,0.0,400.51105263157893,0.21495137570804074,0.86,nominal,12274.757947594086,nan,pitch_program,11.17,0.0,0.0
3.69,447.0252586343547,0.0,34.090925947921995,154.96792181449348,0.0,5.165039981180693,155.05397263375795,16.845241344948388,0.0,6.447508823846756,0.0,0.0,-0.87720408919191,0.0,4.538562252478502,0.0,14677.428655220378,0.45582241161844034,155.05397263375798,2.209004838244623,1.2209958227643078,100916.13033100314,287.92840898133846,0.0,0.0,0.0,400.4771052631579,0.2149331564017424,0.86,nominal,12355.184993702267,nan,pitch_program,11.155,0.0,0.0
3.7199999999999998,451.6894461578483,0.0,34.24932319973357,155.4729174497867,0.0,5.2799083937190145,155.56254527679295,16.838793350256335,0.0,6.473892325199812,0.0,0.0,-0.8794500606417299,0.0,4.528857428656121,0.0,14773.644827822172,0.4573183138774806,155.56254527679295,2.209734766677157,1.2209772414047848,100914.23371595754,287.9273793992017,0.0,0.0,0.0,400.4431578947368,0.21491493709544401,0.86,nominal,12435.723871853796,nan,pitch_program,11.14,0.0,0.0
3.75,456.36874488248577,0.0,34.41122428021166,155.9766241545816,0.0,5.39670268260326,156.06995765522598,16.832345902143473,0.0,6.500331293796678,0.0,0.0,-0.8812989688670578,0.0,4.518720326931265,0.0,14869.947763171458,0.45881082871426276,156.06995765522598,2.2104248021970228,1.2209582492395974,100912.29517663972,287.9263270421786,0.0,0.0,0.0,400.4092105263158,0.21489671778914568,0.86,nominal,12516.374673839551,nan,pitch_program,11.125,0.0,0.0
3.78,461.06311634339835,0.0,34.576685777197184,156.4790486970867,0.0,5.515383232850702,156.576218287933,16.825899000609798,0.0,6.526814092791443,0.0,0.0,-0.8827599822082522,0.0,4.508157800008552,0.0,14966.336750354389,0.46029998162506996,156.576218287933,2.2110734985117904,1.2209388396453746,100910.31403746267,287.9252515424482,0.0,0.0,0.0,400.3752631578947,0.21487849848284732,0.86,nominal,12597.137522252173,nan,pitch_program,11.11,0.0,0.0
3.81,465.77252228493666,0.0,34.74576308018256,156.98019805127765,0.0,5.635910099512671,157.08133581959427,16.819452645655314,0.0,6.553329351996945,0.0,0.0,-0.8838419892906767,0.0,4.497176837546912,0.0,15062.811128015856,0.4617857984729693,157.08133581959424,2.2116794594858478,1.220919006139963,100908.28963727367,287.92415253997876,0.0,0.0,0.0,400.34131578947364,0.21486027917654893,0.86,nominal,12678.012568944345,nan,pitch_program,11.095,0.0,0.0
3.84,470.4969246666374,0.0,34.91851037125746,157.4800793900261,0.0,5.758243035830005,157.5853190102067,16.813006837280017,0.0,6.5798659605763365,0.0,0.0,-0.8845536351251115,0.0,4.4857845523707125,0.0,15159.370282671303,0.4632683054568255,157.58531901020666,2.2122413395355727,1.2208987423835014,100906.22132946421,287.9230296825868,0.0,0.0,0.0,400.3073684210526,0.2148420598702506,0.86,nominal,12758.999993506597,nan,pitch_program,11.080000000000002,0.0,0.0
3.8699999999999997,475.2362856689863,0.0,35.09498061687537,157.9787000782948,0.0,5.882341520596856,158.0881767248669,16.80656157548391,0.0,6.606413060632394,0.0,0.0,-0.8849033510327697,0.0,4.4739881679511475,0.0,15256.013647029751,0.46474752908111466,158.0881767248669,2.2127578439937046,1.2208780421793866,100904.10848206893,287.9218826259903,0.0,0.0,0.0,400.2734210526316,0.21482384056395223,0.86,nominal,12840.10000176286,nan,pitch_program,11.065000000000001,0.0,0.0
3.9,479.9905676989777,0.0,35.27522556041926,158.47606766638162,0.0,6.008164784796321,158.58991792381013,16.800116860266993,0.0,6.632960041555874,0.0,0.0,-0.8848993799465956,0.0,4.461795006986421,0.0,15352.74069832688,0.46622349612649333,158.58991792381013,2.213227729437907,1.2208568994751594,100901.95047785607,287.92071103385723,0.0,0.0,0.0,400.2394736842105,0.21480562125765387,0.86,nominal,12921.312824282504,nan,pitch_program,11.05,0.0,0.0
3.9299999999999997,484.7597333954737,0.0,35.45929571554611,158.97218988319915,0.0,6.135671837561779,159.090551652693,16.793672691629265,0.0,6.659496535010043,0.0,0.0,-0.8845497976175476,0.0,4.449212480929308,0.0,15449.550956667166,0.4676962336210906,159.090551652693,2.2136498039774883,1.2208353083632912,100899.74671440829,287.91951457784893,0.0,0.0,0.0,400.2055263157895,0.21478740195135554,0.86,nominal,13002.63871490795,nan,pitch_program,11.035,0.0,0.0
3.96,489.5437456343611,0.0,35.64724036029136,159.46707462957863,0.0,6.264821491508461,159.5900870331114,16.787229069570724,0.0,6.686012410447486,0.0,0.0,-0.8838625303564538,0.0,4.436248080334106,0.0,15546.443983374584,0.46916576881249394,159.5900870331114,2.214022927493651,1.220813263081881,100897.49660419376,287.91829293765807,0.0,0.0,0.0,400.1715789473684,0.21476918264505715,0.86,nominal,13084.077949297285,nan,pitch_program,11.02,0.0,0.0
