time_s,x_m,y_m,altitude_m,vx_mps,vy_mps,vz_mps,speed_mps,mass_kg,roll_deg,pitch_deg,yaw_deg,p_dps,q_dps,r_dps,alpha_deg,beta_deg,qbar_pa,mach,airspeed_mps,load_factor_g,density_kgpm3,pressure_pa,temperature_k,wind_x_mps,wind_y_mps,wind_z_mps,thrust_n,mass_flow_kgps,propulsion_throttle_actual,propulsion_health,energy_j_per_kg,target_distance_m,guidance_mode,pitch_command_deg,heading_command_deg,roll_command_deg,elevator_command_deg,aileron_command_deg,rudder_command_deg,elevator_deg,aileron_deg,rudder_deg,throttle,elevator_saturated,aileron_saturated,rudder_saturated,elevator_failed,aileron_failed,rudder_failed,elevator_raw_rad,aileron_raw_rad,rudder_raw_rad,elevator_effective_rad,aileron_effective_rad,rudder_effective_rad,sensor_time_s,imu_valid,imu_ax_mps2,imu_ay_mps2,imu_az_mps2,gyro_p_rps,gyro_q_rps,gyro_r_rps,imu_accel_norm_mps2,imu_gyro_norm_rps,gps_valid,gps_latency_s,gps_x_m,gps_y_m,gps_z_m,gps_vx_mps,gps_vy_mps,gps_vz_mps,baro_valid,baro_alt_m,baro_bias_m,pitot_valid,pitot_airspeed_mps,pitot_qbar_pa,pitot_compressibility_factor,mag_valid,mag_heading_deg,mag_x_ut,mag_y_ut,mag_z_ut,radar_valid,radar_agl_m,optical_flow_valid,optical_flow_x_radps,optical_flow_y_radps,optical_flow_quality,horizon_valid,horizon_roll_deg,horizon_pitch_deg
0.0,0.0,0.0,20.0,85.0,0.0,8.0,85.37564055396598,18.0,0.0,6.000000000000002,0.0,0.0,0.0,0.0,0.623294571949261,-0.06711018850271284,4455.9528551248095,0.2509446755827931,85.37569911866022,1.746019585183223,1.2226496753673843,101084.96761777384,288.02,0.0,0.1,0.0,326.8,0.17539118863220368,0.86,nominal,3840.633,nan,pitch_program,13.0,0.0,0.0,-20.05352282957881,-0.0,-0.05704366022730591,-2.6999999999999997,0.0,0.0,0.86,0.0,0.0,0.0,0.0,0.0,0.0,-0.047123889803846894,0.0,0.0,-0.047123889803846894,0.0,0.0,0.0,1.0,17.089473733673106,-0.02973773807099401,0.17662175509873101,0.0016677683591043149,0.0011681274632859406,0.0012765720485123657,17.090412285001868,0.00240324973008537,1.0,0.0,-1.885154541229685,1.8645638091475825,21.162662438547994,85.32748210022089,0.18147237523479218,7.846341299741817,1.0,20.771163472887363,0.0,1.0,85.62705682436835,4465.525352623238,1.0,1.0,-0.8198733225718878,19.523475325297145,-0.00615746722134172,-43.81279554351524,1.0,20.39618647858491,1.0,-0.0077448575321814855,4.273240466216326,0.95,1.0,0.17459483210835952,5.697481511065039
0.03,2.565307560933383,1.2217430333078664e-05,20.23295089077774,85.51025203111277,0.00040724767776928884,7.765029692591357,85.86209226845746,17.994738264341034,0.000673747383345809,6.26558332753372,-0.001374797989615718,0.01756243361475289,-8.852793703250093,-0.04551240426293013,1.0768886693990771,-0.06510171809935367,4506.77464880038,0.2523751634672366,85.86215002704955,1.7743110931484742,1.2226223199868234,101082.17454514118,288.0184858192099,0.0,0.1,0.0,332.605,0.1785066900092231,0.86,nominal,3884.5669122115964,nan,pitch_program,12.985,0.0,0.0,-0.5455312201452301,-0.014568757923655475,-0.07400296803718874,-1.407318732087138,0.0,-0.04440178082231325,0.86,0.0,0.0,0.0,0.0,0.0,0.0,-0.02456234549991253,0.0,-0.0007749572690982415,-0.02456234549991253,0.0,-0.0007749572690982415,0.03,1.0,17.396244479696897,-0.01435698229198223,0.6886282541675011,0.00227870121700718,-0.15518965861156028,0.0009052063149970115,17.40987469779042,0.1552090268563067,1.0,0.0,-1.885154541229685,1.8645638091475825,21.162662438547994,85.32748210022089,0.18147237523479218,7.846341299741817,1.0,20.771163472887363,0.0,1.0,85.44847029073749,4493.7730199296575,1.0,1.0,-0.8198733225718878,19.523475325297145,-0.00615746722134172,-43.81279554351524,1.0,20.39618647858491,1.0,-0.0077448575321814855,4.273240466216326,0.95,1.0,0.17459483210835952,5.697481511065039
0.06,5.1461027932509165,3.291930681684774e-05,20.45939294419229,86.0265077439178,0.0006900625494589692,7.548068447151695,86.35701113617483,17.98938306364076,0.001946614728001761,6.577132127844891,-0.0034380936674316123,0.0347369605127723,-10.384987158646082,-0.0681078186319914,1.5627716729477563,-0.0625178553698666,4558.780255022944,0.25383052828753255,86.35706823625331,1.8034945411068528,1.2225957293866412,101079.45957312708,288.01701394586274,0.0,0.1,0.0,338.40999999999997,0.18162219138624247,0.86,nominal,3929.4047920028747,nan,pitch_program,12.97,0.0,0.0,0.16976533932399104,-0.028529507031703608,-0.08018029559013964,-0.4610682892404606,0.0,-0.0658688896830091,0.86,0.0,0.0,0.0,0.0,0.0,0.0,-0.008047159723783583,0.0,-0.0011496289996014326,-0.008047159723783583,0.0,-0.0011496289996014326,0.06,1.0,17.704005531554397,-0.040865823476678685,1.2236155596896918,-0.0028398648926588497,-0.18272117719737893,-0.0015355968733229042,17.746287412153332,0.1827496962699579,1.0,0.0,-1.885154541229685,1.8645638091475825,21.162662438547994,85.32748210022089,0.18147237523479218,7.846341299741817,1.0,20.526029305795074,0.0,1.0,85.93810156585161,4525.844490958644,1.0,1.0,0.07321572507599795,19.051633273590532,-0.026914818962720098,-44.01670170715468,1.0,20.44437918642227,1.0,-0.00010014841796547101,4.2191320453843275,0.9488515176395192,1.0,-0.1571242879183091,6.398144502912851
0.09,7.742554548696502,5.962919330515959e-05,20.679880260664394,86.5483918481862,0.0008903295496103952,7.349577215736762,86.85988957827396,17.983934397899173,0.003763319093575744,6.769857843641512,-0.005813885658654085,0.05135367123471357,-6.42420049568453,-0.07833649756978263,1.9160161179384996,-0.059708918365541375,4611.930912274648,0.25530927942506576,86.8599461172066,1.833254521353306,1.2225698384634593,101076.81605335405,288.01558077830566,0.0,0.1,0.0,344.215,0.18473769276326188,0.86,nominal,3975.1205565332175,nan,pitch_program,12.955,0.0,0.0,-1.1038903823743145,-0.0416373271165254,-0.08067173834424944,-0.8467615451207728,0.0,-0.0747505988797533,0.86,0.0,0.0,0.0,0.0,0.0,0.0,-0.014778776941632012,0.0,-0.00130464406828928,-0.014778776941632012,0.0,-0.00130464406828928,0.09,1.0,17.977928092968018,-0.004364484688315799,1.4143950974990716,0.0012974376529873472,-0.11381445577459348,0.001177630428237802,18.033480835836563,0.11382794253238436,1.0,0.0,-1.885154541229685,1.8645638091475825,21.162662438547994,85.32748210022089,0.18147237523479218,7.846341299741817,1.0,20.526029305795074,0.0,1.0,87.23044371911043,4643.934242920982,1.0,1.0,0.07321572507599795,19.051633273590532,-0.026914818962720098,-44.01670170715468,1.0,20.44437918642227,1.0,-0.00010014841796547101,4.2191320453843275,0.9488515176395192,1.0,-0.1571242879183091,6.398144502912851
0.12,10.354871065463975,9.05643135427429e-05,20.894721380858996,87.07721722558242,0.0010311706745861102,7.161370673153376,87.37120229648258,17.978392267116273,0.006078099332948904,6.86780934092218,-0.008306427401675328,0.06729465861430717,-3.265057778086964,-0.0822166466914033,2.1662876108034244,-0.05685244968155371,4666.29188366317,0.25681281287137564,87.3712583433405,1.863309602773551,1.2225446109534865,101074.24028217078,288.0141843110244,0.0,0.1,0.0,350.02,0.1878531941402813,0.86,nominal,4021.770714796042,nan,pitch_program,12.94,0.0,0.0,-2.149980284351964,-0.0537534387397924,-0.07834052167445058,-1.6286927886594875,0.0,-0.07690455255657168,0.86,0.0,0.0,0.0,0.0,0.0,0.0,-0.028426051665596218,0.0,-0.0013422376518851984,-0.028426051665596218,0.0,-0.0013422376518851984,0.12,1.0,18.243748866338237,-0.008234755358805256,1.5290844198325266,0.0029557101259373103,-0.05630966562075726,-0.004272624087438873,18.307718035631535,0.05654882829257051,1.0,0.0,-1.885154541229685,1.8645638091475825,21.162662438547994,85.32748210022089,0.18147237523479218,7.846341299741817,1.0,20.835296556620964,0.0,1.0,87.26356473046994,4712.610047778156,1.0,1.0,-1.9034282567597944,18.840833773035076,-0.006994163735382045,-44.08140969183615,1.0,20.159613396982472,1.0,-0.014477037212775526,4.181138647333237,0.9477631965478525,1.0,0.28943533398110544,7.474549240186705
0.15,12.9832871046427,0.00012432195943967077,21.10409235143949,87.6138679726242,0.001125254863230929,6.979032352683186,87.89139181382,17.972756671292064,0.008857364239939443,6.9526603100249025,-0.010827112298902894,0.08253302338223542,-2.8283770019973247,-0.0830438596280649,2.398276216665515,-0.05403344047850844,4721.92646649597,0.2583424297096264,87.89144742191613,1.8938986106245126,1.222520026153691,101071.73014479295,288.0128233997156,0.0,0.1,0.0,355.825,0.1909686955173007,0.86,nominal,4069.4088247434556,nan,pitch_program,12.925,0.0,0.0,-2.250486291227114,-0.06481050382670815,-0.07469872686495295,-2.001768890200063,-0.03888630229602489,-0.07558105714160043,0.86,0.0,0.0,0.0,0.0,0.0,0.0,-0.03493745799798396,-0.000678694008991465,-0.0013191382992589016,-0.03493745799798396,-0.000678694008991465,-0.0013191382992589016,0.15,1.0,18.542976103511602,-0.030567730790696985,1.6896764340898718,0.0013074287992247125,-0.04949763107564984,-0.0030783060327520917,18.61982555271361,0.049610491029594306,1.0,0.0,-1.885154541229685,1.8645638091475825,21.162662438547994,85.32748210022089,0.18147237523479218,7.846341299741817,1.0,20.835296556620964,0.0,1.0,87.53966481836079,4739.75925432716,1.0,1.0,-1.9034282567597944,18.840833773035076,-0.006994163735382045,-44.08140969183615,1.0,20.159613396982472,1.0,-0.014477037212775526,4.181138647333237,0.9477631965478525,1.0,0.28943533398110544,7.474549240186705
0.18,15.628035012723156,0.00015969353889084135,21.308198110271974,88.15826360268187,0.001179052648372353,6.803525294416151,88.42040148778939,17.967027610426545,0.011347438150978264,7.050155044164729,-0.013339058860149244,0.07279610891476536,-3.249839859010265,-0.08253419811792437,2.637148988212438,-0.05125782272487243,4778.845389236139,0.2598979639269304,88.4204567023454,1.9249649028759066,1.2224960599707146,101069.28318034706,288.0114967122832,0.0,0.1,0.0,361.63,0.19408419689432013,0.86,nominal,4118.0457406290325,nan,pitch_program,12.91,0.0,0.0,-2.0434941527382646,-0.053220466281403894,-0.07051156495412067,-2.026804047722984,-0.015554520918409958,-0.07253936182911258,0.86,0.0,0.0,0.0,0.0,0.0,0.0,-0.03537440392551435,-0.000271477603596586,-0.0012660507012135108,-0.03537440392551435,-0.000271477603596586,-0.0012660507012135108,0.18,1.0,18.748352245116116,-0.042577221658550594,1.9094868294924372,0.0014102797908761993,-0.059289185017973235,-0.002327487539441737,18.845388419418683,0.05935160947632568,1.0,0.0,-1.885154541229685,1.8645638091475825,21.162662438547994,85.32748210022089,0.18147237523479218,7.846341299741817,1.0,20.082305301102334,0.0,1.0,88.03086687436317,4843.147042342706,1.0,1.0,-0.5562341585160822,18.729986257235904,0.026496603719618855,-44.221196723795295,1.0,21.361831931629176,1.0,0.005993326407555316,4.138845108641095,0.94672950472432,1.0,-0.49271252303698165,6.69241308166701
0.21,18.289338759569905,0.00019556783599046398,21.507292978599384,88.71012489489158,0.0011958099033207547,6.636495610913672,88.95802006728174,17.961205084519715,0.013963748098763197,7.138846248887991,-0.015825492711431754,0.07697399280353784,-2.956392176348874,-0.08159358714291116,2.860449239120227,-0.048552890178859505,4837.0426829043645,0.26147879522239986,88.95807492931105,1.9562267154807178,1.2224726825148928,101066.89633622502,288.0102025956391,0.0,0.1,0.0,367.435,0.19719969827133954,0.86,nominal,4167.679161834031,nan,pitch_program,12.895,0.0,0.0,-2.091588283748235,-0.05431159689344528,-0.06623063376731171,-2.0656745893381347,-0.006221808367363983,-0.06875412499203205,0.86,0.0,0.0,0.0,0.0,0.0,0.0,-0.0360528228587322,-0.0001085910414386344,-0.0011999858554386795,-0.0360528228587322,-0.0001085910414386344,-0.0011999858554386795,0.21,1.0,19.03918360687184,0.0654861991528572,2.109461699282648,0.0001589792514000625,-0.04988877215533666,-0.0003884229961238783,19.15579884836958,0.0498905375195877,1.0,0.0,18.158497973532736,-0.8505201034817174,22.52851851093021,88.79108599194562,-0.10577058458715469,6.696073112562582,1.0,20.082305301102334,0.0,1.0,88.81121651448117,4833.564047342548,1.0,1.0,-0.5562341585160822,18.729986257235904,0.026496603719618855,-44.221196723795295,1.0,21.361831931629176,1.0,0.005993326407555316,4.138845108641095,0.94672950472432,1.0,-0.49271252303698165,6.69241308166701
0.24,20.967424066547164,0.00023086312440804294,21.701621618351435,89.26951023257529,0.0011765096139192983,6.477621325068383,89.50421798205389,17.955289093571576,0.01686185855000208,7.202147282510612,-0.01828162498853206,0.08638434017233555,-2.1100564443209033,-0.08066317239566312,3.0518825072489504,-0.04592549605714653,4896.531981299821,0.26308483730214566,89.50427253085238,1.987505662071303,1.2224498650331364,101064.5666759386,288.0089394594807,0.0,0.1,0.0,373.24,0.20031519964835895,0.86,nominal,4218.322725933116,nan,pitch_program,12.88,0.0,0.0,-2.3473647489247234,-0.059929160004667754,-0.06205946361502334,-2.234688685090088,-0.03844621934974624,-0.06473732816582684,0.86,0.0,0.0,0.0,0.0,0.0,0.0,-0.03900267531188475,-0.0006710131125970253,-0.0011298795254377398,-0.03900267531188475,-0.0006710131125970253,-0.0011298795254377398,0.24,1.0,19.340020750339857,-0.054448748963033845,2.3113652593467395,0.0019091649367176694,-0.03678346092877151,-0.00025046185995798243,19.4777251405793,0.0368338246696884,1.0,0.0,18.158497973532736,-0.8505201034817174,22.52851851093021,88.79108599194562,-0.10577058458715469,6.696073112562582,1.0,22.185472296822848,0.0,1.0,89.45723657184935,4891.127672119592,1.0,1.0,-1.0056891601547093,18.64236278597983,-0.016420549769640524,-44.295506018700046,1.0,21.597930174194296,1.0,0.014251888953545481,4.126185957194981,0.9457459459541214,1.0,-0.576052924133447,7.15888222819358
0.27,23.66252475796718,0.0002644909172165517,21.89138904421208,89.83668971400053,0.0011209264269502926,6.325580862021445,90.05911277193472,17.949279637582126,0.019393814632035124,7.24495167384107,-0.020712601515503297,0.07420942155117136,-1.4268384740001505,-0.07993797553298215,3.2172756113237324,-0.04333401621458086,4957.343321244954,0.26471643617594676,90.0591670463522,2.018862038200976,1.2224275834297722,101062.29173858822,288.0077059712126,0.0,0.1,0.0,379.045,0.20343070102537836,0.86,nominal,4270.00308700445,nan,pitch_program,12.865,0.0,0.0,-2.5574934682422725,-0.046075121850527534,-0.05802695526290474,-2.4283715549813985,-0.015378487739898498,-0.060711104424073584,0.86,0.0,0.0,0.0,0.0,0.0,0.0,-0.04238307909619991,-0.00026840524503881014,-0.0010596086647221797,-0.04238307909619991,-0.00026840524503881014,-0.0010596086647221797,0.27,1.0,19.55241002659721,-0.023656146173613703,2.4549051650069127,0.0032024567596951195,-0.02279101991506628,-0.0034857397197124917,19.70593455867061,0.023277386010036566,1.0,0.0,18.158497973532736,-0.8505201034817174,22.52851851093021,88.79108599194562,-0.10577058458715469,6.696073112562582,1.0,22.185472296822848,0.0,1.0,90.12873086763831,4961.811637147024,1.0,1.0,-1.0056891601547093,18.64236278597983,-0.016420549769640524,-44.295506018700046,1.0,21.597930174194296,1.0,0.014251888953545481,4.126185957194981,0.9457459459541214,1.0,-0.576052924133447,7.15888222819358
0.3,26.374880396019137,0.000295353332210191,22.07677619871598,90.41185460173186,0.0010287471664546424,6.17957181679663,90.62279272579262,17.943176716551363,0.02198912202844821,7.277692693587212,-0.02312775775555604,0.07633479068436938,-1.0913961236379206,-0.07946542356415719,3.3676430463053935,-0.040791801419408816,5019.504101134188,0.26637385181230244,90.62284676433717,2.0503817703769256,1.2224058164374063,101060.06935209747,288.0065009547083,0.0,0.1,0.0,384.84999999999997,0.20654620240239774,0.86,nominal,4322.7444980201235,nan,pitch_program,12.850000000000001,0.0,0.0,-2.651507546473659,-0.04530784724443097,-0.05414790182059423,-2.5622531498767547,-0.0061513950959594,-0.024284441769629433,0.86,0.0,0.0,0.0,0.0,0.0,0.0,-0.04471975373494511,-0.00010736209801552406,-0.0004238434658888719,-0.04471975373494511,-0.00010736209801552406,-0.0004238434658888719,0.3,1.0,19.933204702360538,-0.01573068594495157,2.5963170474385344,0.0006839194118869113,-0.021305569187455548,-0.00026724782654906766,20.10158599144626,0.021318218630181233,1.0,0.0,18.158497973532736,-0.8505201034817174,22.52851851093021,88.79108599194562,-0.10577058458715469,6.696073112562582,1.0,22.083138517670385,0.0,1.0,90.39906410955433,5033.652708234363,1.0,1.0,-0.055227980020042915,18.477132722329543,-0.013342098308879988,-44.293762615539,1.0,21.91376557922756,1.0,0.0026562402009304726,4.091608632908161,0.94480805950321,1.0,0.5146167210327217,7.8720684458878765
0.32999999999999996,29.1047323814911,0.0003249168804005546,22.25795978382743,90.9950661823988,0.0009854516063454552,6.039452837048425,91.19526885250784,17.93698033047929,0.02487900682269499,7.303490211256575,-0.026076072636608164,0.08385795108904917,-0.8599570689968343,-0.0971309076328032,3.5062545713665227,-0.037711133036860495,5083.033617728062,0.2680571167436873,91.19532259930256,2.0820329059849687,1.222384543288201,101057.89739544637,288.0053232614051,0.0,0.1,0.0,390.655,0.20966170377941715,0.86,nominal,4376.5645518546635,nan,pitch_program,12.835,0.0,0.0,-2.712986265222735,-0.048781480268581666,-0.0572552769941243,-2.6526930190843427,-0.00246055803838376,-0.009713776707851774,0.86,0.0,0.0,0.0,0.0,0.0,0.0,-0.04629822722769056,-4.2944839206209625e-05,-0.00016953738635554878,-0.04629822722769056,-4.2944839206209625e-05,-0.00016953738635554878,0.32999999999999996,1.0,20.17261022976863,-0.04586544647517555,2.7886749393180152,0.0006300845547122138,-0.014516198766683093,-0.0007185059226145301,20.36450380044961,0.014547621246814572,1.0,0.0,18.158497973532736,-0.8505201034817174,22.52851851093021,88.79108599194562,-0.10577058458715469,6.696073112562582,1.0,22.083138517670385,0.0,1.0,90.88959616203164,5073.149539796807,1.0,1.0,-0.055227980020042915,18.477132722329543,-0.013342098308879988,-44.293762615539,1.0,21.91376557922756,1.0,0.0026562402009304726,4.091608632908161,0.94480805950321,1.0,0.5146167210327217,7.8720684458878765
0.36,31.85232338313831,0.000352612381966594,22.43511373119893,91.58636672157361,0.000923183385534646,5.905131579049913,91.77653920843129,17.930690479365907,0.02813479939539717,7.320501571977173,-0.029735981386107113,0.09299958831166898,-0.5671012818064413,-0.12074251152444748,3.6313850429797294,-0.03396091243015071,5147.950046823296,0.26976622592606864,91.77659268266635,2.113736871338017,1.2223637435411578,101055.77378103368,288.00417176074717,0.0,0.1,0.0,396.46,0.21277720515643656,0.86,nominal,4431.479882610424,nan,pitch_program,12.82,0.0,0.0,-2.800863155568219,-0.053223252341493554,-0.06190185363272414,-2.7415951009746684,-0.000984223215353504,-0.04102662286277519,0.86,0.0,0.0,0.0,0.0,0.0,0.0,-0.04784986126855437,-1.717793568248385e-05,-0.0007160496499294088,-0.04784986126855437,-1.717793568248385e-05,-0.0007160496499294088,0.36,1.0,20.561912772043247,0.045027012066197955,2.8762485589467204,-8.849835513425057e-05,-0.010410287424521922,-0.0018600801441570275,20.762155236144775,0.010575529034649186,1.0,0.0,18.158497973532736,-0.8505201034817174,22.52851851093021,88.79108599194562,-0.10577058458715469,6.696073112562582,1.0,22.99814500638058,0.0,1.0,91.39172182708954,5125.461068714048,1.0,1.0,0.21729971330482362,18.559115301119572,0.04848139002120206,-44.33059214314025,1.0,22.233176159358322,1.0,0.006442206750897619,4.087009240202142,0.9439122156720027,1.0,-0.09709385591445217,7.10656518402246
0.39,34.617898581500754,0.0003736959446624346,22.608402387742252,92.18583994541491,0.0007027854231946868,5.7762885514441225,92.36663140098325,17.924307163211214,0.031675670589276596,7.328211977658897,-0.03348963165881537,0.10207774562885928,-0.2570782619200445,-0.12396656164986047,3.7427787312030882,-0.03023848055174078,5214.2751899492405,0.2715012613755573,92.36668477220573,2.1454643068856716,1.2223433978821046,101053.69653635142,288.00304538447966,0.0,0.1,0.0,402.265,0.21589270653345596,0.86,nominal,4487.509987458306,nan,pitch_program,12.805,0.0,0.0,-2.899941661845561,-0.05778083890974089,-0.057771248340524654,-2.8366030374972038,-0.03506219263198593,-0.05107339814942487,0.86,0.0,0.0,0.0,0.0,0.0,0.0,-0.04950806257639838,-0.0006119507043966509,-0.0008913989578894427,-0.04950806257639838,-0.0006119507043966509,-0.0008913989578894427,0.39,1.0,20.83086938057742,-0.03729661838878497,3.027703899704755,-0.0024186175510657335,-0.004375394780431501,-2.3310817404435715e-05,21.04978624814771,0.004999433341605675,1.0,0.0,18.158497973532736,-0.8505201034817174,22.52851851093021,88.79108599194562,-0.10577058458715469,6.696073112562582,1.0,22.99814500638058,0.0,1.0,91.5438066105889,5181.330982314562,1.0,1.0,0.21729971330482362,18.559115301119572,0.04848139002120206,-44.33059214314025,1.0,22.233176159358322,1.0,0.006442206750897619,4.087009240202142,0.9439122156720027,1.0,-0.09709385591445217,7.10656518402246
0.42,37.40170605401286,0.000385022160180917,22.777978825343954,92.79358241707035,0.0003775405172827469,5.652547920056769,92.96558629904241,17.91783038201521,0.03472871922208743,7.328452025733799,-0.037074576079444845,0.08652569302008765,-0.008070283197915966,-0.11851736882947433,3.8425566687394626,-0.026719833725804977,5282.032699743846,0.2732623434408471,92.96563967626211,2.15532463915253,1.2223234883220129,101051.66382422816,288.00194313763524,0.0,0.1,0.0,404.1773684210526,0.21691906078826353,0.86,nominal,4544.675784009911,nan,pitch_program,12.79,0.0,0.0,-2.9818379416373153,-0.04039481534209128,-0.05019965091059817,-2.923743979981271,-0.014024877052794373,-0.02042935925976995,0.86,0.0,0.0,0.0,0.0,0.0,0.0,-0.05102895893603635,-0.0002447802817586604,-0.00035655958315577714,-0.05102895893603635,-0.0002447802817586604,-0.00035655958315577714,0.42,1.0,20.873158366393554,-0.023536636895916098,3.17702909888452,0.0014658071379883408,0.0010600980323319969,-0.0010635061934571282,21.113569287474363,0.0020984384259380624,1.0,0.0,38.98874544846111,0.8565548077182951,23.106528767608157,92.81384968843743,-0.013921241399912214,5.640910815854857,1.0,23.176918221379452,0.0,1.0,93.15534099646538,5284.131506881018,1.0,1.0,0.9780383473178617,18.490509736431562,0.006942396264250814,-44.25501824468571,1.0,22.71195010758936,1.0,0.014201209808394663,4.062632928508584,0.9430550529366402,1.0,0.43795658158464434,6.957535027438913
0.44999999999999996,40.20380218059057,0.00038703439765068297,22.943963303364768,93.40320421925695,6.707458232553347e-05,5.53281593402717,93.56693118077851,17.911322810191564,0.03775681997674929,7.323038169943581,-0.04094191350288147,0.08449918121888436,0.18038094583275027,-0.12797310366620776,3.9330242016340224,-0.022913463033568615,5350.501674699594,0.27503044615782324,93.56698454676003,2.154305166458783,1.2223040007254862,101049.67420097535,288.0008642385281,0.0,0.1,0.0,404.14342105263154,0.21690084148196515,0.86,nominal,4602.388723023212,nan,pitch_program,12.775,0.0,0.0,-3.0457018664236895,-0.035135833837179706,-0.04859889539436282,-2.996918711846722,-0.00560995082111775,-0.00817174370390798,0.86,0.0,0.0,0.0,0.0,0.0,0.0,-0.05230609893635249,-9.791211270346418e-05,-0.00014262383326231086,-0.05230609893635249,-9.791211270346418e-05,-0.00014262383326231086,0.44999999999999996,1.0,20.901125252588606,0.03980068280624527,3.303982027279743,0.00474817222558578,0.005205826153222402,-0.0015840462829793834,21.16069276170647,0.007221839658149396,1.0,0.0,38.98874544846111,0.8565548077182951,23.106528767608157,92.81384968843743,-0.013921241399912214,5.640910815854857,1.0,23.176918221379452,0.0,1.0,93.14747025480669,5387.17650726947,1.0,1.0,0.9780383473178617,18.490509736431562,0.006942396264250814,-44.25501824468571,1.0,22.71195010758936,1.0,0.014201209808394663,4.062632928508584,0.9430550529366402,1.0,0.43795658158464434,6.957535027438913
0.48,43.02414798403475,0.0003785494505494442,23.10645817432525,94.01152678147248,-0.00028283157004129167,5.416495698682809,94.16743382676074,17.904815784947104,0.0409184909018242,7.3126494958360615,-0.0452189273664101,0.08722975491809823,0.34619197107053984,-0.14164361381094442,4.015174857994997,-0.018737728170299423,5419.315342050126,0.27679606905501286,94.1674872240078,2.1533501327653015,1.2222849230604944,101047.72643768265,287.99980802186684,0.0,0.1,0.0,404.1094736842105,0.2168826221756668,0.86,nominal,4660.349744813928,nan,pitch_program,12.76,0.0,0.0,-3.1044258560610567,-0.034018289412442344,-0.04823507684585773,-3.0614229983753227,-0.0022439803284471003,-0.0032686974815631918,0.86,0.0,0.0,0.0,0.0,0.0,0.0,-0.053431911117926396,-3.9164845081385675e-05,-5.704953330492434e-05,-0.053431911117926396,-3.9164845081385675e-05,-5.704953330492434e-05,0.48,1.0,20.853543770141474,0.016999668388713078,3.3984495986773062,0.0005964905597380479,0.006279438302130578,0.0003912882900249698,21.128654392475674,0.006319830132529816,1.0,0.0,38.98874544846111,0.8565548077182951,23.106528767608157,92.81384968843743,-0.013921241399912214,5.640910815854857,1.0,24.502049427936935,0.0,1.0,94.01956492484894,5362.176948227122,1.0,1.0,-0.38677945458844964,18.478723438301984,-0.030155843914555162,-44.26929765374467,1.0,23.25869985188571,1.0,0.004920541069358194,4.080533137177097,0.9422338545641868,1.0,0.6776646819926122,7.661889613534044
0.51,45.86270604969246,0.000357524219719284,23.265560350403916,94.61860218859042,-0.0007008410276720058,5.303405869288788,94.76711451990248,17.898309306281835,0.044244898465459495,7.297566235523821,-0.049893829201812144,0.09106598680012633,0.5026603365061134,-0.15493882260903472,4.089466441380742,-0.014222909929172889,5488.474202150332,0.27855927192102165,94.76716802034615,2.1524418906441376,1.222266243934614,101045.81937076912,287.99877385772237,0.0,0.1,0.0,404.0755263157895,0.21686440286936848,0.86,nominal,4718.560204624445,nan,pitch_program,12.745,0.0,0.0,-3.162509330344081,-0.03375699670964396,-0.04717310613603558,-3.1220747975565777,-0.0008975921313788402,-0.0013074789926252766,0.86,0.0,0.0,0.0,0.0,0.0,0.0,-0.054490484710897694,-1.566593803255427e-05,-2.2819813321969736e-05,-0.054490484710897694,-1.566593803255427e-05,-2.2819813321969736e-05,0.51,1.0,20.79921911808949,0.07209233052100245,3.5741601546385264,0.002295553352855761,0.00971651445093341,-0.004631028297716063,21.104201810005158,0.011005754920279302,1.0,0.0,38.98874544846111,0.8565548077182951,23.106528767608157,92.81384968843743,-0.013921241399912214,5.640910815854857,1.0,24.502049427936935,0.0,1.0,93.77677613835135,5484.033348242661,1.0,1.0,-0.38677945458844964,18.478723438301984,-0.030155843914555162,-44.26929765374467,1.0,23.25869985188571,1.0,0.004920541069358194,4.080533137177097,0.9422338545641868,1.0,0.6776646819926122,7.661889613534044
0.54,48.71944055615972,0.00032142388821496814,23.421360982326256,95.22448354890851,-0.0012033443834771965,5.19335439741132,95.36599602846655,17.891803374195753,0.04771245422717304,7.278357665137278,-0.054892370870177176,0.09444865751297712,0.6401528522522347,-0.16578573311212094,4.156647471854117,-0.009450283592595145,5557.979106684064,0.28032012180040844,95.36604971985773,2.151574785823295,1.2222479526326575,101043.95190582295,287.9977611536149,0.0,0.1,0.0,404.0415789473684,0.2168461835630701,0.86,nominal,4777.021688928078,nan,pitch_program,12.73,0.0,0.0,-3.2162639506884525,-0.032990111755396644,-0.04463853394364853,-3.1785882894357025,-0.00035903685255153606,-0.0005229915970501107,0.86,0.0,0.0,0.0,0.0,0.0,0.0,-0.0554768312159875,-6.266375213021708e-06,-9.127925328787895e-06,-0.0554768312159875,-6.266375213021708e-06,-9.127925328787895e-06,0.54,1.0,20.81016017441676,-0.0095292510944543,3.6596106872382568,0.00423319114427366,0.012705538871077044,-0.003679879271981825,21.129496152858362,0.013888561362674256,1.0,0.0,38.98874544846111,0.8565548077182951,23.106528767608157,92.81384968843743,-0.013921241399912214,5.640910815854857,1.0,23.598456989472666,0.0,1.0,95.02040453163832,5541.763984783299,1.0,1.0,0.5461856807745195,18.51844112839312,-0.022979640858856613,-44.214510769058215,1.0,23.615231534284053,1.0,-0.006447536847698221,4.0498725156112405,0.9414465975441844,1.0,0.054129016420198746,7.158198205300429
0.57,51.59431712505511,0.00026740947072351916,23.573946085763758,95.82921896317974,-0.0018004805830482994,5.086170114583386,95.9640992078249,17.885297988688862,0.05127311934957245,7.2557361697647,-0.060110253094755504,0.09668779144726385,0.7539005389857957,-0.17318359136151817,4.217592178440359,-0.00452547953456577,5627.830752211023,0.28207868008656134,95.96415318683002,2.1507479282593236,1.222230039043071,101042.12301008475,287.9967693504425,0.0,0.1,0.0,404.0076315789474,0.21682796425677175,0.86,nominal,4835.735606766585,nan,pitch_program,12.715,0.0,0.0,-3.2636233566191657,-0.031155804540638814,-0.040356644505261496,-3.2296093297457804,-0.00014361474102061444,-0.00020919663882004426,0.86,0.0,0.0,0.0,0.0,0.0,0.0,-0.05636731635719111,-2.5065500852086835e-06,-3.651170131515158e-06,-0.05636731635719111,-2.5065500852086835e-06,-3.651170131515158e-06,0.57,1.0,20.78428011472872,0.013332957741874806,3.7199488651667645,0.00509387220363051,0.01584678912318669,-0.007835231275633054,21.114556524225776,0.018397258183879626,1.0,0.0,38.98874544846111,0.8565548077182951,23.106528767608157,92.81384968843743,-0.013921241399912214,5.640910815854857,1.0,23.598456989472666,0.0,1.0,96.35138129037311,5659.035495354715,1.0,1.0,0.5461856807745195,18.51844112839312,-0.022979640858856613,-44.214510769058215,1.0,23.615231534284053,1.0,-0.006447536847698221,4.0498725156112405,0.9414465975441844,1.0,0.054129016420198746,7.158198205300429
0.6,54.48730259654088,0.00019245563173373023,23.72339748681328,96.43284904952561,-0.0024984612996596317,4.981713368317441,96.56144080395121,17.878793149761158,0.05486761415284499,7.230242422189216,-0.06542781958010528,0.09746896126007294,0.8496283653779162,-0.1766248622467618,4.272979863901531,0.0004340361927742722,5698.029413659263,0.28383499607536844,96.56149517187085,2.1499570867258746,1.2222124935468783,101040.33170110766,287.9957979163357,0.0,0.1,0.0,403.9736842105263,0.21680974495047337,0.86,nominal,4894.702981031545,nan,pitch_program,12.7,0.0,0.0,-3.3062899274713295,-0.02803789370590238,-0.034284951195027204,-3.27561768838111,-5.744589640824577e-05,-8.36786555280177e-05,0.86,0.0,0.0,0.0,0.0,0.0,0.0,-0.05717031369881597,-1.0026200340834734e-06,-1.460468052606063e-06,-0.05717031369881597,-1.0026200340834734e-06,-1.460468052606063e-06,0.6,1.0,20.77499280900015,0.03711101674563645,3.870673602761531,-0.00048769452554056625,0.019368352637145446,-0.0025805132348031092,21.132529843364395,0.019545587184376302,1.0,0.0,38.98874544846111,0.8565548077182951,23.106528767608157,92.81384968843743,-0.013921241399912214,5.640910815854857,1.0,23.925992540758173,0.0,1.0,96.61523504243365,5725.702663987543,1.0,1.0,-2.153840751153265,18.58758318562382,-0.0669637659227414,-44.299570432665256,1.0,23.301080194084726,1.0,0.0017141149353636581,4.054270966842103,0.9406915062829668,1.0,0.023668386525434897,7.175353583024323
0.63,57.39836488209527,9.344307136884384e-05,23.869793358416285,97.0354095184799,-0.0033004186788295462,4.879862386766853,97.1580350162849,17.872288857412645,0.05843178311150281,7.2022522068817665,-0.07071802233892824,0.09665474795062527,0.9328337691134204,-0.17586572951225157,4.3233105848819084,0.005305898000399601,5768.575114682864,0.2855891115632627,97.15808987577607,2.1491962224284755,1.2221953069546547,101038.57704032095,287.99484634317025,0.0,0.1,0.0,403.9397368421053,0.21679152564417503,0.86,nominal,4953.924593151134,nan,pitch_program,12.685,0.0,0.0,-3.345978534859484,-0.023581836726762586,-0.026502972822531126,-3.317834196268134,-2.297835856329831e-05,-3.3471462211207085e-05,0.86,0.0,0.0,0.0,0.0,0.0,0.0,-0.0579071307601387,-4.010480136333894e-07,-5.841872210424253e-07,-0.0579071307601387,-4.010480136333894e-07,-5.841872210424253e-07,0.63,1.0,20.74336164930221,0.04679628979472132,3.975326248390165,0.0026845057532034547,0.014296048978990363,-0.0012575028019724149,21.12090105056174,0.014600167836214841,1.0,0.0,57.720465255512494,-1.4404313207514468,24.34009016229026,97.2462926338381,0.10775775236101238,4.846218551102829,1.0,23.925992540758173,0.0,1.0,97.37601310599293,5768.935931024477,1.0,1.0,-2.153840751153265,18.58758318562382,-0.0669637659227414,-44.299570432665256,1.0,23.301080194084726,1.0,0.0017141149353636581,4.054270966842103,0.9406915062829668,1.0,0.023668386525434897,7.175353583024323
0.6599999999999999,60.327472878509695,-3.2757879067856266e-05,24.01320847623086,97.63693321381422,-0.004206698347890003,4.780503927152544,97.75389487326144,17.86578511164332,0.061900241918473126,7.172119245292464,-0.07585180876597902,0.09420546239332919,1.0042532358121292,-0.1708362868520516,4.369053978097589,0.009967577081809913,5839.467782581107,0.2873410648920432,97.75395032545909,2.148461486113017,1.2221784704764422,101036.85812995739,287.99391414490447,0.0,0.1,0.0,403.9057894736842,0.21677330633787664,0.86,nominal,5013.401112349754,nan,pitch_program,12.67,0.0,0.0,-3.3827498874874817,-0.01782000177645891,-0.017165732018341904,-3.356783610999743,-9.191343425319326e-06,-1.3388584884482834e-05,0.86,0.0,0.0,0.0,0.0,0.0,0.0,-0.05858692628893006,-1.6041920545335578e-07,-2.3367488841697012e-07,-0.05858692628893006,-1.6041920545335578e-07,-2.3367488841697012e-07,0.6599999999999999,1.0,20.641896233528506,0.0165670647205542,4.000188452886359,0.00275836225592143,0.013872077634860558,-0.000599112569996554,21.025928332466016,0.014156342610788223,1.0,0.0,57.720465255512494,-1.4404313207514468,24.34009016229026,97.2462926338381,0.10775775236101238,4.846218551102829,1.0,23.954205833367393,0.0,1.0,98.41648935153628,5695.851056632034,1.0,1.0,-1.7461874318752608,18.68076008518779,-0.009404260025044428,-44.22761412160878,1.0,24.053879619897213,1.0,0.0005123823095947522,4.0490192818785795,0.9399669788094228,1.0,0.005353514536322966,7.626073873161693
0.69,63.274596373245885,-0.0001892071188846868,24.153714541761477,98.23744982453958,-0.005214974660561019,4.683535517687188,98.34903192289353,17.859281912453184,0.06520892240428536,7.140203741152416,-0.0807023621251806,0.09014757080962882,1.0636715613330185,-0.1616056036182979,4.4106767726829865,0.014300241723413815,5910.707206647114,0.28909089004061633,98.34908806473634,2.147751054183416,1.222161975683781,101035.17410917534,287.99300085547856,0.0,0.1,0.0,403.8718421052631,0.21675508703157828,0.86,nominal,5073.13306479613,nan,pitch_program,12.655,0.0,0.0,-3.416327801369514,-0.01084087645108316,-0.00648317494947652,-3.392510125221606,-3.67653737012773e-06,-5.355433953793134e-06,0.86,0.0,0.0,0.0,0.0,0.0,0.0,-0.059210471592362146,-6.416768218134231e-08,-9.346995536678805e-08,-0.059210471592362146,-6.416768218134231e-08,-9.346995536678805e-08,0.69,1.0,20.676035756005174,0.030044171648900175,4.174334646498398,0.0013299478050626168,0.01927108524871574,-0.0007294065311326515,21.09323178123285,0.01933068859909339,1.0,0.0,57.720465255512494,-1.4404313207514468,24.34009016229026,97.2462926338381,0.10775775236101238,4.846218551102829,1.0,23.954205833367393,0.0,1.0,97.59607543789292,5919.709452835587,1.0,1.0,-1.7461874318752608,18.68076008518779,-0.009404260025044428,-44.22761412160878,1.0,24.053879619897213,1.0,0.0005123823095947522,4.0490192818785795,0.9399669788094228,1.0,0.005353514536322966,7.626073873161693
0.72,66.23970593516367,-0.00037881711223684817,24.291380583483203,98.8369853972595,-0.006320333111738712,4.588868057390856,98.94345573312486,17.852779259842237,0.06829714094578195,7.106822857702755,-0.08514881731781442,0.0845606457529388,1.1125240448797964,-0.14836738368635213,4.448592063206233,0.018192236952849956,5982.292972124917,0.2908386151577458,98.94351265484495,2.1470630873638377,1.2221458144625745,101033.52414924563,287.99210602620735,0.0,0.1,0.0,403.8378947368421,0.21673686772527995,0.86,nominal,5133.1207836054355,nan,pitch_program,12.64,0.0,0.0,-3.4470377449883465,-0.0027754010862805147,0.005290916063204541,-3.42522669708165,-1.4706149480510924e-06,-2.1421735815172536e-06,0.86,0.0,0.0,0.0,0.0,0.0,0.0,-0.059781483491285245,-2.5667072872536928e-08,-3.738798214671522e-08,-0.059781483491285245,-2.5667072872536928e-08,-3.738798214671522e-08,0.72,1.0,20.61274571840952,-0.013100501541966885,4.267491000171025,0.0039846648743440405,0.019540184723962257,-0.004732415536498155,21.049867864466307,0.0204961491509378,1.0,0.0,57.720465255512494,-1.4404313207514468,24.34009016229026,97.2462926338381,0.10775775236101238,4.846218551102829,1.0,23.548189969026268,0.0,1.0,98.8235174499053,5964.7930986841075,1.0,1.0,0.20234574953579892,18.62647838284544,-0.021279398137066582,-44.195918708907314,1.0,24.869068957562884,1.0,0.0005810174603391805,4.066421165939728,0.939271548541292,1.0,-0.376233686788083,6.758944730203977
0.75,69.22277281904019,-0.0006042784420623415,24.426273292149173,99.43556279588388,-0.007515377660849776,4.496423622198966,99.5371741130184,17.84627715381048,0.07110943037096587,7.072237887291766,-0.08907976142367999,0.07757105687442817,1.1526733413673826,-0.13143205978113665,4.483148103277402,0.021542328132141787,6054.2244797307685,0.29258426321352954,99.53723189581308,2.1463954002962735,1.2221299789737006,101031.90744952904,287.991229223601,0.0,0.1,0.0,403.80394736842106,0.21671864841898159,0.86,nominal,5193.364428183124,nan,pitch_program,12.625,0.0,0.0,-3.475385973345744,0.006210475878734604,0.017867372153099213,-3.4553222628401064,-5.882459792204369e-07,-8.568694326069016e-07,0.86,0.0,0.0,0.0,0.0,0.0,0.0,-0.06030675020402077,-1.0266829149014771e-08,-1.495519285868609e-08,-0.06030675020402077,-1.0266829149014771e-08,-1.495519285868609e-08,0.75,1.0,20.5636533011925,0.005424494914985963,4.269633280794001,0.0025441984376459907,0.023861019046920066,-0.0009417650245087679,21.002229283322617,0.024014747490011017,1.0,0.0,57.720465255512494,-1.4404313207514468,24.34009016229026,97.2462926338381,0.10775775236101238,4.846218551102829,1.0,23.548189969026268,0.0,1.0,99.95784234352905,6037.703182057053,1.0,1.0,0.20234574953579892,18.62647838284544,-0.021279398137066582,-44.195918708907314,1.0,24.869068957562884,1.0,0.0005810174603391805,4.066421165939728,0.939271548541292,1.0,-0.376233686788083,6.758944730203977
0.78,72.22376888945153,-0.0008679901670225882,24.55845727042955,100.03320234704478,-0.008790390832008223,4.4061326093458595,100.13019351647593,17.83977559435791,0.0735972042372323,7.036678959586165,-0.09239655095958854,0.06934766757650779,1.185158125146712,-0.11121941573763283,4.514654962747482,0.024262705417249255,6126.500988541526,0.2943278531873201,100.13025223040779,2.1457462723387692,1.2221144616236728,101030.32323448012,287.9903700277422,0.0,0.1,0.0,403.77,0.21670042911268322,0.86,nominal,5253.8640218145165,nan,pitch_program,12.61,0.0,0.0,-3.5016077546516065,0.015921273312535546,0.03092960619705403,-3.4830935579270066,-2.3529839168817476e-07,-3.427477730427607e-07,0.86,0.0,0.0,0.0,0.0,0.0,0.0,-0.0607914507408301,-4.106731659605908e-09,-5.9820771434744375e-09,-0.0607914507408301,-4.106731659605908e-09,-5.9820771434744375e-09,0.78,1.0,20.56790321080655,-0.07390482263024456,4.383383774327476,0.001994040501264619,0.01994805517037499,-0.0021950105708642108,21.02993480077748,0.020167279787001856,1.0,0.0,57.720465255512494,-1.4404313207514468,24.34009016229026,97.2462926338381,0.10775775236101238,4.846218551102829,1.0,23.507534353284488,0.0,1.0,100.17134627336357,6213.856451020425,1.0,1.0,-0.06919634397525576,18.75362797081654,0.002444792582192122,-44.22595951084482,1.0,24.36575912274752,1.0,0.023787471803173976,4.067084092926371,0.9386038568239261,1.0,-0.29052269351691834,6.5167808714750475
0.8099999999999999,75.24266655150126,-0.0011719969047771167,24.68799526108901,100.629922068324,-0.01013355792515095,4.317933021981998,100.72251914913706,17.83327458148453,0.07572024426618006,7.000357719144358,-0.09501633824045395,0.060097595144131814,1.210594090626641,-0.08824941395958616,4.543397856974098,0.026281692331662308,6199.12162413076,0.29606940038328716,100.72257885131748,2.1451146056569406,1.222099255037826,101028.77075090885,287.9895280308029,0.0,0.1,0.0,403.73605263157896,0.21668220980638486,0.86,nominal,5314.6194606013,nan,pitch_program,12.595,0.0,0.0,-3.5258006373504505,0.026137141994695197,0.04414170301909276,-3.508717805581073,-9.41193566752699e-08,-1.3709910921710429e-07,0.86,0.0,0.0,0.0,0.0,0.0,0.0,-0.061238678230739994,-1.6426926638423632e-09,-2.3928308573897753e-09,-0.061238678230739994,-1.6426926638423632e-09,-2.3928308573897753e-09,0.8099999999999999,1.0,20.603361080315363,-0.026849921102638542,4.54104369185136,0.0021760640956132215,0.020577355036495274,0.001227852450250998,21.097873981409123,0.020728492875406592,1.0,0.0,57.720465255512494,-1.4404313207514468,24.34009016229026,97.2462926338381,0.10775775236101238,4.846218551102829,1.0,23.507534353284488,0.0,1.0,99.90295039005342,6150.4119353619435,1.0,1.0,-0.06919634397525576,18.75362797081654,0.002444792582192122,-44.22595951084482,1.0,24.36575912274752,1.0,0.023787471803173976,4.067084092926371,0.9386038568239261,1.0,-0.29052269351691834,6.5167808714750475
0.84,78.27943868381526,-0.0015179345538947002,24.81494837302739,101.22573774379985,-0.011531254970586114,4.231770397945962,101.31415496092991,17.82677411519034,0.07744797886052668,6.963462304448685,-0.09687471673643669,0.050061253298037074,1.2297639147663593,-0.06313041139791148,4.569632385092674,0.02754608483485101,6272.085373027984,0.2978089164100411,101.31421569403928,2.1444994966195776,1.2220843520337608,101027.24926526849,287.9887028355753,0.0,0.1,0.0,403.7021052631579,0.2166639905000865,0.86,nominal,5375.630511186009,nan,pitch_program,12.58,0.0,0.0,-3.5481337600602316,0.036619406741844406,0.05715703136873176,-3.5323673782685683,-3.764774267010796e-08,-5.483964368684172e-08,0.86,0.0,0.0,0.0,0.0,0.0,0.0,-0.06165144114082651,-6.570770655369453e-10,-9.571323429559101e-10,-0.06165144114082651,-6.570770655369453e-10,-9.571323429559101e-10,0.84,1.0,20.491115985490744,0.04343281909863567,4.529129437426241,0.00213985536474228,0.02526005064918625,-0.0011605357928371662,20.98572691620593,0.02537707593691454,1.0,0.0,77.87346180805878,0.10889191089979293,24.919849549571,101.23471309065853,0.005511764005277498,4.179551688942998,1.0,25.961263790528633,0.0,1.0,101.07284413420919,6290.331386226479,1.0,1.0,-0.34935150853942976,18.690479025049083,0.023347872422257925,-44.16082157621168,1.0,24.643312447250196,1.0,-0.021709081174760666,4.073049275700301,0.9379626290674316,1.0,0.6370903885611177,7.40271538708576
0.87,81.33405857793251,-0.001906986413071692,24.939376282873663,101.82066313724197,-0.012968395305899728,4.147596994875724,101.90510375206378,17.82027419547534,0.07876051861071538,6.926155598693553,-0.09792792568974316,0.03950642923495838,1.243508241238005,-0.0365445444875645,4.593583448810933,0.028023042882796795,6345.391091302589,0.2995464094937931,101.9051655432537,2.1438999331285338,1.2220697455976497,101025.75806123625,287.9878940541613,0.0,0.1,0.0,403.66815789473685,0.21664577119378817,0.86,nominal,5436.896819783885,nan,pitch_program,12.565,0.0,0.0,-3.568810680066697,0.04711671088385863,0.06962751597995007,-3.5542333593474456,-1.5059097068043186e-08,0.04177648765211256,0.86,0.0,0.0,0.0,0.0,0.0,0.0,-0.062033074504831705,-2.6283082621477813e-10,0.0007291372594481196,-0.062033074504831705,-2.6283082621477813e-10,0.0007291372594481196,0.87,1.0,20.454716481119757,-0.006953175128071285,4.64512447709061,-7.327378160258832e-05,0.02130783669193876,0.0007859790152877496,20.975525168093,0.021322453811648292,1.0,0.0,77.87346180805878,0.10889191089979293,24.919849549571,101.23471309065853,0.005511764005277498,4.179551688942998,1.0,25.961263790528633,0.0,1.0,101.66642829053211,6284.062605890871,1.0,1.0,-0.34935150853942976,18.690479025049083,0.023347872422257925,-44.16082157621168,1.0,24.643312447250196,1.0,-0.021709081174760666,4.073049275700301,0.9379626290674316,1.0,0.6370903885611177,7.40271538708576
0.8999999999999999,84.40649989207931,-0.002335598548395837,25.061337411457934,102.41471047156011,-0.0142870711774715,4.065370952809031,102.49536753472242,17.813774822339525,0.07975572213661049,6.888579560488078,-0.09903849422688758,0.02872138514664458,1.2524826161939342,-0.03848287988653701,4.615451601591842,0.02865540995681472,6419.037528340026,0.30128188513664816,102.49543025663176,2.143315445704726,1.2220554288635055,101024.29643759585,287.9871013068255,0.0,0.1,0.0,403.6342105263158,0.2166275518874898,0.86,nominal,5498.417947564989,nan,pitch_program,12.55,0.0,0.0,-3.587991988307081,0.05812120573752335,0.07002804003718678,-3.574488536723227,0.03487271741887518,0.058727419083157095,0.86,0.0,0.0,0.0,0.0,0.0,0.0,-0.06238659404061455,0.0006086437380769504,0.001024986824199641,-0.06238659404061455,0.0006086437380769504,0.001024986824199641,0.8999999999999999,1.0,20.485613219593468,-0.012626670103492547,4.67637191781484,0.0009487040890346542,0.021810965277566586,0.0031546259490938373,21.01259057634988,0.02205832973428547,1.0,0.0,77.87346180805878,0.10889191089979293,24.919849549571,101.23471309065853,0.005511764005277498,4.179551688942998,1.0,25.047425252557765,0.0,1.0,101.96477058490191,6553.191779532082,1.0,1.0,-2.116752882817914,18.91094685466164,-0.05527625784200506,-44.08871719923294,1.0,25.20160092223123,1.0,-0.005559658248356726,4.075579338517924,0.9373466564713552,1.0,0.26783035996058285,6.669329931117114
0.9299999999999999,87.4967365926295,-0.002802714763845017,25.180889065220995,103.00789001833985,-0.015570540514972675,3.985055125435327,103.08494707194106,17.8072759957829,0.08135995068019103,6.850862336788272,-0.10055103130714904,0.04744368918803117,1.2571692142100017,-0.0518235696438917,4.635419136910015,0.029665401710334327,6493.02331275495,0.303015345868093,103.08501068018082,2.142745498651175,1.2220413950965607,101022.86370654017,287.986324221076,0.0,0.1,0.0,403.6002631578947,0.21660933258119142,0.86,nominal,5560.193322163894,nan,pitch_program,12.535000000000002,0.0,0.0,-3.6057693217647495,0.04286526136879359,0.06610992619422373,-3.5932570077481407,0.013949086967550072,0.06315692334979708,0.86,0.0,0.0,0.0,0.0,0.0,0.0,-0.06271416565556445,0.0002434574952307802,0.0011022962578836454,-0.06271416565556445,0.0002434574952307802,0.0011022962578836454,0.9299999999999999,1.0,20.428033233776873,-0.03582160866014131,4.74092999536263,3.587213442229854e-05,0.023084656306802724,-0.0023794108211572583,20.97098572334807,0.02320698686751632,1.0,0.0,77.87346180805878,0.10889191089979293,24.919849549571,101.23471309065853,0.005511764005277498,4.179551688942998,1.0,25.047425252557765,0.0,1.0,102.9710585863219,6455.324178256387,1.0,1.0,-2.116752882817914,18.91094685466164,-0.05527625784200506,-44.08871719923294,1.0,25.20160092223123,1.0,-0.005559658248356726,4.075579338517924,0.9373466564713552,1.0,0.26783035996058285,6.669329931117114
0.96,90.60474291125732,-0.0033088233104130536,25.298087580063587,103.60021062092703,-0.01687028488560122,3.9066171614197027,103.67384232752663,17.800777715805463,0.08302938285727422,6.8131166737353706,-0.10253509858665256,0.04778036017927599,1.258093317130045,-0.06747085575872491,4.653647923177544,0.031137133112957977,6567.346971460644,0.30474679177414504,103.67390682813988,2.1421896852228026,1.2220276376763635,101021.45919194497,287.98556243072954,0.0,0.1,0.0,403.56631578947366,0.21659111327489305,0.86,nominal,5622.222282043456,nan,pitch_program,12.520000000000001,0.0,0.0,-3.622260427971131,0.0446390488654546,0.06189097370631655,-3.610659059881935,0.00557963478702003,0.062397353563708756,0.86,0.0,0.0,0.0,0.0,0.0,0.0,-0.06301788876190287,9.738299809231208e-05,0.0010890392642177351,-0.06301788876190287,9.738299809231208e-05,0.0010890392642177351,0.96,1.0,20.400855043573443,0.0378495767019949,4.889039232653648,0.0066446561118497305,0.021558282658356492,-0.0029121556304425858,20.978537215873253,0.02274624488653577,1.0,0.0,77.87346180805878,0.10889191089979293,24.919849549571,101.23471309065853,0.005511764005277498,4.179551688942998,1.0,25.015661665514912,0.0,1.0,103.1750164968703,6581.749366125605,1.0,1.0,0.21852843605515918,18.938285557511332,-0.003491523870155791,-44.13955493142316,1.0,25.447235459001806,1.0,0.0023085629496967927,4.073051150514697,0.936754781049841,1.0,-0.20226188425647998,6.595807135339174
0.99,93.73049330674965,-0.0038552387879804747,25.41298844684362,104.19167984974463,-0.018213849252247363,3.830028892667773,104.26205255496679,17.794279982407215,0.08451991937340625,6.775440583015241,-0.10493389156667617,0.04022492483149981,1.2557523019742298,-0.0812344152210833,4.670281549594242,0.033018590811663404,6642.006939014669,0.3064762207838251,104.2621179803312,2.14164764017952,1.2220141500820314,101020.08222786279,287.98481557509547,0.0,0.1,0.0,403.53236842105264,0.21657289396859472,0.86,nominal,5684.504084639567,nan,pitch_program,12.505,0.0,0.0,-3.637582903469282,0.05344171712419901,0.05909039742545567,-3.626813366034343,0.002231853914808012,0.060413179880756895,0.86,0.0,0.0,0.0,0.0,0.0,0.0,-0.06329983459263756,3.8953199236924835e-05,0.0010544089005188031,-0.06329983459263756,3.8953199236924835e-05,0.0010544089005188031,0.99,1.0,20.47399443100707,0.020917776775519863,4.957124648216533,-0.0007040013082477766,0.022242939065906134,0.002175662253775786,21.065563612024476,0.022360175812683868,1.0,0.0,77.87346180805878,0.10889191089979293,24.919849549571,101.23471309065853,0.005511764005277498,4.179551688942998,1.0,25.015661665514912,0.0,1.0,103.57500260663151,6598.228860175956,1.0,1.0,0.21852843605515918,18.938285557511332,-0.003491523870155791,-44.13955493142316,1.0,25.447235459001806,1.0,0.0023085629496967927,4.073051150514697,0.936754781049841,1.0,-0.20226188425647998,6.595807135339174
1.02,96.87396243111729,-0.004443651251610394,25.52564641946655,104.78230414558803,-0.019613748787663962,3.7552657540977283,104.84957638274729,17.787782795588157,0.08570734393830098,6.737920221228297,-0.10764958260134054,0.028930495070935567,1.250543851827559,-0.09175213369405782,4.685448642816541,0.035215782754361255,6717.001567033223,0.308203628947178,104.84964277665095,2.1411190871607166,1.2220009258795457,101018.73215722549,287.98408329827345,0.0,0.1,0.0,403.49842105263156,0.21655467466229633,0.86,nominal,5747.03791428024,nan,pitch_program,12.49,0.0,0.0,-3.6518269678128923,0.06529371394660631,0.05815174298696446,-3.6418215271014724,0.04006896993388699,0.05905631774448143,0.86,0.0,0.0,0.0,0.0,0.0,0.0,-0.0635617764179286,0.0006993354532289426,0.0010307271887451523,-0.0635617764179286,0.0006993354532289426,0.0010307271887451523,1.02,1.0,20.35689919366662,-0.007845252809443946,5.049542822812823,-0.0007637963370390104,0.0227418968706902,-0.0006272113661053785,20.97382390143764,0.02276336205878549,1.0,0.0,77.87346180805878,0.10889191089979293,24.919849549571,101.23471309065853,0.005511764005277498,4.179551688942998,1.0,25.355057004413606,0.0,1.0,105.02129398229125,6838.053462708528,1.0,1.0,0.09951296808886073,18.94259022149178,-0.04861832563672603,-44.08471451069927,1.0,25.58453675524849,1.0,-0.0024413101988796943,4.121272813791401,0.9361858839513336,1.0,-0.1493110263462462,6.392711046017853
1.05,100.03512509890591,-0.005075866752397605,25.636115611373516,105.37208892628723,-0.021073850026240386,3.6823063968988214,105.4364118755811,17.781286155348287,0.0875683714538398,6.700631533865769,-0.11058613642834611,0.05058121422212403,1.2428078714346755,-0.0990921753679617,4.6992655252558855,0.037551239396863625,6792.329130571866,0.30992901063451245,105.43647928476743,2.1406038375378635,1.2219879587104117,101017.40833068601,287.98336524852607,0.0,0.1,0.0,403.46447368421053,0.216536455355998,0.86,nominal,5809.822887758866,nan,pitch_program,12.475,0.0,0.0,-3.665069035572497,0.047473619475463504,0.05883333829276875,-3.655770032184087,0.016027587973554795,0.05892253007345382,0.86,0.0,0.0,0.0,0.0,0.0,0.0,-0.06380522375735138,0.00027973418129157704,0.0010283921533871454,-0.06380522375735138,0.00027973418129157704,0.0010283921533871454,1.05,1.0,20.389516798379915,0.01801046540402726,5.092760633167327,-7.913932245263641e-05,0.023211845012570453,-0.001945670976198657,21.015920881917587,0.023293382053011794,1.0,0.0,100.9622929593583,-0.519397180212428,25.097932608556373,105.48287087992966,-0.1252066496848223,3.668903790478552,1.0,25.355057004413606,0.0,1.0,105.07862743163088,6694.556921614563,1.0,1.0,0.09951296808886073,18.94259022149178,-0.04861832563672603,-44.08471451069927,1.0,25.58453675524849,1.0,-0.0024413101988796943,4.121272813791401,0.9361858839513336,1.0,-0.1493110263462462,6.392711046017853
1.08,103.21395625903597,-0.00575373839832324,25.744449582707972,105.96103867100189,-0.022595721530854516,3.6111323778152293,106.02255658044798,17.774790061687607,0.08941581346592041,6.66364080104045,-0.11366920045199497,0.04962311133386104,1.232865353881636,-0.10397495246382105,4.711835349181536,0.040006217467476554,6867.987832807446,0.3116523586902526,106.02262505238492,2.1401017234793107,1.2219752422814123,101016.11010557196,287.98266107771235,0.0,0.1,0.0,403.43052631578945,0.21651823604969964,0.86,nominal,5872.8580584274105,nan,pitch_program,12.46,0.0,0.0,-3.677384455242211,0.0503858337443577,0.06076291337161395,-3.668738686018962,0.006411035189421919,0.060026760052349894,0.86,0.0,0.0,0.0,0.0,0.0,0.0,-0.06403156946632134,0.00011189367251663082,0.0010476646022181094,-0.06403156946632134,0.00011189367251663082,0.0010476646022181094,1.08,1.0,20.301554548711078,-0.028640827696365688,5.236581262098242,0.0009261963914874289,0.021667425082184433,-0.00023136666484031712,20.96606116336259,0.02168844577145349,1.0,0.0,100.9622929593583,-0.519397180212428,25.097932608556373,105.48287087992966,-0.1252066496848223,3.668903790478552,1.0,26.162263501006187,0.0,1.0,105.83873937051497,6859.550197136762,1.0,1.0,0.6127759318898691,19.02915845604987,-0.0477557336548972,-44.01603947814922,1.0,25.689091163138748,1.0,-0.01129238253418979,4.1145211170168166,0.93563887604323,1.0,-0.7188304521907676,6.735697573467738
1.1099999999999999,106.41043097001578,-0.0064790795225369725,25.850701416032642,106.54915703266052,-0.024178037473791075,3.5417277774889686,106.6080076007327,17.768294514606115,0.09094929427780972,6.62700573298408,-0.11684746978361113,0.03885607366602817,1.2210018332296033,-0.1071525141908145,4.72325064383561,0.042555344930896646,6943.9758127402165,0.31337366464959765,106.60807718088428,2.139612608094005,1.2219627703557145,101014.83684497717,287.98197044079575,0.0,0.1,0.0,403.3965789473684,0.21650001674340127,0.86,nominal,5936.142423340477,nan,pitch_program,12.445,0.0,0.0,-3.6888406647741188,0.06195596283037954,0.06356514367651915,-3.680799873272056,0.03973799177399649,0.062149790226851444,0.86,0.0,0.0,0.0,0.0,0.0,0.0,-0.0642420768955874,0.0006935587945866612,0.0010847184688823513,-0.0642420768955874,0.0006935587945866612,0.0010847184688823513,1.1099999999999999,1.0,20.336167799901368,-0.057759497215128186,5.2867867215424065,-0.000275365450973609,0.02198464140316474,0.0009541798966326116,21.01221479959552,0.02200706120845019,1.0,0.0,100.9622929593583,-0.519397180212428,25.097932608556373,105.48287087992966,-0.1252066496848223,3.668903790478552,1.0,26.162263501006187,0.0,1.0,107.1279668864285,6986.483099733479,1.0,1.0,0.6127759318898691,19.02915845604987,-0.0477557336548972,-44.01603947814922,1.0,25.689091163138748,1.0,-0.01129238253418979,4.1145211170168166,0.93563887604323,1.0,-0.7188304521907676,6.735697573467738
1.14,109.6245243777405,-0.007253636477601223,25.95492378292422,107.13644692415707,-0.025818565168808368,3.474078896385869,107.19276165072597,17.761799514103814,0.09305819395985435,6.590776589243757,-0.12008884459770151,0.05786152066428812,1.2074642645091391,-0.10926690695456245,4.7335953669926125,0.04509493179480316,7020.291150966425,0.3150929189045673,107.192832381752,2.139136397771313,1.2219505367450307,101013.58791696123,287.98129299541097,0.0,0.1,0.0,403.3626315789474,0.21648179743710294,0.86,nominal,5999.674928470487,nan,pitch_program,12.43,0.0,0.0,-3.699496059809512,0.04671682901936732,0.0668553645534706,-3.69201758519453,0.0158951967095986,0.06497313482282294,0.86,0.0,0.0,0.0,0.0,0.0,0.0,-0.0644378629031748,0.0002774235178346645,0.0011339951280004428,-0.0644378629031748,0.0002774235178346645,0.0011339951280004428,1.14,1.0,20.285081913366376,-0.0016908406396313955,5.308029991474303,0.002222915444575544,0.017676591946803533,4.1068103853796663e-05,20.968064609813574,0.017815862104222913,1.0,0.0,100.9622929593583,-0.519397180212428,25.097932608556373,105.48287087992966,-0.1252066496848223,3.668903790478552,1.0,26.67392466997476,0.0,1.0,106.9691306345738,6958.026237834793,1.0,1.0,-0.8799644799778188,19.098184892214192,0.04415753390670365,-44.085823859486545,1.0,26.00930766998383,1.0,-0.0032938744173676556,4.12406878722509,0.9351126905426894,1.0,-0.10966764797126281,6.885574664085514
1.17,112.85621169524046,-0.008079153595291575,26.05716900350558,107.72291058333221,-0.02751723725634509,3.4081740193787478,107.77681509438521,17.7553050601807,0.0950414745014216,6.554996923351005,-0.12337761403297075,0.05356082534281374,1.1924751964846694,-0.1108626604662542,4.742943789890018,0.04766737397255282,7096.931873751597,0.31681011082653876,107.77688701821347,2.138673000300489,1.221938535302626,101012.36269383512,287.9806284014772,0.0,0.1,0.0,403.3286842105263,0.21646357813080455,0.86,nominal,6063.454472352879,nan,pitch_program,12.415,0.0,0.0,-3.709404119023227,0.052776323598789726,0.07042577920202905,-3.7024495054917477,0.00635807868383944,0.0682447214503466,0.86,0.0,0.0,0.0,0.0,0.0,0.0,-0.06461993425966688,0.0001109694071338658,0.0011910950864149482,-0.06461993425966688,0.0001109694071338658,0.0011910950864149482,1.17,1.0,20.19540201122971,-0.03486129866570474,5.335817876835999,7.134069554379718e-05,0.023043312918634807,-0.0030254186079393328,20.888428139045992,0.02324118149996312,1.0,0.0,100.9622929593583,-0.519397180212428,25.097932608556373,105.48287087992966,-0.1252066496848223,3.668903790478552,1.0,26.67392466997476,0.0,1.0,107.84441565656043,7017.087221207387,1.0,1.0,-0.8799644799778188,19.098184892214192,0.04415753390670365,-44.085823859486545,1.0,26.00930766998383,1.0,-0.0032938744173676556,4.12406878722509,0.9351126905426894,1.0,-0.10966764797126281,6.885574664085514
1.2,116.10546818509094,-0.00895735001657623,26.157489097691858,108.30854966168293,-0.02927321404282182,3.3440031395424965,108.36016400751508,17.748811152836776,0.09659444010238676,6.5197044215043825,-0.1267073012226625,0.03912925760719915,1.176230715202378,-0.11223511954678528,4.751362910221698,0.050292333947900635,7173.89595964424,0.31852522894102636,108.36023716464622,2.138222341352713,1.22192675991729,101011.16055154554,287.979976320865,0.0,0.1,0.0,403.2947368421053,0.21644535882450622,0.86,nominal,6127.479912327663,nan,pitch_program,12.4,0.0,0.0,-3.718611948891545,0.06769977234551557,0.0741635166341128,-3.7121469715316264,0.04316309488084512,0.07179599856060633,0.86,0.0,0.0,0.0,0.0,0.0,0.0,-0.06478918697116309,0.0007533381210214568,0.00125307656463969,-0.06478918697116309,0.0007533381210214568,0.00125307656463969,1.2,1.0,20.168367852754425,0.0518257571129458,5.533291677514646,0.0005581706398000351,0.020076439090678834,-0.0029764354055389136,20.91370518443758,0.020303549658821175,1.0,0.0,100.9622929593583,-0.519397180212428,25.097932608556373,105.48287087992966,-0.1252066496848223,3.668903790478552,1.0,26.845441992386064,0.0,1.0,107.7617361172782,7202.272592815411,1.0,1.0,1.9367191728056017,19.13337137897206,0.06425202830908464,-44.02161121043014,1.0,26.40236981069958,1.0,-0.007514418655373469,4.130033555713995,0.9346062772557704,1.0,-0.021109813215559804,6.121229990614169
