time_s,sensor_time_s,imu_valid,imu_ax_mps2,imu_ay_mps2,imu_az_mps2,gyro_p_rps,gyro_q_rps,gyro_r_rps,imu_accel_norm_mps2,imu_gyro_norm_rps,gps_valid,gps_latency_s,gps_x_m,gps_y_m,gps_z_m,gps_vx_mps,gps_vy_mps,gps_vz_mps,baro_valid,baro_alt_m,baro_bias_m,pitot_valid,pitot_airspeed_mps,pitot_qbar_pa,pitot_compressibility_factor,mag_valid,mag_heading_deg,mag_x_ut,mag_y_ut,mag_z_ut,radar_valid,radar_agl_m,optical_flow_valid,optical_flow_x_radps,optical_flow_y_radps,optical_flow_quality,horizon_valid,horizon_roll_deg,horizon_pitch_deg
0.0,0.0,1.0,17.089473733673106,-0.02973773807099401,0.17662175509873101,0.0016677683591043149,0.0011681274632859406,0.0012765720485123657,17.090412285001868,0.00240324973008537,1.0,0.0,-1.885154541229685,1.8645638091475825,21.162662438547994,85.32748210022089,0.18147237523479218,7.846341299741817,1.0,20.771163472887363,0.0,1.0,85.62705682436835,4465.525352623238,1.0,1.0,-0.8198733225718878,19.523475325297145,-0.00615746722134172,-43.81279554351524,1.0,20.39618647858491,1.0,-0.0077448575321814855,4.273240466216326,0.95,1.0,0.17459483210835952,5.697481511065039
0.03,0.03,1.0,17.396244479696897,-0.01435698229198223,0.6886282541675011,0.00227870121700718,-0.15518965861156028,0.0009052063149970115,17.40987469779042,0.1552090268563067,1.0,0.0,-1.885154541229685,1.8645638091475825,21.162662438547994,85.32748210022089,0.18147237523479218,7.846341299741817,1.0,20.771163472887363,0.0,1.0,85.44847029073749,4493.7730199296575,1.0,1.0,-0.8198733225718878,19.523475325297145,-0.00615746722134172,-43.81279554351524,1.0,20.39618647858491,1.0,-0.0077448575321814855,4.273240466216326,0.95,1.0,0.17459483210835952,5.697481511065039
0.06,0.06,1.0,17.704005531554397,-0.040865823476678685,1.2236155596896918,-0.0028398648926588497,-0.18272117719737893,-0.0015355968733229042,17.746287412153332,0.1827496962699579,1.0,0.0,-1.885154541229685,1.8645638091475825,21.162662438547994,85.32748210022089,0.18147237523479218,7.846341299741817,1.0,20.526029305795074,0.0,1.0,85.93810156585161,4525.844490958644,1.0,1.0,0.07321572507599795,19.051633273590532,-0.026914818962720098,-44.01670170715468,1.0,20.44437918642227,1.0,-0.00010014841796547101,4.2191320453843275,0.9488515176395192,1.0,-0.1571242879183091,6.398144502912851
0.09,0.09,1.0,17.977928092968018,-0.004364484688315799,1.4143950974990716,0.0012974376529873472,-0.11381445577459348,0.001177630428237802,18.033480835836563,0.11382794253238436,1.0,0.0,-1.885154541229685,1.8645638091475825,21.162662438547994,85.32748210022089,0.18147237523479218,7.846341299741817,1.0,20.526029305795074,0.0,1.0,87.23044371911043,4643.934242920982,1.0,1.0,0.07321572507599795,19.051633273590532,-0.026914818962720098,-44.01670170715468,1.0,20.44437918642227,1.0,-0.00010014841796547101,4.2191320453843275,0.9488515176395192,1.0,-0.1571242879183091,6.398144502912851
0.12,0.12,1.0,18.243748866338237,-0.008234755358805256,1.5290844198325266,0.0029557101259373103,-0.05630966562075726,-0.004272624087438873,18.307718035631535,0.05654882829257051,1.0,0.0,-1.885154541229685,1.8645638091475825,21.162662438547994,85.32748210022089,0.18147237523479218,7.846341299741817,1.0,20.835296556620964,0.0,1.0,87.26356473046994,4712.610047778156,1.0,1.0,-1.9034282567597944,18.840833773035076,-0.006994163735382045,-44.08140969183615,1.0,20.159613396982472,1.0,-0.014477037212775526,4.181138647333237,0.9477631965478525,1.0,0.28943533398110544,7.474549240186705
0.15,0.15,1.0,18.542976103511602,-0.030567730790696985,1.6896764340898718,0.0013074287992247125,-0.04949763107564984,-0.0030783060327520917,18.61982555271361,0.049610491029594306,1.0,0.0,-1.885154541229685,1.8645638091475825,21.162662438547994,85.32748210022089,0.18147237523479218,7.846341299741817,1.0,20.835296556620964,0.0,1.0,87.53966481836079,4739.75925432716,1.0,1.0,-1.9034282567597944,18.840833773035076,-0.006994163735382045,-44.08140969183615,1.0,20.159613396982472,1.0,-0.014477037212775526,4.181138647333237,0.9477631965478525,1.0,0.28943533398110544,7.474549240186705
0.18,0.18,1.0,18.748352245116116,-0.042577221658550594,1.9094868294924372,0.0014102797908761993,-0.059289185017973235,-0.002327487539441737,18.845388419418683,0.05935160947632568,1.0,0.0,-1.885154541229685,1.8645638091475825,21.162662438547994,85.32748210022089,0.18147237523479218,7.846341299741817,1.0,20.082305301102334,0.0,1.0,88.03086687436317,4843.147042342706,1.0,1.0,-0.5562341585160822,18.729986257235904,0.026496603719618855,-44.221196723795295,1.0,21.361831931629176,1.0,0.005993326407555316,4.138845108641095,0.94672950472432,1.0,-0.49271252303698165,6.69241308166701
0.21,0.21,1.0,19.03918360687184,0.0654861991528572,2.109461699282648,0.0001589792514000625,-0.04988877215533666,-0.0003884229961238783,19.15579884836958,0.0498905375195877,1.0,0.0,18.158497973532736,-0.8505201034817174,22.52851851093021,88.79108599194562,-0.10577058458715469,6.696073112562582,1.0,20.082305301102334,0.0,1.0,88.81121651448117,4833.564047342548,1.0,1.0,-0.5562341585160822,18.729986257235904,0.026496603719618855,-44.221196723795295,1.0,21.361831931629176,1.0,0.005993326407555316,4.138845108641095,0.94672950472432,1.0,-0.49271252303698165,6.69241308166701
0.24,0.24,1.0,19.340020750339857,-0.054448748963033845,2.3113652593467395,0.0019091649367176694,-0.03678346092877151,-0.00025046185995798243,19.4777251405793,0.0368338246696884,1.0,0.0,18.158497973532736,-0.8505201034817174,22.52851851093021,88.79108599194562,-0.10577058458715469,6.696073112562582,1.0,22.185472296822848,0.0,1.0,89.45723657184935,4891.127672119592,1.0,1.0,-1.0056891601547093,18.64236278597983,-0.016420549769640524,-44.295506018700046,1.0,21.597930174194296,1.0,0.014251888953545481,4.126185957194981,0.9457459459541214,1.0,-0.576052924133447,7.15888222819358
0.27,0.27,1.0,19.55241002659721,-0.023656146173613703,2.4549051650069127,0.0032024567596951195,-0.02279101991506628,-0.0034857397197124917,19.70593455867061,0.023277386010036566,1.0,0.0,18.158497973532736,-0.8505201034817174,22.52851851093021,88.79108599194562,-0.10577058458715469,6.696073112562582,1.0,22.185472296822848,0.0,1.0,90.12873086763831,4961.811637147024,1.0,1.0,-1.0056891601547093,18.64236278597983,-0.016420549769640524,-44.295506018700046,1.0,21.597930174194296,1.0,0.014251888953545481,4.126185957194981,0.9457459459541214,1.0,-0.576052924133447,7.15888222819358
0.3,0.3,1.0,19.933204702360538,-0.01573068594495157,2.5963170474385344,0.0006839194118869113,-0.021305569187455548,-0.00026724782654906766,20.10158599144626,0.021318218630181233,1.0,0.0,18.158497973532736,-0.8505201034817174,22.52851851093021,88.79108599194562,-0.10577058458715469,6.696073112562582,1.0,22.083138517670385,0.0,1.0,90.39906410955433,5033.652708234363,1.0,1.0,-0.055227980020042915,18.477132722329543,-0.013342098308879988,-44.293762615539,1.0,21.91376557922756,1.0,0.0026562402009304726,4.091608632908161,0.94480805950321,1.0,0.5146167210327217,7.8720684458878765
0.32999999999999996,0.32999999999999996,1.0,20.17261022976863,-0.04586544647517555,2.7886749393180152,0.0006300845547122138,-0.014516198766683093,-0.0007185059226145301,20.36450380044961,0.014547621246814572,1.0,0.0,18.158497973532736,-0.8505201034817174,22.52851851093021,88.79108599194562,-0.10577058458715469,6.696073112562582,1.0,22.083138517670385,0.0,1.0,90.88959616203164,5073.149539796807,1.0,1.0,-0.055227980020042915,18.477132722329543,-0.013342098308879988,-44.293762615539,1.0,21.91376557922756,1.0,0.0026562402009304726,4.091608632908161,0.94480805950321,1.0,0.5146167210327217,7.8720684458878765
0.36,0.36,1.0,20.561912772043247,0.045027012066197955,2.8762485589467204,-8.849835513425057e-05,-0.010410287424521922,-0.0018600801441570275,20.762155236144775,0.010575529034649186,1.0,0.0,18.158497973532736,-0.8505201034817174,22.52851851093021,88.79108599194562,-0.10577058458715469,6.696073112562582,1.0,22.99814500638058,0.0,1.0,91.39172182708954,5125.461068714048,1.0,1.0,0.21729971330482362,18.559115301119572,0.04848139002120206,-44.33059214314025,1.0,22.233176159358322,1.0,0.006442206750897619,4.087009240202142,0.9439122156720027,1.0,-0.09709385591445217,7.10656518402246
0.39,0.39,1.0,20.83086938057742,-0.03729661838878497,3.027703899704755,-0.0024186175510657335,-0.004375394780431501,-2.3310817404435715e-05,21.04978624814771,0.004999433341605675,1.0,0.0,18.158497973532736,-0.8505201034817174,22.52851851093021,88.79108599194562,-0.10577058458715469,6.696073112562582,1.0,22.99814500638058,0.0,1.0,91.5438066105889,5181.330982314562,1.0,1.0,0.21729971330482362,18.559115301119572,0.04848139002120206,-44.33059214314025,1.0,22.233176159358322,1.0,0.006442206750897619,4.087009240202142,0.9439122156720027,1.0,-0.09709385591445217,7.10656518402246
0.42,0.42,1.0,20.873158366393554,-0.023536636895916098,3.17702909888452,0.0014658071379883408,0.0010600980323319969,-0.0010635061934571282,21.113569287474363,0.0020984384259380624,1.0,0.0,38.98874544846111,0.8565548077182951,23.106528767608157,92.81384968843743,-0.013921241399912214,5.640910815854857,1.0,23.176918221379452,0.0,1.0,93.15534099646538,5284.131506881018,1.0,1.0,0.9780383473178617,18.490509736431562,0.006942396264250814,-44.25501824468571,1.0,22.71195010758936,1.0,0.014201209808394663,4.062632928508584,0.9430550529366402,1.0,0.43795658158464434,6.957535027438913
0.44999999999999996,0.44999999999999996,1.0,20.901125252588606,0.03980068280624527,3.303982027279743,0.00474817222558578,0.005205826153222402,-0.0015840462829793834,21.16069276170647,0.007221839658149396,1.0,0.0,38.98874544846111,0.8565548077182951,23.106528767608157,92.81384968843743,-0.013921241399912214,5.640910815854857,1.0,23.176918221379452,0.0,1.0,93.14747025480669,5387.17650726947,1.0,1.0,0.9780383473178617,18.490509736431562,0.006942396264250814,-44.25501824468571,1.0,22.71195010758936,1.0,0.014201209808394663,4.062632928508584,0.9430550529366402,1.0,0.43795658158464434,6.957535027438913
0.48,0.48,1.0,20.853543770141474,0.016999668388713078,3.3984495986773062,0.0005964905597380479,0.006279438302130578,0.0003912882900249698,21.128654392475674,0.006319830132529816,1.0,0.0,38.98874544846111,0.8565548077182951,23.106528767608157,92.81384968843743,-0.013921241399912214,5.640910815854857,1.0,24.502049427936935,0.0,1.0,94.01956492484894,5362.176948227122,1.0,1.0,-0.38677945458844964,18.478723438301984,-0.030155843914555162,-44.26929765374467,1.0,23.25869985188571,1.0,0.004920541069358194,4.080533137177097,0.9422338545641868,1.0,0.6776646819926122,7.661889613534044
0.51,0.51,1.0,20.79921911808949,0.07209233052100245,3.5741601546385264,0.002295553352855761,0.00971651445093341,-0.004631028297716063,21.104201810005158,0.011005754920279302,1.0,0.0,38.98874544846111,0.8565548077182951,23.106528767608157,92.81384968843743,-0.013921241399912214,5.640910815854857,1.0,24.502049427936935,0.0,1.0,93.77677613835135,5484.033348242661,1.0,1.0,-0.38677945458844964,18.478723438301984,-0.030155843914555162,-44.26929765374467,1.0,23.25869985188571,1.0,0.004920541069358194,4.080533137177097,0.9422338545641868,1.0,0.6776646819926122,7.661889613534044
0.54,0.54,1.0,20.81016017441676,-0.0095292510944543,3.6596106872382568,0.00423319114427366,0.012705538871077044,-0.003679879271981825,21.129496152858362,0.013888561362674256,1.0,0.0,38.98874544846111,0.8565548077182951,23.106528767608157,92.81384968843743,-0.013921241399912214,5.640910815854857,1.0,23.598456989472666,0.0,1.0,95.02040453163832,5541.763984783299,1.0,1.0,0.5461856807745195,18.51844112839312,-0.022979640858856613,-44.214510769058215,1.0,23.615231534284053,1.0,-0.006447536847698221,4.0498725156112405,0.9414465975441844,1.0,0.054129016420198746,7.158198205300429
0.57,0.57,1.0,20.78428011472872,0.013332957741874806,3.7199488651667645,0.00509387220363051,0.01584678912318669,-0.007835231275633054,21.114556524225776,0.018397258183879626,1.0,0.0,38.98874544846111,0.8565548077182951,23.106528767608157,92.81384968843743,-0.013921241399912214,5.640910815854857,1.0,23.598456989472666,0.0,1.0,96.35138129037311,5659.035495354715,1.0,1.0,0.5461856807745195,18.51844112839312,-0.022979640858856613,-44.214510769058215,1.0,23.615231534284053,1.0,-0.006447536847698221,4.0498725156112405,0.9414465975441844,1.0,0.054129016420198746,7.158198205300429
0.6,0.6,1.0,20.77499280900015,0.03711101674563645,3.870673602761531,-0.00048769452554056625,0.019368352637145446,-0.0025805132348031092,21.132529843364395,0.019545587184376302,1.0,0.0,38.98874544846111,0.8565548077182951,23.106528767608157,92.81384968843743,-0.013921241399912214,5.640910815854857,1.0,23.925992540758173,0.0,1.0,96.61523504243365,5725.702663987543,1.0,1.0,-2.153840751153265,18.58758318562382,-0.0669637659227414,-44.299570432665256,1.0,23.301080194084726,1.0,0.0017141149353636581,4.054270966842103,0.9406915062829668,1.0,0.023668386525434897,7.175353583024323
0.63,0.63,1.0,20.74336164930221,0.04679628979472132,3.975326248390165,0.0026845057532034547,0.014296048978990363,-0.0012575028019724149,21.12090105056174,0.014600167836214841,1.0,0.0,57.720465255512494,-1.4404313207514468,24.34009016229026,97.2462926338381,0.10775775236101238,4.846218551102829,1.0,23.925992540758173,0.0,1.0,97.37601310599293,5768.935931024477,1.0,1.0,-2.153840751153265,18.58758318562382,-0.0669637659227414,-44.299570432665256,1.0,23.301080194084726,1.0,0.0017141149353636581,4.054270966842103,0.9406915062829668,1.0,0.023668386525434897,7.175353583024323
0.6599999999999999,0.6599999999999999,1.0,20.641896233528506,0.0165670647205542,4.000188452886359,0.00275836225592143,0.013872077634860558,-0.000599112569996554,21.025928332466016,0.014156342610788223,1.0,0.0,57.720465255512494,-1.4404313207514468,24.34009016229026,97.2462926338381,0.10775775236101238,4.846218551102829,1.0,23.954205833367393,0.0,1.0,98.41648935153628,5695.851056632034,1.0,1.0,-1.7461874318752608,18.68076008518779,-0.009404260025044428,-44.22761412160878,1.0,24.053879619897213,1.0,0.0005123823095947522,4.0490192818785795,0.9399669788094228,1.0,0.005353514536322966,7.626073873161693
0.69,0.69,1.0,20.676035756005174,0.030044171648900175,4.174334646498398,0.0013299478050626168,0.01927108524871574,-0.0007294065311326515,21.09323178123285,0.01933068859909339,1.0,0.0,57.720465255512494,-1.4404313207514468,24.34009016229026,97.2462926338381,0.10775775236101238,4.846218551102829,1.0,23.954205833367393,0.0,1.0,97.59607543789292,5919.709452835587,1.0,1.0,-1.7461874318752608,18.68076008518779,-0.009404260025044428,-44.22761412160878,1.0,24.053879619897213,1.0,0.0005123823095947522,4.0490192818785795,0.9399669788094228,1.0,0.005353514536322966,7.626073873161693
0.72,0.72,1.0,20.61274571840952,-0.013100501541966885,4.267491000171025,0.0039846648743440405,0.019540184723962257,-0.004732415536498155,21.049867864466307,0.0204961491509378,1.0,0.0,57.720465255512494,-1.4404313207514468,24.34009016229026,97.2462926338381,0.10775775236101238,4.846218551102829,1.0,23.548189969026268,0.0,1.0,98.8235174499053,5964.7930986841075,1.0,1.0,0.20234574953579892,18.62647838284544,-0.021279398137066582,-44.195918708907314,1.0,24.869068957562884,1.0,0.0005810174603391805,4.066421165939728,0.939271548541292,1.0,-0.376233686788083,6.758944730203977
0.75,0.75,1.0,20.5636533011925,0.005424494914985963,4.269633280794001,0.0025441984376459907,0.023861019046920066,-0.0009417650245087679,21.002229283322617,0.024014747490011017,1.0,0.0,57.720465255512494,-1.4404313207514468,24.34009016229026,97.2462926338381,0.10775775236101238,4.846218551102829,1.0,23.548189969026268,0.0,1.0,99.95784234352905,6037.703182057053,1.0,1.0,0.20234574953579892,18.62647838284544,-0.021279398137066582,-44.195918708907314,1.0,24.869068957562884,1.0,0.0005810174603391805,4.066421165939728,0.939271548541292,1.0,-0.376233686788083,6.758944730203977
0.78,0.78,1.0,20.56790321080655,-0.07390482263024456,4.383383774327476,0.001994040501264619,0.01994805517037499,-0.0021950105708642108,21.02993480077748,0.020167279787001856,1.0,0.0,57.720465255512494,-1.4404313207514468,24.34009016229026,97.2462926338381,0.10775775236101238,4.846218551102829,1.0,23.507534353284488,0.0,1.0,100.17134627336357,6213.856451020425,1.0,1.0,-0.06919634397525576,18.75362797081654,0.002444792582192122,-44.22595951084482,1.0,24.36575912274752,1.0,0.023787471803173976,4.067084092926371,0.9386038568239261,1.0,-0.29052269351691834,6.5167808714750475
0.8099999999999999,0.8099999999999999,1.0,20.603361080315363,-0.026849921102638542,4.54104369185136,0.0021760640956132215,0.020577355036495274,0.001227852450250998,21.097873981409123,0.020728492875406592,1.0,0.0,57.720465255512494,-1.4404313207514468,24.34009016229026,97.2462926338381,0.10775775236101238,4.846218551102829,1.0,23.507534353284488,0.0,1.0,99.90295039005342,6150.4119353619435,1.0,1.0,-0.06919634397525576,18.75362797081654,0.002444792582192122,-44.22595951084482,1.0,24.36575912274752,1.0,0.023787471803173976,4.067084092926371,0.9386038568239261,1.0,-0.29052269351691834,6.5167808714750475
0.84,0.84,1.0,20.491115985490744,0.04343281909863567,4.529129437426241,0.00213985536474228,0.02526005064918625,-0.0011605357928371662,20.98572691620593,0.02537707593691454,1.0,0.0,77.87346180805878,0.10889191089979293,24.919849549571,101.23471309065853,0.005511764005277498,4.179551688942998,1.0,25.961263790528633,0.0,1.0,101.07284413420919,6290.331386226479,1.0,1.0,-0.34935150853942976,18.690479025049083,0.023347872422257925,-44.16082157621168,1.0,24.643312447250196,1.0,-0.021709081174760666,4.073049275700301,0.9379626290674316,1.0,0.6370903885611177,7.40271538708576
0.87,0.87,1.0,20.454716481119757,-0.006953175128071285,4.64512447709061,-7.327378160258832e-05,0.02130783669193876,0.0007859790152877496,20.975525168093,0.021322453811648292,1.0,0.0,77.87346180805878,0.10889191089979293,24.919849549571,101.23471309065853,0.005511764005277498,4.179551688942998,1.0,25.961263790528633,0.0,1.0,101.66642829053211,6284.062605890871,1.0,1.0,-0.34935150853942976,18.690479025049083,0.023347872422257925,-44.16082157621168,1.0,24.643312447250196,1.0,-0.021709081174760666,4.073049275700301,0.9379626290674316,1.0,0.6370903885611177,7.40271538708576
0.8999999999999999,0.8999999999999999,1.0,20.485613219593468,-0.012626670103492547,4.67637191781484,0.0009487040890346542,0.021810965277566586,0.0031546259490938373,21.01259057634988,0.02205832973428547,1.0,0.0,77.87346180805878,0.10889191089979293,24.919849549571,101.23471309065853,0.005511764005277498,4.179551688942998,1.0,25.047425252557765,0.0,1.0,101.96477058490191,6553.191779532082,1.0,1.0,-2.116752882817914,18.91094685466164,-0.05527625784200506,-44.08871719923294,1.0,25.20160092223123,1.0,-0.005559658248356726,4.075579338517924,0.9373466564713552,1.0,0.26783035996058285,6.669329931117114
0.9299999999999999,0.9299999999999999,1.0,20.428033233776873,-0.03582160866014131,4.74092999536263,3.587213442229854e-05,0.023084656306802724,-0.0023794108211572583,20.97098572334807,0.02320698686751632,1.0,0.0,77.87346180805878,0.10889191089979293,24.919849549571,101.23471309065853,0.005511764005277498,4.179551688942998,1.0,25.047425252557765,0.0,1.0,102.9710585863219,6455.324178256387,1.0,1.0,-2.116752882817914,18.91094685466164,-0.05527625784200506,-44.08871719923294,1.0,25.20160092223123,1.0,-0.005559658248356726,4.075579338517924,0.9373466564713552,1.0,0.26783035996058285,6.669329931117114
0.96,0.96,1.0,20.400855043573443,0.0378495767019949,4.889039232653648,0.0066446561118497305,0.021558282658356492,-0.0029121556304425858,20.978537215873253,0.02274624488653577,1.0,0.0,77.87346180805878,0.10889191089979293,24.919849549571,101.23471309065853,0.005511764005277498,4.179551688942998,1.0,25.015661665514912,0.0,1.0,103.1750164968703,6581.749366125605,1.0,1.0,0.21852843605515918,18.938285557511332,-0.003491523870155791,-44.13955493142316,1.0,25.447235459001806,1.0,0.0023085629496967927,4.073051150514697,0.936754781049841,1.0,-0.20226188425647998,6.595807135339174
0.99,0.99,1.0,20.47399443100707,0.020917776775519863,4.957124648216533,-0.0007040013082477766,0.022242939065906134,0.002175662253775786,21.065563612024476,0.022360175812683868,1.0,0.0,77.87346180805878,0.10889191089979293,24.919849549571,101.23471309065853,0.005511764005277498,4.179551688942998,1.0,25.015661665514912,0.0,1.0,103.57500260663151,6598.228860175956,1.0,1.0,0.21852843605515918,18.938285557511332,-0.003491523870155791,-44.13955493142316,1.0,25.447235459001806,1.0,0.0023085629496967927,4.073051150514697,0.936754781049841,1.0,-0.20226188425647998,6.595807135339174
1.02,1.02,1.0,20.35689919366662,-0.007845252809443946,5.049542822812823,-0.0007637963370390104,0.0227418968706902,-0.0006272113661053785,20.97382390143764,0.02276336205878549,1.0,0.0,77.87346180805878,0.10889191089979293,24.919849549571,101.23471309065853,0.005511764005277498,4.179551688942998,1.0,25.355057004413606,0.0,1.0,105.02129398229125,6838.053462708528,1.0,1.0,0.09951296808886073,18.94259022149178,-0.04861832563672603,-44.08471451069927,1.0,25.58453675524849,1.0,-0.0024413101988796943,4.121272813791401,0.9361858839513336,1.0,-0.1493110263462462,6.392711046017853
1.05,1.05,1.0,20.389516798379915,0.01801046540402726,5.092760633167327,-7.913932245263641e-05,0.023211845012570453,-0.001945670976198657,21.015920881917587,0.023293382053011794,1.0,0.0,100.9622929593583,-0.519397180212428,25.097932608556373,105.48287087992966,-0.1252066496848223,3.668903790478552,1.0,25.355057004413606,0.0,1.0,105.07862743163088,6694.556921614563,1.0,1.0,0.09951296808886073,18.94259022149178,-0.04861832563672603,-44.08471451069927,1.0,25.58453675524849,1.0,-0.0024413101988796943,4.121272813791401,0.9361858839513336,1.0,-0.1493110263462462,6.392711046017853
1.08,1.08,1.0,20.301554548711078,-0.028640827696365688,5.236581262098242,0.0009261963914874289,0.021667425082184433,-0.00023136666484031712,20.96606116336259,0.02168844577145349,1.0,0.0,100.9622929593583,-0.519397180212428,25.097932608556373,105.48287087992966,-0.1252066496848223,3.668903790478552,1.0,26.162263501006187,0.0,1.0,105.83873937051497,6859.550197136762,1.0,1.0,0.6127759318898691,19.02915845604987,-0.0477557336548972,-44.01603947814922,1.0,25.689091163138748,1.0,-0.01129238253418979,4.1145211170168166,0.93563887604323,1.0,-0.7188304521907676,6.735697573467738
1.1099999999999999,1.1099999999999999,1.0,20.336167799901368,-0.057759497215128186,5.2867867215424065,-0.000275365450973609,0.02198464140316474,0.0009541798966326116,21.01221479959552,0.02200706120845019,1.0,0.0,100.9622929593583,-0.519397180212428,25.097932608556373,105.48287087992966,-0.1252066496848223,3.668903790478552,1.0,26.162263501006187,0.0,1.0,107.1279668864285,6986.483099733479,1.0,1.0,0.6127759318898691,19.02915845604987,-0.0477557336548972,-44.01603947814922,1.0,25.689091163138748,1.0,-0.01129238253418979,4.1145211170168166,0.93563887604323,1.0,-0.7188304521907676,6.735697573467738
1.14,1.14,1.0,20.285081913366376,-0.0016908406396313955,5.308029991474303,0.002222915444575544,0.017676591946803533,4.1068103853796663e-05,20.968064609813574,0.017815862104222913,1.0,0.0,100.9622929593583,-0.519397180212428,25.097932608556373,105.48287087992966,-0.1252066496848223,3.668903790478552,1.0,26.67392466997476,0.0,1.0,106.9691306345738,6958.026237834793,1.0,1.0,-0.8799644799778188,19.098184892214192,0.04415753390670365,-44.085823859486545,1.0,26.00930766998383,1.0,-0.0032938744173676556,4.12406878722509,0.9351126905426894,1.0,-0.10966764797126281,6.885574664085514
1.17,1.17,1.0,20.19540201122971,-0.03486129866570474,5.335817876835999,7.134069554379718e-05,0.023043312918634807,-0.0030254186079393328,20.888428139045992,0.02324118149996312,1.0,0.0,100.9622929593583,-0.519397180212428,25.097932608556373,105.48287087992966,-0.1252066496848223,3.668903790478552,1.0,26.67392466997476,0.0,1.0,107.84441565656043,7017.087221207387,1.0,1.0,-0.8799644799778188,19.098184892214192,0.04415753390670365,-44.085823859486545,1.0,26.00930766998383,1.0,-0.0032938744173676556,4.12406878722509,0.9351126905426894,1.0,-0.10966764797126281,6.885574664085514
1.2,1.2,1.0,20.168367852754425,0.0518257571129458,5.533291677514646,0.0005581706398000351,0.020076439090678834,-0.0029764354055389136,20.91370518443758,0.020303549658821175,1.0,0.0,100.9622929593583,-0.519397180212428,25.097932608556373,105.48287087992966,-0.1252066496848223,3.668903790478552,1.0,26.845441992386064,0.0,1.0,107.7617361172782,7202.272592815411,1.0,1.0,1.9367191728056017,19.13337137897206,0.06425202830908464,-44.02161121043014,1.0,26.40236981069958,1.0,-0.007514418655373469,4.130033555713995,0.9346062772557704,1.0,-0.021109813215559804,6.121229990614169
1.23,1.23,1.0,20.216565592529005,-0.012093164139287786,5.531242921280758,0.0012847056388281325,0.021069879884953572,0.0005941354218145386,20.959587754912192,0.0211173697188893,1.0,0.0,100.9622929593583,-0.519397180212428,25.097932608556373,105.48287087992966,-0.1252066496848223,3.668903790478552,1.0,26.845441992386064,0.0,1.0,109.27862232213621,7293.576233164614,1.0,1.0,1.9367191728056017,19.13337137897206,0.06425202830908464,-44.02161121043014,1.0,26.40236981069958,1.0,-0.007514418655373469,4.130033555713995,0.9346062772557704,1.0,-0.021109813215559804,6.121229990614169
1.26,1.26,1.0,20.20685818130874,-0.001193572310949265,5.59540135351629,-0.00051544869740454,0.02050936734972892,-0.0021713315108148274,20.96725149587019,0.02063042697026991,1.0,0.0,120.34748813618862,-0.9995577886177502,28.269047849504823,109.52300834083435,-0.13660469359149796,3.1850443100462518,1.0,25.626730245157038,0.0,1.0,110.12427536508906,7439.229300866384,1.0,1.0,0.8294239318698333,19.231492583794303,0.001718812677354565,-43.943886118638126,1.0,26.726299859996008,1.0,-0.0071287232364786735,4.141832810912467,0.9341185981216302,1.0,-0.061241157039675295,6.321088058396275
1.29,1.29,1.0,20.19607309653502,-0.05914920724873903,5.678437521068478,-0.002172891680631549,0.018430187058702658,-0.0023997231696265015,20.979264044050307,0.018712346848147373,1.0,0.0,120.34748813618862,-0.9995577886177502,28.269047849504823,109.52300834083435,-0.13660469359149796,3.1850443100462518,1.0,25.626730245157038,0.0,1.0,110.02180195754637,7336.078376187666,1.0,1.0,0.8294239318698333,19.231492583794303,0.001718812677354565,-43.943886118638126,1.0,26.726299859996008,1.0,-0.0071287232364786735,4.141832810912467,0.9341185981216302,1.0,-0.061241157039675295,6.321088058396275
1.3199999999999998,1.3199999999999998,1.0,20.076583785334407,0.02544403747424132,5.7470576390063455,0.00045917097761239464,0.02143991196269957,-0.0018322849179822605,20.882972379301194,0.021522962876324783,1.0,0.0,120.34748813618862,-0.9995577886177502,28.269047849504823,109.52300834083435,-0.13660469359149796,3.1850443100462518,1.0,26.387259343535263,0.0,1.0,111.21503430263013,7374.120029030098,1.0,1.0,1.5522867424909093,19.197849844574957,-0.05274334487746349,-43.91022161948958,1.0,26.537697338423342,1.0,0.004972068118432104,4.148634003894281,0.9336486237963536,1.0,-0.6165150936463637,6.5019793700478
1.3499999999999999,1.3499999999999999,1.0,20.11967472339849,-0.09406322660784633,5.833002233245182,-0.001994074568356761,0.020522893079667787,-0.0019729962457202973,20.948366855652573,0.020713719799429302,1.0,0.0,120.34748813618862,-0.9995577886177502,28.269047849504823,109.52300834083435,-0.13660469359149796,3.1850443100462518,1.0,26.387259343535263,0.0,1.0,110.49917559119685,7545.183046540331,1.0,1.0,1.5522867424909093,19.197849844574957,-0.05274334487746349,-43.91022161948958,1.0,26.537697338423342,1.0,0.004972068118432104,4.148634003894281,0.9336486237963536,1.0,-0.6165150936463637,6.5019793700478
1.38,1.38,1.0,20.048630554496878,0.004784190932920141,5.883716484973638,0.001696752869627843,0.018654416725226688,6.042124131600294e-05,20.894155395103656,0.018731521144461537,1.0,0.0,120.34748813618862,-0.9995577886177502,28.269047849504823,109.52300834083435,-0.13660469359149796,3.1850443100462518,1.0,26.563853324761997,0.0,1.0,111.80397626694818,7754.166911024514,1.0,1.0,-0.13909130712503148,19.259458944051424,-0.056163490840649546,-43.9546969403916,1.0,26.89986427842112,1.0,-0.009503904713636616,4.178492557494005,0.9331953310879446,1.0,0.04383038089109468,6.898560627010691
1.41,1.41,1.0,20.114792255093892,-0.08825345274568691,5.889207773497592,-0.00228098221173347,0.014726369621583146,-0.002796885464650902,20.959375571255247,0.015162170371820353,1.0,0.0,120.34748813618862,-0.9995577886177502,28.269047849504823,109.52300834083435,-0.13660469359149796,3.1850443100462518,1.0,26.563853324761997,0.0,1.0,112.4342825122768,7651.0622822642235,1.0,1.0,-0.13909130712503148,19.259458944051424,-0.056163490840649546,-43.9546969403916,1.0,26.89986427842112,1.0,-0.009503904713636616,4.178492557494005,0.9331953310879446,1.0,0.04383038089109468,6.898560627010691
1.44,1.44,1.0,20.120944378090417,0.015150347452360217,5.971371993301612,0.00106695479690982,0.017287867894799202,-0.00046435467863131514,20.98832808209418,0.01732698456611088,1.0,0.0,120.34748813618862,-0.9995577886177502,28.269047849504823,109.52300834083435,-0.13660469359149796,3.1850443100462518,1.0,27.210710765070687,0.0,1.0,113.36260363315942,7685.625168569885,1.0,1.0,1.2757557341105488,19.321488304722077,0.01854267023152552,-43.91575292840441,1.0,26.705305138572005,1.0,-0.0026006517338419714,4.198261039849834,0.9327577010692907,1.0,-0.18672724099082588,5.875013741669169
1.47,1.47,1.0,19.982836170935894,-0.027877824591443785,6.096275633614283,0.0012606281594369191,0.017673488349573514,-0.002558466989307723,20.89208211760061,0.01790215425959271,1.0,0.0,145.7897433735986,-1.2585170210003003,26.774583090572598,113.81703083920348,-0.16942057044300377,3.2062676232089022,1.0,27.210710765070687,0.0,1.0,113.37801903039362,7936.329831960239,1.0,1.0,1.2757557341105488,19.321488304722077,0.01854267023152552,-43.91575292840441,1.0,26.705305138572005,1.0,-0.0026006517338419714,4.198261039849834,0.9327577010692907,1.0,-0.18672724099082588,5.875013741669169
1.5,1.5,1.0,20.015699794119623,-0.07241355743777048,6.118547227987445,0.0018003227673554882,0.017601701211762886,-0.0008037276152318979,20.93012427466053,0.01771177646918343,1.0,0.0,145.7897433735986,-1.2585170210003003,26.774583090572598,113.81703083920348,-0.16942057044300377,3.2062676232089022,1.0,26.968128283119217,0.0,1.0,114.40111539292467,8055.612877953384,1.0,1.0,-1.3645564902286043,19.413042852531014,0.007652055587356158,-43.86473290224606,1.0,27.058701533095896,1.0,-0.00855555976704693,4.198142733369805,0.9323347177305468,1.0,0.468581756882852,6.2785490412818765
1.53,1.53,1.0,19.98197974126658,-0.018622664911114244,6.258532117509366,0.0054314632842148245,0.014436257271475758,-0.0014392335061866363,20.939175854124077,0.015491213977650062,1.0,0.0,145.7897433735986,-1.2585170210003003,26.774583090572598,113.81703083920348,-0.16942057044300377,3.2062676232089022,1.0,26.968128283119217,0.0,1.0,114.83926186137953,7947.841636719373,1.0,1.0,-1.3645564902286043,19.413042852531014,0.007652055587356158,-43.86473290224606,1.0,27.058701533095896,1.0,-0.00855555976704693,4.198142733369805,0.9323347177305468,1.0,0.468581756882852,6.2785490412818765
1.56,1.56,1.0,19.977734565205868,0.047021168365013716,6.256294531127693,0.0033390088017751464,0.01719187794659925,-0.004018383168575435,20.934500486238356,0.017968223351199415,1.0,0.0,145.7897433735986,-1.2585170210003003,26.774583090572598,113.81703083920348,-0.16942057044300377,3.2062676232089022,1.0,27.198496019909218,0.0,1.0,115.14279378372765,8029.458779493774,1.0,1.0,0.6191475021751307,19.38293366501099,-0.10787228474967166,-43.86488650166973,1.0,27.320506097863625,1.0,-0.0077747792460790294,4.2166383292206335,0.9319253670901202,1.0,-0.0038368278737704537,5.27955400634072
1.5899999999999999,1.5899999999999999,1.0,19.882955989976395,-0.04369016817495855,6.355067120997947,0.0023366240175402343,0.013042815856724663,-0.0008750494165280041,20.87392454337522,0.013279328625843257,1.0,0.0,145.7897433735986,-1.2585170210003003,26.774583090572598,113.81703083920348,-0.16942057044300377,3.2062676232089022,1.0,27.198496019909218,0.0,1.0,115.82086114222523,8162.576356842388,1.0,1.0,0.6191475021751307,19.38293366501099,-0.10787228474967166,-43.86488650166973,1.0,27.320506097863625,1.0,-0.0077747792460790294,4.2166383292206335,0.9319253670901202,1.0,-0.0038368278737704537,5.27955400634072
1.6199999999999999,1.6199999999999999,1.0,19.953778143227844,-0.05804671250059365,6.435367545976646,0.0009408974850865871,0.013009626801643602,-0.0032917833975352026,20.965938735525267,0.013452565388496509,1.0,0.0,145.7897433735986,-1.2585170210003003,26.774583090572598,113.81703083920348,-0.16942057044300377,3.2062676232089022,1.0,27.912807172621388,0.0,1.0,116.88204251613206,8336.622546026816,1.0,1.0,0.08869735685155093,19.437359569009566,0.0578741906369956,-43.93534785820659,1.0,27.199052196778673,1.0,-0.008602896357084711,4.232319803130745,0.9315286366341398,1.0,0.39035534349946227,5.550262423577075
1.65,1.65,1.0,19.811361935905573,-0.04895063658161704,6.444056927511456,0.001140528886638718,0.018649835780797156,-0.003307915896074101,20.83310652795877,0.018975233552382405,1.0,0.0,145.7897433735986,-1.2585170210003003,26.774583090572598,113.81703083920348,-0.16942057044300377,3.2062676232089022,1.0,27.912807172621388,0.0,1.0,117.43364532154685,8276.440564428447,1.0,1.0,0.08869735685155093,19.437359569009566,0.0578741906369956,-43.93534785820659,1.0,27.199052196778673,1.0,-0.008602896357084711,4.232319803130745,0.9315286366341398,1.0,0.39035534349946227,5.550262423577075
1.68,1.68,1.0,19.912690570336597,-0.01651503697467915,6.645951805366392,0.0025965878009900577,0.014197713458224577,-0.0002761270912005295,20.99247946040846,0.014435843647691552,1.0,0.0,169.3793823413299,0.07301928850804484,25.723476106346297,117.39057627257657,-0.1858110433477746,2.5515811458038495,1.0,28.138511704485463,0.0,1.0,118.03312771232098,8430.232403130658,1.0,1.0,0.024300172698398292,19.481673732979555,-0.08555566277423779,-43.8469415046664,1.0,27.721054457895264,1.0,-0.01610892102020459,4.244615724130285,0.9311435150614966,1.0,0.24482928314315755,5.84470737862495
1.71,1.71,1.0,19.71863572658516,-0.041529056605232595,6.626858169211072,0.0022878577995833708,0.011764505016422244,-0.001630769915941294,20.802441413813494,0.012095341339180046,1.0,0.0,169.3793823413299,0.07301928850804484,25.723476106346297,117.39057627257657,-0.1858110433477746,2.5515811458038495,1.0,28.138511704485463,0.0,1.0,118.17010519275733,8650.016054791982,1.0,1.0,0.024300172698398292,19.481673732979555,-0.08555566277423779,-43.8469415046664,1.0,27.721054457895264,1.0,-0.01610892102020459,4.244615724130285,0.9311435150614966,1.0,0.24482928314315755,5.84470737862495
1.74,1.74,1.0,19.748232233466286,0.044081492663246805,6.634099412584081,0.002909010041293441,0.01651127618162941,-0.00390171254978285,20.832808129029573,0.017213597572486753,1.0,0.0,169.3793823413299,0.07301928850804484,25.723476106346297,117.39057627257657,-0.1858110433477746,2.5515811458038495,1.0,27.662077163701934,0.0,1.0,118.70422311547115,8518.231306421862,1.0,1.0,0.1617985771622563,19.492940946262497,-0.015347340978962835,-43.821695111533515,1.0,28.02277778550294,1.0,-0.007005642385552745,4.277396052024865,0.9307689922215289,1.0,0.06980654769712409,5.967083068646079
1.77,1.77,1.0,19.757600499218768,-0.011816241924969549,6.8225054303107315,-0.0004154836807732025,0.011518991134175692,-0.0049474577548921025,20.902380186402752,0.012543409491627428,1.0,0.0,169.3793823413299,0.07301928850804484,25.723476106346297,117.39057627257657,-0.1858110433477746,2.5515811458038495,1.0,27.662077163701934,0.0,1.0,119.58831015458003,8762.752835255546,1.0,1.0,0.1617985771622563,19.492940946262497,-0.015347340978962835,-43.821695111533515,1.0,28.02277778550294,1.0,-0.007005642385552745,4.277396052024865,0.9307689922215289,1.0,0.06980654769712409,5.967083068646079
1.7999999999999998,1.7999999999999998,1.0,19.754672391577525,-0.042670190285479276,6.850715499036461,0.0008385302516760099,0.010405907881303175,-0.0014887677052776809,20.908878613938928,0.010545258702251982,1.0,0.0,169.3793823413299,0.07301928850804484,25.723476106346297,117.39057627257657,-0.1858110433477746,2.5515811458038495,1.0,28.169344944119278,0.0,1.0,119.70298294305341,8593.028846066245,1.0,1.0,-2.4589310970319516,19.511203239701093,-0.014834723321798585,-43.80348932276011,1.0,27.854561652310704,1.0,-0.036368979768562903,4.294433207727401,0.9304040592516263,1.0,-0.0852440413579745,5.8455644091261645
1.8299999999999998,1.8299999999999998,1.0,19.702710729070546,0.010884759146174136,6.931546572441091,0.0018070847838594665,0.014589793095848735,-0.002063774535663158,20.886437380207596,0.014845429711860265,1.0,0.0,169.3793823413299,0.07301928850804484,25.723476106346297,117.39057627257657,-0.1858110433477746,2.5515811458038495,1.0,28.169344944119278,0.0,1.0,120.06327127357957,8915.262771388698,1.0,1.0,-2.4589310970319516,19.511203239701093,-0.014834723321798585,-43.80348932276011,1.0,27.854561652310704,1.0,-0.036368979768562903,4.294433207727401,0.9304040592516263,1.0,-0.0852440413579745,5.8455644091261645
1.8599999999999999,1.8599999999999999,1.0,19.709517316268776,-0.038001494961459305,6.958293898639596,8.1346081858274e-05,0.00959918410335847,-0.00223455878371723,20.90177913321646,0.009856176012688261,1.0,0.0,169.3793823413299,0.07301928850804484,25.723476106346297,117.39057627257657,-0.1858110433477746,2.5515811458038495,1.0,28.245289814071874,0.0,1.0,120.86882273478935,8965.137094130265,1.0,1.0,-0.5983161905920891,19.585597488729476,-0.01187667557687527,-43.79649290591072,1.0,27.864306071530024,1.0,-0.00889231919018154,4.307756098441896,0.930047708844453,1.0,0.2273923015719946,6.318070263981229
1.89,1.89,1.0,19.65737827424449,-0.03129721966141086,7.054377204943347,0.0006638588852187534,0.012212521535967757,-0.002737334879980126,20.88486863454789,0.01253313181655391,1.0,0.0,195.90374709529934,0.532314427732196,28.34630691432251,121.71136320174895,-0.1087234252268273,2.1189771604591043,1.0,28.245289814071874,0.0,1.0,121.69839167907497,8941.162820022708,1.0,1.0,-0.5983161905920891,19.585597488729476,-0.01187667557687527,-43.79649290591072,1.0,27.864306071530024,1.0,-0.00889231919018154,4.307756098441896,0.930047708844453,1.0,0.2273923015719946,6.318070263981229
1.92,1.92,1.0,19.691604653429707,-0.024080570033786254,7.094508571822041,0.001725922247750907,0.007777979799238367,-0.0019441609141865857,20.930645608210085,0.008200947446660813,1.0,0.0,195.90374709529934,0.532314427732196,28.34630691432251,121.71136320174895,-0.1087234252268273,2.1189771604591043,1.0,27.252854249034762,0.0,1.0,122.27006464822657,9096.668056738474,1.0,1.0,-0.19619501060779165,19.59789636204924,0.03094629441980102,-43.88489258475383,1.0,27.895409882579173,1.0,-0.028243755712747773,4.341481599893513,0.9296989356061142,1.0,0.21312787592343102,6.651340404896346
1.95,1.95,1.0,19.655812521970493,-0.055416252000466876,7.175559990570208,0.0021610773987160337,0.013656915893373105,-0.002277615851601319,20.92469110974185,0.014013177413041403,1.0,0.0,195.90374709529934,0.532314427732196,28.34630691432251,121.71136320174895,-0.1087234252268273,2.1189771604591043,1.0,27.252854249034762,0.0,1.0,122.4287016571122,9265.551052249917,1.0,1.0,-0.19619501060779165,19.59789636204924,0.03094629441980102,-43.88489258475383,1.0,27.895409882579173,1.0,-0.028243755712747773,4.341481599893513,0.9296989356061142,1.0,0.21312787592343102,6.651340404896346
1.98,1.98,1.0,19.638527459846138,-0.0032427409066555675,7.21713887642383,8.3237783556006e-05,0.01469537069515823,-0.002486503984310279,20.92268780219424,0.014904480885314911,1.0,0.0,195.90374709529934,0.532314427732196,28.34630691432251,121.71136320174895,-0.1087234252268273,2.1189771604591043,1.0,28.993351580970494,0.0,1.0,123.3955083525078,9365.399405004804,1.0,1.0,-0.003388712086461358,19.61088538710793,-0.06627694840739316,-43.772549051749785,1.0,28.179747001337915,1.0,-0.013994228948419762,4.357812609347933,0.9293567365284555,1.0,0.7196941227116339,5.1388682896164735
2.01,2.01,1.0,19.5550794350308,-0.01935545154421871,7.33022070878027,0.0027796674438194213,0.011487888722130671,-0.0025131407448841683,20.883812917743256,0.012083625895975248,1.0,0.0,195.90374709529934,0.532314427732196,28.34630691432251,121.71136320174895,-0.1087234252268273,2.1189771604591043,1.0,28.993351580970494,0.0,1.0,123.9955215028755,9389.155362899079,1.0,1.0,-0.003388712086461358,19.61088538710793,-0.06627694840739316,-43.772549051749785,1.0,28.179747001337915,1.0,-0.013994228948419762,4.357812609347933,0.9293567365284555,1.0,0.7196941227116339,5.1388682896164735
2.04,2.04,1.0,19.524645124453752,-0.01995843703634581,7.362213566397807,0.003920832440185476,0.008293788186502608,-0.004087071857546546,20.866584631230776,0.010043107381449727,1.0,0.0,195.90374709529934,0.532314427732196,28.34630691432251,121.71136320174895,-0.1087234252268273,2.1189771604591043,1.0,27.31285311894726,0.0,1.0,124.31675351566093,9544.374485093138,1.0,1.0,0.2738859938813307,19.676288371425404,-0.017246863045667065,-43.762177350881274,1.0,28.167492800522485,1.0,-0.021872169008105624,4.370872642986042,0.9290201114874119,1.0,0.39819877047967533,5.935597866925967
2.07,2.07,1.0,19.462776021058254,-0.007957970361068843,7.42464908329411,0.0025717467297433805,0.00813878729194067,-0.004361291121651581,20.83086958783124,0.00958512389451475,1.0,0.0,195.90374709529934,0.532314427732196,28.34630691432251,121.71136320174895,-0.1087234252268273,2.1189771604591043,1.0,27.31285311894726,0.0,1.0,125.4329101718125,9620.73917618235,1.0,1.0,0.2738859938813307,19.676288371425404,-0.017246863045667065,-43.762177350881274,1.0,28.167492800522485,1.0,-0.021872169008105624,4.370872642986042,0.9290201114874119,1.0,0.39819877047967533,5.935597866925967
2.1,2.1,1.0,19.498652802355124,-0.02701875772882887,7.470591270428442,-8.946646232661087e-05,0.008706209688121736,-0.0007122904932189015,20.8808027874855,0.008735756929319636,1.0,0.0,220.69630281592808,-0.9822006660328191,27.729719182869296,125.38507972503942,-0.27543577204379405,2.114017204292607,1.0,28.914250134408086,0.0,1.0,125.79800983662948,9779.126356713894,1.0,1.0,-0.38647525238612995,19.630594321766967,-0.06420921298938576,-43.806193411011044,1.0,28.35189568734138,1.0,-0.005056896358642687,4.377020566808501,0.9286880637920547,1.0,0.19724647151067193,6.3451187503114355
2.13,2.13,1.0,19.43681801023071,-0.06992837412274078,7.561593223487604,-0.0005048305802566695,0.007743444165034456,-0.0010360639555151525,20.855993776797835,0.007828742553672725,1.0,0.0,220.69630281592808,-0.9822006660328191,27.729719182869296,125.38507972503942,-0.27543577204379405,2.114017204292607,1.0,28.914250134408086,0.0,1.0,125.5864553273589,9739.58644312829,1.0,1.0,-0.38647525238612995,19.630594321766967,-0.06420921298938576,-43.806193411011044,1.0,28.35189568734138,1.0,-0.005056896358642687,4.377020566808501,0.9286880637920547,1.0,0.19724647151067193,6.3451187503114355
2.16,2.16,1.0,19.41295646970468,-0.032476342272262065,7.576938138660253,0.0007472615708984495,0.010862698782878866,-0.0031458045758310954,20.83924003327714,0.01133369803427899,1.0,0.0,220.69630281592808,-0.9822006660328191,27.729719182869296,125.38507972503942,-0.27543577204379405,2.114017204292607,1.0,28.94566320839894,0.0,1.0,126.13184846810766,9760.304378154775,1.0,1.0,-1.446157919680878,19.737713055272046,-0.028051359165077203,-43.73397543002074,1.0,28.49893640700929,1.0,-0.009532367574233248,4.399554069005973,0.928359600795569,1.0,0.6504181274009389,5.657972220600405
2.19,2.19,1.0,19.38627530152281,-0.1025518454162711,7.686215110320565,0.005018583115225665,0.01006533439796389,-0.004945972910597806,20.854641921393707,0.01228656913298544,1.0,0.0,220.69630281592808,-0.9822006660328191,27.729719182869296,125.38507972503942,-0.27543577204379405,2.114017204292607,1.0,28.94566320839894,0.0,1.0,126.53281043012062,9628.450794918184,1.0,1.0,-1.446157919680878,19.737713055272046,-0.028051359165077203,-43.73397543002074,1.0,28.49893640700929,1.0,-0.009532367574233248,4.399554069005973,0.928359600795569,1.0,0.6504181274009389,5.657972220600405
2.2199999999999998,2.2199999999999998,1.0,19.352484841464836,-0.07244268662630067,7.717281135750492,0.0035617703519157575,0.007732621588692295,-0.0035582580859473624,20.834594923112434,0.009227179703457933,1.0,0.0,220.69630281592808,-0.9822006660328191,27.729719182869296,125.38507972503942,-0.27543577204379405,2.114017204292607,1.0,28.837033110195808,0.0,1.0,127.81562031372164,10027.374044868844,1.0,1.0,0.8233380908982354,19.721559257942214,-0.0616998216589387,-43.74834502652353,1.0,28.97862184691858,1.0,-0.008678060972012102,4.4164335374456405,0.9280337345017402,1.0,0.7695012584254378,5.859387528728322
2.25,2.25,1.0,19.330911873678865,-0.07814474111132622,7.8221696635809215,0.004564497346449643,0.006747634180554665,-0.0016293292138837756,20.853695085388285,0.00830782262374147,1.0,0.0,220.69630281592808,-0.9822006660328191,27.729719182869296,125.38507972503942,-0.27543577204379405,2.114017204292607,1.0,28.837033110195808,0.0,1.0,128.74307404377117,10164.062035768853,1.0,1.0,0.8233380908982354,19.721559257942214,-0.0616998216589387,-43.74834502652353,1.0,28.97862184691858,1.0,-0.008678060972012102,4.4164335374456405,0.9280337345017402,1.0,0.7695012584254378,5.859387528728322
2.28,2.28,1.0,19.40927993030992,-0.025958104850913967,7.877381051260947,0.004193593243678779,0.008215913163558361,-0.0013353229120392639,20.94693183889001,0.009320436721740934,1.0,0.0,220.69630281592808,-0.9822006660328191,27.729719182869296,125.38507972503942,-0.27543577204379405,2.114017204292607,1.0,29.546933757209196,0.0,1.0,129.52264441085728,10140.397795658957,1.0,1.0,0.4601966297233732,19.756071469681086,-0.06770367119545737,-43.67514790121314,1.0,28.480332314215957,1.0,-0.020742885171029065,4.436568078159602,0.9277094821829018,1.0,-0.3602871173193643,5.743201012343574
2.31,2.31,1.0,19.405079214964005,-0.036747343184491514,7.92824741448558,0.003269511419533396,0.006867416209062323,-0.004205716273743062,20.962241215374764,0.008691326693099187,1.0,0.0,248.81744095094305,0.3011744023252776,29.35497020232991,129.29891617269917,0.1297363676857605,2.023504308439354,1.0,29.546933757209196,0.0,1.0,129.77898861215314,10217.439270534132,1.0,1.0,0.4601966297233732,19.756071469681086,-0.06770367119545737,-43.67514790121314,1.0,28.480332314215957,1.0,-0.020742885171029065,4.436568078159602,0.9277094821829018,1.0,-0.3602871173193643,5.743201012343574
2.34,2.34,1.0,19.30240027076003,-0.03226185894574738,7.900449782618941,0.0034895577741818106,0.008947686904245626,-0.003980207305961292,20.8566728844239,0.01039616105080087,1.0,0.0,248.81744095094305,0.3011744023252776,29.35497020232991,129.29891617269917,0.1297363676857605,2.023504308439354,1.0,29.12398332176586,0.0,1.0,129.92728434783183,10136.384684169456,1.0,1.0,0.5802661069227402,19.776183290993554,-0.10822870144033223,-43.6836089569687,1.0,29.197336115623624,1.0,-0.014817742207429173,4.453932022199525,0.9273858670069047,1.0,0.5613156940752451,5.379238891272232
2.37,2.37,1.0,19.220425432898043,0.0011667209892226443,8.040523449202894,0.005025803255981302,0.008306070679628146,-0.006948933202671575,20.83446117661826,0.011938893632075044,1.0,0.0,248.81744095094305,0.3011744023252776,29.35497020232991,129.29891617269917,0.1297363676857605,2.023504308439354,1.0,29.12398332176586,0.0,1.0,130.77518150643533,10382.35049068169,1.0,1.0,0.5802661069227402,19.776183290993554,-0.10822870144033223,-43.6836089569687,1.0,29.197336115623624,1.0,-0.014817742207429173,4.453932022199525,0.9273858670069047,1.0,0.5613156940752451,5.379238891272232
2.4,2.4,1.0,19.246922274193786,-0.07011919713649459,8.166575439756391,0.002476141171212409,0.003716773063101812,-1.7131115388218602e-05,20.907938400136352,0.0044660911967274956,1.0,0.0,248.81744095094305,0.3011744023252776,29.35497020232991,129.29891617269917,0.1297363676857605,2.023504308439354,1.0,30.401457495417674,0.0,1.0,130.4914378961747,10538.730676535368,1.0,1.0,-1.5432909513976552,19.847938219454974,-0.07614950284027715,-43.76793726914023,1.0,28.99601857362028,1.0,-0.012761496224875195,4.472055201696948,0.9270619186612822,1.0,0.8475938157553848,5.999986311032348
2.4299999999999997,2.4299999999999997,1.0,19.217884916323797,-0.007097262004202638,8.117980653090525,0.004874620232650685,0.009492768502034845,-0.006258712445604071,20.862137016905667,0.012371178509849076,1.0,0.0,248.81744095094305,0.3011744023252776,29.35497020232991,129.29891617269917,0.1297363676857605,2.023504308439354,1.0,30.401457495417674,0.0,1.0,131.92394665788052,10613.04589690356,1.0,1.0,-1.5432909513976552,19.847938219454974,-0.07614950284027715,-43.76793726914023,1.0,28.99601857362028,1.0,-0.012761496224875195,4.472055201696948,0.9270619186612822,1.0,0.8475938157553848,5.999986311032348
2.46,2.46,1.0,19.13776974874887,-0.0287578223063592,8.262688110019862,0.003586828922344479,0.0033099001030241384,-0.007566459753141507,20.845312968913053,0.009004004309532304,1.0,0.0,248.81744095094305,0.3011744023252776,29.35497020232991,129.29891617269917,0.1297363676857605,2.023504308439354,1.0,28.75456702328614,0.0,1.0,132.08625425050147,10643.212147737242,1.0,1.0,1.7630523432871386,19.864187496497347,-0.11182305603610901,-43.62012710351852,1.0,29.048324410294075,1.0,-0.025903828184889306,4.49494859061189,0.9267366833270932,1.0,1.1344470944900615,5.529132845446163
2.4899999999999998,2.4899999999999998,1.0,19.21867272399571,-0.02332564295019009,8.321588886240736,0.001992818416043855,0.0003115751532844781,-0.0052042887342014545,20.942940742629272,0.005581489545309922,1.0,0.0,248.81744095094305,0.3011744023252776,29.35497020232991,129.29891617269917,0.1297363676857605,2.023504308439354,1.0,28.75456702328614,0.0,1.0,132.61297036535666,10682.288581420784,1.0,1.0,1.7630523432871386,19.864187496497347,-0.11182305603610901,-43.62012710351852,1.0,29.048324410294075,1.0,-0.025903828184889306,4.49494859061189,0.9267366833270932,1.0,1.1344470944900615,5.529132845446163
2.52,2.52,1.0,19.16354285858232,-0.03729732134875689,8.397832193153974,0.00636081984390088,0.0014951646142370239,-0.003489566683529963,20.922866713891636,0.007407605682609736,1.0,0.0,273.9100588550285,0.06946483750385254,29.471224856951764,133.30813675580495,-0.25331337180393804,2.2557155902996597,1.0,29.690069704555164,0.0,1.0,133.12080720325932,10747.846329165075,1.0,1.0,-0.9515283548475936,19.85268376911207,-0.036170363658643456,-43.634159691192195,1.0,29.568753229285132,1.0,-0.006913353389409831,4.503032725414299,0.9264091287289437,1.0,0.510934324874041,5.45203171097808
2.55,2.55,1.0,19.070612796246124,-0.060268746668615175,8.554648381221792,0.004385972081534708,-1.943678622427314e-06,-0.0050351487433112916,20.901528979299865,0.006677535304673257,1.0,0.0,273.9100588550285,0.06946483750385254,29.471224856951764,133.30813675580495,-0.25331337180393804,2.2557155902996597,1.0,29.690069704555164,0.0,1.0,133.5296746252883,11131.812131584398,1.0,1.0,-0.9515283548475936,19.85268376911207,-0.036170363658643456,-43.634159691192195,1.0,29.568753229285132,1.0,-0.006913353389409831,4.503032725414299,0.9264091287289437,1.0,0.510934324874041,5.45203171097808
2.58,2.58,1.0,19.068380020376356,0.0015630338586699113,8.512629554602341,0.0007597229795658642,0.003072623834703022,-0.005794587326278949,20.88224080357403,0.006602684190322763,1.0,0.0,273.9100588550285,0.06946483750385254,29.471224856951764,133.30813675580495,-0.25331337180393804,2.2557155902996597,1.0,29.40821687901916,0.0,1.0,134.9468419844145,10849.674820255343,1.0,1.0,-0.7992280303604828,19.86475261046617,-0.05097686580030613,-43.68358451659481,1.0,29.809958581588337,1.0,-0.023668190795201258,4.531104516393911,0.9260780882115697,1.0,0.0003078008634595224,6.2041571747903586
2.61,2.61,1.0,19.037814386264515,0.01246329309048292,8.582932397807024,0.004359324874627672,-0.0013307164415983694,-0.0025323629000162102,20.88313339719067,0.005214152037279533,1.0,0.0,273.9100588550285,0.06946483750385254,29.471224856951764,133.30813675580495,-0.25331337180393804,2.2557155902996597,1.0,29.40821687901916,0.0,1.0,135.72707453683984,11171.152123485319,1.0,1.0,-0.7992280303604828,19.86475261046617,-0.05097686580030613,-43.68358451659481,1.0,29.809958581588337,1.0,-0.023668190795201258,4.531104516393911,0.9260780882115697,1.0,0.0003078008634595224,6.2041571747903586
2.6399999999999997,2.6399999999999997,1.0,18.987602922569437,0.03462200005782095,8.70538489741172,0.006354011032859428,-0.004357537029488199,-0.004471764082388673,20.88813035290951,0.008908325273450762,1.0,0.0,273.9100588550285,0.06946483750385254,29.471224856951764,133.30813675580495,-0.25331337180393804,2.2557155902996597,1.0,29.344264174668737,0.0,1.0,135.20063163654524,11062.221508184453,1.0,1.0,-0.9377494793801454,19.944483044660824,-0.10735233147961565,-43.67966390956687,1.0,29.841719286260318,1.0,-0.01218995369095934,4.5357689565025785,0.9257422949833791,1.0,0.8894129662403261,6.362951808981459
2.67,2.67,1.0,19.05642297007162,-0.10640500461220845,8.786844489423705,0.006540444749912807,-0.0037926556001570922,-0.006650682361926056,20.984928270561124,0.010069420534832145,1.0,0.0,273.9100588550285,0.06946483750385254,29.471224856951764,133.30813675580495,-0.25331337180393804,2.2557155902996597,1.0,29.344264174668737,0.0,1.0,136.13290572977823,11552.115006273043,1.0,1.0,-0.9377494793801454,19.944483044660824,-0.10735233147961565,-43.67966390956687,1.0,29.841719286260318,1.0,-0.01218995369095934,4.5357689565025785,0.9257422949833791,1.0,0.8894129662403261,6.362951808981459
2.6999999999999997,2.6999999999999997,1.0,18.866852764299356,-0.10777728564810536,8.780263687414498,0.005848211261041443,-0.003720981556606826,-0.00742146089853251,20.810160489375896,0.010155065758862769,1.0,0.0,273.9100588550285,0.06946483750385254,29.471224856951764,133.30813675580495,-0.25331337180393804,2.2557155902996597,1.0,30.306702780437014,0.0,1.0,135.81569085477253,11368.296536970356,1.0,1.0,0.9650746394979507,19.757237562510646,-0.06574000688341039,-43.67102708250615,1.0,29.89130783728054,1.0,-0.03606192935234946,4.5639773937472805,0.9254004063435137,1.0,-0.0692209991707314,5.428291351037404
2.73,2.73,1.0,18.846753962802683,-0.06921873395976824,8.945576747130195,0.004236210703559509,-0.0059723904560703015,-0.006367819379726383,20.862125239446392,0.009703816390345125,1.0,0.0,302.7247050879583,0.7472774747982077,32.38348184692965,137.11904369927856,-0.21779795019904996,2.3837857024133706,1.0,30.306702780437014,0.0,1.0,137.26514533616057,11437.132168363592,1.0,1.0,0.9650746394979507,19.757237562510646,-0.06574000688341039,-43.67102708250615,1.0,29.89130783728054,1.0,-0.03606192935234946,4.5639773937472805,0.9254004063435137,1.0,-0.0692209991707314,5.428291351037404
2.76,2.76,1.0,18.860909815578236,-0.033334705448140184,8.963063477684264,0.005975590752347639,-0.005666529548716661,-0.009368873076528946,20.88232595232055,0.012473693305919086,1.0,0.0,302.7247050879583,0.7472774747982077,32.38348184692965,137.11904369927856,-0.21779795019904996,2.3837857024133706,1.0,29.84928499239231,0.0,1.0,137.77494310607347,11602.203014296074,1.0,1.0,-1.8529604159739954,19.748420877899825,-0.07420655938063087,-43.76375621162131,1.0,29.467993308854414,1.0,-0.002015670872707407,4.578127973919353,0.9250510219448951,1.0,0.48332165163635843,5.575551796366844
2.79,2.79,1.0,18.908021057610213,-0.026005428481419166,8.99267971853968,0.009910388122402566,-0.009146120937655145,-0.00781105777690113,20.937579256389135,0.015584606011605148,1.0,0.0,302.7247050879583,0.7472774747982077,32.38348184692965,137.11904369927856,-0.21779795019904996,2.3837857024133706,1.0,29.84928499239231,0.0,1.0,138.03779149434718,11566.088892544178,1.0,1.0,-1.8529604159739954,19.748420877899825,-0.07420655938063087,-43.76375621162131,1.0,29.467993308854414,1.0,-0.002015670872707407,4.578127973919353,0.9250510219448951,1.0,0.48332165163635843,5.575551796366844
2.82,2.82,1.0,18.850563178895126,-0.045965162337850175,9.149413661882125,0.003610745092759637,-0.007931204202438985,-0.004154430639193524,20.953701709099057,0.009654054804150613,1.0,0.0,302.7247050879583,0.7472774747982077,32.38348184692965,137.11904369927856,-0.21779795019904996,2.3837857024133706,1.0,30.463765270836785,0.0,1.0,138.56890397546542,11838.989302125667,1.0,1.0,-2.2581796333591075,19.763074677813083,-0.10662239970104948,-43.71570148753265,1.0,30.15341820766378,1.0,-0.020471879452488243,4.590474954119216,0.9246926988966624,1.0,0.02242159949958126,5.597865220344807
2.85,2.85,1.0,18.879667257307478,-0.01790040167331363,9.233116200030114,0.006163667126948199,-0.010397439630188802,-0.00363098990386655,21.016483790926745,0.012620682667638203,1.0,0.0,302.7247050879583,0.7472774747982077,32.38348184692965,137.11904369927856,-0.21779795019904996,2.3837857024133706,1.0,30.463765270836785,0.0,1.0,139.72820245264606,12106.838659778741,1.0,1.0,-2.2581796333591075,19.763074677813083,-0.10662239970104948,-43.71570148753265,1.0,30.15341820766378,1.0,-0.020471879452488243,4.590474954119216,0.9246926988966624,1.0,0.02242159949958126,5.597865220344807
2.88,2.88,1.0,18.772514804836412,-0.11023825245396741,9.303182441332972,0.007334133323626777,-0.008557680130461794,-0.00493718945126232,20.95157913157938,0.012304439869481636,1.0,0.0,302.7247050879583,0.7472774747982077,32.38348184692965,137.11904369927856,-0.21779795019904996,2.3837857024133706,1.0,29.906750768194836,0.0,1.0,139.56750517257464,11870.225824430048,1.0,1.0,-0.15602748189925447,19.785549937428623,-0.07343535184966854,-43.747752766374965,1.0,30.368906695966206,1.0,-0.006085777275168066,4.611314427075007,0.9243239645434825,1.0,-0.20917024232417036,5.754538526644442
2.9099999999999997,2.9099999999999997,1.0,18.741906965513063,-0.10147746084202586,9.416437635105655,0.009426330438144646,-0.009751861695964264,-0.006986613156869521,20.97471506635645,0.015256712472549566,1.0,0.0,302.7247050879583,0.7472774747982077,32.38348184692965,137.11904369927856,-0.21779795019904996,2.3837857024133706,1.0,29.906750768194836,0.0,1.0,140.57674147408423,11838.372835209515,1.0,1.0,-0.15602748189925447,19.785549937428623,-0.07343535184966854,-43.747752766374965,1.0,30.368906695966206,1.0,-0.006085777275168066,4.611314427075007,0.9243239645434825,1.0,-0.20917024232417036,5.754538526644442
2.94,2.94,1.0,18.746268101959267,-0.06749384195959096,9.533606147240416,0.011403537135737793,-0.009197978050667997,-0.0071427729398851674,21.031328282824607,0.016299161472219267,1.0,0.0,335.17566303468885,-2.48502537207526,30.505445808904472,141.2134325678793,-0.25920641624958246,2.868129529914747,1.0,31.992668236769887,0.0,1.0,141.184862336527,12407.401606828564,1.0,1.0,-0.2755709240470326,19.68172726631151,-0.14341380170281381,-43.680481980159264,1.0,30.613130579782233,1.0,-0.041021638926229516,4.614950302727244,0.923943327253581,1.0,-0.21069204692238488,5.793206323665421
2.9699999999999998,2.9699999999999998,1.0,18.69993037261955,-0.04571643200681696,9.532573774066089,0.01043227615308048,-0.007473730418520109,-0.00875251983524334,20.98950806214827,0.01553369355849318,1.0,0.0,335.17566303468885,-2.48502537207526,30.505445808904472,141.2134325678793,-0.25920641624958246,2.868129529914747,1.0,31.992668236769887,0.0,1.0,141.20064390061353,12141.96893021442,1.0,1.0,-0.2755709240470326,19.68172726631151,-0.14341380170281381,-43.680481980159264,1.0,30.613130579782233,1.0,-0.041021638926229516,4.614950302727244,0.923943327253581,1.0,-0.21069204692238488,5.793206323665421
3.0,3.0,1.0,18.6485027839974,-0.026271410787258434,9.613641388977113,0.006579182348265244,-0.012610080637644525,-0.008681109138522602,20.98069224376635,0.016663175865799504,1.0,0.0,335.17566303468885,-2.48502537207526,30.505445808904472,141.2134325678793,-0.25920641624958246,2.868129529914747,1.0,31.305755883099835,0.0,1.0,141.72625424479466,12502.177188396461,1.0,1.0,-0.8877307802827338,19.73960703933772,-0.18127132070859314,-43.72330172591123,1.0,30.54099327237689,1.0,-0.04263673637517379,4.624399949572168,0.923549285524432,1.0,0.7645951215250752,5.487733533788909
