time_s,x_m,y_m,altitude_m,vx_mps,vy_mps,vz_mps,speed_mps,mass_kg,roll_deg,pitch_deg,yaw_deg,p_dps,q_dps,r_dps,alpha_deg,beta_deg,qbar_pa,mach,airspeed_mps,load_factor_g,density_kgpm3,pressure_pa,temperature_k,wind_x_mps,wind_y_mps,wind_z_mps,thrust_n,mass_flow_kgps,propulsion_throttle_actual,propulsion_health,energy_j_per_kg,target_distance_m,guidance_mode,pitch_command_deg,heading_command_deg,roll_command_deg
0.0,0.0,0.0,20.0,85.0,0.0,8.0,85.37564055396598,18.0,0.0,6.000000000000002,0.0,0.0,0.0,0.0,0.623294571949261,-0.06711018850271284,4455.9528551248095,0.2509446755827931,85.37569911866022,1.746019585183223,1.2226496753673843,101084.96761777384,288.02,0.0,0.1,0.0,326.8,0.17539118863220368,0.86,nominal,3840.633,nan,pitch_program,13.0,0.0,0.0
0.03,2.565307560933383,1.2217430333078664e-05,20.23295089077774,85.51025203111277,0.00040724767776928884,7.765029692591357,85.86209226845746,17.994738264341034,0.000673747383345809,6.26558332753372,-0.001374797989615718,0.01756243361475289,-8.852793703250093,-0.04551240426293013,1.0768886693990771,-0.06510171809935367,4506.77464880038,0.2523751634672366,85.86215002704955,1.7743110931484742,1.2226223199868234,101082.17454514118,288.0184858192099,0.0,0.1,0.0,332.605,0.1785066900092231,0.86,nominal,3884.5669122115964,nan,pitch_program,12.985,0.0,0.0
0.06,5.1461027932509165,3.291930681684774e-05,20.45939294419229,86.0265077439178,0.0006900625494589692,7.548068447151695,86.35701113617483,17.98938306364076,0.001946614728001761,6.577132127844891,-0.0034380936674316123,0.0347369605127723,-10.384987158646082,-0.0681078186319914,1.5627716729477563,-0.0625178553698666,4558.780255022944,0.25383052828753255,86.35706823625331,1.8034945411068528,1.2225957293866412,101079.45957312708,288.01701394586274,0.0,0.1,0.0,338.40999999999997,0.18162219138624247,0.86,nominal,3929.4047920028747,nan,pitch_program,12.97,0.0,0.0
0.09,7.742554548696502,5.962919330515959e-05,20.679880260664394,86.5483918481862,0.0008903295496103952,7.349577215736762,86.85988957827396,17.983934397899173,0.003763319093575744,6.769857843641512,-0.005813885658654085,0.05135367123471357,-6.42420049568453,-0.07833649756978263,1.9160161179384996,-0.059708918365541375,4611.930912274648,0.25530927942506576,86.8599461172066,1.833254521353306,1.2225698384634593,101076.81605335405,288.01558077830566,0.0,0.1,0.0,344.215,0.18473769276326188,0.86,nominal,3975.1205565332175,nan,pitch_program,12.955,0.0,0.0
0.12,10.354871065463975,9.05643135427429e-05,20.894721380858996,87.07721722558242,0.0010311706745861102,7.161370673153376,87.37120229648258,17.978392267116273,0.006078099332948904,6.86780934092218,-0.008306427401675328,0.06729465861430717,-3.265057778086964,-0.0822166466914033,2.1662876108034244,-0.05685244968155371,4666.29188366317,0.25681281287137564,87.3712583433405,1.863309602773551,1.2225446109534865,101074.24028217078,288.0141843110244,0.0,0.1,0.0,350.02,0.1878531941402813,0.86,nominal,4021.770714796042,nan,pitch_program,12.94,0.0,0.0
0.15,12.9832871046427,0.00012432195943967077,21.10409235143949,87.6138679726242,0.001125254863230929,6.979032352683186,87.89139181382,17.972756671292064,0.008857364239939443,6.9526603100249025,-0.010827112298902894,0.08253302338223542,-2.8283770019973247,-0.0830438596280649,2.398276216665515,-0.05403344047850844,4721.92646649597,0.2583424297096264,87.89144742191613,1.8938986106245126,1.222520026153691,101071.73014479295,288.0128233997156,0.0,0.1,0.0,355.825,0.1909686955173007,0.86,nominal,4069.4088247434556,nan,pitch_program,12.925,0.0,0.0
0.18,15.628035012723156,0.00015969353889084135,21.308198110271974,88.15826360268187,0.001179052648372353,6.803525294416151,88.42040148778939,17.967027610426545,0.011347438150978264,7.050155044164729,-0.013339058860149244,0.07279610891476536,-3.249839859010265,-0.08253419811792437,2.637148988212438,-0.05125782272487243,4778.845389236139,0.2598979639269304,88.4204567023454,1.9249649028759066,1.2224960599707146,101069.28318034706,288.0114967122832,0.0,0.1,0.0,361.63,0.19408419689432013,0.86,nominal,4118.0457406290325,nan,pitch_program,12.91,0.0,0.0
0.21,18.289338759569905,0.00019556783599046398,21.507292978599384,88.71012489489158,0.0011958099033207547,6.636495610913672,88.95802006728174,17.961205084519715,0.013963748098763197,7.138846248887991,-0.015825492711431754,0.07697399280353784,-2.956392176348874,-0.08159358714291116,2.860449239120227,-0.048552890178859505,4837.0426829043645,0.26147879522239986,88.95807492931105,1.9562267154807178,1.2224726825148928,101066.89633622502,288.0102025956391,0.0,0.1,0.0,367.435,0.19719969827133954,0.86,nominal,4167.679161834031,nan,pitch_program,12.895,0.0,0.0
0.24,20.967424066547164,0.00023086312440804294,21.701621618351435,89.26951023257529,0.0011765096139192983,6.477621325068383,89.50421798205389,17.955289093571576,0.01686185855000208,7.202147282510612,-0.01828162498853206,0.08638434017233555,-2.1100564443209033,-0.08066317239566312,3.0518825072489504,-0.04592549605714653,4896.531981299821,0.26308483730214566,89.50427253085238,1.987505662071303,1.2224498650331364,101064.5666759386,288.0089394594807,0.0,0.1,0.0,373.24,0.20031519964835895,0.86,nominal,4218.322725933116,nan,pitch_program,12.88,0.0,0.0
0.27,23.66252475796718,0.0002644909172165517,21.89138904421208,89.83668971400053,0.0011209264269502926,6.325580862021445,90.05911277193472,17.949279637582126,0.019393814632035124,7.24495167384107,-0.020712601515503297,0.07420942155117136,-1.4268384740001505,-0.07993797553298215,3.2172756113237324,-0.04333401621458086,4957.343321244954,0.26471643617594676,90.0591670463522,2.018862038200976,1.2224275834297722,101062.29173858822,288.0077059712126,0.0,0.1,0.0,379.045,0.20343070102537836,0.86,nominal,4270.00308700445,nan,pitch_program,12.865,0.0,0.0
0.3,26.374880396019137,0.000295353332210191,22.07677619871598,90.41185460173186,0.0010287471664546424,6.17957181679663,90.62279272579262,17.943176716551363,0.02198912202844821,7.277692693587212,-0.02312775775555604,0.07633479068436938,-1.0913961236379206,-0.07946542356415719,3.3676430463053935,-0.040791801419408816,5019.504101134188,0.26637385181230244,90.62284676433717,2.0503817703769256,1.2224058164374063,101060.06935209747,288.0065009547083,0.0,0.1,0.0,384.84999999999997,0.20654620240239774,0.86,nominal,4322.7444980201235,nan,pitch_program,12.850000000000001,0.0,0.0
0.32999999999999996,29.1047323814911,0.0003249168804005546,22.25795978382743,90.9950661823988,0.0009854516063454552,6.039452837048425,91.19526885250784,17.93698033047929,0.02487900682269499,7.303490211256575,-0.026076072636608164,0.08385795108904917,-0.8599570689968343,-0.0971309076328032,3.5062545713665227,-0.037711133036860495,5083.033617728062,0.2680571167436873,91.19532259930256,2.0820329059849687,1.222384543288201,101057.89739544637,288.0053232614051,0.0,0.1,0.0,390.655,0.20966170377941715,0.86,nominal,4376.5645518546635,nan,pitch_program,12.835,0.0,0.0
0.36,31.85232338313831,0.000352612381966594,22.43511373119893,91.58636672157361,0.000923183385534646,5.905131579049913,91.77653920843129,17.930690479365907,0.02813479939539717,7.320501571977173,-0.029735981386107113,0.09299958831166898,-0.5671012818064413,-0.12074251152444748,3.6313850429797294,-0.03396091243015071,5147.950046823296,0.26976622592606864,91.77659268266635,2.113736871338017,1.2223637435411578,101055.77378103368,288.00417176074717,0.0,0.1,0.0,396.46,0.21277720515643656,0.86,nominal,4431.479882610424,nan,pitch_program,12.82,0.0,0.0
0.39,34.617898581500754,0.0003736959446624346,22.608402387742252,92.18583994541491,0.0007027854231946868,5.7762885514441225,92.36663140098325,17.924307163211214,0.031675670589276596,7.328211977658897,-0.03348963165881537,0.10207774562885928,-0.2570782619200445,-0.12396656164986047,3.7427787312030882,-0.03023848055174078,5214.2751899492405,0.2715012613755573,92.36668477220573,2.1454643068856716,1.2223433978821046,101053.69653635142,288.00304538447966,0.0,0.1,0.0,402.265,0.21589270653345596,0.86,nominal,4487.509987458306,nan,pitch_program,12.805,0.0,0.0
0.42,37.40170605401286,0.000385022160180917,22.777978825343954,92.79358241707035,0.0003775405172827469,5.652547920056769,92.96558629904241,17.91783038201521,0.03472871922208743,7.328452025733799,-0.037074576079444845,0.08652569302008765,-0.008070283197915966,-0.11851736882947433,3.8425566687394626,-0.026719833725804977,5282.032699743846,0.2732623434408471,92.96563967626211,2.15532463915253,1.2223234883220129,101051.66382422816,288.00194313763524,0.0,0.1,0.0,404.1773684210526,0.21691906078826353,0.86,nominal,4544.675784009911,nan,pitch_program,12.79,0.0,0.0
0.44999999999999996,40.20380218059057,0.00038703439765068297,22.943963303364768,93.40320421925695,6.707458232553347e-05,5.53281593402717,93.56693118077851,17.911322810191564,0.03775681997674929,7.323038169943581,-0.04094191350288147,0.08449918121888436,0.18038094583275027,-0.12797310366620776,3.9330242016340224,-0.022913463033568615,5350.501674699594,0.27503044615782324,93.56698454676003,2.154305166458783,1.2223040007254862,101049.67420097535,288.0008642385281,0.0,0.1,0.0,404.14342105263154,0.21690084148196515,0.86,nominal,4602.388723023212,nan,pitch_program,12.775,0.0,0.0
0.48,43.02414798403475,0.0003785494505494442,23.10645817432525,94.01152678147248,-0.00028283157004129167,5.416495698682809,94.16743382676074,17.904815784947104,0.0409184909018242,7.3126494958360615,-0.0452189273664101,0.08722975491809823,0.34619197107053984,-0.14164361381094442,4.015174857994997,-0.018737728170299423,5419.315342050126,0.27679606905501286,94.1674872240078,2.1533501327653015,1.2222849230604944,101047.72643768265,287.99980802186684,0.0,0.1,0.0,404.1094736842105,0.2168826221756668,0.86,nominal,4660.349744813928,nan,pitch_program,12.76,0.0,0.0
0.51,45.86270604969246,0.000357524219719284,23.265560350403916,94.61860218859042,-0.0007008410276720058,5.303405869288788,94.76711451990248,17.898309306281835,0.044244898465459495,7.297566235523821,-0.049893829201812144,0.09106598680012633,0.5026603365061134,-0.15493882260903472,4.089466441380742,-0.014222909929172889,5488.474202150332,0.27855927192102165,94.76716802034615,2.1524418906441376,1.222266243934614,101045.81937076912,287.99877385772237,0.0,0.1,0.0,404.0755263157895,0.21686440286936848,0.86,nominal,4718.560204624445,nan,pitch_program,12.745,0.0,0.0
0.54,48.71944055615972,0.00032142388821496814,23.421360982326256,95.22448354890851,-0.0012033443834771965,5.19335439741132,95.36599602846655,17.891803374195753,0.04771245422717304,7.278357665137278,-0.054892370870177176,0.09444865751297712,0.6401528522522347,-0.16578573311212094,4.156647471854117,-0.009450283592595145,5557.979106684064,0.28032012180040844,95.36604971985773,2.151574785823295,1.2222479526326575,101043.95190582295,287.9977611536149,0.0,0.1,0.0,404.0415789473684,0.2168461835630701,0.86,nominal,4777.021688928078,nan,pitch_program,12.73,0.0,0.0
0.57,51.59431712505511,0.00026740947072351916,23.573946085763758,95.82921896317974,-0.0018004805830482994,5.086170114583386,95.9640992078249,17.885297988688862,0.05127311934957245,7.2557361697647,-0.060110253094755504,0.09668779144726385,0.7539005389857957,-0.17318359136151817,4.217592178440359,-0.00452547953456577,5627.830752211023,0.28207868008656134,95.96415318683002,2.1507479282593236,1.222230039043071,101042.12301008475,287.9967693504425,0.0,0.1,0.0,404.0076315789474,0.21682796425677175,0.86,nominal,4835.735606766585,nan,pitch_program,12.715,0.0,0.0
0.6,54.48730259654088,0.00019245563173373023,23.72339748681328,96.43284904952561,-0.0024984612996596317,4.981713368317441,96.56144080395121,17.878793149761158,0.05486761415284499,7.230242422189216,-0.06542781958010528,0.09746896126007294,0.8496283653779162,-0.1766248622467618,4.272979863901531,0.0004340361927742722,5698.029413659263,0.28383499607536844,96.56149517187085,2.1499570867258746,1.2222124935468783,101040.33170110766,287.9957979163357,0.0,0.1,0.0,403.9736842105263,0.21680974495047337,0.86,nominal,4894.702981031545,nan,pitch_program,12.7,0.0,0.0
0.63,57.39836488209527,9.344307136884384e-05,23.869793358416285,97.0354095184799,-0.0033004186788295462,4.879862386766853,97.1580350162849,17.872288857412645,0.05843178311150281,7.2022522068817665,-0.07071802233892824,0.09665474795062527,0.9328337691134204,-0.17586572951225157,4.3233105848819084,0.005305898000399601,5768.575114682864,0.2855891115632627,97.15808987577607,2.1491962224284755,1.2221953069546547,101038.57704032095,287.99484634317025,0.0,0.1,0.0,403.9397368421053,0.21679152564417503,0.86,nominal,4953.924593151134,nan,pitch_program,12.685,0.0,0.0
0.6599999999999999,60.327472878509695,-3.2757879067856266e-05,24.01320847623086,97.63693321381422,-0.004206698347890003,4.780503927152544,97.75389487326144,17.86578511164332,0.061900241918473126,7.172119245292464,-0.07585180876597902,0.09420546239332919,1.0042532358121292,-0.1708362868520516,4.369053978097589,0.009967577081809913,5839.467782581107,0.2873410648920432,97.75395032545909,2.148461486113017,1.2221784704764422,101036.85812995739,287.99391414490447,0.0,0.1,0.0,403.9057894736842,0.21677330633787664,0.86,nominal,5013.401112349754,nan,pitch_program,12.67,0.0,0.0
0.69,63.274596373245885,-0.0001892071188846868,24.153714541761477,98.23744982453958,-0.005214974660561019,4.683535517687188,98.34903192289353,17.859281912453184,0.06520892240428536,7.140203741152416,-0.0807023621251806,0.09014757080962882,1.0636715613330185,-0.1616056036182979,4.4106767726829865,0.014300241723413815,5910.707206647114,0.28909089004061633,98.34908806473634,2.147751054183416,1.222161975683781,101035.17410917534,287.99300085547856,0.0,0.1,0.0,403.8718421052631,0.21675508703157828,0.86,nominal,5073.13306479613,nan,pitch_program,12.655,0.0,0.0
0.72,66.23970593516367,-0.00037881711223684817,24.291380583483203,98.8369853972595,-0.006320333111738712,4.588868057390856,98.94345573312486,17.852779259842237,0.06829714094578195,7.106822857702755,-0.08514881731781442,0.0845606457529388,1.1125240448797964,-0.14836738368635213,4.448592063206233,0.018192236952849956,5982.292972124917,0.2908386151577458,98.94351265484495,2.1470630873638377,1.2221458144625745,101033.52414924563,287.99210602620735,0.0,0.1,0.0,403.8378947368421,0.21673686772527995,0.86,nominal,5133.1207836054355,nan,pitch_program,12.64,0.0,0.0
0.75,69.22277281904019,-0.0006042784420623415,24.426273292149173,99.43556279588388,-0.007515377660849776,4.496423622198966,99.5371741130184,17.84627715381048,0.07110943037096587,7.072237887291766,-0.08907976142367999,0.07757105687442817,1.1526733413673826,-0.13143205978113665,4.483148103277402,0.021542328132141787,6054.2244797307685,0.29258426321352954,99.53723189581308,2.1463954002962735,1.2221299789737006,101031.90744952904,287.991229223601,0.0,0.1,0.0,403.80394736842106,0.21671864841898159,0.86,nominal,5193.364428183124,nan,pitch_program,12.625,0.0,0.0
0.78,72.22376888945153,-0.0008679901670225882,24.55845727042955,100.03320234704478,-0.008790390832008223,4.4061326093458595,100.13019351647593,17.83977559435791,0.0735972042372323,7.036678959586165,-0.09239655095958854,0.06934766757650779,1.185158125146712,-0.11121941573763283,4.514654962747482,0.024262705417249255,6126.500988541526,0.2943278531873201,100.13025223040779,2.1457462723387692,1.2221144616236728,101030.32323448012,287.9903700277422,0.0,0.1,0.0,403.77,0.21670042911268322,0.86,nominal,5253.8640218145165,nan,pitch_program,12.61,0.0,0.0
0.8099999999999999,75.24266655150126,-0.0011719969047771167,24.68799526108901,100.629922068324,-0.01013355792515095,4.317933021981998,100.72251914913706,17.83327458148453,0.07572024426618006,7.000357719144358,-0.09501633824045395,0.060097595144131814,1.210594090626641,-0.08824941395958616,4.543397856974098,0.026281692331662308,6199.12162413076,0.29606940038328716,100.72257885131748,2.1451146056569406,1.222099255037826,101028.77075090885,287.9895280308029,0.0,0.1,0.0,403.73605263157896,0.21668220980638486,0.86,nominal,5314.6194606013,nan,pitch_program,12.595,0.0,0.0
0.84,78.27943868381526,-0.0015179345538947002,24.81494837302739,101.22573774379985,-0.011531254970586114,4.231770397945962,101.31415496092991,17.82677411519034,0.07744797886052668,6.963462304448685,-0.09687471673643669,0.050061253298037074,1.2297639147663593,-0.06313041139791148,4.569632385092674,0.02754608483485101,6272.085373027984,0.2978089164100411,101.31421569403928,2.1444994966195776,1.2220843520337608,101027.24926526849,287.9887028355753,0.0,0.1,0.0,403.7021052631579,0.2166639905000865,0.86,nominal,5375.630511186009,nan,pitch_program,12.58,0.0,0.0
0.87,81.33405857793251,-0.001906986413071692,24.939376282873663,101.82066313724197,-0.012968395305899728,4.147596994875724,101.90510375206378,17.82027419547534,0.07876051861071538,6.926155598693553,-0.09792792568974316,0.03950642923495838,1.243508241238005,-0.0365445444875645,4.593583448810933,0.028023042882796795,6345.391091302589,0.2995464094937931,101.9051655432537,2.1438999331285338,1.2220697455976497,101025.75806123625,287.9878940541613,0.0,0.1,0.0,403.66815789473685,0.21664577119378817,0.86,nominal,5436.896819783885,nan,pitch_program,12.565,0.0,0.0
0.8999999999999999,84.40649989207931,-0.002335598548395837,25.061337411457934,102.41471047156011,-0.0142870711774715,4.065370952809031,102.49536753472242,17.813774822339525,0.07975572213661049,6.888579560488078,-0.09903849422688758,0.02872138514664458,1.2524826161939342,-0.03848287988653701,4.615451601591842,0.02865540995681472,6419.037528340026,0.30128188513664816,102.49543025663176,2.143315445704726,1.2220554288635055,101024.29643759585,287.9871013068255,0.0,0.1,0.0,403.6342105263158,0.2166275518874898,0.86,nominal,5498.417947564989,nan,pitch_program,12.55,0.0,0.0
0.9299999999999999,87.4967365926295,-0.002802714763845017,25.180889065220995,103.00789001833985,-0.015570540514972675,3.985055125435327,103.08494707194106,17.8072759957829,0.08135995068019103,6.850862336788272,-0.10055103130714904,0.04744368918803117,1.2571692142100017,-0.0518235696438917,4.635419136910015,0.029665401710334327,6493.02331275495,0.303015345868093,103.08501068018082,2.142745498651175,1.2220413950965607,101022.86370654017,287.986324221076,0.0,0.1,0.0,403.6002631578947,0.21660933258119142,0.86,nominal,5560.193322163894,nan,pitch_program,12.535000000000002,0.0,0.0
0.96,90.60474291125732,-0.0033088233104130536,25.298087580063587,103.60021062092703,-0.01687028488560122,3.9066171614197027,103.67384232752663,17.800777715805463,0.08302938285727422,6.8131166737353706,-0.10253509858665256,0.04778036017927599,1.258093317130045,-0.06747085575872491,4.653647923177544,0.031137133112957977,6567.346971460644,0.30474679177414504,103.67390682813988,2.1421896852228026,1.2220276376763635,101021.45919194497,287.98556243072954,0.0,0.1,0.0,403.56631578947366,0.21659111327489305,0.86,nominal,5622.222282043456,nan,pitch_program,12.520000000000001,0.0,0.0
0.99,93.73049330674965,-0.0038552387879804747,25.41298844684362,104.19167984974463,-0.018213849252247363,3.830028892667773,104.26205255496679,17.794279982407215,0.08451991937340625,6.775440583015241,-0.10493389156667617,0.04022492483149981,1.2557523019742298,-0.0812344152210833,4.670281549594242,0.033018590811663404,6642.006939014669,0.3064762207838251,104.2621179803312,2.14164764017952,1.2220141500820314,101020.08222786279,287.98481557509547,0.0,0.1,0.0,403.53236842105264,0.21657289396859472,0.86,nominal,5684.504084639567,nan,pitch_program,12.505,0.0,0.0
1.02,96.87396243111729,-0.004443651251610394,25.52564641946655,104.78230414558803,-0.019613748787663962,3.7552657540977283,104.84957638274729,17.787782795588157,0.08570734393830098,6.737920221228297,-0.10764958260134054,0.028930495070935567,1.250543851827559,-0.09175213369405782,4.685448642816541,0.035215782754361255,6717.001567033223,0.308203628947178,104.84964277665095,2.1411190871607166,1.2220009258795457,101018.73215722549,287.98408329827345,0.0,0.1,0.0,403.49842105263156,0.21655467466229633,0.86,nominal,5747.03791428024,nan,pitch_program,12.49,0.0,0.0
1.05,100.03512509890591,-0.005075866752397605,25.636115611373516,105.37208892628723,-0.021073850026240386,3.6823063968988214,105.4364118755811,17.781286155348287,0.0875683714538398,6.700631533865769,-0.11058613642834611,0.05058121422212403,1.2428078714346755,-0.0990921753679617,4.6992655252558855,0.037551239396863625,6792.329130571866,0.30992901063451245,105.43647928476743,2.1406038375378635,1.2219879587104117,101017.40833068601,287.98336524852607,0.0,0.1,0.0,403.46447368421053,0.216536455355998,0.86,nominal,5809.822887758866,nan,pitch_program,12.475,0.0,0.0
1.08,103.21395625903597,-0.00575373839832324,25.744449582707972,105.96103867100189,-0.022595721530854516,3.6111323778152293,106.02255658044798,17.774790061687607,0.08941581346592041,6.66364080104045,-0.11366920045199497,0.04962311133386104,1.232865353881636,-0.10397495246382105,4.711835349181536,0.040006217467476554,6867.987832807446,0.3116523586902526,106.02262505238492,2.1401017234793107,1.2219752422814123,101016.11010557196,287.98266107771235,0.0,0.1,0.0,403.43052631578945,0.21651823604969964,0.86,nominal,5872.8580584274105,nan,pitch_program,12.46,0.0,0.0
1.1099999999999999,106.41043097001578,-0.0064790795225369725,25.850701416032642,106.54915703266052,-0.024178037473791075,3.5417277774889686,106.6080076007327,17.768294514606115,0.09094929427780972,6.62700573298408,-0.11684746978361113,0.03885607366602817,1.2210018332296033,-0.1071525141908145,4.72325064383561,0.042555344930896646,6943.9758127402165,0.31337366464959765,106.60807718088428,2.139612608094005,1.2219627703557145,101014.83684497717,287.98197044079575,0.0,0.1,0.0,403.3965789473684,0.21650001674340127,0.86,nominal,5936.142423340477,nan,pitch_program,12.445,0.0,0.0
1.14,109.6245243777405,-0.007253636477601223,25.95492378292422,107.13644692415707,-0.025818565168808368,3.474078896385869,107.19276165072597,17.761799514103814,0.09305819395985435,6.590776589243757,-0.12008884459770151,0.05786152066428812,1.2074642645091391,-0.10926690695456245,4.7335953669926125,0.04509493179480316,7020.291150966425,0.3150929189045673,107.192832381752,2.139136397771313,1.2219505367450307,101013.58791696123,287.98129299541097,0.0,0.1,0.0,403.3626315789474,0.21648179743710294,0.86,nominal,5999.674928470487,nan,pitch_program,12.43,0.0,0.0
1.17,112.85621169524046,-0.008079153595291575,26.05716900350558,107.72291058333221,-0.02751723725634509,3.4081740193787478,107.77681509438521,17.7553050601807,0.0950414745014216,6.554996923351005,-0.12337761403297075,0.05356082534281374,1.1924751964846694,-0.1108626604662542,4.742943789890018,0.04766737397255282,7096.931873751597,0.31681011082653876,107.77688701821347,2.138673000300489,1.221938535302626,101012.36269383512,287.9806284014772,0.0,0.1,0.0,403.3286842105263,0.21646357813080455,0.86,nominal,6063.454472352879,nan,pitch_program,12.415,0.0,0.0
1.2,116.10546818509094,-0.00895735001657623,26.157489097691858,108.30854966168293,-0.02927321404282182,3.3440031395424965,108.36016400751508,17.748811152836776,0.09659444010238676,6.5197044215043825,-0.1267073012226625,0.03912925760719915,1.176230715202378,-0.11223511954678528,4.751362910221698,0.050292333947900635,7173.89595964424,0.31852522894102636,108.36023716464622,2.138222341352713,1.22192675991729,101011.16055154554,287.979976320865,0.0,0.1,0.0,403.2947368421053,0.21644535882450622,0.86,nominal,6127.479912327663,nan,pitch_program,12.4,0.0,0.0
1.23,119.37226914365009,-0.00988991530884724,26.255935830305525,108.89336528530487,-0.031085509742367023,3.2815577537889085,108.94280421743883,17.74231779207204,0.09873899247517201,6.484931492819103,-0.13007589029992797,0.058769394753080025,1.1589058020200995,-0.11353964237801849,4.758914133712307,0.052884081771910445,7251.181343800828,0.32023826104615993,108.9428786468448,2.1377843710156426,1.2219152045080341,101009.9808691332,287.979336417103,0.0,0.1,0.0,403.26078947368416,0.2164271395182078,0.86,nominal,6191.75006848987,nan,pitch_program,12.385,0.0,0.0
1.26,122.65658988657376,-0.010878586631177706,26.35256075134793,109.4773580974554,-0.03295571074434886,3.2208307014134645,109.52473132806361,17.735824977886494,0.10069208547877183,6.450705742581455,-0.13348586356926384,0.05229920286462019,1.1406600868059178,-0.1149276674445466,4.765651151051167,0.05550946042060962,7328.785920786184,0.321949194293776,109.52480706957063,2.137359011295318,1.2219038630193493,101008.82302824846,287.9787083551162,0.0,0.1,0.0,403.22684210526313,0.21640892021190947,0.86,nominal,6256.263726134466,nan,pitch_program,12.37,0.0,0.0
1.29,125.95840573665689,-0.011925110561548184,26.44741522931315,110.06052833610438,-0.03488413101234926,3.161815932174022,110.10594077757104,17.729332710280136,0.10317050684457217,6.417050750623349,-0.13693982074019048,0.06971276489250697,1.1216277886455694,-0.11640239116728053,4.771623803248382,0.05811171453907376,7406.707551074768,0.32365801534863764,110.10601787068764,2.1369462148439364,1.2218927294172939,101007.68641275149,287.97809180100944,0.0,0.1,0.0,403.1928947368421,0.21639070090561113,0.86,nominal,6321.019641815534,nan,pitch_program,12.355,0.0,0.0
1.3199999999999998,129.27769201244632,-0.013031295618942037,26.54055048145855,110.64287585964766,-0.036872835246461774,3.1045084048465785,110.68642785154441,17.72284098925297,0.10537906617164416,6.3839863465010565,-0.14044168714169106,0.06060595022197453,1.1019338944399748,-0.11800694942506043,4.776875601959944,0.06076013859610651,7484.944062613316,0.32536471043522375,110.68650633705174,2.1365459007446517,1.221881797685927,101006.57040834811,287.9774864218705,0.0,0.1,0.0,403.158947368421,0.21637248159931274,0.86,nominal,6386.016544646568,nan,pitch_program,12.34,0.0,0.0
1.3499999999999999,132.6144240188181,-0.01419896508724754,26.632017598280957,111.22440021239292,-0.038922315610183424,3.048903894080269,111.26618773243084,17.71634981480499,0.10697320490207327,6.351529197735523,-0.14399413949683942,0.04000457767490384,1.081685046386516,-0.11968922011261798,4.78144626442031,0.06348633193252752,7563.493256609105,0.32706926547428566,111.26626765094471,2.1361579932418664,1.2218710618244306,101005.47440229554,287.97689188561117,0.0,0.1,0.0,403.125,0.2163542622930144,0.86,nominal,6451.253141634453,nan,pitch_program,12.325,0.0,0.0
1.38,135.9685770385136,-0.015429932169868859,26.72186756482213,111.80510065651563,-0.04103223608737727,2.994998884705786,111.84521552027776,17.7098591869362,0.109206594428087,6.319693059606444,-0.1475978770866589,0.06119032052280895,1.0609775095245355,-0.12139271234429755,4.785373465700026,0.06618708453468179,7642.352910102898,0.3287716661459244,111.84529691151343,2.135782440662953,1.2218605158445937,101004.39778314548,287.9763078608286,0.0,0.1,0.0,403.0910526315789,0.21633604298671602,0.86,nominal,6516.728119943254,nan,pitch_program,12.31,0.0,0.0
1.41,139.3401263239588,-0.01672608372479971,26.810151280184524,112.38497618150744,-0.04320505183102839,2.9427905120797906,112.42350623420569,17.703369105646598,0.11225243445311645,6.288488858227471,-0.1512550645829466,0.08814205040851754,1.039903958918769,-0.12317904327355007,4.788690147459737,0.0688490887406306,7721.5207763371955,0.33047189790349063,112.42358913948111,2.1354191481936398,1.2218501537685262,101003.33994051028,287.97573401667876,0.0,0.1,0.0,403.0571052631579,0.2163178236804177,0.86,nominal,6582.440147048064,nan,pitch_program,12.295,0.0,0.0
1.44,142.72904709061729,-0.01808939851375632,26.89691957228375,112.96402555528256,-0.045443826298553695,2.8922764033074744,113.00105485166503,17.696879570936186,0.11503176649027261,6.257925383005488,-0.15496924064553533,0.07911619549344073,1.0185364382273598,-0.12508498285557165,4.791424849549362,0.07156471825692241,7800.994589642635,0.3321699460831503,113.0011393144081,2.1350679919386883,1.2218399696269082,101002.30026488421,287.9751700227801,0.0,0.1,0.0,403.02315789473687,0.21629960437411935,0.86,nominal,6648.387875118041,nan,pitch_program,12.28,0.0,0.0
1.47,146.13531451175965,-0.019521876244866582,26.98222320892723,113.54224737141197,-0.047749257703675434,2.84345455478273,113.57785634509764,17.690390582804962,0.1170836745905504,6.228009688772314,-0.15874238955408335,0.05471991739065152,0.9969345340873228,-0.12704540944944162,4.793604312386513,0.07437457235612904,7880.772070037334,0.33386579600394406,113.5779424087229,2.1347288629533168,1.2218299574576907,101001.27814751041,287.97461554914196,0.0,0.1,0.0,402.9892105263158,0.21628138506782096,0.86,nominal,6714.569945205645,nan,pitch_program,12.265,0.0,0.0
1.5,149.5589037135849,-0.02102550113789272,27.066112907781303,114.11964006084199,-0.05012082976753798,2.796323295135725,114.15390568738604,17.68390214125293,0.11962028540444661,6.198746888806857,-0.16257433481637168,0.07072912283058742,0.9751623097156227,-0.1289957822212791,4.795254862863257,0.07717787733088496,7960.850924132629,0.3355594329869479,114.15399339423296,2.1344016712494165,1.2218201113049132,101000.27298026007,287.9740702660994,0.0,0.1,0.0,402.9552631578947,0.2162631657615226,0.86,nominal,6780.984987989407,nan,pitch_program,12.25,0.0,0.0
1.53,152.9997897701761,-0.02260232482642024,27.148639345681662,114.69620188637364,-0.05256078961758407,2.750881263345354,114.72919784222938,17.677414246280083,0.12287927254218238,6.170140180760086,-0.16646642385469504,0.09465648660709165,0.9532818688349965,-0.13099890700404856,4.796399197847001,0.07995533363963837,8041.228844295028,0.33725084233727337,114.72928723599452,2.1340862706552706,1.2218104252176112,100999.28415552067,287.97353384425304,0.0,0.1,0.0,402.9213157894737,0.21624494645522424,0.86,nominal,6847.631622800034,nan,pitch_program,12.235,0.0,0.0
1.56,156.45794769973892,-0.024254488802234547,27.229853163951923,115.27193098542678,-0.05507213252714352,2.707127275675305,115.3037277980876,17.670926897886428,0.12571358692518766,6.142191614611502,-0.1704216778076445,0.08033859608164712,0.9313323324535042,-0.13310223719877112,4.797056409880581,0.08280477100423671,8121.90351317632,0.3389400094385386,115.30381892444841,2.133782479999921,1.2218008932491775,100998.31106613064,287.9730059544343,0.0,0.1,0.0,402.8873684210526,0.21622672714892588,0.86,nominal,6914.5084615980095,nan,pitch_program,12.220000000000002,0.0,0.0
1.5899999999999999,159.93335246209108,-0.025984144673759802,27.309804970932436,115.84682541173888,-0.057655195717508545,2.6650602326838033,115.87749060168387,17.66444009607196,0.12881951083650223,6.114902297019818,-0.17444126763221707,0.08922648660970683,0.9093457811315758,-0.13524077214104607,4.797246714363919,0.08566939685673883,8202.87260815647,0.34062691984265925,115.87758350596752,2.1334901812403686,1.2217915094570664,100997.3531053488,287.9724862676889,0.0,0.1,0.0,402.8534210526316,0.21620850784262752,0.86,nominal,6981.6141129898615,nan,pitch_program,12.205000000000002,0.0,0.0
1.6199999999999999,163.4259789553511,-0.02779350329523942,27.388545346344085,116.42088310866757,-0.06031195404932062,2.6246791803882408,116.4504813306231,17.657953840836683,0.1312553900769236,6.088271823456188,-0.178527157557248,0.06671944648073082,0.887372824666071,-0.13743909972978632,4.7969859598409785,0.08862936637458338,8284.133798204197,0.34231155920037687,116.45057605922185,2.133209146024086,1.2217822679022736,100996.40966680131,287.97197445524876,0.0,0.1,0.0,402.8194736842105,0.21619028853632916,0.86,nominal,7048.947179287626,nan,pitch_program,12.19,0.0,0.0
1.65,166.9358020144318,-0.029684765022791423,27.466124840269746,116.99410196935628,-0.06304205758506683,2.585983130855384,117.02269514359267,17.651468132180593,0.13419097564206844,6.062299131666211,-0.18267936948268917,0.08320451884964328,0.865435272209093,-0.13963484667448076,4.796292134536432,0.0915874656629077,8365.68475071002,0.3439939133987527,117.0227917419583,2.132939241732758,1.2217731626494468,100995.48014449266,287.9714701885382,0.0,0.1,0.0,402.78552631578947,0.21617206923003082,0.86,nominal,7116.5062624999455,nan,pitch_program,12.175,0.0,0.0
1.68,170.46279640827356,-0.03166020515655354,27.542593975401356,117.56647979472552,-0.06584800445873708,2.548971171053628,117.59412723990157,17.64498297010369,0.13783125946917613,6.036981972125441,-0.1868995776146462,0.10651719304725098,0.8435708774496206,-0.14189309268131184,4.795180280157612,0.09452744258718931,8447.523126617416,0.34567396845530246,117.59422575498786,2.1326802608795727,1.2217641877666234,100994.56393277875,287.97097313915987,0.0,0.1,0.0,402.75157894736844,0.21615384992373246,0.86,nominal,7184.28995986595,nan,pitch_program,12.16,0.0,0.0
1.71,174.00693683825085,-0.033722195427483365,27.61800324561563,118.13801433257613,-0.06873300903099429,2.5136423404757364,118.1647728914431,17.63849835460598,0.14086859012515374,6.012317478060353,-0.19119111594037602,0.08623021981982394,0.8218013882660508,-0.1442603250328344,4.793661958564471,0.09756082279034549,8529.646584950315,0.3473517106064556,118.16487337228493,2.132431928288614,1.2217553373253855,100993.66042638254,287.9704829789035,0.0,0.1,0.0,402.71763157894736,0.2161356306174341,0.86,nominal,7252.29686777178,nan,pitch_program,12.145,0.0,0.0
1.74,177.5681979379761,-0.035873107108799734,27.692403111388437,118.70870332417502,-0.07169705604387891,2.4799955257602244,118.7346274815508,17.632014285687454,0.14421183542026594,5.988302565179302,-0.19555493702765406,0.09623594301417818,0.8001347372195045,-0.14665479877815898,4.791751832668603,0.1006130287863624,8612.052788254938,0.34902712641193395,118.73472997650622,2.1321940881460337,1.2217466054014001,100992.76902044905,287.96999937977597,0.0,0.1,0.0,402.68368421052634,0.21611741131113574,0.86,nominal,7320.525586563616,nan,pitch_program,12.13,0.0,0.0
1.77,181.14655427145104,-0.038115378379888334,27.765843999649675,119.27854444916471,-0.07474237570295338,2.4480296087080076,119.30368645309834,17.62553076334812,0.1480835297776251,5.964932911248268,-0.1999927789198879,0.1136538248208251,0.7786106639667546,-0.14911052940773,4.789461934417329,0.10366660767453646,8694.739396121999,0.35070020261585894,119.30379101174589,2.131966480042771,1.221737986074425,100991.88911054589,287.9695220140023,0.0,0.1,0.0,402.64973684210526,0.21609919200483738,0.86,nominal,7388.974714708764,nan,pitch_program,12.115,0.0,0.0
1.7999999999999998,184.74198033239685,-0.04045153542538664,27.8383762993495,119.84753536486045,-0.07787190151661005,2.4177433233274472,119.87194534102639,17.619047787587974,0.15116835690638167,5.942203937409719,-0.2045076097944288,0.0872179214742808,0.7572389973942261,-0.15166065894186967,4.786800964465993,0.1068333948233953,8777.70407000262,0.3523709262384197,119.87205201473078,2.1317487785719385,1.2217294734288284,100991.02009271605,287.9690505540542,0.0,0.1,0.0,402.6157894736842,0.216080972698539,0.86,nominal,7457.642852857024,nan,pitch_program,12.1,0.0,0.0
1.8299999999999998,188.3544505449567,-0.04288409000910386,27.91005035430705,120.41567375199494,-0.08108515279057424,2.389135165251648,120.43939981080415,17.612565358407018,0.1546261325678235,5.920111165578817,-0.20909972144334832,0.09944189822071585,0.7360168245242082,-0.15421562253412427,4.783781949209597,0.11001751735479805,8860.94447872011,0.35403928467880147,120.43950864984998,2.1315408242676104,1.2217210615544263,100990.16136356328,287.968584672697,0.0,0.1,0.0,402.58184210526315,0.21606275339224065,0.86,nominal,7526.528608700431,nan,pitch_program,12.085,0.0,0.0
1.8599999999999999,191.98393926215573,-0.04541562805883003,27.98091646221883,120.98295723996706,-0.08438460165753894,2.362203597059266,121.00604558914672,17.60608347580525,0.15873416463487836,5.898648792489911,-0.21377072365049274,0.12090424178906094,0.7149862582022337,-0.1568284566943532,4.780414797009838,0.11319679905769711,8944.458289487999,0.3557052655271716,121.00615664520126,2.131342307222412,1.221712744546588,100989.3123202629,287.96812404299556,0.0,0.1,0.0,402.54789473684207,0.2160445340859423,0.86,nominal,7595.630588985545,nan,pitch_program,12.07,0.0,0.0
1.89,195.6304207658775,-0.04804883696946135,28.051024868041424,121.54938345739158,-0.08777363035437732,2.3369468607531405,121.57187850696471,17.59960213978267,0.1632423606121386,5.87781106368924,-0.21852369611945063,0.13401990326495283,0.6941454160568167,-0.1595475349634173,4.776708248768458,0.1163941188068205,9028.243174286492,0.357368856685782,121.57199183380298,2.1311529280732606,1.2217045165070168,100988.4723606411,287.9676683383577,0.0,0.1,0.0,402.51394736842104,0.21602631477964393,0.86,nominal,7664.947404878272,nan,pitch_program,12.055,0.0,0.0
1.92,199.2938692671751,-0.05078649113363637,28.12042575755432,122.11495004325386,-0.09125513880583405,2.3133629837631298,122.1368945071938,17.59312135033928,0.16674619845516378,5.857592273870796,-0.22336209383435693,0.10030665851862973,0.6734948706486958,-0.16237504649430146,4.772668427826027,0.11972897952793564,9112.296811255203,0.359030046388542,122.13701016026693,2.1309723184908584,1.2216963715444944,100987.640883251,287.9672172325759,0.0,0.1,0.0,402.48,0.2160080954733456,0.86,nominal,7734.477673186014,nan,pitch_program,12.040000000000001,0.0,0.0
1.95,202.97425890774255,-0.053631336259939426,28.189169248624058,122.67965468558215,-0.0948281708767685,2.2914497023246376,122.70108967688084,17.58664110747508,0.1705328407129187,5.83798656117511,-0.22828588272636147,0.10949922427066602,0.6530403715993051,-0.16519501397545483,4.768306562443828,0.12309504732529696,9196.616889513642,0.3606888232872326,122.70120771014494,2.1308002790945304,1.2216883037759096,100986.81728747762,287.9667703998839,0.0,0.1,0.0,402.44605263157894,0.2159898761670472,0.86,nominal,7804.220020558997,nan,pitch_program,12.025,0.0,0.0
1.98,206.67156375883945,-0.0565861898455431,28.25730538861779,123.24349503656387,-0.09849511952012266,2.27120466645773,123.26446016899216,17.58016141119007,0.17499105542353516,5.818986947855427,-0.23329631888205757,0.13164667560542218,0.6328165822403768,-0.16806000362094387,4.763630826269433,0.12646069872977198,9281.201098793295,0.3623451762390239,123.264580637655,2.1306364558971147,1.2216803073265554,100986.00097356786,287.96632751497395,0.0,0.1,0.0,402.4121052631579,0.21597165686074887,0.86,nominal,7874.173074265816,nan,pitch_program,12.01,0.0,0.0
2.01,210.38575782173768,-0.05965397821873194,28.324884146382196,123.80646876327405,-0.10225961243962797,2.2526252588135387,123.82700224594204,17.573682261484247,0.17989388131365142,5.800586861609672,-0.23839646373745327,0.1462185807910967,0.612809480477576,-0.17103025037732356,4.7586483340820545,0.1298467766872881,9366.047136025894,0.3639990944291765,123.82712520744,2.1304805216738543,1.221672376331065,100985.19134272625,287.9658882530485,0.0,0.1,0.0,402.37815789473683,0.2159534375544505,0.86,nominal,7944.335467722386,nan,pitch_program,11.995000000000001,0.0,0.0
2.04,214.11681502844186,-0.06283772401055136,28.391955405035244,124.36857355680569,-0.10612485972731406,2.2357086217683046,124.38871228564868,17.567203658357613,0.1849297884739786,5.782779705468648,-0.2435897887999028,0.15039463112949666,0.5930205519229989,-0.17411604158246918,4.753365752218562,0.1332816920323261,9451.152706471708,0.36565056738482393,124.38883779927295,2.130332133531086,1.22166450493426,100984.38779720126,287.96545228986724,0.0,0.1,0.0,402.3442105263158,0.21593521824815215,0.86,nominal,8014.705841513733,nan,pitch_program,11.98,0.0,0.0
2.07,217.86470924257563,-0.06614052303416519,28.45856895445937,124.92980713779205,-0.11009330078712756,2.2204516474709077,124.9495867841889,17.56072560181017,0.1899720585654089,5.765558545940134,-0.24887911396097198,0.15033743084451587,0.5734616864500379,-0.17729337252099117,4.747789607344028,0.1367781701276291,9536.515524511713,0.36729958498192117,124.94971491043792,2.1301909227656237,1.2216566872920263,100983.58974037466,287.965019301796,0.0,0.1,0.0,402.3102631578947,0.2159169989418538,0.86,nominal,8085.282844007026,nan,pitch_program,11.965,0.0,0.0
2.1,221.62941426034095,-0.0695655336248887,28.524774483178135,125.49016725884367,-0.11416701969078359,2.206850957292164,125.50962235585224,17.554248091841913,0.195057949518296,5.748916452236122,-0.2542665439797782,0.15151525588350903,0.5541329785818088,-0.1805380840050912,4.741926641907127,0.1403347889782132,9622.133314145269,0.36894613744636423,125.5097531561296,2.13005654123577,1.221648917572264,100982.7965768585,287.9645889658593,0.0,0.1,0.0,402.27631578947364,0.2158987796355554,0.86,nominal,8156.0651316397825,nan,pitch_program,11.95,0.0,0.0
2.13,225.41090381127992,-0.07311597928526285,28.590621571045375,126.04965169796567,-0.11834818867913846,2.1949029289079776,126.06881572514098,17.547771128452847,0.20026584085676472,5.732846360436008,-0.2597539380899931,0.15529962949460094,0.5350386861123705,-0.18384262321341663,4.735783413403145,0.14394646813546214,9708.003808249292,0.3705902153314755,126.06894926181184,2.129928631205728,1.2216411899557458,100982.00771258256,287.96416095978816,0.0,0.1,0.0,402.2423684210526,0.21588056032925707,0.86,nominal,8227.051368199469,nan,pitch_program,11.935,0.0,0.0
2.16,229.2091515590764,-0.07679515586280966,28.656159681772422,126.60825825988215,-0.12263921925156018,2.184603690901617,126.62716372589814,17.54129471164297,0.2056374736756013,5.717341090240333,-0.2653433130242672,0.16046872284923808,0.516182442867285,-0.1872127475518201,4.729366132784083,0.1476112399948036,9794.124748870745,0.3722318095157347,126.6273000624639,2.1298068210121106,1.2216334986369897,100981.22255488356,287.96373496206843,0.0,0.1,0.0,402.2084210526316,0.2158623410229587,0.86,nominal,8298.240224975962,nan,pitch_program,11.92,0.0,0.0
2.19,233.0241311024768,-0.08060643669829667,28.721438155150306,127.16598478001367,-0.12704269451623373,2.1759491125961685,127.18466330284288,17.53481884141228,0.21117323653109113,5.702393450552781,-0.2710369519863392,0.16564321251044842,0.4975644630100005,-0.19065740312862553,4.722680755812868,0.15133076152127198,9880.493887862162,0.373870911207068,127.18480250405867,2.1296907351761885,1.2216258378251734,100980.44051259811,287.9633106519915,0.0,0.1,0.0,402.1744736842105,0.21584412171666034,0.86,nominal,8369.630381212957,nan,pitch_program,11.905,0.0,0.0
2.2199999999999998,236.8558159762723,-0.08455327468213071,28.78650619930392,127.72282912651747,-0.13156126612780106,2.1689348051203665,127.74131151133993,17.52834351776078,0.21686010737552858,5.687996196641269,-0.2768373178539429,0.17037546691805341,0.47918648260432123,-0.19418241080344079,4.715733005854174,0.15510795496363652,9967.10898724261,0.3755075119418705,127.74145364324932,2.1295799881797173,1.2216182017450352,100979.6609961551,287.9628877097045,0.0,0.1,0.0,402.1405263157895,0.215825902410362,0.86,nominal,8441.220524337998,nan,pitch_program,11.890000000000002,0.0,0.0
2.25,240.7041796523532,-0.08863920310633713,28.851412882812003,128.2787892026963,-0.13619761414021397,2.1635561169361828,128.29710551750972,17.521868740688472,0.22269257664212888,5.6741420517996355,-0.28274694387600724,0.17491565473581916,0.46104953765873474,-0.1977899525666185,4.708528454512026,0.158945190805202,10053.9678196179,0.37714160358517634,128.29725064744702,2.1294741890965176,1.2216105846378058,100978.88341767031,287.9624658162617,0.0,0.1,0.0,402.1065789473684,0.21580768310406362,0.86,nominal,8513.009350232738,nan,pitch_program,11.875,0.0,0.0
2.28,244.5691955407936,-0.09286783700341028,28.91620712683927,128.83386294801377,-0.14095446323577146,2.1598081342422413,128.85204259710065,17.51539451019535,0.22867556245558893,5.660823724058112,-0.28876838699945406,0.17961127138882643,0.4431540818187894,-0.20148074534844407,4.701072552374075,0.1628439990841653,10141.068168412321,0.37877317832732355,128.8521907937063,2.129372943383579,1.221602980762123,100978.10719104004,287.96204465367555,0.0,0.1,0.0,402.0726315789474,0.21578946379776529,0.86,nominal,8584.99556334294,nan,pitch_program,11.86,0.0,0.0
2.31,248.45083699095147,-0.09724287533195244,28.98093769733542,129.3880483385954,-0.1458346109514055,2.157685683204916,129.40612013391004,17.508920826281418,0.2348179774017506,5.648033900887275,-0.2949042348441763,0.18459534628132507,0.4255007169527427,-0.20525579581697423,4.69337061120726,0.16680559708408255,10228.407828024796,0.3804022286793136,129.4062714671671,2.1292758508052176,1.2215953843949512,100977.3317320349,287.9616239049673,0.0,0.1,0.0,402.03868421052636,0.21577124449146692,0.86,nominal,8657.177876725555,nan,pitch_program,11.845,0.0,0.0
2.34,252.34907729259749,-0.10176810355693905,29.045653197238106,129.94134338820072,-0.15084094083288702,2.1571833300895524,129.95933561864396,17.502447688946674,0.24112731192356968,5.635765267445378,-0.30115712633066904,0.18982028587057442,0.4080894255514518,-0.20911679696372645,4.685427811130609,0.17083134982978448,10315.984604045581,0.38202874746942983,129.9594901599245,2.129182506884708,1.2215877898324925,100976.55645839272,287.96120325421793,0.0,0.1,0.0,402.0047368421053,0.21575302518516856,0.86,nominal,8729.555012146368,nan,pitch_program,11.83,0.0,0.0
2.37,256.26388967706856,-0.10644739618020281,29.110402058721515,130.4937461490361,-0.1559764207754587,2.1582953827803193,130.5116866476418,17.49597509819112,0.24760866999061432,5.624010512152139,-0.3075297619498717,0.19520631734881794,0.39092000555236966,-0.21306576265721963,4.677249205714603,0.17492285947694605,10403.796313443834,0.38365272783941806,130.51184446975068,2.129092502763311,1.2215801913910997,100975.78078991173,287.9607823866183,0.0,0.1,0.0,401.9707894736842,0.21573480587887017,0.86,nominal,8802.125700155284,nan,pitch_program,11.815,0.0,0.0
2.4,260.19524731844564,-0.1112847191178004,29.175232535487133,131.04525471256883,-0.1612440979199197,2.1610158921873013,131.0631709216111,17.489503054014754,0.2542663167640981,5.612762331780015,-0.31402490327233545,0.20072525722422951,0.37399208718418786,-0.21710467573497372,4.668839733931721,0.17908184000106758,10491.840784750335,0.38527416324069386,131.06333209882553,2.1290054256146185,1.2215725834081745,100975.00414854236,287.9603609885193,0.0,0.1,0.0,401.9368421052631,0.2157165865725718,0.86,nominal,8874.888680157857,nan,pitch_program,11.8,0.0,0.0
2.4299999999999997,264.1431233347516,-0.1162841320430915,29.240192695107957,131.5958672101983,-0.16664709750970336,2.1653386540274555,131.61378624424523,17.483031556417576,0.26110506023330393,5.602013438751794,-0.32064537028902257,0.20639498398735107,0.35730505452364764,-0.2212354273719701,4.660204234180542,0.1833100026446316,10580.115858215648,0.3868930474302101,131.6139508523522,2.128754149869085,1.2215649602430712,100974.2259584793,287.9599387474818,0.0,0.1,0.0,401.9028947368421,0.21569836726627348,0.86,nominal,8947.842700466419,nan,pitch_program,11.785,0.0,0.0
2.46,268.1074911572156,-0.1214496157409353,29.305326669162685,132.14559408213353,-0.17218278992812638,2.171132468490971,132.16354073052403,17.476560605399587,0.268189838344927,5.596349704116216,-0.3274483621185031,0.21403397196939516,0.18774671522025,-0.22655405596282394,4.655995148368486,0.18763939915495487,10668.621037390494,0.38850940444936677,132.16370884243102,2.1290291651136064,1.2215573167171425,100973.44569108247,287.9595153766504,0.0,0.1,0.0,401.86894736842106,0.21568014795997512,0.86,nominal,9020.987830994587,nan,pitch_program,11.77,0.0,0.0
2.4899999999999998,272.0883208741974,-0.12678528181595455,29.370694014408038,132.6943238993944,-0.17785553583397562,2.1789115081784387,132.71233131502697,17.470090200960787,0.275573030539076,5.591120244350268,-0.33445873662048986,0.22332874750880688,0.17320978743970966,-0.23339093008183032,4.6513475394457515,0.19211086627089177,10757.337809773993,0.39012293159983996,132.71250300622268,2.129066323358496,1.2215496458416972,100972.6626329421,287.9590904889063,0.0,0.1,0.0,401.835,0.21566192865367675,0.86,nominal,9094.30955799114,nan,pitch_program,11.755,0.0,0.0
2.52,276.08558310644645,-0.13229541848773307,29.436348508422547,133.24207440830227,-0.18367122239261713,2.1884831338169333,133.26017254293384,17.463620343101177,0.28327604339149026,5.588902226062019,-0.3417259938130888,0.2331704581537592,0.07275730245188358,-0.24144759930902288,4.648932745593869,0.19675723208166296,10846.266539271182,0.39173367189348185,133.26034789245065,2.1293622869848075,1.2215419413063615,100971.87613989656,287.9586637346952,0.0,0.1,0.0,401.80105263157895,0.2156437093473784,0.86,nominal,9167.80876018637,nan,pitch_program,11.74,0.0,0.0
2.55,280.09924669254644,-0.13798457486683574,29.502351380641297,133.78878620333265,-0.18963854597008875,2.200095740624957,133.80700915051904,17.457151031820754,0.2913020396414847,5.588328232535129,-0.3492693966734828,0.24304602939206008,0.017878085971062142,-0.25034436851005465,4.647286450705246,0.20160080008323727,10935.396212434627,0.39334146317426966,133.80718824306965,2.12967545848982,1.2215341959264192,100971.08547853382,287.9582347160258,0.0,0.1,0.0,401.7671052631579,0.21562549004108003,0.86,nominal,9241.47708307051,nan,pitch_program,11.725000000000001,0.0,0.0
2.58,284.1292798712296,-0.14385754376697604,29.568764715372144,134.33443928943854,-0.1957656300046764,2.2137778243615083,134.35282176286947,17.45068226711952,0.2996577339572226,5.58948672436344,-0.3571053926875165,0.253084831431453,-0.039956504509963145,-0.2597555909067463,4.646495798574402,0.20665379350659047,11024.721558800507,0.39494624879157814,134.3530046882889,2.1300593494564817,1.2215264024169792,100970.28990522027,287.95780302935003,0.0,0.1,0.0,401.73315789473685,0.2156072707347817,0.86,nominal,9315.310884318691,nan,pitch_program,11.71,0.0,0.0
2.61,288.1756501183617,-0.1499193554146859,29.63565266951608,134.87900823773728,-0.20206038825699552,2.22959847146454,134.89758634215835,17.444214048997477,0.30835837119888365,5.5924461049091105,-0.3652450298151379,0.2635875028725744,-0.10007738917163866,-0.2695032934560208,4.646610605285102,0.21192259356058024,11114.236487392556,0.3965479584004577,134.8977731951781,2.130538587187851,1.221518553250082,100969.48865151421,287.9573682576481,0.0,0.1,0.0,401.6992105263158,0.21558905142848334,0.86,nominal,9389.305873721542,nan,pitch_program,11.695,0.0,0.0
2.6399999999999997,292.23832406200995,-0.15617527034296907,29.703082006648366,135.4224647882736,-0.20853049760943915,2.2476445710762256,135.44127642789522,17.437746377454623,0.3174230993978044,5.596764728054145,-0.3736951045993273,0.2746979072986359,-0.14548281195355275,-0.27953714768872223,4.647163367060499,0.2174119464152704,11203.934441466014,0.3981465145495808,135.44146730790038,2.1310519738305107,1.2215106405920342,100968.68091776906,287.95692996695675,0.0,0.1,0.0,401.6652631578947,0.21557083212218495,0.86,nominal,9463.45740936926,nan,pitch_program,11.68,0.0,0.0
2.67,296.31726782431895,-0.16263077093754752,29.77112036746345,135.96479207696729,-0.21518335315261453,2.2679453605028255,135.98387611980564,17.431279252490956,0.3268709883102719,5.60262095155402,-0.3824662694397054,0.2864006674612389,-0.19684038215594357,-0.28987478808205736,4.648331355005695,0.22312723475041943,11293.810549072154,0.3997418708382511,135.98407113054557,2.131650033607137,1.2215026565063807,100967.86589385326,287.9564877176115,0.0,0.1,0.0,401.63131578947366,0.21555261281588659,0.86,nominal,9537.762239834909,nan,pitch_program,11.665,0.0,0.0
2.6999999999999997,300.4124468257718,-0.16929157043570567,29.83983746259452,136.505966715094,-0.22202664993860463,2.290569837702307,136.52536377844604,17.42481267410648,0.3367198610558669,5.609698815120162,-0.3915680616945591,0.29865732061480743,-0.2376733431625806,-0.3005706183285105,4.649780787249582,0.229075582397993,11383.858938831354,0.4013339640092338,136.5255630282,2.1322865180255315,1.221494592813933,100967.04274486215,287.9560410564931,0.0,0.1,0.0,401.59736842105264,0.21553439350958825,0.86,nominal,9612.216319471065,nan,pitch_program,11.65,0.0,0.0
2.73,304.5238260351241,-0.17616361767543387,29.909303795457884,137.04597364507745,-0.22906824132427359,2.315544428778828,137.0657255136677,17.41834664230119,0.34698815200653155,5.6180524725959256,-0.40101364865242667,0.31147622181813645,-0.28031983600143484,-0.3116758197943064,4.6515661258474506,0.2352655396195352,11474.074980822927,0.40292275359372826,137.0659291152851,2.1329871391979793,1.2214864412426505,100966.21062641818,287.9555895253295,0.0,0.1,0.0,401.56342105263155,0.21551617420328986,0.86,nominal,9686.816629359775,nan,pitch_program,11.635,0.0,0.0
2.76,308.65136988621555,-0.18325311151341878,29.979591222041957,137.58479503638227,-0.2363164612661639,2.342914219469092,137.60494510631867,17.411881157075094,0.3576957827351228,5.627503992429101,-0.41081617345200055,0.32490645273563723,-0.3170443884687056,-0.3232351278034797,4.6535019478031225,0.24170678223535588,11564.453617760513,0.4045081922883186,137.60515317750722,2.1337287559603895,1.2214781933619578,100965.3686779662,287.9551326570567,0.0,0.1,0.0,401.52947368421053,0.21549795489699153,0.86,nominal,9761.559817114125,nan,pitch_program,11.620000000000001,0.0,0.0
2.79,312.7950424116048,-0.1905665115777943,30.050772297922194,138.12241751297574,-0.24378000214585138,2.3727025293412103,138.1430105564917,17.405416218428183,0.3688644253461536,5.63803804868198,-0.420990692889925,0.3389997338827747,-0.35326811756924276,-0.33527991783931693,4.6555746111459895,0.24840967580794057,11654.990463129963,0.40609024520118,138.14322322000237,2.1345207246517424,1.2214698406593778,100964.51603059644,287.9546699800635,0.0,0.1,0.0,401.49552631578945,0.21547973559069317,0.86,nominal,9836.443088960907,nan,pitch_program,11.605,0.0,0.0
2.82,316.95480722777626,-0.19811055254671417,30.122920441335033,138.65882720571483,-0.2514680322973284,2.404938113761318,138.67990959604268,17.398951826360463,0.3805170013479708,5.649544291176878,-0.4315524408962811,0.35379655032925583,-0.3858243569582737,-0.34783600203577614,4.657673171670939,0.2553851486350165,11745.681054877423,0.40766887666161394,138.6801269799427,2.13535105110798,1.2214613745214022,100963.65180509219,287.9542010171313,0.0,0.1,0.0,401.4615789473684,0.2154615162843948,0.86,nominal,9911.463600529303,nan,pitch_program,11.59,0.0,0.0
2.85,321.1306276119924,-0.20589225626553456,30.196109582156755,139.19401280720535,-0.2593901239606797,2.4396380273907625,139.21563244949738,17.39248798087193,0.3926775755054013,5.661987512104408,-0.442517790863353,0.3693307473438962,-0.4172188200907613,-0.3609254388239548,4.659766672206183,0.26264459093333425,11836.521324529152,0.40924405833435273,139.2158546873823,2.1362226917036353,1.2214527862746933,100962.77511613567,287.95372528771594,0.0,0.1,0.0,401.4276315789474,0.21544329697809647,0.86,nominal,9986.618837190632,nan,pitch_program,11.575,0.0,0.0
2.88,325.32246651061575,-0.2139189455791709,30.270414182606977,139.72796328744474,-0.26755631045454437,2.4768200150073696,139.7501697609828,17.38602468196259,0.4053714006645615,5.675287017308566,-0.45390351521909844,0.38563998663739263,-0.4459362636838868,-0.37457167563590826,4.661778328018137,0.2701998951738846,11927.507251578243,0.4108157631257439,139.75039699222899,2.1371277630035315,1.2214440671836608,100961.88507206105,287.953242307813,0.0,0.1,0.0,401.3936842105263,0.21542507767179808,0.86,nominal,10061.906331355618,nan,pitch_program,11.56,0.0,0.0
2.9099999999999997,329.5302865925764,-0.22219825741087826,30.345909005215866,140.26066939868664,-0.27597706105691194,2.5164940869629007,140.28351394941467,17.379561929632434,0.4186251688127099,5.689406970799616,-0.4657274447364907,0.4027681163837998,-0.4734730906870683,-0.38879974494805813,4.663679337022207,0.27806348191396213,12018.635097433162,0.41238396916638437,140.28374631940736,2.1380672275338704,1.2214352084776947,100960.98077763474,287.9527515914661,0.0,0.1,0.0,401.3597368421053,0.21540685836549975,0.86,nominal,10137.32385154381,nan,pitch_program,11.545,0.0,0.0
2.94,333.75405026202867,-0.23073815747099877,30.422669098567624,140.79212231507597,-0.2846633353373499,2.558669778391953,140.81565797251616,17.37309972388147,0.43246710930178867,5.704281310196566,-0.478008045040319,0.4207635816963877,-0.49882294142253253,-0.40363788925832794,4.66541077833628,0.28624838421343907,12109.901198731426,0.4139486561778321,140.81589563291396,2.139034581683847,1.2214262013528494,100960.06133422746,287.9522526508593,0.0,0.1,0.0,401.3257894736842,0.21538863905920136,0.86,nominal,10212.869233031797,nan,pitch_program,11.53,0.0,0.0
2.9699999999999998,337.99371970154544,-0.23954695493465242,30.50076961343763,141.3223146505583,-0.2936265821217886,2.6033504956668234,141.34659623975537,17.366638064709694,0.44692710300197536,5.719879262094763,-0.4907649512995326,0.4396768218501236,-0.5231634768275089,-0.4191163214865538,4.66695143328993,0.2947682911580611,12201.302127004015,0.4155098081554378,141.34683934874823,2.140030407507261,1.221417036993428,100959.12584201775,287.9517449975126,0.0,0.1,0.0,401.29184210526313,0.215370419752903,0.86,nominal,10288.540506611831,nan,pitch_program,11.515,0.0,0.0
3.0,342.2492568828778,-0.24863331883724338,30.580285790227173,141.8512393777438,-0.30287879675303203,2.6505392263180765,141.8763236299762,17.360176952117108,0.4620367153244196,5.736142856324124,-0.5040185841517776,0.4595605853889341,-0.545589577523976,-0.4352678886950101,4.6682529476103625,0.3036376176922725,12292.834523244566,0.41706741048057044,141.8765723525808,2.1410485071808703,1.221407706573465,100958.17340014379,287.9512281423635,0.0,0.1,0.0,401.2578947368421,0.21535220044660466,0.86,nominal,10364.335763023606,nan,pitch_program,11.5,0.0,0.0
3.03,346.52062360533904,-0.2580062945961911,30.661292794858156,142.37889074870944,-0.3124325252982578,2.7002334876994705,142.40483631465574,17.35371638610371,0.4778293353787432,5.753048171108981,-0.5177906666569274,0.48047047982281077,-0.5672378280987679,-0.4521268082961885,4.6693031250065085,0.3128715270105546,12384.49524288219,0.41862145233990344,142.4050908230073,2.142089817142254,1.2213982012759879,100957.20310866974,287.9507015968334,0.0,0.1,0.0,401.223947368421,0.21533398114030627,0.86,nominal,10440.253269888644,nan,pitch_program,11.485,0.0,0.0
3.06,350.80778150221096,-0.2676753223665476,30.743865722794403,142.90526322906405,-0.3223009256785492,2.752430931208269,142.93213079110606,17.3472563666695,0.4943402548365212,5.770541179797015,-0.5321037853841263,0.5024661438270953,-0.587106462717625,-0.46972966158845775,4.670059489003723,0.32248598851384586,12476.281191232889,0.4201719238834762,142.93239126478989,2.1431477901976552,1.2213885122925574,100956.2140685392,287.9501648728018,0.0,0.1,0.0,401.19,0.21531576183400794,0.86,nominal,10516.291337033366,nan,pitch_program,11.47,0.0,0.0
3.09,355.1106920777348,-0.2776502554528384,30.828079437564377,143.43035251746187,-0.33249776954302623,2.8071238256657183,143.45820479227652,17.34079689381448,0.5116068427007276,5.78860622047116,-0.5469819972999304,0.5256109349426931,-0.6064762792382711,-0.4881142804212283,4.670519979610288,0.3324977934905879,12568.189484207332,0.4217188188983816,143.4584714186536,2.14422434308634,1.221378630842228,100955.20538351085,287.9496174836558,0.0,0.1,0.0,401.156052631579,0.21529754252770958,0.86,nominal,10592.448446327766,nan,pitch_program,11.455,0.0,0.0
3.12,359.42931670711596,-0.28794138085291315,30.91400860327008,143.95415431270482,-0.34303751333582466,2.864305523523435,143.98305617243187,17.33433796753865,0.529668618309702,5.807189116757296,-0.5624502560593917,0.5499725135048471,-0.6240655373948641,-0.5073212388210695,4.670643464176528,0.34292462496363985,12660.217256329017,0.42326213153329373,143.9833291470104,2.145311831490395,1.2213685481677357,100954.17615976972,287.94905894407873,0.0,0.1,0.0,401.1221052631579,0.21527932322141122,0.86,nominal,10668.723094846095,nan,pitch_program,11.44,0.0,0.0
3.15,363.7636166757231,-0.2985594396337244,31.00172750771765,144.4766656202367,-0.3539352926937076,2.923963481585621,144.50668407161913,17.32787958784201,0.5485674524633226,5.826285112456632,-0.5785352353765224,0.5756223738816918,-0.6415239671776756,-0.527392443633602,4.670440475583538,0.35378507289018074,12752.36186689763,0.4248018597206775,144.50696359841376,2.1464140698595617,1.2213582555562665,100953.1255080475,287.94848877119983,0.0,0.1,0.0,401.08815789473687,0.21526110391511288,0.86,nominal,10745.113961750933,nan,pitch_program,11.425,0.0,0.0
