time_s,x_m,y_m,altitude_m,vx_mps,vy_mps,vz_mps,speed_mps,mass_kg,roll_deg,pitch_deg,yaw_deg,p_dps,q_dps,r_dps,alpha_deg,beta_deg,qbar_pa,mach,airspeed_mps,load_factor_g,density_kgpm3,pressure_pa,temperature_k,wind_x_mps,wind_y_mps,wind_z_mps,thrust_n,mass_flow_kgps,propulsion_throttle_actual,propulsion_health,energy_j_per_kg,target_distance_m,guidance_mode,pitch_command_deg,heading_command_deg,roll_command_deg,elevator_command_deg,aileron_command_deg,rudder_command_deg,elevator_deg,aileron_deg,rudder_deg,throttle,elevator_saturated,aileron_saturated,rudder_saturated,elevator_failed,aileron_failed,rudder_failed,elevator_raw_rad,aileron_raw_rad,rudder_raw_rad,elevator_effective_rad,aileron_effective_rad,rudder_effective_rad,sensor_time_s,imu_valid,imu_ax_mps2,imu_ay_mps2,imu_az_mps2,gyro_p_rps,gyro_q_rps,gyro_r_rps,imu_accel_norm_mps2,imu_gyro_norm_rps,gps_valid,gps_latency_s,gps_x_m,gps_y_m,gps_z_m,gps_vx_mps,gps_vy_mps,gps_vz_mps,baro_valid,baro_alt_m,baro_bias_m,pitot_valid,pitot_airspeed_mps,pitot_qbar_pa,pitot_compressibility_factor,mag_valid,mag_heading_deg,mag_x_ut,mag_y_ut,mag_z_ut,radar_valid,radar_agl_m,optical_flow_valid,optical_flow_x_radps,optical_flow_y_radps,optical_flow_quality,horizon_valid,horizon_roll_deg,horizon_pitch_deg
0.0,0.0,0.0,20.0,85.0,0.0,8.0,85.37564055396598,18.0,0.0,6.000000000000002,0.0,0.0,0.0,0.0,0.5847693590724268,0.08811800200359583,4448.934745633113,0.25074697923505807,85.30843941744567,1.7465918301190293,1.2226496753673843,101084.96761777384,288.02,0.0724,-0.1312,-0.0508,326.8,0.17539118863220368,0.86,nominal,3840.633,nan,pitch_program,13.0,0.0,0.0,-20.05352282957881,-0.0,0.07490030170305646,-2.6999999999999997,0.0,0.04494018102183387,0.86,0.0,0.0,0.0,0.0,0.0,0.0,-0.047123889803846894,0.0,0.0007843541252732707,-0.047123889803846894,0.0,0.0007843541252732707,0.0,1.0,17.095382095157238,-0.05757402465052493,0.14683972497508235,0.0016677683591043149,0.0011681274632859406,0.0012765720485123657,17.096109664264787,0.00240324973008537,1.0,0.0,-1.885154541229685,1.8645638091475825,21.162662438547994,85.32748210022089,0.18147237523479218,7.846341299741817,1.0,20.771163472887363,0.0,1.0,85.5597971231538,4458.492166482902,1.0,1.0,-0.8198733225718878,19.523475325297145,-0.00615746722134172,-43.81279554351524,1.0,20.39618647858491,1.0,-0.0077448575321814855,4.273240466216326,0.95,1.0,0.17459483210835952,5.697481511065039
0.03,2.565315651091616,-1.2835227588499162e-05,20.23292478961755,85.51052170305388,-0.0004278409196166387,7.7641596539183535,85.86228215720236,17.994738264341034,-0.0008126534808297882,6.2686802572688265,0.0011411212305384689,-0.02302376409959119,-8.95602525572747,0.0377561654122233,1.0424210530708349,0.08621106286110981,4499.716784583913,0.25217746875027874,85.79489108272011,1.7747823454395577,1.2226223230518514,101082.17485808964,288.01848598886744,0.0724,-0.1312,-0.0508,332.605,0.1785066900092231,0.86,nominal,3884.582960509618,nan,pitch_program,12.985,0.0,0.0,-0.5076641782955752,0.019596933469623982,0.08876190311127068,-1.384598506977345,0.0,0.07123321427549595,0.86,0.0,0.0,0.0,0.0,0.0,0.0,-0.02416580276495235,0.0,0.0012432541258860315,-0.02416580276495235,0.0,0.0012432541258860315,0.03,1.0,17.401843438094936,-0.03623248195329441,0.6632483211486485,0.001570338436026479,-0.15699138909423582,0.0023585170192547437,17.41451596146797,0.15701695709403976,1.0,0.0,-1.885154541229685,1.8645638091475825,21.162662438547994,85.32748210022089,0.18147237523479218,7.846341299741817,1.0,20.771163472887363,0.0,1.0,85.38121134640805,4486.735516999989,1.0,1.0,-0.8198733225718878,19.523475325297145,-0.00615746722134172,-43.81279554351524,1.0,20.39618647858491,1.0,-0.0077448575321814855,4.273240466216326,0.95,1.0,0.17459483210835952,5.697481511065039
0.06,5.146126351367488,-3.617815347398751e-05,20.459319423908276,86.02702334252905,-0.0007780975295162784,7.546487809690894,86.35738662119927,17.98938306364076,-0.0023930187175695457,6.583396278429167,0.003007817133021754,-0.04571476105709507,-10.490562141127345,0.0615390204976536,1.532306343764975,0.08366703131054541,4551.683015970467,0.2536328649190527,86.2898201753368,1.8038840055193044,1.2225957380198964,101079.46045460348,288.01701442374457,0.0724,-0.1312,-0.0508,338.40999999999997,0.18162219138624247,0.86,nominal,3929.4364968501136,nan,pitch_program,12.97,0.0,0.0,0.21022988562415065,0.038291376089043934,0.09560172948391238,-0.42770147141644776,0.0,0.0858543234005458,0.86,0.0,0.0,0.0,0.0,0.0,0.0,-0.007464798891841429,0.0,0.0014984406204115387,-0.007464798891841429,0.0,0.0014984406204115387,0.06,1.0,17.709298369364173,-0.05917296124518267,1.2014067117514668,-0.0042440123229507765,-0.1845638082494123,0.0007271673342928209,17.750102204256418,0.18461402906728203,1.0,0.0,-1.885154541229685,1.8645638091475825,21.162662438547994,85.32748210022089,0.18147237523479218,7.846341299741817,1.0,20.52595578551106,0.0,1.0,85.8708535049351,4518.79852724252,1.0,1.0,0.07966163587646898,19.046817770103374,-0.026278810593590194,-44.018787527444225,1.0,20.444305666138256,1.0,0.00043591581163411554,4.219150776160496,0.9488517014402293,1.0,-0.16146392136388038,6.404408653497127
0.09,7.742600284586727,-6.814837149339221e-05,20.6797417231004,86.54913110730799,-0.0010656739339801567,7.347409973070713,86.86044283722036,17.983934397899173,-0.004699754940364417,6.777942640720416,0.00532781771603982,-0.06789456837509925,-6.4848897162545,0.07640697717232767,1.8881059597634784,0.08075397993220808,4604.794362264303,0.25511166673187746,86.79271552817156,1.8336029467110406,1.2225698547312265,101076.81771432447,288.01558167879983,0.0724,-0.1312,-0.0508,344.215,0.18473769276326188,0.86,nominal,3975.167254107856,nan,pitch_program,12.955,0.0,0.0,-1.0781114523050068,0.055908865188453394,0.09802819289395946,-0.8179474599495833,0.0,0.093158645096594,0.86,0.0,0.0,0.0,0.0,0.0,0.0,-0.01427587628444468,0.0,0.0016259250836324361,-0.01427587628444468,0.0,0.0016259250836324361,0.09,1.0,17.98304727364492,-0.020464770844365456,1.3930229743068236,-0.0007838367554110045,-0.11487368249400852,0.0038784135584643098,18.03693214102499,0.1149418088491907,1.0,0.0,-1.885154541229685,1.8645638091475825,21.162662438547994,85.32748210022089,0.18147237523479218,7.846341299741817,1.0,20.52595578551106,0.0,1.0,87.16321313007538,4636.748170622902,1.0,1.0,0.07966163587646898,19.046817770103374,-0.026278810593590194,-44.018787527444225,1.0,20.444305666138256,1.0,0.00043591581163411554,4.219150776160496,0.9488517014402293,1.0,-0.16146392136388038,6.404408653497127
0.12,10.354945375660353,-0.00010710938458306974,20.89450150819018,87.07816970245423,-0.0012987004363225845,7.158659502992707,87.37192939552055,17.978392267116273,-0.00769125528567216,6.876772688922876,0.007928243708311598,-0.08941221962351686,-3.294345045030546,0.08571000873590087,2.1399499743718264,0.07763750507279099,4659.1158638361385,0.2566152647777195,87.30404997587124,1.863635201991413,1.2225446367716177,101074.242918239,288.01418574019675,0.0724,-0.1312,-0.0508,350.02,0.1878531941402813,0.86,nominal,4021.832086363207,nan,pitch_program,12.94,0.0,0.0,-2.1346949795603085,0.07232862146401582,0.0977358866112788,-1.6079959717160184,0.043397172878409496,0.09590499000540488,0.86,0.0,0.0,0.0,0.0,0.0,0.0,-0.028064824065250134,0.0007574235527854305,0.0016738578446865696,-0.028064824065250134,0.0007574235527854305,0.0016738578446865696,0.12,1.0,18.24878389522101,-0.022914402604420354,1.507596955957725,0.00022065914016543135,-0.056820824857833255,-0.0013417510483704105,18.310966312730123,0.056837092851908806,1.0,0.0,-1.885154541229685,1.8645638091475825,21.162662438547994,85.32748210022089,0.18147237523479218,7.846341299741817,1.0,20.83507668395215,0.0,1.0,87.19635636300067,4705.362797931159,1.0,1.0,-1.887193585649787,18.833928173795886,-0.0031861778493155754,-44.08435906706946,1.0,20.159393524313657,1.0,-0.01322277616761533,4.181187562789071,0.9477637462295245,1.0,0.2756659793624844,7.483512588187403
0.15,12.983396278682367,-0.0001515614865877624,21.103775005707984,87.6150301007338,-0.0014817367334897548,6.975783250593413,87.89229234527504,17.972756671292064,-0.01052984089445572,6.962384361914077,0.010708478090053332,-0.08345446043123617,-2.8537375573312396,0.09154571673332994,2.373381038623128,0.07438899336437696,4714.7108410331975,0.2581449614946437,87.8242664868842,1.8942015627926159,1.2225200634168387,101071.7339493958,288.0128254624629,0.0724,-0.1312,-0.0508,355.825,0.1909686955173007,0.86,nominal,4069.4848620133735,nan,pitch_program,12.925,0.0,0.0,-2.2361438875987214,0.06371205988241999,0.09571350983934737,-1.9848847212456402,0.05558610508081579,0.09579010190577038,0.86,0.0,0.0,0.0,0.0,0.0,0.0,-0.03464277365826626,0.0009701605520197842,0.0016718526690765881,-0.03464277365826626,0.0009701605520197842,0.0016718526690765881,0.15,1.0,18.547936065215143,-0.04428893492982039,1.6684163105759313,-0.00158959931042116,-0.049940256266360866,-3.1143085583690494e-05,18.62287589966871,0.049965558055617344,1.0,0.0,-1.885154541229685,1.8645638091475825,21.162662438547994,85.32748210022089,0.18147237523479218,7.846341299741817,1.0,20.83507668395215,0.0,1.0,87.47248388332886,4732.516378393873,1.0,1.0,-1.887193585649787,18.833928173795886,-0.0031861778493155754,-44.08435906706946,1.0,20.159393524313657,1.0,-0.01322277616761533,4.181187562789071,0.9477637462295245,1.0,0.2756659793624844,7.483512588187403
0.18,15.628185196877174,-0.00020008546067700535,21.30776761189908,88.1596306064936,-0.0016174658029747652,6.799753539703255,88.42147431190178,17.967027610426545,-0.012952231111346843,7.060839267580007,0.013605998950054153,-0.06895627605974669,-3.2818505719838895,0.09518923997515555,2.613876597752464,0.07105798555215524,4771.590016126761,0.25970059027519754,88.353308208324,1.9252437575698162,1.2224961105196348,101069.28834141615,288.01149951052264,0.0724,-0.1312,-0.0508,361.63,0.19408419689432013,0.86,nominal,4118.1363789963825,nan,pitch_program,12.91,0.0,0.0,-2.026280396443784,0.04771771969760529,0.09259150692722008,-2.0097221263645264,0.02223444203232632,0.0938709449186402,0.86,0.0,0.0,0.0,0.0,0.0,0.0,-0.03507626815524252,0.00038806422080791376,0.001638357060788512,-0.03507626815524252,0.00038806422080791376,0.001638357060788512,0.18,1.0,18.753214701569945,-0.05560065963684891,1.8890093707736373,-0.0010637660494835742,-0.059847877355273846,0.00077437161324682,18.84819645163435,0.0598623393590272,1.0,0.0,-1.885154541229685,1.8645638091475825,21.162662438547994,85.32748210022089,0.18147237523479218,7.846341299741817,1.0,20.08187480272944,0.0,1.0,87.96371838034176,4835.794044713838,1.0,1.0,-0.5292891007058576,18.72174359807949,0.03395657026047176,-44.2246860112258,1.0,21.361401433256283,1.0,0.007989099806898024,4.1389350818013275,0.9467305809702523,1.0,-0.5170121922993067,6.703097305082287
0.21,18.289535851065146,-0.0002513007435720023,21.50673466339758,88.71168847293245,-0.001707176096499898,6.632235049949992,88.9592615548873,17.961205084519715,-0.015554247990773266,7.150524752818186,0.016574898323368427,-0.07449214182242665,-2.989541122693762,0.09745957916344898,2.8388014477141823,0.06770860253541704,4829.747281002639,0.2612815262977918,88.89096234633776,1.9564853123972954,1.222472748071046,101066.90302950979,288.0102062246879,0.0724,-0.1312,-0.0508,367.435,0.19719969827133954,0.86,nominal,4167.784127682234,nan,pitch_program,12.895,0.0,0.0,-2.073412658352257,0.04999729433770579,0.08883729725802435,-2.047936445557165,0.00889377681293053,0.09085075632227069,0.86,0.0,0.0,0.0,0.0,0.0,0.0,-0.035743233846562125,0.00015522568832316552,0.001585644825750678,-0.035743233846562125,0.00015522568832316552,0.001585644825750678,0.21,1.0,19.043942513026586,0.05301886777827848,2.089874603681286,-0.0024846035030920074,-0.05046733041262189,0.00273664429204308,19.158343699258396,0.050602508984491076,1.0,0.0,18.158695065027977,-0.8509669720612799,22.527960195728404,88.7926495699865,-0.10867357058697534,6.691812551598902,1.0,20.08187480272944,0.0,1.0,88.74410393150788,4826.273892044203,1.0,1.0,-0.5292891007058576,18.72174359807949,0.03395657026047176,-44.2246860112258,1.0,21.361401433256283,1.0,0.007989099806898024,4.1389350818013275,0.9467305809702523,1.0,-0.5170121922993067,6.703097305082287
0.24,20.967673682092766,-0.0003038280739089288,21.70092194933861,89.27126103425394,-0.0017509110112308842,6.472909531367651,89.5056233290002,17.955289093571576,-0.018559754408781555,7.21463377302159,0.019584368219717405,-0.08764091984031219,-2.1369970986305824,0.09889229662318026,3.0316388167010886,0.0643778407446226,4889.196114184614,0.26288767881918107,89.43719781458071,1.9877486412994965,1.222449947185573,101064.57506366748,288.00894400732926,0.0724,-0.1312,-0.0508,373.24,0.20031519964835895,0.86,nominal,4218.441649990914,nan,pitch_program,12.88,0.0,0.0,-2.3309024378041,0.05888423118700842,0.08473589621181729,-2.217716040905326,0.03888804943737726,0.08718184025599865,0.86,0.0,0.0,0.0,0.0,0.0,0.0,-0.03870644678809119,0.0006787245023605616,0.0015216101604149125,-0.03870644678809119,0.0006787245023605616,0.0015216101604149125,0.24,1.0,19.344693632310843,-0.06643033005079402,2.2924102424567083,-0.0011281488321422625,-0.037253664049117,0.0028833722643835068,19.480162459190087,0.03738210856127504,1.0,0.0,18.158695065027977,-0.8509669720612799,22.527960195728404,88.7926495699865,-0.10867357058697534,6.691812551598902,1.0,22.184772627810023,0.0,1.0,89.39016185557769,4883.799901611156,1.0,1.0,-0.9678231669464584,18.63271871862083,-0.004924025479897843,-44.29955824964862,1.0,21.59723050518147,1.0,0.016969294953411727,4.126323520968197,0.9457476951266535,1.0,-0.6114745370922305,7.1713687187045565
0.27,23.662832283026518,-0.0003562678423104099,21.890535333932526,89.83862003112506,-0.00174799228004937,6.320446153130466,90.06067783293086,17.949279637582126,-0.02135705984256065,7.258031697810835,0.02261888248501684,-0.08050236358319289,-1.4466324287894181,0.09984090796891479,3.1981947274250104,0.061048332522815135,4949.966514170215,0.26451939294728416,89.99213184519212,2.0190918655914727,1.2224276836677437,101062.3019727987,288.0077115203294,0.0724,-0.1312,-0.0508,379.045,0.20343070102537836,0.86,nominal,4270.135664195991,nan,pitch_program,12.865,0.0,0.0,-2.5431927096722045,0.04934385450419104,0.08041562900054346,-2.413002042165453,0.015555219774950904,0.08312211350272554,0.86,0.0,0.0,0.0,0.0,0.0,0.0,-0.0421148304931342,0.00027148980094422466,0.0014507545618389973,-0.0421148304931342,0.00027148980094422466,0.0014507545618389973,0.27,1.0,19.557018677145507,-0.035171949599325424,2.4363364714997946,0.0005022267174624455,-0.0231364895981299,-0.00034800627704507665,19.70822041703961,0.023144556400349715,1.0,0.0,18.158695065027977,-0.8509669720612799,22.527960195728404,88.7926495699865,-0.10867357058697534,6.691812551598902,1.0,22.184772627810023,0.0,1.0,90.06169566647823,4954.428180965652,1.0,1.0,-0.9678231669464584,18.63271871862083,-0.004924025479897843,-44.29955824964862,1.0,21.59723050518147,1.0,0.016969294953411727,4.126323520968197,0.9457476951266535,1.0,-0.6114745370922305,7.1713687187045565
0.3,26.37525104165433,-0.0004072028815739853,22.075756333103907,90.41395862092712,-0.0016978346421191804,6.174033305712661,90.62451436366108,17.943176716551363,-0.024372743313482045,7.291252782838627,0.02567229711075376,-0.08763476581083557,-1.1074097344298532,0.10051929448375416,3.3495912575542763,0.05775009526005408,5012.085920544372,0.26617692981140795,90.55585312144737,2.0505998311172213,1.222405936182793,101060.08157794716,288.0065075838348,0.0724,-0.1312,-0.0508,384.84999999999997,0.20654620240239774,0.86,nominal,4322.890517668739,nan,pitch_program,12.850000000000001,0.0,0.0,-2.6382534178350103,0.05271276108731065,0.07598598725435159,-2.5481528675671874,0.006222087909980362,0.07884043775370117,0.86,0.0,0.0,0.0,0.0,0.0,0.0,-0.04447365738318245,0.00010859592037768987,0.0013760252225157275,-0.04447365738318245,0.00010859592037768987,0.0013760252225157275,0.3,1.0,19.93776055731832,-0.02967833868051136,2.578083856956684,-0.0021778892219892687,-0.021585059420907667,0.0028740781066606464,20.10377310900234,0.021884202444470254,1.0,0.0,18.158695065027977,-0.8509669720612799,22.527960195728404,88.7926495699865,-0.10867357058697534,6.691812551598902,1.0,22.082118652058313,0.0,1.0,90.33207046666453,5026.21361782548,1.0,1.0,-0.006427925153708799,18.466653359827546,0.002044014257031811,-44.29814942937408,1.0,21.91274571361549,1.0,0.0060723177873788165,4.091803364298033,0.9448106091672402,1.0,0.4682548556907914,7.885628535139292
0.32999999999999996,29.105171202531626,-0.0004551756946495401,22.256762146682117,90.99733869590987,-0.0015990937691851591,6.033527119273708,91.19714415371925,17.93698033047929,-0.027764010557583634,7.317489845487448,0.02874059767697118,-0.10003875433838083,-0.8746148361291962,0.10104876600316919,3.4891728217392055,0.054498167518357926,5075.5736499742425,0.26786032234274115,91.12837269338344,2.082241054052269,1.2223846839043888,101057.91175211924,288.00533104604654,0.0724,-0.1312,-0.0508,390.655,0.20966170377941715,0.86,nominal,4376.723827402884,nan,pitch_program,12.835,0.0,0.0,-2.6999508451659096,0.06054281522201589,0.07152048489104992,-2.639231654126421,0.03881452429720168,0.07444846603611043,0.86,0.0,0.0,0.0,0.0,0.0,0.0,-0.04606328208736223,0.0006774412465815074,0.0012993708553892985,-0.04606328208736223,0.0006774412465815074,0.0012993708553892985,0.32999999999999996,1.0,20.177116523441846,-0.06022663040738832,2.7708252205536,-0.002579518438566566,-0.014772025064133415,0.00274038189286099,20.366568951357912,0.015243894934989913,1.0,0.0,18.158695065027977,-0.8509669720612799,22.527960195728404,88.7926495699865,-0.10867357058697534,6.691812551598902,1.0,22.082118652058313,0.0,1.0,90.82264625611252,5065.7040781250225,1.0,1.0,-0.006427925153708799,18.466653359827546,0.002044014257031811,-44.29814942937408,1.0,21.91274571361549,1.0,0.0060723177873788165,4.091803364298033,0.9448106091672402,1.0,0.4682548556907914,7.885628535139292
0.36,31.852835274954664,-0.0004986763795143007,22.43372723888125,91.58880241410127,-0.001450022828825353,5.898836406637769,91.77856503946944,17.930690479365907,-0.030846041936740527,7.334894907884017,0.031820227523618724,-0.08964410114150802,-0.580220751175029,0.10151953365542156,3.6152090347957455,0.05125336254561033,5140.44783512159,0.2695695642026263,91.70968825182803,2.113937062221727,1.222363906328968,101055.79040132495,288.0041807729472,0.0724,-0.1312,-0.0508,396.46,0.21277720515643656,0.86,nominal,4431.652211579236,nan,pitch_program,12.82,0.0,0.0,-2.7881344838765387,0.047727978947194945,0.06703583894775086,-2.7285733519764914,0.015525809718880672,0.07000088978309468,0.86,0.0,0.0,0.0,0.0,0.0,0.0,-0.047622588874167905,0.00027097649863260296,0.0012217460060406616,-0.047622588874167905,0.00027097649863260296,0.0012217460060406616,0.36,1.0,20.566373246924414,0.034588196587863086,2.8587833367561792,-0.0032762320940822307,-0.01063926536111832,0.0020191243464480796,20.764140893416858,0.011313908576836122,1.0,0.0,18.158695065027977,-0.8509669720612799,22.527960195728404,88.7926495699865,-0.10867357058697534,6.691812551598902,1.0,22.9967585140629,0.0,1.0,91.32481739625122,5117.9916306548985,1.0,1.0,0.2788559222145365,18.547988500999754,0.06829026150246287,-44.335239990648084,1.0,22.231789667040644,1.0,0.010666585154342026,4.08726810149266,0.9439156819027968,1.0,-0.15607469724658987,7.120958519929304
0.39,34.61848828605496,-0.0005361623227029154,22.606816481225298,92.1884337033433,-0.001249531439620488,5.769641411468313,92.36880464883143,17.924307163211214,-0.03406237153099321,7.34292494489562,0.03490936336086793,-0.09405763336401478,-0.26772570640670473,0.10197601473252298,3.727416288105903,0.048042224204679775,5206.730234076656,0.2713047361971977,92.29982714276387,2.1456576782120504,1.22234358408073,101053.71554676312,288.003055692872,0.0724,-0.1312,-0.0508,402.265,0.21589270653345596,0.86,nominal,4487.6951729726,nan,pitch_program,12.805,0.0,0.0,-2.8878896242013545,0.048399929027303494,0.0625732564105559,-2.8241631153114093,0.00621032388755227,0.06554430975957141,0.86,0.0,0.0,0.0,0.0,0.0,0.0,-0.049290944975564376,0.0001083905994530412,0.001143964011251574,-0.049290944975564376,0.0001083905994530412,0.001143964011251574,0.39,1.0,20.835291455393662,-0.04568274072703144,3.010556535291375,-0.005841825694138306,-0.004561227743647039,0.003920131060906934,21.05171982513985,0.008384459046640832,1.0,0.0,18.158695065027977,-0.8509669720612799,22.527960195728404,88.7926495699865,-0.10867357058697534,6.691812551598902,1.0,22.9967585140629,0.0,1.0,91.47694898114705,5173.833696076549,1.0,1.0,0.2788559222145365,18.547988500999754,0.06829026150246287,-44.335239990648084,1.0,22.231789667040644,1.0,0.010666585154342026,4.08726810149266,0.9439156819027968,1.0,-0.15607469724658987,7.120958519929304
0.42,37.40237817832319,-0.0005660430112265414,22.776183390545533,92.7963297422743,-0.0009960229507875351,5.64556364400781,92.96790415776569,17.91783038201521,-0.0375768901215434,7.343410642901385,0.03800847883612864,-0.10394715994304798,-0.01625398320391115,0.10244645379619031,3.8279174292501503,0.04487561384290016,5274.444507337504,0.2730659588477356,92.89883023316621,2.1555092362442423,1.222323699118378,101051.68534592497,288.00195480796145,0.0724,-0.1312,-0.0508,404.1773684210526,0.21691906078826353,0.86,nominal,4544.873660590646,nan,pitch_program,12.79,0.0,0.0,-2.970502250968008,0.053799029766516446,0.05814801778653433,-2.9119665967053683,0.0024841295550209084,0.06110653457574916,0.86,0.0,0.0,0.0,0.0,0.0,0.0,-0.05082340482060254,4.3356239781216485e-05,0.0010665102228305792,-0.05082340482060254,4.3356239781216485e-05,0.0010665102228305792,0.42,1.0,20.877549934151027,-0.033679138459204304,3.1601334225090154,-0.0018585712818854137,0.0009172655222319012,0.002793040039153462,21.11538938275578,0.0034780362143656475,1.0,0.0,38.98941757277144,0.8556037425468876,23.104733332809737,92.81659701364137,-0.015294804867982495,5.633926539805898,1.0,23.17512278658103,0.0,1.0,93.08853155336948,5276.5402993187145,1.0,1.0,1.0531214022334388,18.47894547965062,0.03138883286828727,-44.259846657252574,1.0,22.71015467279094,1.0,0.01925425322479179,4.06296276290041,0.9430595415236361,1.0,0.3656509722410135,6.9724936446065
0.44999999999999996,40.20456122124634,-0.0005867994496799719,22.941948539175577,93.40610143077168,-0.0006918812817810159,5.525504954334818,93.56939130920264,17.911322810191564,-0.04144026019847719,7.338189982289122,0.04111901665394078,-0.11553112827023203,0.17395106904336013,0.10295473819001251,3.919040541663712,0.041760281838969786,5342.870297131196,0.2748342064704812,93.50022477021764,2.154480528399949,1.2223042372697435,101049.69835136675,288.0008773344953,0.0724,-0.1312,-0.0508,404.14342105263154,0.21690084148196515,0.86,nominal,4602.59915462905,nan,pitch_program,12.775,0.0,0.0,-3.0348614006296892,0.060391747427257475,0.05377421380441183,-2.985703479059961,0.03722870027836285,0.024442613830299664,0.86,0.0,0.0,0.0,0.0,0.0,0.0,-0.05211035619784589,0.0006497633960955612,0.0004266040891322317,-0.05211035619784589,0.0006497633960955612,0.0004266040891322317,0.44999999999999996,1.0,20.90549152388301,0.02661219718350153,3.287311250597143,0.001256984721217443,0.005093603632749982,0.0024464048919364337,21.162388790552118,0.005788756814051565,1.0,0.0,38.98941757277144,0.8556037425468876,23.104733332809737,92.81659701364137,-0.015294804867982495,5.633926539805898,1.0,23.17512278658103,0.0,1.0,93.08071047826431,5379.492820681915,1.0,1.0,1.0531214022334388,18.47894547965062,0.03138883286828727,-44.259846657252574,1.0,22.71015467279094,1.0,0.01925425322479179,4.06296276290041,0.9430595415236361,1.0,0.3656509722410135,6.9724936446065
0.48,43.02499834464448,-0.0005996919915415376,23.10421452998854,94.01457077993815,-0.0004297513953855247,5.408866360432093,94.17003427006757,17.904815784947104,-0.04496016094912762,7.3279558078471565,0.04481580138649395,-0.1016017906862631,0.34104690126744136,0.12247546251437144,4.001794674058638,0.038020365486823936,5411.641083585821,0.27659997822603993,94.10077846900215,2.153517004086377,1.2222851864733808,101047.75333117423,287.99982260555504,0.0724,-0.1312,-0.0508,404.1094736842105,0.2168826221756668,0.86,nominal,4660.572622633363,nan,pitch_program,12.76,0.0,0.0,-3.093940629969076,0.043434396254311974,0.05665772124294312,-3.05064576960543,0.014891480111345142,0.009777045532119867,0.86,0.0,0.0,0.0,0.0,0.0,0.0,-0.05324381299165111,0.0002599053584382245,0.0001706416356528927,-0.05324381299165111,0.0002599053584382245,0.0001706416356528927,0.48,1.0,20.85788811341287,0.0037645634068462046,3.3819937430289033,-0.0026992416426878827,0.006189639893821573,0.005001035789227937,21.13029560610722,0.008402851089121276,1.0,0.0,38.98941757277144,0.8556037425468876,23.104733332809737,92.81659701364137,-0.015294804867982495,5.633926539805898,1.0,24.499805783600223,0.0,1.0,93.95285616984329,5354.583603083921,1.0,1.0,-0.2967447258355363,18.46689212447171,-0.0014869954209350798,-44.27424080520422,1.0,23.256456207548997,1.0,0.010891897316422204,4.080940093314158,0.9422394636750286,1.0,0.5917860301416604,7.6771959255451385
0.51,45.863652047689115,-0.000603822976788417,23.26307850357251,94.62179010148779,-0.00013769950822931245,5.295465786132366,94.76985343410146,17.898309306281835,-0.04860097875663976,7.312989272433566,0.049275664531483715,-0.1024182141013087,0.49876396099701187,0.14785763556897544,4.076639244505109,0.033553457172584,5480.757367427135,0.2783633338799367,94.7005116340239,2.152600761961587,1.2222665353100288,101045.84911902579,287.99878998972673,0.0724,-0.1312,-0.0508,404.0755263157895,0.21686440286936848,0.86,nominal,4718.795428767596,nan,pitch_program,12.745,0.0,0.0,-3.152389143640544,0.03978410097202442,0.06095901692486301,-3.111691794026498,0.0059565920445380565,0.04048622836776575,0.86,0.0,0.0,0.0,0.0,0.0,0.0,-0.05430926711305161,0.00010396214337528981,0.000706617986731842,-0.05430926711305161,0.00010396214337528981,0.000706617986731842,0.51,1.0,20.803544986355845,0.06379335502363075,3.5578991936112088,-0.0010813830034644605,0.009648509869405518,0.0006537668608675243,21.105691181844197,0.009730906587187347,1.0,0.0,38.98941757277144,0.8556037425468876,23.104733332809737,92.81659701364137,-0.015294804867982495,5.633926539805898,1.0,24.499805783600223,0.0,1.0,93.7101197520291,5476.32275739242,1.0,1.0,-0.2967447258355363,18.46689212447171,-0.0014869954209350798,-44.27424080520422,1.0,23.256456207548997,1.0,0.010891897316422204,4.080940093314158,0.9422394636750286,1.0,0.5917860301416604,7.6771959255451385
0.54,48.72048642905207,-0.0005939083071930769,23.418631806283514,95.2278127120986,0.00033048898651133485,5.185110090366922,95.36887165469126,17.891803374195753,-0.05242928980035515,7.293859813936187,0.05383388088333706,-0.10829509421059781,0.6375155025659903,0.15126995800746693,4.144323394774971,0.029115030364838226,5550.220010719628,0.2801243407116262,95.29944712931841,2.151726275149542,1.2222482730415132,101043.98461816211,287.9977788932591,0.0724,-0.1312,-0.0508,404.0415789473684,0.2168461835630701,0.86,nominal,4777.269165947578,nan,pitch_program,12.73,0.0,0.0,-3.206529504365771,0.041103983079002045,0.055798042350336516,-3.1685944202300615,0.0023826368178152227,0.016194491347106297,0.86,0.0,0.0,0.0,0.0,0.0,0.0,-0.0553024052933354,4.1584857350115923e-05,0.0002826471946927368,-0.0553024052933354,4.1584857350115923e-05,0.0002826471946927368,0.54,1.0,20.814471301521756,-0.017998878945365858,3.6435173268519256,0.0006946451388513486,0.01265950843552564,0.0018537864502411296,21.13096680307331,0.012813360601386829,1.0,0.0,38.98941757277144,0.8556037425468876,23.104733332809737,92.81659701364137,-0.015294804867982495,5.633926539805898,1.0,23.595727813429924,0.0,1.0,94.953801941099,5534.027525587459,1.0,1.0,0.6549119325280367,18.50646171342015,0.00886549838396267,-44.21952380493118,1.0,23.61250235824131,1.0,0.0006855556190874857,4.050362121960963,0.9414534204842913,1.0,-0.04601272760732944,7.173700354099338
0.57,51.59546704446296,-0.0005694031047541779,23.57096061755892,95.83268718036271,0.0008168400812966342,5.077627042513522,95.967110143316,17.885297988688862,-0.0565239857345974,7.271283728107242,0.05882665911474308,-0.11539323111256085,0.7523789034927952,0.16579882842764643,4.205726723310321,0.024278782984608463,5620.029706171699,0.28188305998238794,95.89760577429442,2.1508923616943063,1.2222303895370377,101042.15879385867,287.99678875598585,0.0724,-0.1312,-0.0508,404.0076315789474,0.21682796425677175,0.86,nominal,4835.995275569858,nan,pitch_program,12.715,0.0,0.0,-3.2542465767153663,0.04301419359700092,0.05479441300414617,-3.2199857141212447,0.0009530547271260891,0.00647779653884252,0.86,0.0,0.0,0.0,0.0,0.0,0.0,-0.05619935257859659,1.663394294004637e-05,0.00011305887787709472,-0.05619935257859659,1.663394294004637e-05,0.00011305887787709472,0.57,1.0,20.788579872162902,0.0063423867793684354,3.7039997880106617,0.0013923600789651964,0.015820231573818625,-0.0019188719439345503,21.115982282544888,0.015996889171834717,1.0,0.0,38.98941757277144,0.8556037425468876,23.104733332809737,92.81659701364137,-0.015294804867982495,5.633926539805898,1.0,23.595727813429924,0.0,1.0,96.28483387783751,5651.191194702979,1.0,1.0,0.6549119325280367,18.50646171342015,0.00886549838396267,-44.21952380493118,1.0,23.61250235824131,1.0,0.0006855556190874857,4.050362121960963,0.9414534204842913,1.0,-0.04601272760732944,7.173700354099338
0.6,54.48856067654806,-0.0005282269287036627,23.72014689513591,96.4364544028367,0.0013725392016838383,4.972875919232889,96.56458581997,17.878793149761158,-0.06087751090395408,7.245807840287349,0.06431499439755617,-0.1220030284610651,0.8490099009166991,0.18234834233027156,4.261535905197373,0.019013537980913188,5690.186741086774,0.28363954125499946,96.49500441044864,2.1500948172155314,1.2222128751621537,101040.37066208846,287.9958190451816,0.0724,-0.1312,-0.0508,403.9736842105263,0.21680974495047337,0.86,nominal,4894.9747958403605,nan,pitch_program,12.7,0.0,0.0,-3.2972137055241606,0.044160793841872686,0.05398130796377541,-3.266322508962994,0.00038122189085043563,0.0025911186155370084,0.86,0.0,0.0,0.0,0.0,0.0,0.0,-0.057008082213406246,6.653577176018548e-06,4.52235511508379e-05,-0.057008082213406246,6.653577176018548e-06,4.52235511508379e-05,0.6,1.0,20.779283863538687,0.032376713823259545,3.8548537536270047,-0.004318203362077577,0.019357558395990633,0.0036847511115013017,21.13384923753762,0.02017273749604043,1.0,0.0,38.98941757277144,0.8556037425468876,23.104733332809737,92.81659701364137,-0.015294804867982495,5.633926539805898,1.0,23.9227419490808,0.0,1.0,96.54874428101145,5717.8219024152295,1.0,1.0,-2.0240979371755943,18.57555921332296,-0.03189534709139089,-44.30461342752312,1.0,23.297829602407354,1.0,0.010142128485988526,4.054848481589614,0.9406996327621602,1.0,-0.09207673853136418,7.190919001122457
0.63,57.39973518583833,-0.0004674787681440266,23.866268921230294,97.03915030967572,0.0020249386853212043,4.870734203146144,97.16131302427893,17.872288857412645,-0.06544293813987573,7.217811715721818,0.070239354612883,-0.12732149746853616,0.9329876446411669,0.19693633224896312,4.312255726792591,0.013390530920429989,5760.691146126277,0.2853938264479218,97.09165728020108,2.1493275814110606,1.2221957207145933,101038.61928296913,287.994869252012,0.0724,-0.1312,-0.0508,403.9397368421053,0.21679152564417503,0.86,nominal,4954.208520417339,nan,pitch_program,12.685,0.0,0.0,-3.3371715955040404,0.04394599875292861,0.05174869975182213,-3.308831960887622,0.00015248875634017427,0.0010364474462148034,0.86,0.0,0.0,0.0,0.0,0.0,0.0,-0.05775001211270924,2.6614308704074195e-06,1.808942046033516e-05,-0.05775001211270924,2.6614308704074195e-06,1.808942046033516e-05,0.63,1.0,20.74764626035681,0.04470117535723969,3.9596229520731416,-0.0012246171756157794,0.014298734613587782,0.005249120633984031,21.122155133001005,0.015280928185380082,1.0,0.0,57.72183555925555,-1.4409922425909596,24.33656572510427,97.25003342503392,0.11308310972516314,4.837090367482119,1.0,23.9227419490808,0.0,1.0,97.30958051041793,5761.051469336634,1.0,1.0,-2.0240979371755943,18.57555921332296,-0.03189534709139089,-44.30461342752312,1.0,23.297829602407354,1.0,0.010142128485988526,4.054848481589614,0.9406996327621602,1.0,-0.09207673853136418,7.190919001122457
0.6599999999999999,60.32895942392899,-0.0003837740301522423,24.009401561902195,97.6408079363553,0.002790157933059478,4.771088022396743,97.7573049094883,17.86578511164332,-0.07015412250170433,7.187650852825732,0.07648449176139734,-0.13093885819682155,1.0051170297627878,0.20771801713735696,4.358358419481251,0.00752807902146311,5831.542853519755,0.2871459539683701,97.68757743284452,2.148586736476528,1.222178917393772,101036.90375764803,287.99393888984764,0.0724,-0.1312,-0.0508,403.9057894736842,0.21677330633787664,0.86,nominal,5013.69712941036,nan,pitch_program,12.67,0.0,0.0,-3.3742035128143244,0.042103809218788986,0.04747799819008411,-3.3480548920436433,6.099550253606972e-05,0.00041457897848592144,0.86,0.0,0.0,0.0,0.0,0.0,0.0,-0.05843458140366488,1.0645723481629679e-06,7.235768184134065e-06,-0.05843458140366488,1.0645723481629679e-06,7.235768184134065e-06,0.6599999999999999,1.0,20.646176525756143,0.017290148773274883,3.984587908921065,-0.0011711474305423628,0.01388715368335836,0.006007906432214131,21.02716920761919,0.015176282925259387,1.0,0.0,57.72183555925555,-1.4409922425909596,24.33656572510427,97.25003342503392,0.11308310972516314,4.837090367482119,1.0,23.950398919038726,0.0,1.0,98.35011645892172,5688.121034436778,1.0,1.0,-1.5938511313478896,18.668766473731353,0.028755954506727126,-44.23265808393561,1.0,24.050072705568546,1.0,0.010315866770733872,4.04968955771488,0.9399764960952445,1.0,-0.1267008498838545,7.641605480694962
0.69,63.27620313869015,-0.0002734332071707523,24.14961658981386,98.24145715870532,0.0036780274327163323,4.673834263722191,98.35257314843552,17.859281912453184,-0.07493505680715881,7.155687546735746,0.0829079352950933,-0.1326338184112349,1.0651737318520718,0.21378850954494655,4.400313559746517,0.001566958564170237,5902.741658138313,0.28889595787181604,98.28277643838402,2.147870414103852,1.222162456762862,101035.22322442883,287.99302749216616,0.0724,-0.1312,-0.0508,403.8718421052631,0.21675508703157828,0.86,nominal,5073.441159989678,nan,pitch_program,12.655,0.0,0.0,-3.4080285818548517,0.03852978477204965,0.040989821658569854,-3.384039105930368,2.4398201014427884e-05,0.0001658315913943686,0.86,0.0,0.0,0.0,0.0,0.0,0.0,-0.05906262441473009,4.2582893926518713e-07,2.8943072736536265e-06,-0.05906262441473009,4.2582893926518713e-07,2.8943072736536265e-06,0.69,1.0,20.680313667982645,0.03363542970448977,4.158823902212047,-0.0025583209490084597,0.019297303070199612,0.005822456736170149,21.09436704425832,0.020318265533894472,1.0,0.0,57.72183555925555,-1.4409922425909596,24.33656572510427,97.25003342503392,0.11308310972516314,4.837090367482119,1.0,23.950398919038726,0.0,1.0,97.5297638115406,5911.731772474168,1.0,1.0,-1.5938511313478896,18.668766473731353,0.028755954506727126,-44.23265808393561,1.0,24.050072705568546,1.0,0.010315866770733872,4.04968955771488,0.9399764960952445,1.0,-0.1267008498838545,7.641605480694962
0.72,66.24143686447832,-0.00013261409125649572,24.286983086780847,98.8411241929387,0.00469397053047522,4.578883232232889,98.94712742374946,17.852779259842237,-0.07970493454203584,7.122241650958191,0.0893539168767645,-0.1322931666660286,1.114574498407299,0.2147046462385386,4.438537578695596,-0.00434194589843395,5974.287150720122,0.29064386637563727,98.8772638815559,2.1471767626151634,1.222146330701496,101033.57685394179,287.9921346099359,0.0724,-0.1312,-0.0508,403.8378947368421,0.21673686772527995,0.86,nominal,5133.440955393836,nan,pitch_program,12.64,0.0,0.0,-3.438963929218298,0.03321303565420959,0.03232000745844065,-3.416993999903126,9.759280405771156e-06,6.633263655774745e-05,0.86,0.0,0.0,0.0,0.0,0.0,0.0,-0.05963779581920035,1.7033157570607487e-07,1.1577229094614508e-06,-0.05963779581920035,1.7033157570607487e-07,1.1577229094614508e-06,0.72,1.0,20.61702290334908,-0.00669082393949442,4.252059738314284,0.00019985185213088974,0.01957597188917631,0.0016043868075905688,21.050930862613626,0.019642623887785256,1.0,0.0,57.72183555925555,-1.4409922425909596,24.33656572510427,97.25003342503392,0.11308310972516314,4.837090367482119,1.0,23.54379247232391,0.0,1.0,98.75726867661625,5956.810696537116,1.0,1.0,0.3768484837303645,18.61457529489624,0.019855561599341997,-44.200939925700624,1.0,24.864671460860528,1.0,0.01170282422772294,4.067188856468792,0.9392825422830479,1.0,-0.5242357622759007,6.774363523459413
0.75,69.22463182579115,4.257651271453189e-05,24.42156778226294,99.43983204376109,0.005839686799034254,4.486156516069735,99.54097563958288,17.84627715381048,-0.08438153858569296,7.087576748750269,0.09566161080099625,-0.1298809139324924,1.1551968320395123,0.2102963567254979,4.473381514816652,-0.010045137149478061,6046.17873612603,0.29238970248071344,99.47104757302972,2.1465035807925754,1.222130531365997,101031.96384508234,287.9912598094153,0.0724,-0.1312,-0.0508,403.80394736842106,0.21671864841898159,0.86,nominal,5193.696683331945,nan,pitch_program,12.625,0.0,0.0,-3.4675193486883233,0.0262087655487984,0.021627039120499476,-3.447309209174244,3.9037121623084626e-06,2.653305462309898e-05,0.86,0.0,0.0,0.0,0.0,0.0,0.0,-0.06016689603441247,6.813263028242995e-08,4.630891637845803e-07,-0.06016689603441247,6.813263028242995e-08,4.630891637845803e-07,0.75,1.0,20.567931174661716,0.014515266450040334,4.254272915874741,-0.001076521492685931,0.023905062267792092,0.005022520991158544,21.003305490834695,0.024450697692660228,1.0,0.0,57.72183555925555,-1.4409922425909596,24.33656572510427,97.25003342503392,0.11308310972516314,4.837090367482119,1.0,23.54379247232391,0.0,1.0,99.8916580207457,6029.67939438169,1.0,1.0,0.3768484837303645,18.61457529489624,0.019855561599341997,-44.200939925700624,1.0,24.864671460860528,1.0,0.01170282422772294,4.067188856468792,0.9392825422830479,1.0,-0.5242357622759007,6.774363523459413
0.78,72.22575986050434,0.0002559785563004567,24.55343530526173,100.03760115710652,0.00711340145286416,4.395584099959607,100.13412433056284,17.83977559435791,-0.08888398327433111,7.051924635579756,0.10167119078016311,-0.12542667419460232,1.1881018675508537,0.2005929962959785,4.505157459953637,-0.015392079718449444,6118.415676579355,0.29413348516973503,100.06413395688868,2.1458491194867517,1.2221150511597738,101030.38342198776,287.9904026705158,0.0724,-0.1312,-0.0508,403.77,0.21670042911268322,0.86,nominal,5254.208374060654,nan,pitch_program,12.61,0.0,0.0,-3.4939366388553887,0.017626491044216958,0.009151710093888354,-3.475285666982931,1.561484864923385e-06,1.0613221849239593e-05,0.86,0.0,0.0,0.0,0.0,0.0,0.0,-0.060655177336219335,2.7253052112971983e-08,1.8523566551383214e-07,-0.060655177336219335,2.7253052112971983e-08,1.8523566551383214e-07,0.78,1.0,20.572183039269103,-0.06235125689203752,4.368086265719386,-0.0014054130610459755,0.019999433167657836,0.0032471426677074945,21.030900606136527,0.020310008577157656,1.0,0.0,57.72183555925555,-1.4409922425909596,24.33656572510427,97.25003342503392,0.11308310972516314,4.837090367482119,1.0,23.502512388116667,0.0,1.0,100.10522799984446,6205.655853650309,1.0,1.0,0.12487139776448507,18.741860726324173,0.046494752592769584,-44.2309397212964,1.0,24.3607371575797,1.0,0.03602567327029524,4.067953751938447,0.9386164117368456,1.0,-0.45300388102848177,6.532026547468638
0.8099999999999999,75.24479335027262,0.0005112784204981573,24.682648413522415,100.63444965894273,0.008509995473256687,4.307103608689485,100.72657877677712,17.83327458148453,-0.09313517990506008,7.01549847313635,0.1072289769640279,-0.1190209086347341,1.2139118698082951,0.18579376821110874,4.5341523897625,-0.02023997064104781,6190.997100669538,0.29587522974452285,100.65652822521314,2.145212255982777,1.2220998827063985,101028.83483128762,287.9895627853121,0.0724,-0.1312,-0.0508,403.73605263157896,0.21668220980638486,0.86,nominal,5314.975930101613,nan,pitch_program,12.595,0.0,0.0,-3.518314401572896,0.007623880813473459,-0.004802802751605197,-3.50110290773691,6.245939459693541e-07,4.245288739695837e-06,0.86,0.0,0.0,0.0,0.0,0.0,0.0,-0.06110577319115633,1.0901220845188795e-08,7.409426620553286e-08,-0.06110577319115633,1.0901220845188795e-08,7.409426620553286e-08,0.8099999999999999,1.0,20.607644001960093,-0.013127079298257124,4.525801619142181,-0.0009501435465738939,0.02063526120706926,0.006010808271772245,21.098768777527344,0.02151386980352626,1.0,0.0,57.72183555925555,-1.4409922425909596,24.33656572510427,97.25003342503392,0.11308310972516314,4.837090367482119,1.0,23.502512388116667,0.0,1.0,99.83689976394908,6142.351250462567,1.0,1.0,0.12487139776448507,18.741860726324173,0.046494752592769584,-44.2309397212964,1.0,24.3607371575797,1.0,0.03602567327029524,4.067953751938447,0.9386164117368456,1.0,-0.45300388102848177,6.532026547468638
0.84,78.28170515327038,0.0008119127116136815,24.809268220638895,101.23039343325871,0.01002114303718414,4.220660237216024,101.318342998263,17.82677411519034,-0.09706413433679821,6.978487953006637,0.11219211996363314,-0.1108119313021299,1.2334097989877637,0.1662534603302256,4.560623592835404,-0.024458088569169468,6263.921998002249,0.29761494781035497,101.24823431256749,2.1445920703001042,1.2220850188229062,101027.31733937738,287.98873975656585,0.0724,-0.1312,-0.0508,403.7021052631579,0.2166639905000865,0.86,nominal,5375.999124152764,nan,pitch_program,12.58,0.0,0.0,-3.540820640377445,-0.0035979432116353847,-0.019883579677668815,-3.524933547321231,2.4983757838774163e-07,1.6981154958783351e-06,0.86,0.0,0.0,0.0,0.0,0.0,0.0,-0.061521696314758824,4.360488338075518e-09,2.9637706482213146e-08,-0.061521696314758824,4.360488338075518e-09,2.9637706482213146e-08,0.84,1.0,20.495403002581497,0.058963011417103424,4.513936348848198,-0.0006679113846992713,0.025323683332996266,0.0028429680197911604,20.98667773222801,0.02549151839983721,1.0,0.0,77.8757282775139,0.11122175816530132,24.914169397182505,101.23936878011739,0.027064162013047753,4.16844152821306,1.0,25.955583638140137,0.0,1.0,101.0068627527374,6282.144263270095,1.0,1.0,-0.14028467183937393,18.678882715751108,0.07032295292471408,-44.16574620632727,1.0,24.6376322948617,1.0,-0.008684275921518807,4.0740254965550635,0.9379768294484028,1.0,0.46257827536379287,7.4177410356437115
0.87,81.33646854333308,0.001160977900586791,24.933354399052874,101.82544633542348,0.01163550629910365,4.1362059471326145,101.90941986112132,17.82027419547534,-0.10060808499099744,6.941057371120556,0.11643295859444917,-0.10100259439596453,1.24744219782003,0.1424717386768093,4.58479742087011,-0.027931801229754857,6337.189227701518,0.2993526475874461,101.83925500180185,2.143987674000101,1.2220704524959551,101025.83022998342,287.9879331964061,0.0724,-0.1312,-0.0508,403.66815789473685,0.21664577119378817,0.86,nominal,5437.277608132627,nan,pitch_program,12.565,0.0,0.0,-3.561659886330697,-0.015799339330157026,-0.03569869321082914,-3.5469693507269104,9.993503135509668e-08,6.792461983513341e-07,0.86,0.0,0.0,0.0,0.0,0.0,0.0,-0.061906293637510115,1.7441953352302075e-09,1.185508259288526e-08,-0.061906293637510115,1.7441953352302075e-09,1.185508259288526e-08,0.87,1.0,20.459008478943705,0.005237360214356595,4.629974680529004,-0.002525618872724711,0.021376497186925598,0.0039104025711885655,20.97636100265659,0.021877491422502247,1.0,0.0,77.8757282775139,0.11122175816530132,24.914169397182505,101.23936878011739,0.027064162013047753,4.16844152821306,1.0,25.955583638140137,0.0,1.0,101.60051774908025,6275.940013664088,1.0,1.0,-0.14028467183937393,18.678882715751108,0.07032295292471408,-44.16574620632727,1.0,24.6376322948617,1.0,-0.008684275921518807,4.0740254965550635,0.9379768294484028,1.0,0.46257827536379287,7.4177410356437115
0.8999999999999999,84.40905715702382,0.0015611481190043635,25.054965351917012,102.41962045635816,0.013339007280585752,4.05369842880455,102.49981123546164,17.813774822339525,-0.10371444642995432,6.903351100678227,0.11984302452279588,-0.0898458317198693,1.2566725292893797,0.11508119739916901,4.606875547597346,-0.030566187856822826,6410.79753388329,0.30108833437468796,102.42959208167854,2.1433983428260412,1.222056176861626,101024.37280210039,287.9871427252125,0.0724,-0.1312,-0.0508,403.6342105263158,0.2166275518874898,0.86,nominal,5498.810927621011,nan,pitch_program,12.55,0.0,0.0,-3.580983824900264,-0.028707922493376815,-0.05182797027148487,-3.5673780352309223,3.997401254203868e-08,2.716984793405337e-07,0.86,0.0,0.0,0.0,0.0,0.0,0.0,-0.06226249237810587,6.976781340920831e-10,4.7420330371541044e-09,-0.06226249237810587,6.976781340920831e-10,4.7420330371541044e-09,0.8999999999999999,1.0,20.489910988459652,-0.0012263037117538258,4.661261097134842,-0.0011206842302121673,0.02188409305645454,0.005834824710516444,21.013419732030364,0.022676301317672187,1.0,0.0,77.8757282775139,0.11122175816530132,24.914169397182505,101.23936878011739,0.027064162013047753,4.16844152821306,1.0,25.041053193016843,0.0,1.0,101.89893240994869,6544.779573855005,1.0,1.0,-1.897871364068235,18.899547903194932,-0.005584384172845042,-44.09357471052619,1.0,25.195228862690307,1.0,0.007895185349347425,4.0766669535622855,0.9373625866202074,1.0,0.08436019139401803,6.684101471307263
0.9299999999999999,87.49944494617252,0.0020146035836313345,25.174158366014098,103.01292630495627,0.015115182154232363,3.9731004699028625,103.089518098219,17.8072759957829,-0.10634250516133939,6.865497758788939,0.12233658803075159,-0.07763876141123766,1.26162472338969,0.08483231501278017,4.627039665709803,-0.03228918753074617,6484.745554930985,0.30282201085229377,103.01924644970767,2.142823381366,1.2220421851874508,101022.94436815572,287.9863679706209,0.0724,-0.1312,-0.0508,403.6002631578947,0.21660933258119142,0.86,nominal,5560.598531001584,nan,pitch_program,12.535000000000002,0.0,0.0,-3.598904212504567,-0.04202534525542374,-0.067834340635354,-3.5862937415951093,1.598960501681547e-08,-0.04070049570182065,0.86,0.0,0.0,0.0,0.0,0.0,0.0,-0.06259263373450137,2.7907125363683324e-10,-0.0007103576571905706,-0.06259263373450137,2.7907125363683324e-10,-0.0007103576571905706,0.9299999999999999,1.0,20.43233774123246,-0.028655520785477794,4.725850924039255,-0.0021472284649980966,0.023162419611841116,5.684308327266437e-06,20.971764676986687,0.023261734773383974,1.0,0.0,77.8757282775139,0.11122175816530132,24.914169397182505,101.23936878011739,0.027064162013047753,4.16844152821306,1.0,25.041053193016843,0.0,1.0,102.90529435584875,6447.094481911724,1.0,1.0,-1.897871364068235,18.899547903194932,-0.005584384172845042,-44.09357471052619,1.0,25.195228862690307,1.0,0.007895185349347425,4.0766669535622855,0.9373625866202074,1.0,0.08436019139401803,6.684101471307263
0.96,90.60760614251014,0.002518734746500476,25.29098975981257,103.6053732112539,0.01680437209563804,3.894379793282477,103.67854085877393,17.800777715805463,-0.10856976923596035,6.827609203291977,0.1247340675424913,-0.06471529294180847,1.2628008643410054,0.08171458438618306,4.645452575978669,-0.034003579767239944,6559.031838829465,0.30455367751459056,103.60821825925636,2.142262641892219,1.2220284708550166,101021.54425223301,287.9856085665612,0.0724,-0.1312,-0.0508,403.56631578947366,0.21659111327489305,0.86,nominal,5622.639802030294,nan,pitch_program,12.520000000000001,0.0,0.0,-3.615548298886356,-0.05617501990944565,-0.07213240198846067,-3.603846475969857,6.3958420067261885e-09,-0.05955963947380466,0.86,0.0,0.0,0.0,0.0,0.0,0.0,-0.06289898674206872,1.116285014547333e-10,-0.0010395118101186743,-0.06289898674206872,1.116285014547333e-10,-0.0010395118101186743,0.96,1.0,20.40516720915947,0.04398556809261027,4.873983554940075,0.004681236570705371,0.02164044485688083,-0.000308378503877015,20.979239720680624,0.022143123689675377,1.0,0.0,77.8757282775139,0.11122175816530132,24.914169397182505,101.23936878011739,0.027064162013047753,4.16844152821306,1.0,25.008563845263897,0.0,1.0,103.10932792798678,6573.415998151849,1.0,1.0,0.44579760218430975,18.927106111815473,0.04886767136375331,-44.14433557458444,1.0,25.44013763875079,1.0,0.01610917294801411,4.074255500084911,0.9367725256004685,1.0,-0.39386103634971453,6.6102996648957815
0.99,93.73351520536498,0.0030730850387017863,25.405514994649828,104.1969687618283,0.018478343073377018,3.817507827908492,104.26687876127647,17.794279982407215,-0.11041725276481267,6.78978541295618,0.12739549721478385,-0.05106528421761804,1.2606224155661672,0.09049791284498838,4.662260953304984,-0.03602735771897093,6633.654824946222,0.3062833323128339,104.19650679794671,2.141715758435713,1.222015027346898,101020.17178873759,287.9848641525347,0.0724,-0.1312,-0.0508,403.53236842105264,0.21657289396859472,0.86,nominal,5684.933996931647,nan,pitch_program,12.505,0.0,0.0,-3.631001195672874,-0.07085120393669188,-0.071754283930856,-3.6201393077916673,-0.042510719803678314,-0.06687642614803546,0.86,0.0,0.0,0.0,0.0,0.0,0.0,-0.063183350301833,-0.000741952027966944,-0.0011672138282500476,-0.063183350301833,-0.000741952027966944,-0.0011672138282500476,0.99,1.0,20.47831476270968,0.027738265456095517,4.94208955432472,-0.002297316030988805,0.022327938583031566,0.005172956810643803,21.066238252116804,0.023034191639357653,1.0,0.0,77.8757282775139,0.11122175816530132,24.914169397182505,101.23936878011739,0.027064162013047753,4.16844152821306,1.0,25.008563845263897,0.0,1.0,103.50939142424703,6589.931795659777,1.0,1.0,0.44579760218430975,18.927106111815473,0.04886767136375331,-44.14433557458444,1.0,25.44013763875079,1.0,0.01610917294801411,4.074255500084911,0.9367725256004685,1.0,-0.39386103634971453,6.6102996648957815
1.02,96.8771467871969,0.0036785358901961418,25.517788789248634,104.78771939439734,0.020181695049811856,3.7424598199602035,104.8545304156372,17.787782795588157,-0.11299808437514307,6.752113720764369,0.13042299399294827,-0.0741296075099963,1.2555253506432695,0.10266076296877857,4.677595910060676,-0.038347438665497134,6708.612866317975,0.3080109712398421,104.78411068644887,2.1411824575752365,1.2220018482332013,101018.82632102224,287.98413437286985,0.0724,-0.1312,-0.0508,403.49842105263156,0.21655467466229633,0.86,nominal,5747.480297771978,nan,pitch_program,12.49,0.0,0.0,-3.6453628840424717,-0.052590409994966156,-0.07040837656110381,-3.6352734535421494,-0.017004287921471326,-0.06899559639587646,0.86,0.0,0.0,0.0,0.0,0.0,0.0,-0.06344749097465563,-0.00029678081118677765,-0.0012042003264851773,-0.06344749097465563,-0.00029678081118677765,-0.0012042003264851773,1.02,1.0,20.361227857148773,0.00041854475192732365,5.034528128944626,-0.002562534454519377,0.02282884042670855,0.0027659337890006126,20.974414735745206,0.023138127145122547,1.0,0.0,77.8757282775139,0.11122175816530132,24.914169397182505,101.23936878011739,0.027064162013047753,4.16844152821306,1.0,25.34719937419569,0.0,1.0,104.95576189208917,6829.513583210054,1.0,1.0,0.337585544683141,18.931645862349068,0.004602076615360714,-44.089410767976574,1.0,25.576679125030573,1.0,0.011892684542973826,4.1225988892350225,0.9362055280268784,1.0,-0.3480164546596903,6.406904545553925
1.05,100.03847570266439,0.004336782089301096,25.6278652194294,105.3776305155826,0.021941539970165153,3.669214339358888,105.44149386450279,17.781286155348287,-0.11560081317852718,6.714670031216575,0.13379547950887508,-0.07357688076297043,1.2478978337659,0.11413045658034632,4.691572957815421,-0.04098579756935064,6783.904237467768,0.30973658856442127,105.37102795814553,2.14066249344303,1.2219889271598412,101017.50720018982,287.9834188760737,0.0724,-0.1312,-0.0508,403.46447368421053,0.216536455355998,0.86,nominal,5810.277818643106,nan,pitch_program,12.475,0.0,0.0,-3.65872477444906,-0.05606265781844035,-0.0698472709690386,-3.649344246086296,-0.006801715168588531,-0.06950660113977375,0.86,0.0,0.0,0.0,0.0,0.0,0.0,-0.06369307263291606,-0.00011871232447471105,-0.0012131190417594953,-0.06369307263291606,-0.00011871232447471105,-0.0012131190417594953,1.05,1.0,20.393854154512972,0.0279446272313286,5.077763364126975,-0.0022461068729463947,0.023300681614052805,0.0017757659910673696,21.016511341319404,0.02347594736361425,1.0,0.0,100.96564356311677,-0.5099845313707293,25.089682216612257,105.48841246922503,-0.08219125968841678,3.6558117329386186,1.0,25.34719937419569,0.0,1.0,105.01317610500898,6686.253300668099,1.0,1.0,0.337585544683141,18.931645862349068,0.004602076615360714,-44.089410767976574,1.0,25.576679125030573,1.0,0.011892684542973826,4.1225988892350225,0.9362055280268784,1.0,-0.3480164546596903,6.406904545553925
1.08,103.21747690157324,0.00504990807569891,25.73579780358204,105.96670663029485,0.023770866213260477,3.597752805088044,106.02776666690464,17.774790061687607,-0.11790843462155708,6.677521075707616,0.137444961159783,-0.06273602348578855,1.2380497892934725,0.12334266888698033,4.704296020096095,-0.043893860217078466,6859.527143670965,0.31146017709057294,105.95725614723986,2.1401556940278863,1.221976257838496,101016.21378406754,287.98271731427667,0.0724,-0.1312,-0.0508,403.43052631578945,0.21651823604969964,0.86,nominal,5873.325613716284,nan,pitch_program,12.46,0.0,0.0,-3.6711567554513556,-0.06863995917654758,-0.07065956543099781,-3.6624317517053315,-0.043904661573363965,-0.0701983797145082,0.86,0.0,0.0,0.0,0.0,0.0,0.0,-0.06392149269684148,-0.0007662809014290351,-0.001225192855583365,-0.06392149269684148,-0.0007662809014290351,-0.001225192855583365,1.08,1.0,20.30590088331517,-0.017045457195080247,5.221598956888024,-0.0010348404558076616,0.021757910549977968,0.003736074275532927,20.966520858196883,0.022100584093234225,1.0,0.0,100.96564356311677,-0.5099845313707293,25.089682216612257,105.48841246922503,-0.08219125968841678,3.6558117329386186,1.0,26.153611721880257,0.0,1.0,105.77337046536991,6851.099902342001,1.0,1.0,0.8638900935016512,19.0184591633711,0.006546516306111541,-44.02064644769612,1.0,25.680439384012818,1.0,0.0037215474772512884,4.115973843736897,0.935660505491045,1.0,-0.9261547002782451,6.749577848134903
1.1099999999999999,106.41412544423163,0.005820138630712908,25.84163957929572,106.55495142194651,0.025674351833799916,3.528059190455939,106.61334594391587,17.768294514606115,-0.12089326110117486,6.6407253166724525,0.14129720106199722,-0.08460374849719901,1.2262568915171788,0.13009743990294903,4.715859443984001,-0.04691567336961365,6935.479726048064,0.3131817283137109,106.54279234183257,2.1396619450403467,1.2219638340376051,101014.94543628728,287.98202934273456,0.0724,-0.1312,-0.0508,403.3965789473684,0.21650001674340127,0.86,nominal,5936.622681458842,nan,pitch_program,12.445,0.0,0.0,-3.68272235159486,-0.051782759687044516,-0.07275092669543648,-3.6746061116390485,-0.017561864629345586,-0.07172990790306516,0.86,0.0,0.0,0.0,0.0,0.0,0.0,-0.06413397536200773,-0.00030651236057161407,-0.0012519230650607886,-0.06413397536200773,-0.00030651236057161407,-0.0012519230650607886,1.1099999999999999,1.0,20.340523132564645,-0.044628077622880895,5.271819226308242,-0.0024301458416485914,0.022076359472667145,0.005094972745774185,21.012637885962413,0.022786618960659435,1.0,0.0,100.96564356311677,-0.5099845313707293,25.089682216612257,105.48841246922503,-0.08219125968841678,3.6558117329386186,1.0,26.153611721880257,0.0,1.0,107.06268204737678,6977.935004565911,1.0,1.0,0.8638900935016512,19.0184591633711,0.006546516306111541,-44.02064644769612,1.0,25.680439384012818,1.0,0.0037215474772512884,4.115973843736897,0.935660505491045,1.0,-0.9261547002782451,6.749577848134903
1.14,109.62839647875131,0.006649776520478767,25.945443172150984,107.14236781732274,0.02765459632552866,3.4601197618421393,107.19822841374507,17.761799514103814,-0.12378278995253879,6.604333399759945,0.14529255685006415,-0.0809584482039788,1.212778707543723,0.13487973075809434,4.726346399697425,-0.05005404357881302,7011.760065548163,0.3149012325466561,107.1276332267235,2.1391811267254495,1.2219516495742726,101013.70152545894,287.981354619381,0.0724,-0.1312,-0.0508,403.3626315789474,0.21648179743710294,0.86,nominal,6000.167967806906,nan,pitch_program,12.43,0.0,0.0,-3.693484055606762,-0.05825480953395013,-0.07587781909283103,-3.6859328780196763,-0.04197763157210831,-0.07421865461692469,0.86,0.0,0.0,0.0,0.0,0.0,0.0,-0.06433166472895388,-0.0007326478831224134,-0.0012953598894658266,-0.06433166472895388,-0.0007326478831224134,-0.0012953598894658266,1.14,1.0,20.289446443383966,0.012837547580053312,5.29307562619036,-0.00019995007969173992,0.017769346475666702,0.004302230789613415,20.968510947755554,0.01828384106181617,1.0,0.0,100.96564356311677,-0.5099845313707293,25.089682216612257,105.48841246922503,-0.08219125968841678,3.6558117329386186,1.0,26.664444059201525,0.0,1.0,106.9039314795453,6949.570816983864,1.0,1.0,-0.6145830785300501,19.08773755946482,0.09971269814882633,-44.09033709230796,1.0,25.999827059210595,1.0,0.012475463565352427,4.1256532096385445,0.9351363920696225,1.0,-0.326508631883656,6.899131474601702
1.17,112.86026522137017,0.007541107636486568,26.047260854451935,107.72895808729507,0.02971103720026005,3.393922743364997,107.78241046157689,17.7553050601807,-0.12721768231881347,6.568389237767312,0.1493884894384915,-0.09883620234879464,1.197838815871748,0.13825406765948722,4.73583266606677,-0.053214475365440134,7088.366190488037,0.31661867912070435,107.71177515176177,2.1387131567824267,1.221939698307372,101012.4814244658,287.98069280444605,0.0724,-0.1312,-0.0508,403.3286842105263,0.21646357813080455,0.86,nominal,6063.960373112231,nan,pitch_program,12.415,0.0,0.0,-3.703495472613546,-0.045468098048620294,-0.07969104554790668,-3.696470434775998,-0.016791052628843325,-0.07750208917551389,0.86,0.0,0.0,0.0,0.0,0.0,0.0,-0.06451557978946747,-0.0002930591532489654,-0.0013526666332869747,-0.06451557978946747,-0.0002930591532489654,-0.0013526666332869747,1.17,1.0,20.199775709634523,-0.019045694155344503,5.320876487193746,-0.0025884892079277425,0.023136925736763125,0.0013224885196504175,20.888825434906053,0.023318803245721196,1.0,0.0,100.96564356311677,-0.5099845313707293,25.089682216612257,105.48841246922503,-0.08219125968841678,3.6558117329386186,1.0,26.664444059201525,0.0,1.0,107.77930379010873,7008.617906912299,1.0,1.0,-0.6145830785300501,19.08773755946482,0.09971269814882633,-44.09033709230796,1.0,25.999827059210595,1.0,0.012475463565352427,4.1256532096385445,0.9351363920696225,1.0,-0.326508631883656,6.899131474601702
1.2,116.1097069383695,0.00849642879841759,26.14714459766494,108.31472389997741,0.031844038731034016,3.3294581071002325,108.3658881699314,17.748811152836776,-0.13044270149582726,6.532930816882083,0.15355998679932695,-0.09163759230542604,1.1816337992450354,0.1407993842953179,4.744385230869074,-0.056434542853714825,7165.296080010006,0.3183340564893781,108.29521416709422,2.1382579525802297,1.221927974131374,101011.2845098344,287.9800435601152,0.0724,-0.1312,-0.0508,403.2947368421053,0.21644535882450622,0.86,nominal,6127.998754997729,nan,pitch_program,12.4,0.0,0.0,-3.7128040855951006,-0.05551360009675537,-0.08395848119008457,-3.7062706252674595,-0.006716421051537331,-0.08137592438425631,0.86,0.0,0.0,0.0,0.0,0.0,0.0,-0.06468662538086611,-0.00011722366129958618,-0.0014202778123592118,-0.06468662538086611,-0.00011722366129958618,-0.0014202778123592118,1.2,1.0,20.172750725279542,0.06888185722598726,5.518362785555727,-0.0017241414436365338,0.02017074069698517,0.001439849807656029,20.914037017456184,0.020295433265916894,1.0,0.0,100.96564356311677,-0.5099845313707293,25.089682216612257,105.48841246922503,-0.08219125968841678,3.6558117329386186,1.0,26.835097492359147,0.0,1.0,107.6967131197262,7193.638696012394,1.0,1.0,2.216986460827596,19.123180518791223,0.1213171047349842,-44.02602716660056,1.0,26.39202531067266,1.0,0.009044350539304047,4.131754869399686,0.9346321385058376,1.0,-0.24814695481377386,6.13445638599187
