time_s,sensor_time_s,imu_valid,imu_ax_mps2,imu_ay_mps2,imu_az_mps2,gyro_p_rps,gyro_q_rps,gyro_r_rps,imu_accel_norm_mps2,imu_gyro_norm_rps,gps_valid,gps_latency_s,gps_x_m,gps_y_m,gps_z_m,gps_vx_mps,gps_vy_mps,gps_vz_mps,baro_valid,baro_alt_m,baro_bias_m,pitot_valid,pitot_airspeed_mps,pitot_qbar_pa,pitot_compressibility_factor,mag_valid,mag_heading_deg,mag_x_ut,mag_y_ut,mag_z_ut,radar_valid,radar_agl_m,optical_flow_valid,optical_flow_x_radps,optical_flow_y_radps,optical_flow_quality,horizon_valid,horizon_roll_deg,horizon_pitch_deg
0.0,0.0,1.0,17.095382095157238,-0.05757402465052493,0.14683972497508235,0.0016677683591043149,0.0011681274632859406,0.0012765720485123657,17.096109664264787,0.00240324973008537,1.0,0.0,-1.885154541229685,1.8645638091475825,21.162662438547994,85.32748210022089,0.18147237523479218,7.846341299741817,1.0,20.771163472887363,0.0,1.0,85.5597971231538,4458.492166482902,1.0,1.0,-0.8198733225718878,19.523475325297145,-0.00615746722134172,-43.81279554351524,1.0,20.39618647858491,1.0,-0.0077448575321814855,4.273240466216326,0.95,1.0,0.17459483210835952,5.697481511065039
0.03,0.03,1.0,17.401843438094936,-0.03623248195329441,0.6632483211486485,0.001570338436026479,-0.15699138909423582,0.0023585170192547437,17.41451596146797,0.15701695709403976,1.0,0.0,-1.885154541229685,1.8645638091475825,21.162662438547994,85.32748210022089,0.18147237523479218,7.846341299741817,1.0,20.771163472887363,0.0,1.0,85.38121134640805,4486.735516999989,1.0,1.0,-0.8198733225718878,19.523475325297145,-0.00615746722134172,-43.81279554351524,1.0,20.39618647858491,1.0,-0.0077448575321814855,4.273240466216326,0.95,1.0,0.17459483210835952,5.697481511065039
0.06,0.06,1.0,17.709298369364173,-0.05917296124518267,1.2014067117514668,-0.0042440123229507765,-0.1845638082494123,0.0007271673342928209,17.750102204256418,0.18461402906728203,1.0,0.0,-1.885154541229685,1.8645638091475825,21.162662438547994,85.32748210022089,0.18147237523479218,7.846341299741817,1.0,20.52595578551106,0.0,1.0,85.8708535049351,4518.79852724252,1.0,1.0,0.07966163587646898,19.046817770103374,-0.026278810593590194,-44.018787527444225,1.0,20.444305666138256,1.0,0.00043591581163411554,4.219150776160496,0.9488517014402293,1.0,-0.16146392136388038,6.404408653497127
0.09,0.09,1.0,17.98304727364492,-0.020464770844365456,1.3930229743068236,-0.0007838367554110045,-0.11487368249400852,0.0038784135584643098,18.03693214102499,0.1149418088491907,1.0,0.0,-1.885154541229685,1.8645638091475825,21.162662438547994,85.32748210022089,0.18147237523479218,7.846341299741817,1.0,20.52595578551106,0.0,1.0,87.16321313007538,4636.748170622902,1.0,1.0,0.07966163587646898,19.046817770103374,-0.026278810593590194,-44.018787527444225,1.0,20.444305666138256,1.0,0.00043591581163411554,4.219150776160496,0.9488517014402293,1.0,-0.16146392136388038,6.404408653497127
0.12,0.12,1.0,18.24878389522101,-0.022914402604420354,1.507596955957725,0.00022065914016543135,-0.056820824857833255,-0.0013417510483704105,18.310966312730123,0.056837092851908806,1.0,0.0,-1.885154541229685,1.8645638091475825,21.162662438547994,85.32748210022089,0.18147237523479218,7.846341299741817,1.0,20.83507668395215,0.0,1.0,87.19635636300067,4705.362797931159,1.0,1.0,-1.887193585649787,18.833928173795886,-0.0031861778493155754,-44.08435906706946,1.0,20.159393524313657,1.0,-0.01322277616761533,4.181187562789071,0.9477637462295245,1.0,0.2756659793624844,7.483512588187403
0.15,0.15,1.0,18.547936065215143,-0.04428893492982039,1.6684163105759313,-0.00158959931042116,-0.049940256266360866,-3.1143085583690494e-05,18.62287589966871,0.049965558055617344,1.0,0.0,-1.885154541229685,1.8645638091475825,21.162662438547994,85.32748210022089,0.18147237523479218,7.846341299741817,1.0,20.83507668395215,0.0,1.0,87.47248388332886,4732.516378393873,1.0,1.0,-1.887193585649787,18.833928173795886,-0.0031861778493155754,-44.08435906706946,1.0,20.159393524313657,1.0,-0.01322277616761533,4.181187562789071,0.9477637462295245,1.0,0.2756659793624844,7.483512588187403
0.18,0.18,1.0,18.753214701569945,-0.05560065963684891,1.8890093707736373,-0.0010637660494835742,-0.059847877355273846,0.00077437161324682,18.84819645163435,0.0598623393590272,1.0,0.0,-1.885154541229685,1.8645638091475825,21.162662438547994,85.32748210022089,0.18147237523479218,7.846341299741817,1.0,20.08187480272944,0.0,1.0,87.96371838034176,4835.794044713838,1.0,1.0,-0.5292891007058576,18.72174359807949,0.03395657026047176,-44.2246860112258,1.0,21.361401433256283,1.0,0.007989099806898024,4.1389350818013275,0.9467305809702523,1.0,-0.5170121922993067,6.703097305082287
0.21,0.21,1.0,19.043942513026586,0.05301886777827848,2.089874603681286,-0.0024846035030920074,-0.05046733041262189,0.00273664429204308,19.158343699258396,0.050602508984491076,1.0,0.0,18.158695065027977,-0.8509669720612799,22.527960195728404,88.7926495699865,-0.10867357058697534,6.691812551598902,1.0,20.08187480272944,0.0,1.0,88.74410393150788,4826.273892044203,1.0,1.0,-0.5292891007058576,18.72174359807949,0.03395657026047176,-44.2246860112258,1.0,21.361401433256283,1.0,0.007989099806898024,4.1389350818013275,0.9467305809702523,1.0,-0.5170121922993067,6.703097305082287
0.24,0.24,1.0,19.344693632310843,-0.06643033005079402,2.2924102424567083,-0.0011281488321422625,-0.037253664049117,0.0028833722643835068,19.480162459190087,0.03738210856127504,1.0,0.0,18.158695065027977,-0.8509669720612799,22.527960195728404,88.7926495699865,-0.10867357058697534,6.691812551598902,1.0,22.184772627810023,0.0,1.0,89.39016185557769,4883.799901611156,1.0,1.0,-0.9678231669464584,18.63271871862083,-0.004924025479897843,-44.29955824964862,1.0,21.59723050518147,1.0,0.016969294953411727,4.126323520968197,0.9457476951266535,1.0,-0.6114745370922305,7.1713687187045565
0.27,0.27,1.0,19.557018677145507,-0.035171949599325424,2.4363364714997946,0.0005022267174624455,-0.0231364895981299,-0.00034800627704507665,19.70822041703961,0.023144556400349715,1.0,0.0,18.158695065027977,-0.8509669720612799,22.527960195728404,88.7926495699865,-0.10867357058697534,6.691812551598902,1.0,22.184772627810023,0.0,1.0,90.06169566647823,4954.428180965652,1.0,1.0,-0.9678231669464584,18.63271871862083,-0.004924025479897843,-44.29955824964862,1.0,21.59723050518147,1.0,0.016969294953411727,4.126323520968197,0.9457476951266535,1.0,-0.6114745370922305,7.1713687187045565
0.3,0.3,1.0,19.93776055731832,-0.02967833868051136,2.578083856956684,-0.0021778892219892687,-0.021585059420907667,0.0028740781066606464,20.10377310900234,0.021884202444470254,1.0,0.0,18.158695065027977,-0.8509669720612799,22.527960195728404,88.7926495699865,-0.10867357058697534,6.691812551598902,1.0,22.082118652058313,0.0,1.0,90.33207046666453,5026.21361782548,1.0,1.0,-0.006427925153708799,18.466653359827546,0.002044014257031811,-44.29814942937408,1.0,21.91274571361549,1.0,0.0060723177873788165,4.091803364298033,0.9448106091672402,1.0,0.4682548556907914,7.885628535139292
0.32999999999999996,0.32999999999999996,1.0,20.177116523441846,-0.06022663040738832,2.7708252205536,-0.002579518438566566,-0.014772025064133415,0.00274038189286099,20.366568951357912,0.015243894934989913,1.0,0.0,18.158695065027977,-0.8509669720612799,22.527960195728404,88.7926495699865,-0.10867357058697534,6.691812551598902,1.0,22.082118652058313,0.0,1.0,90.82264625611252,5065.7040781250225,1.0,1.0,-0.006427925153708799,18.466653359827546,0.002044014257031811,-44.29814942937408,1.0,21.91274571361549,1.0,0.0060723177873788165,4.091803364298033,0.9448106091672402,1.0,0.4682548556907914,7.885628535139292
0.36,0.36,1.0,20.566373246924414,0.034588196587863086,2.8587833367561792,-0.0032762320940822307,-0.01063926536111832,0.0020191243464480796,20.764140893416858,0.011313908576836122,1.0,0.0,18.158695065027977,-0.8509669720612799,22.527960195728404,88.7926495699865,-0.10867357058697534,6.691812551598902,1.0,22.9967585140629,0.0,1.0,91.32481739625122,5117.9916306548985,1.0,1.0,0.2788559222145365,18.547988500999754,0.06829026150246287,-44.335239990648084,1.0,22.231789667040644,1.0,0.010666585154342026,4.08726810149266,0.9439156819027968,1.0,-0.15607469724658987,7.120958519929304
0.39,0.39,1.0,20.835291455393662,-0.04568274072703144,3.010556535291375,-0.005841825694138306,-0.004561227743647039,0.003920131060906934,21.05171982513985,0.008384459046640832,1.0,0.0,18.158695065027977,-0.8509669720612799,22.527960195728404,88.7926495699865,-0.10867357058697534,6.691812551598902,1.0,22.9967585140629,0.0,1.0,91.47694898114705,5173.833696076549,1.0,1.0,0.2788559222145365,18.547988500999754,0.06829026150246287,-44.335239990648084,1.0,22.231789667040644,1.0,0.010666585154342026,4.08726810149266,0.9439156819027968,1.0,-0.15607469724658987,7.120958519929304
0.42,0.42,1.0,20.877549934151027,-0.033679138459204304,3.1601334225090154,-0.0018585712818854137,0.0009172655222319012,0.002793040039153462,21.11538938275578,0.0034780362143656475,1.0,0.0,38.98941757277144,0.8556037425468876,23.104733332809737,92.81659701364137,-0.015294804867982495,5.633926539805898,1.0,23.17512278658103,0.0,1.0,93.08853155336948,5276.5402993187145,1.0,1.0,1.0531214022334388,18.47894547965062,0.03138883286828727,-44.259846657252574,1.0,22.71015467279094,1.0,0.01925425322479179,4.06296276290041,0.9430595415236361,1.0,0.3656509722410135,6.9724936446065
0.44999999999999996,0.44999999999999996,1.0,20.90549152388301,0.02661219718350153,3.287311250597143,0.001256984721217443,0.005093603632749982,0.0024464048919364337,21.162388790552118,0.005788756814051565,1.0,0.0,38.98941757277144,0.8556037425468876,23.104733332809737,92.81659701364137,-0.015294804867982495,5.633926539805898,1.0,23.17512278658103,0.0,1.0,93.08071047826431,5379.492820681915,1.0,1.0,1.0531214022334388,18.47894547965062,0.03138883286828727,-44.259846657252574,1.0,22.71015467279094,1.0,0.01925425322479179,4.06296276290041,0.9430595415236361,1.0,0.3656509722410135,6.9724936446065
0.48,0.48,1.0,20.85788811341287,0.0037645634068462046,3.3819937430289033,-0.0026992416426878827,0.006189639893821573,0.005001035789227937,21.13029560610722,0.008402851089121276,1.0,0.0,38.98941757277144,0.8556037425468876,23.104733332809737,92.81659701364137,-0.015294804867982495,5.633926539805898,1.0,24.499805783600223,0.0,1.0,93.95285616984329,5354.583603083921,1.0,1.0,-0.2967447258355363,18.46689212447171,-0.0014869954209350798,-44.27424080520422,1.0,23.256456207548997,1.0,0.010891897316422204,4.080940093314158,0.9422394636750286,1.0,0.5917860301416604,7.6771959255451385
0.51,0.51,1.0,20.803544986355845,0.06379335502363075,3.5578991936112088,-0.0010813830034644605,0.009648509869405518,0.0006537668608675243,21.105691181844197,0.009730906587187347,1.0,0.0,38.98941757277144,0.8556037425468876,23.104733332809737,92.81659701364137,-0.015294804867982495,5.633926539805898,1.0,24.499805783600223,0.0,1.0,93.7101197520291,5476.32275739242,1.0,1.0,-0.2967447258355363,18.46689212447171,-0.0014869954209350798,-44.27424080520422,1.0,23.256456207548997,1.0,0.010891897316422204,4.080940093314158,0.9422394636750286,1.0,0.5917860301416604,7.6771959255451385
0.54,0.54,1.0,20.814471301521756,-0.017998878945365858,3.6435173268519256,0.0006946451388513486,0.01265950843552564,0.0018537864502411296,21.13096680307331,0.012813360601386829,1.0,0.0,38.98941757277144,0.8556037425468876,23.104733332809737,92.81659701364137,-0.015294804867982495,5.633926539805898,1.0,23.595727813429924,0.0,1.0,94.953801941099,5534.027525587459,1.0,1.0,0.6549119325280367,18.50646171342015,0.00886549838396267,-44.21952380493118,1.0,23.61250235824131,1.0,0.0006855556190874857,4.050362121960963,0.9414534204842913,1.0,-0.04601272760732944,7.173700354099338
0.57,0.57,1.0,20.788579872162902,0.0063423867793684354,3.7039997880106617,0.0013923600789651964,0.015820231573818625,-0.0019188719439345503,21.115982282544888,0.015996889171834717,1.0,0.0,38.98941757277144,0.8556037425468876,23.104733332809737,92.81659701364137,-0.015294804867982495,5.633926539805898,1.0,23.595727813429924,0.0,1.0,96.28483387783751,5651.191194702979,1.0,1.0,0.6549119325280367,18.50646171342015,0.00886549838396267,-44.21952380493118,1.0,23.61250235824131,1.0,0.0006855556190874857,4.050362121960963,0.9414534204842913,1.0,-0.04601272760732944,7.173700354099338
0.6,0.6,1.0,20.779283863538687,0.032376713823259545,3.8548537536270047,-0.004318203362077577,0.019357558395990633,0.0036847511115013017,21.13384923753762,0.02017273749604043,1.0,0.0,38.98941757277144,0.8556037425468876,23.104733332809737,92.81659701364137,-0.015294804867982495,5.633926539805898,1.0,23.9227419490808,0.0,1.0,96.54874428101145,5717.8219024152295,1.0,1.0,-2.0240979371755943,18.57555921332296,-0.03189534709139089,-44.30461342752312,1.0,23.297829602407354,1.0,0.010142128485988526,4.054848481589614,0.9406996327621602,1.0,-0.09207673853136418,7.190919001122457
0.63,0.63,1.0,20.74764626035681,0.04470117535723969,3.9596229520731416,-0.0012246171756157794,0.014298734613587782,0.005249120633984031,21.122155133001005,0.015280928185380082,1.0,0.0,57.72183555925555,-1.4409922425909596,24.33656572510427,97.25003342503392,0.11308310972516314,4.837090367482119,1.0,23.9227419490808,0.0,1.0,97.30958051041793,5761.051469336634,1.0,1.0,-2.0240979371755943,18.57555921332296,-0.03189534709139089,-44.30461342752312,1.0,23.297829602407354,1.0,0.010142128485988526,4.054848481589614,0.9406996327621602,1.0,-0.09207673853136418,7.190919001122457
0.6599999999999999,0.6599999999999999,1.0,20.646176525756143,0.017290148773274883,3.984587908921065,-0.0011711474305423628,0.01388715368335836,0.006007906432214131,21.02716920761919,0.015176282925259387,1.0,0.0,57.72183555925555,-1.4409922425909596,24.33656572510427,97.25003342503392,0.11308310972516314,4.837090367482119,1.0,23.950398919038726,0.0,1.0,98.35011645892172,5688.121034436778,1.0,1.0,-1.5938511313478896,18.668766473731353,0.028755954506727126,-44.23265808393561,1.0,24.050072705568546,1.0,0.010315866770733872,4.04968955771488,0.9399764960952445,1.0,-0.1267008498838545,7.641605480694962
0.69,0.69,1.0,20.680313667982645,0.03363542970448977,4.158823902212047,-0.0025583209490084597,0.019297303070199612,0.005822456736170149,21.09436704425832,0.020318265533894472,1.0,0.0,57.72183555925555,-1.4409922425909596,24.33656572510427,97.25003342503392,0.11308310972516314,4.837090367482119,1.0,23.950398919038726,0.0,1.0,97.5297638115406,5911.731772474168,1.0,1.0,-1.5938511313478896,18.668766473731353,0.028755954506727126,-44.23265808393561,1.0,24.050072705568546,1.0,0.010315866770733872,4.04968955771488,0.9399764960952445,1.0,-0.1267008498838545,7.641605480694962
0.72,0.72,1.0,20.61702290334908,-0.00669082393949442,4.252059738314284,0.00019985185213088974,0.01957597188917631,0.0016043868075905688,21.050930862613626,0.019642623887785256,1.0,0.0,57.72183555925555,-1.4409922425909596,24.33656572510427,97.25003342503392,0.11308310972516314,4.837090367482119,1.0,23.54379247232391,0.0,1.0,98.75726867661625,5956.810696537116,1.0,1.0,0.3768484837303645,18.61457529489624,0.019855561599341997,-44.200939925700624,1.0,24.864671460860528,1.0,0.01170282422772294,4.067188856468792,0.9392825422830479,1.0,-0.5242357622759007,6.774363523459413
0.75,0.75,1.0,20.567931174661716,0.014515266450040334,4.254272915874741,-0.001076521492685931,0.023905062267792092,0.005022520991158544,21.003305490834695,0.024450697692660228,1.0,0.0,57.72183555925555,-1.4409922425909596,24.33656572510427,97.25003342503392,0.11308310972516314,4.837090367482119,1.0,23.54379247232391,0.0,1.0,99.8916580207457,6029.67939438169,1.0,1.0,0.3768484837303645,18.61457529489624,0.019855561599341997,-44.200939925700624,1.0,24.864671460860528,1.0,0.01170282422772294,4.067188856468792,0.9392825422830479,1.0,-0.5242357622759007,6.774363523459413
0.78,0.78,1.0,20.572183039269103,-0.06235125689203752,4.368086265719386,-0.0014054130610459755,0.019999433167657836,0.0032471426677074945,21.030900606136527,0.020310008577157656,1.0,0.0,57.72183555925555,-1.4409922425909596,24.33656572510427,97.25003342503392,0.11308310972516314,4.837090367482119,1.0,23.502512388116667,0.0,1.0,100.10522799984446,6205.655853650309,1.0,1.0,0.12487139776448507,18.741860726324173,0.046494752592769584,-44.2309397212964,1.0,24.3607371575797,1.0,0.03602567327029524,4.067953751938447,0.9386164117368456,1.0,-0.45300388102848177,6.532026547468638
0.8099999999999999,0.8099999999999999,1.0,20.607644001960093,-0.013127079298257124,4.525801619142181,-0.0009501435465738939,0.02063526120706926,0.006010808271772245,21.098768777527344,0.02151386980352626,1.0,0.0,57.72183555925555,-1.4409922425909596,24.33656572510427,97.25003342503392,0.11308310972516314,4.837090367482119,1.0,23.502512388116667,0.0,1.0,99.83689976394908,6142.351250462567,1.0,1.0,0.12487139776448507,18.741860726324173,0.046494752592769584,-44.2309397212964,1.0,24.3607371575797,1.0,0.03602567327029524,4.067953751938447,0.9386164117368456,1.0,-0.45300388102848177,6.532026547468638
0.84,0.84,1.0,20.495403002581497,0.058963011417103424,4.513936348848198,-0.0006679113846992713,0.025323683332996266,0.0028429680197911604,20.98667773222801,0.02549151839983721,1.0,0.0,77.8757282775139,0.11122175816530132,24.914169397182505,101.23936878011739,0.027064162013047753,4.16844152821306,1.0,25.955583638140137,0.0,1.0,101.0068627527374,6282.144263270095,1.0,1.0,-0.14028467183937393,18.678882715751108,0.07032295292471408,-44.16574620632727,1.0,24.6376322948617,1.0,-0.008684275921518807,4.0740254965550635,0.9379768294484028,1.0,0.46257827536379287,7.4177410356437115
0.87,0.87,1.0,20.459008478943705,0.005237360214356595,4.629974680529004,-0.002525618872724711,0.021376497186925598,0.0039104025711885655,20.97636100265659,0.021877491422502247,1.0,0.0,77.8757282775139,0.11122175816530132,24.914169397182505,101.23936878011739,0.027064162013047753,4.16844152821306,1.0,25.955583638140137,0.0,1.0,101.60051774908025,6275.940013664088,1.0,1.0,-0.14028467183937393,18.678882715751108,0.07032295292471408,-44.16574620632727,1.0,24.6376322948617,1.0,-0.008684275921518807,4.0740254965550635,0.9379768294484028,1.0,0.46257827536379287,7.4177410356437115
0.8999999999999999,0.8999999999999999,1.0,20.489910988459652,-0.0012263037117538258,4.661261097134842,-0.0011206842302121673,0.02188409305645454,0.005834824710516444,21.013419732030364,0.022676301317672187,1.0,0.0,77.8757282775139,0.11122175816530132,24.914169397182505,101.23936878011739,0.027064162013047753,4.16844152821306,1.0,25.041053193016843,0.0,1.0,101.89893240994869,6544.779573855005,1.0,1.0,-1.897871364068235,18.899547903194932,-0.005584384172845042,-44.09357471052619,1.0,25.195228862690307,1.0,0.007895185349347425,4.0766669535622855,0.9373625866202074,1.0,0.08436019139401803,6.684101471307263
0.9299999999999999,0.9299999999999999,1.0,20.43233774123246,-0.028655520785477794,4.725850924039255,-0.0021472284649980966,0.023162419611841116,5.684308327266437e-06,20.971764676986687,0.023261734773383974,1.0,0.0,77.8757282775139,0.11122175816530132,24.914169397182505,101.23936878011739,0.027064162013047753,4.16844152821306,1.0,25.041053193016843,0.0,1.0,102.90529435584875,6447.094481911724,1.0,1.0,-1.897871364068235,18.899547903194932,-0.005584384172845042,-44.09357471052619,1.0,25.195228862690307,1.0,0.007895185349347425,4.0766669535622855,0.9373625866202074,1.0,0.08436019139401803,6.684101471307263
0.96,0.96,1.0,20.40516720915947,0.04398556809261027,4.873983554940075,0.004681236570705371,0.02164044485688083,-0.000308378503877015,20.979239720680624,0.022143123689675377,1.0,0.0,77.8757282775139,0.11122175816530132,24.914169397182505,101.23936878011739,0.027064162013047753,4.16844152821306,1.0,25.008563845263897,0.0,1.0,103.10932792798678,6573.415998151849,1.0,1.0,0.44579760218430975,18.927106111815473,0.04886767136375331,-44.14433557458444,1.0,25.44013763875079,1.0,0.01610917294801411,4.074255500084911,0.9367725256004685,1.0,-0.39386103634971453,6.6102996648957815
0.99,0.99,1.0,20.47831476270968,0.027738265456095517,4.94208955432472,-0.002297316030988805,0.022327938583031566,0.005172956810643803,21.066238252116804,0.023034191639357653,1.0,0.0,77.8757282775139,0.11122175816530132,24.914169397182505,101.23936878011739,0.027064162013047753,4.16844152821306,1.0,25.008563845263897,0.0,1.0,103.50939142424703,6589.931795659777,1.0,1.0,0.44579760218430975,18.927106111815473,0.04886767136375331,-44.14433557458444,1.0,25.44013763875079,1.0,0.01610917294801411,4.074255500084911,0.9367725256004685,1.0,-0.39386103634971453,6.6102996648957815
1.02,1.02,1.0,20.361227857148773,0.00041854475192732365,5.034528128944626,-0.002562534454519377,0.02282884042670855,0.0027659337890006126,20.974414735745206,0.023138127145122547,1.0,0.0,77.8757282775139,0.11122175816530132,24.914169397182505,101.23936878011739,0.027064162013047753,4.16844152821306,1.0,25.34719937419569,0.0,1.0,104.95576189208917,6829.513583210054,1.0,1.0,0.337585544683141,18.931645862349068,0.004602076615360714,-44.089410767976574,1.0,25.576679125030573,1.0,0.011892684542973826,4.1225988892350225,0.9362055280268784,1.0,-0.3480164546596903,6.406904545553925
1.05,1.05,1.0,20.393854154512972,0.0279446272313286,5.077763364126975,-0.0022461068729463947,0.023300681614052805,0.0017757659910673696,21.016511341319404,0.02347594736361425,1.0,0.0,100.96564356311677,-0.5099845313707293,25.089682216612257,105.48841246922503,-0.08219125968841678,3.6558117329386186,1.0,25.34719937419569,0.0,1.0,105.01317610500898,6686.253300668099,1.0,1.0,0.337585544683141,18.931645862349068,0.004602076615360714,-44.089410767976574,1.0,25.576679125030573,1.0,0.011892684542973826,4.1225988892350225,0.9362055280268784,1.0,-0.3480164546596903,6.406904545553925
1.08,1.08,1.0,20.30590088331517,-0.017045457195080247,5.221598956888024,-0.0010348404558076616,0.021757910549977968,0.003736074275532927,20.966520858196883,0.022100584093234225,1.0,0.0,100.96564356311677,-0.5099845313707293,25.089682216612257,105.48841246922503,-0.08219125968841678,3.6558117329386186,1.0,26.153611721880257,0.0,1.0,105.77337046536991,6851.099902342001,1.0,1.0,0.8638900935016512,19.0184591633711,0.006546516306111541,-44.02064644769612,1.0,25.680439384012818,1.0,0.0037215474772512884,4.115973843736897,0.935660505491045,1.0,-0.9261547002782451,6.749577848134903
1.1099999999999999,1.1099999999999999,1.0,20.340523132564645,-0.044628077622880895,5.271819226308242,-0.0024301458416485914,0.022076359472667145,0.005094972745774185,21.012637885962413,0.022786618960659435,1.0,0.0,100.96564356311677,-0.5099845313707293,25.089682216612257,105.48841246922503,-0.08219125968841678,3.6558117329386186,1.0,26.153611721880257,0.0,1.0,107.06268204737678,6977.935004565911,1.0,1.0,0.8638900935016512,19.0184591633711,0.006546516306111541,-44.02064644769612,1.0,25.680439384012818,1.0,0.0037215474772512884,4.115973843736897,0.935660505491045,1.0,-0.9261547002782451,6.749577848134903
1.14,1.14,1.0,20.289446443383966,0.012837547580053312,5.29307562619036,-0.00019995007969173992,0.017769346475666702,0.004302230789613415,20.968510947755554,0.01828384106181617,1.0,0.0,100.96564356311677,-0.5099845313707293,25.089682216612257,105.48841246922503,-0.08219125968841678,3.6558117329386186,1.0,26.664444059201525,0.0,1.0,106.9039314795453,6949.570816983864,1.0,1.0,-0.6145830785300501,19.08773755946482,0.09971269814882633,-44.09033709230796,1.0,25.999827059210595,1.0,0.012475463565352427,4.1256532096385445,0.9351363920696225,1.0,-0.326508631883656,6.899131474601702
1.17,1.17,1.0,20.199775709634523,-0.019045694155344503,5.320876487193746,-0.0025884892079277425,0.023136925736763125,0.0013224885196504175,20.888825434906053,0.023318803245721196,1.0,0.0,100.96564356311677,-0.5099845313707293,25.089682216612257,105.48841246922503,-0.08219125968841678,3.6558117329386186,1.0,26.664444059201525,0.0,1.0,107.77930379010873,7008.617906912299,1.0,1.0,-0.6145830785300501,19.08773755946482,0.09971269814882633,-44.09033709230796,1.0,25.999827059210595,1.0,0.012475463565352427,4.1256532096385445,0.9351363920696225,1.0,-0.326508631883656,6.899131474601702
1.2,1.2,1.0,20.172750725279542,0.06888185722598726,5.518362785555727,-0.0017241414436365338,0.02017074069698517,0.001439849807656029,20.914037017456184,0.020295433265916894,1.0,0.0,100.96564356311677,-0.5099845313707293,25.089682216612257,105.48841246922503,-0.08219125968841678,3.6558117329386186,1.0,26.835097492359147,0.0,1.0,107.6967131197262,7193.638696012394,1.0,1.0,2.216986460827596,19.123180518791223,0.1213171047349842,-44.02602716660056,1.0,26.39202531067266,1.0,0.009044350539304047,4.131754869399686,0.9346321385058376,1.0,-0.24814695481377386,6.13445638599187
1.23,1.23,1.0,20.220957829523275,0.006172364709773152,5.516324794045637,-0.0010222391052615524,0.021164688996358205,0.005069684191647449,20.959890574018925,0.02178739844276806,1.0,0.0,100.96564356311677,-0.5099845313707293,25.089682216612257,105.48841246922503,-0.08219125968841678,3.6558117329386186,1.0,26.835097492359147,0.0,1.0,109.21368975295107,7284.892081828454,1.0,1.0,2.216986460827596,19.123180518791223,0.1213171047349842,-44.02602716660056,1.0,26.39202531067266,1.0,0.009044350539304047,4.131754869399686,0.9346321385058376,1.0,-0.24814695481377386,6.13445638599187
1.26,1.26,1.0,20.211259576516746,0.018269713381114494,5.580495211009605,-0.003058194295861849,0.020604464870298073,0.0023611303227048745,20.96752904497495,0.020963574631808042,1.0,0.0,120.35210876810068,-0.978071119386242,28.257804011436782,109.52943651240574,-0.06731321849367067,3.1699068029422177,1.0,25.615486407088998,0.0,1.0,110.05943477398537,7430.431627353921,1.0,1.0,1.1249929076538712,19.22156067754841,0.060013866971636076,-43.948203206014135,1.0,26.715056021927968,1.0,0.010244839426294537,4.14369635321061,0.9341467077168003,1.0,-0.2983444414327505,6.333979845369188
1.29,1.29,1.0,20.200483520074293,-0.03850059619878944,5.663543663229411,-0.005472393630010402,0.018525524476281044,0.0021913074219158703,20.979436207057773,0.019440781295524366,1.0,0.0,120.35210876810068,-0.978071119386242,28.257804011436782,109.52943651240574,-0.06731321849367067,3.1699068029422177,1.0,25.615486407088998,0.0,1.0,109.95705486196434,7327.461291122259,1.0,1.0,1.1249929076538712,19.22156067754841,0.060013866971636076,-43.948203206014135,1.0,26.715056021927968,1.0,0.010244839426294537,4.14369635321061,0.9341467077168003,1.0,-0.2983444414327505,6.333979845369188
1.3199999999999998,1.3199999999999998,1.0,20.08100314449465,0.04732594829283885,5.732176137485423,-0.002539542783729935,0.02153537023718647,0.0028218453177999816,20.8831695464492,0.021867424626614843,1.0,0.0,120.35210876810068,-0.978071119386242,28.257804011436782,109.52943651240574,-0.06731321849367067,3.1699068029422177,1.0,26.375080319169022,0.0,1.0,111.15038219364476,7365.5166988663295,1.0,1.0,1.8635612666240116,19.188177946965006,0.008539570041062934,-43.91443714670529,1.0,26.525518314057102,1.0,0.023169204494018637,4.150645244069297,0.9336790713572692,1.0,-0.866201478600206,6.514534238778012
1.3499999999999999,1.3499999999999999,1.0,20.124102912651743,-0.07087909116310305,5.818133430010834,-0.004234416941733839,0.02061830050835199,0.0027474177350812258,20.948394174589424,0.021227173785037644,1.0,0.0,120.35210876810068,-0.978071119386242,28.257804011436782,109.52943651240574,-0.06731321849367067,3.1699068029422177,1.0,26.375080319169022,0.0,1.0,110.43461993584935,7536.439461512203,1.0,1.0,1.8635612666240116,19.188177946965006,0.008539570041062934,-43.91443714670529,1.0,26.525518314057102,1.0,0.023169204494018637,4.150645244069297,0.9336790713572692,1.0,-0.866201478600206,6.514534238778012
1.38,1.38,1.0,20.053067425184974,0.029275428271621162,5.868860965436615,-0.001202538697360765,0.018749671894257317,0.0048483818005931375,20.894255173165202,0.01940368783363811,1.0,0.0,120.35210876810068,-0.978071119386242,28.257804011436782,109.52943651240574,-0.06731321849367067,3.1699068029422177,1.0,26.550702869519743,0.0,1.0,111.73951850712606,7745.241635420305,1.0,1.0,0.18833967687051856,19.250046811554274,0.00640864171294267,-43.95881022485447,1.0,26.886713823178866,1.0,0.009556156952413419,4.180657084310532,0.9332282072260503,1.0,-0.21647968869740758,6.910777926909025
1.41,1.41,1.0,20.11923761961333,-0.06245312016106472,5.874366298686019,-0.006081997597998138,0.01482140514903469,0.002061881027878473,20.95938458537894,0.01615289753409624,1.0,0.0,120.35210876810068,-0.978071119386242,28.257804011436782,109.52943651240574,-0.06731321849367067,3.1699068029422177,1.0,26.550702869519743,0.0,1.0,112.36992406268948,7642.3148960300105,1.0,1.0,0.18833967687051856,19.250046811554274,0.00640864171294267,-43.95881022485447,1.0,26.886713823178866,1.0,0.009556156952413419,4.180657084310532,0.9332282072260503,1.0,-0.21647968869740758,6.910777926909025
1.44,1.44,1.0,20.125398083029506,0.04232473515856629,5.9565450878987685,-0.0023469827125646185,0.017382603197218394,0.004469708721057805,20.98842225532412,0.018100870636964524,1.0,0.0,120.35210876810068,-0.978071119386242,28.257804011436782,109.52943651240574,-0.06731321849367067,3.1699068029422177,1.0,27.196552244282714,0.0,1.0,113.29834587971277,7676.897280347687,1.0,1.0,1.619830415070264,19.312334696807355,0.08495869476751564,-43.919762965918494,1.0,26.69114661778403,1.0,0.017330370648454198,4.200584556292071,0.9327930973712606,1.0,-0.4612639117762575,5.886894087623716
1.47,1.47,1.0,19.987297718354025,0.0007236874428859855,6.0814663002879525,-0.001904669918753973,0.01776783071107367,0.002452963854172295,20.892015292148855,0.01803720065161595,1.0,0.0,145.79582112956064,-1.218641058747695,26.759906680159112,113.8243538402034,-0.06713712159204765,3.1890046356918034,1.0,27.196552244282714,0.0,1.0,113.3138633323486,7927.377701339171,1.0,1.0,1.619830415070264,19.312334696807355,0.08495869476751564,-43.919762965918494,1.0,26.69114661778403,1.0,0.017330370648454198,4.200584556292071,0.9327930973712606,1.0,-0.4612639117762575,5.886894087623716
1.5,1.5,1.0,20.02016895690782,-0.04237061823018172,6.103756204727389,-0.001917389212679557,0.01769569058385864,0.004286318472919563,20.929997614409157,0.01830809582353814,1.0,0.0,145.79582112956064,-1.218641058747695,26.759906680159112,113.8243538402034,-0.06713712159204765,3.1890046356918034,1.0,26.95292468498304,0.0,1.0,114.33706306329061,8046.587083322345,1.0,1.0,-1.003308327627503,19.404145930762944,0.0772772310713875,-43.86863825703709,1.0,27.043497934959717,1.0,0.012282389685295395,4.200631050201801,0.9323727267258872,1.0,0.18034903396303725,6.290093796761814
1.53,1.53,1.0,19.986456667014046,0.012903053865234108,6.243757857803545,0.0016538729996750058,0.014529757857118531,0.0037320843276957044,20.939033616146492,0.015092303095107241,1.0,0.0,145.79582112956064,-1.218641058747695,26.759906680159112,113.8243538402034,-0.06713712159204765,3.1890046356918034,1.0,26.95292468498304,0.0,1.0,114.77531418369001,7938.996192223247,1.0,1.0,-1.003308327627503,19.404145930762944,0.0772772310713875,-43.86863825703709,1.0,27.043497934959717,1.0,0.012282389685295395,4.200631050201801,0.9323727267258872,1.0,0.18034903396303725,6.290093796761814
1.56,1.56,1.0,19.982218706567835,0.08007664798675601,6.241540815193415,-0.00037401230646765915,0.017284681418824013,0.0012364001375573554,20.93447655076161,0.01733288153354142,1.0,0.0,145.79582112956064,-1.218641058747695,26.759906680159112,113.8243538402034,-0.06713712159204765,3.1890046356918034,1.0,27.182209976282426,0.0,1.0,115.07895203244213,8020.582241142274,1.0,1.0,0.9981270126526917,19.374290846976137,-0.034443887778708486,-43.86868811301152,1.0,27.304220054236833,1.0,0.013998083766119307,4.219297351212587,0.9319660821991872,1.0,-0.30685271723325097,5.290765466977819
1.5899999999999999,1.5899999999999999,1.0,19.887446987186724,-0.009084121672352077,6.340335417638348,-0.001862484758785044,0.013135132565607777,0.004464950571588889,20.87367920127135,0.01399772626534497,1.0,0.0,145.79582112956064,-1.218641058747695,26.759906680159112,113.8243538402034,-0.06713712159204765,3.1890046356918034,1.0,27.182209976282426,0.0,1.0,115.75712654182547,8153.612911395044,1.0,1.0,0.9981270126526917,19.374290846976137,-0.034443887778708486,-43.86868811301152,1.0,27.304220054236833,1.0,0.013998083766119307,4.219297351212587,0.9319660821991872,1.0,-0.30685271723325097,5.290765466977819
1.6199999999999999,1.6199999999999999,1.0,19.958275775589996,-0.02180513297661772,6.420658669032498,-0.0024613149511503443,0.013101382374464642,0.0021362745508671805,20.965641062045986,0.013500665182403856,1.0,0.0,145.79582112956064,-1.218641058747695,26.759906680159112,113.8243538402034,-0.06713712159204765,3.1890046356918034,1.0,27.895400975800285,0.0,1.0,116.81841625524541,8327.529032068838,1.0,1.0,0.4859967578002202,19.4289680587099,0.1350349009154261,-43.93904495840958,1.0,27.18164599995757,1.0,0.014140069597478253,4.23515552397975,0.9315721521261926,1.0,0.07232028669438702,5.561143144995381
1.65,1.65,1.0,19.815865895876684,-0.011057431322470165,6.429372733024954,-0.002773535690197936,0.01874086188063331,0.0022085717726695797,20.83279859285163,0.019073284812239587,1.0,0.0,145.79582112956064,-1.218641058747695,26.759906680159112,113.8243538402034,-0.06713712159204765,3.1890046356918034,1.0,27.895400975800285,0.0,1.0,117.37012855999073,8267.472832815693,1.0,1.0,0.4859967578002202,19.4289680587099,0.1350349009154261,-43.93904495840958,1.0,27.18164599995757,1.0,0.014140069597478253,4.23515552397975,0.9315721521261926,1.0,0.07232028669438702,5.561143144995381
1.68,1.68,1.0,19.917200530368273,0.023039546061511047,6.631293933945301,-0.0021050755485472524,0.014288049283782732,0.005331160771203099,20.99212869210659,0.015394835840934148,1.0,0.0,169.3871063071539,0.13910697867103167,25.704911735941494,117.39880369201565,-0.04292397226006561,2.5321192146427345,1.0,28.119947334080656,0.0,1.0,117.969721574718,8421.158805117368,1.0,1.0,0.4405331473818342,19.473530189046144,-0.0035526253220151197,-43.850534268028724,1.0,27.702490087490457,1.0,0.007631483181503943,4.247634206934749,0.9311899259875086,1.0,-0.09001667267712049,5.8552605937847035
1.71,1.71,1.0,19.723150974997793,-0.0002529796620245918,6.612230902011509,-0.0023157577060675142,0.01185415218142141,0.004071265482661408,20.80202590970579,0.012745935050980735,1.0,0.0,169.3871063071539,0.13910697867103167,25.704911735941494,117.39880369201565,-0.04292397226006561,2.5321192146427345,1.0,28.119947334080656,0.0,1.0,118.10681076866443,8640.76776286602,1.0,1.0,0.4405331473818342,19.473530189046144,-0.0035526253220151197,-43.850534268028724,1.0,27.702490087490457,1.0,0.007631483181503943,4.247634206934749,0.9311899259875086,1.0,-0.09001667267712049,5.8552605937847035
1.74,1.74,1.0,19.752753017485357,0.08714943411177475,6.619500015186111,-0.0013329737758595922,0.016600302559982988,0.0018976546490674243,20.83258570712459,0.01676150223987201,1.0,0.0,169.3871063071539,0.13910697867103167,25.704911735941494,117.39880369201565,-0.04292397226006561,2.5321192146427345,1.0,27.642316313870687,0.0,1.0,118.6410414378157,8509.184349389441,1.0,1.0,0.597615987161171,19.485042213094754,0.07156239839233391,-43.825183157319934,1.0,28.003016935671692,1.0,0.01777000058505382,4.280603419229012,0.930818394346107,1.0,-0.2822971821420103,5.977311731752185
1.77,1.77,1.0,19.762126483661085,0.033069035380485425,6.807936501990216,-0.005130285340820939,0.011607035399000598,0.0009505448790483287,20.901931397180753,0.012725825474167882,1.0,0.0,169.3871063071539,0.13910697867103167,25.704911735941494,117.39880369201565,-0.04292397226006561,2.5321192146427345,1.0,27.642316313870687,0.0,1.0,119.5252422551993,8753.507858407502,1.0,1.0,0.597615987161171,19.485042213094754,0.07156239839233391,-43.825183157319934,1.0,28.003016935671692,1.0,0.01777000058505382,4.280603419229012,0.930818394346107,1.0,-0.2822971821420103,5.977311731752185
1.7999999999999998,1.7999999999999998,1.0,19.759202594479714,0.004090001126317494,6.836183127718229,-0.0038080623699781237,0.010493167885954401,0.00451058623110534,20.908359659559675,0.012039655287619544,1.0,0.0,169.3871063071539,0.13910697867103167,25.704911735941494,117.39880369201565,-0.04292397226006561,2.5321192146427345,1.0,28.148349049586074,0.0,1.0,119.64002981551309,8584.022938684977,1.0,1.0,-2.0028453584372716,19.503545230625765,0.0774110166673108,-43.80687333925657,1.0,27.8335657577775,1.0,-0.010521121093630072,4.2978356162640186,0.9304565489879593,1.0,-0.45554710135381643,5.855472653322388
1.8299999999999998,1.8299999999999998,1.0,19.70724482702954,0.059548633381395225,6.917051414318107,-0.0033386704325472985,0.014676533018021755,0.004039042639595907,20.885991596774627,0.015584004848905887,1.0,0.0,169.3871063071539,0.13910697867103167,25.704911735941494,117.39880369201565,-0.04292397226006561,2.5321192146427345,1.0,28.148349049586074,0.0,1.0,120.0004338398571,8905.980903307165,1.0,1.0,-2.0028453584372716,19.503545230625765,0.0774110166673108,-43.80687333925657,1.0,27.8335657577775,1.0,-0.010521121093630072,4.2978356162640186,0.9304565489879593,1.0,-0.45554710135381643,5.855472653322388
1.8599999999999999,1.8599999999999999,1.0,19.71405510586715,0.012600496777374359,6.943837322636592,-0.005557902316004594,0.00968502113275828,0.003974968951560287,20.901220161821332,0.0118528600203534,1.0,0.0,169.3871063071539,0.13910697867103167,25.704911735941494,117.39880369201565,-0.04292397226006561,2.5321192146427345,1.0,28.22302008381816,0.0,1.0,120.80610188552193,8955.864903332256,1.0,1.0,-0.12124523371052115,19.578177277097314,0.08731635580741702,-43.799771364683124,1.0,27.84203634127631,1.0,0.018056846606865594,4.311359734740979,0.9301033831700872,1.0,-0.16361527104069984,6.32766065849293
1.89,1.89,1.0,19.661919513251064,0.021292898914011902,7.039960599376386,-0.005243834660395342,0.012297428121550014,0.0035826602831210094,20.884266268506515,0.013840520042776765,1.0,0.0,195.9133080669877,0.6341789128423527,28.32338565830679,121.7205015716858,0.0836151846688755,2.097259635058947,1.0,28.22302008381816,0.0,1.0,121.6357882750794,8931.976368378737,1.0,1.0,-0.12124523371052115,19.578177277097314,0.08731635580741702,-43.799771364683124,1.0,27.84203634127631,1.0,0.018056846606865594,4.311359734740979,0.9301033831700872,1.0,-0.16361527104069984,6.32766065849293
1.92,1.92,1.0,19.696148467214044,0.030589788908745356,7.080137271824879,-0.003642472713867631,0.00786206758182601,0.004489718476620065,20.93006316200712,0.009758959275034059,1.0,0.0,195.9133080669877,0.6341789128423527,28.32338565830679,121.7205015716858,0.0836151846688755,2.097259635058947,1.0,27.229271699031607,0.0,1.0,122.20757951904336,9087.383338284313,1.0,1.0,0.30262358834157166,19.590709982072095,0.1374556862761841,-43.88806582209945,1.0,27.871827332576018,1.0,-0.00015156611004315396,4.345292641754554,0.9297578919811221,1.0,-0.19949099670486325,6.660616812652837
1.95,1.95,1.0,19.660358669964328,0.0013783040901516226,7.1612344403365205,-0.00345728993388531,0.013740325772509549,0.004271393609385368,20.923981065772967,0.01479845293900457,1.0,0.0,195.9133080669877,0.6341789128423527,28.32338565830679,121.7205015716858,0.0836151846688755,2.097259635058947,1.0,27.229271699031607,0.0,1.0,122.3663355668862,9256.156095690856,1.0,1.0,0.30262358834157166,19.590709982072095,0.1374556862761841,-43.88806582209945,1.0,27.871827332576018,1.0,-0.00015156611004315396,4.345292641754554,0.9297578919811221,1.0,-0.19949099670486325,6.660616812652837
1.98,1.98,1.0,19.64307575152885,0.055710126973540386,7.202860383734333,-0.006038856454687097,0.014777795657876003,0.00417986644992692,20.922110942878533,0.016502191227999983,1.0,0.0,195.9133080669877,0.6341789128423527,28.32338565830679,121.7205015716858,0.0836151846688755,2.097259635058947,1.0,28.968417068201955,0.0,1.0,123.33326203743246,9355.965499470627,1.0,1.0,0.5179760050259941,19.603929650014184,0.04787055562649799,-43.775616719584605,1.0,28.154812488569377,1.0,0.015285323252209748,4.361837218586662,0.9294190728103768,1.0,0.2845995628081454,5.147833493761781
2.01,2.01,1.0,19.559629576548744,0.0418027173348659,7.315990902789718,-0.0037201162960964,0.01156935711718155,0.004274015461983755,20.883117093209023,0.012882410392882133,1.0,0.0,195.9133080669877,0.6341789128423527,28.32338565830679,121.7205015716858,0.0836151846688755,2.097259635058947,1.0,28.968417068201955,0.0,1.0,123.93339566988092,9379.759470070308,1.0,1.0,0.5179760050259941,19.603929650014184,0.04787055562649799,-43.775616719584605,1.0,28.154812488569377,1.0,0.015285323252209748,4.361837218586662,0.9294190728103768,1.0,0.2845995628081454,5.147833493761781
2.04,2.04,1.0,19.529196693260833,0.043465536055533056,7.34803463296998,-0.002771110436484453,0.008374382632369053,0.002824587197531761,20.865881857813264,0.009262161214369884,1.0,0.0,195.9133080669877,0.6341789128423527,28.32338565830679,121.7205015716858,0.0836151846688755,2.097259635058947,1.0,27.28652737045337,0.0,1.0,124.25474883783987,9534.88571325628,1.0,1.0,0.8186331858000548,19.669559293709955,0.10614379348279361,-43.76514005042628,1.0,28.141167052028596,1.0,0.008630441086391988,4.375116931946714,0.9290859258586466,1.0,-0.0619359105352593,5.9442556230757635
2.07,2.07,1.0,19.46732850405845,0.05779713466827066,7.410524046011951,-0.0042356884378113475,0.00821846474447093,0.0026782275198121656,20.83017249641068,0.009625856946069768,1.0,0.0,195.9133080669877,0.6341789128423527,28.32338565830679,121.7205015716858,0.0836151846688755,2.097259635058947,1.0,27.28652737045337,0.0,1.0,125.37102728236422,9611.236918598652,1.0,1.0,0.8186331858000548,19.669559293709955,0.10614379348279361,-43.76514005042628,1.0,28.141167052028596,1.0,0.008630441086391988,4.375116931946714,0.9290859258586466,1.0,-0.0619359105352593,5.9442556230757635
2.1,2.1,1.0,19.50320570739301,0.0411313926614105,7.456522907704548,-0.007036254021830779,0.0087849846571252,0.006458051416419801,20.88004929422994,0.01297656557733119,1.0,0.0,220.70789223950683,-0.8329555025130811,27.7019628231817,125.39512920279738,-0.023238865289105293,2.0900094528927258,1.0,28.88649377472049,0.0,1.0,125.73624932292458,9769.530599864227,1.0,1.0,0.18253902350822046,19.62408824937086,0.06884542171349402,-43.809050617655366,1.0,28.324139327653782,1.0,0.026716874499958684,4.38149058478283,0.9287574546912737,1.0,-0.2889698401666914,6.353472318680917
2.13,2.13,1.0,19.44137087912611,0.0006786703566967339,7.5475841041517,-0.007641891204874646,0.007821308325032193,0.0062679595523330274,20.855045622811993,0.012603915346115317,1.0,0.0,220.70789223950683,-0.8329555025130811,27.7019628231817,125.39512920279738,-0.023238865289105293,2.0900094528927258,1.0,28.88649377472049,0.0,1.0,125.5248177322306,9730.091646379933,1.0,1.0,0.18253902350822046,19.62408824937086,0.06884542171349402,-43.809050617655366,1.0,28.324139327653782,1.0,0.026716874499958684,4.38149058478283,0.9287574546912737,1.0,-0.2889698401666914,6.353472318680917
2.16,2.16,1.0,19.417508848737832,0.04064964144463648,7.562990885665581,-0.006609897562494258,0.010939623330335706,0.00429489504691306,20.838429245526694,0.01348377646878986,1.0,0.0,220.70789223950683,-0.8329555025130811,27.7019628231817,125.39512920279738,-0.023238865289105293,2.0900094528927258,1.0,28.916436795836844,0.0,1.0,126.07033429149668,9750.851157078663,1.0,1.0,-0.8519498205344018,19.731426477676717,0.1153068827854396,-43.73672654916348,1.0,28.469709994447193,1.0,0.023561192308507138,4.404255771700115,0.9284326668269742,1.0,0.13676943164789954,5.666024580406439
2.19,2.19,1.0,19.39082672845343,-0.02684272358199396,7.672332368018957,-0.0025634358228526976,0.010141317339801918,0.0026345962726506368,20.853526457413974,0.010786965195286215,1.0,0.0,220.70789223950683,-0.8329555025130811,27.7019628231817,125.39512920279738,-0.023238865289105293,2.0900094528927258,1.0,28.916436795836844,0.0,1.0,126.47142012886616,9619.185704819389,1.0,1.0,-0.8519498205344018,19.731426477676717,0.1153068827854396,-43.73672654916348,1.0,28.469709994447193,1.0,0.023561192308507138,4.404255771700115,0.9284326668269742,1.0,0.13676943164789954,5.666024580406439
2.2199999999999998,2.2199999999999998,1.0,19.357034833763123,0.005916428358934661,7.703465696938374,-0.004241390025853675,0.007807654790750273,0.004165520254170767,20.833583856445575,0.009813277825010541,1.0,0.0,220.70789223950683,-0.8329555025130811,27.7019628231817,125.39512920279738,-0.023238865289105293,2.0900094528927258,1.0,28.806297172416105,0.0,1.0,127.75435430105303,10017.787483048132,1.0,1.0,1.443710367200127,19.715488716669928,0.09278496522004018,-43.750989358474165,1.0,28.947885909138876,1.0,0.02578471717811529,4.421372759267981,0.9281105743461895,1.0,0.22680563618802815,5.867141485329854
2.25,2.25,1.0,19.33545993222054,0.0029334674372331337,7.808424444329155,-0.0034604983191992124,0.006821708671338159,0.006241079876387805,20.852614025549272,0.009872276122416939,1.0,0.0,220.70789223950683,-0.8329555025130811,27.7019628231817,125.39512920279738,-0.023238865289105293,2.0900094528927258,1.0,28.806297172416105,0.0,1.0,128.68193268798709,10154.407503608343,1.0,1.0,1.443710367200127,19.715488716669928,0.09278496522004018,-43.750989358474165,1.0,28.947885909138876,1.0,0.02578471717811529,4.421372759267981,0.9281105743461895,1.0,0.22680563618802815,5.867141485329854
2.28,2.28,1.0,19.413825546858,0.05791008690294751,7.863709027236002,-0.004060397656458354,0.008289022740566233,0.006685194945923737,20.94607112579909,0.011396778430205657,1.0,0.0,220.70789223950683,-0.8329555025130811,27.7019628231817,125.39512920279738,-0.023238865289105293,2.0900094528927258,1.0,29.514648826170326,0.0,1.0,129.46162803417883,10130.82776756213,1.0,1.0,1.107750879592235,19.750213643503965,0.09871817180056741,-43.67768440380373,1.0,28.448047383177087,1.0,0.01514115655683054,4.441750505197089,0.9277901945104989,1.0,-0.9336538029564146,5.750659076930425
2.31,2.31,1.0,19.409621872124823,0.04998339298336438,7.9146516415330455,-0.005223313034128338,0.006939549933151394,0.003968451255256609,20.961336554839775,0.009549290952345324,1.0,0.0,248.831249327132,0.5118103766258753,29.321895985341975,129.30986835536197,0.4540828729849193,1.9971947768039213,1.0,29.514648826170326,0.0,1.0,129.71809749001068,10207.858491742343,1.0,1.0,1.107750879592235,19.750213643503965,0.09871817180056741,-43.67768440380373,1.0,28.448047383177087,1.0,0.01514115655683054,4.441750505197089,0.9277901945104989,1.0,-0.9336538029564146,5.750659076930425
2.34,2.34,1.0,19.306939440828767,0.05740578490119077,7.886933395868305,-0.005251296460899365,0.009018834800454328,0.004351227698049451,20.855812724198316,0.011307018977538377,1.0,0.0,248.831249327132,0.5118103766258753,29.321895985341975,129.30986835536197,0.4540828729849193,1.9971947768039213,1.0,29.09010996981922,0.0,1.0,129.86651870805676,10126.940840147468,1.0,1.0,1.2560696065344508,19.770535011557843,0.07100380548011202,-43.686036263097535,1.0,29.163462763676986,1.0,0.02254167429164115,4.4593631629087715,0.9274705503867713,1.0,-0.04445576361640077,5.386403246116866
2.37,2.37,1.0,19.224960575377814,0.093847600291456,8.0270896800007,-0.003970985020327054,0.008376222654613201,0.001543471416474752,20.833676709301347,0.009397453485109243,1.0,0.0,248.831249327132,0.5118103766258753,29.321895985341975,129.30986835536197,0.4540828729849193,1.9971947768039213,1.0,29.09010996981922,0.0,1.0,130.71454152839394,10372.739347424746,1.0,1.0,1.2560696065344508,19.770535011557843,0.07100380548011202,-43.686036263097535,1.0,29.163462763676986,1.0,0.02254167429164115,4.4593631629087715,0.9274705503867713,1.0,-0.04445576361640077,5.386403246116866
2.4,2.4,1.0,19.251452833994758,0.025653297474754186,8.153227630440577,-0.006784107993635454,0.003785918116317568,0.008640030472058892,20.906798298758606,0.011619269504184685,1.0,0.0,248.831249327132,0.5118103766258753,29.321895985341975,129.30986835536197,0.4540828729849193,1.9971947768039213,1.0,30.365956371966902,0.0,1.0,130.43092370974273,10529.037006817009,1.0,1.0,-0.8381193465414483,19.84249648084891,0.1168398921652291,-43.77025363873807,1.0,28.960517450169508,1.0,0.026129455200641517,4.477740356655655,0.9271506714699091,1.0,0.20756070219214987,6.006858781102568
2.4299999999999997,2.4299999999999997,1.0,19.22241032338539,0.09147488288312762,8.105233994812249,-0.004657091858412641,0.009560895601760332,0.0025670783016713407,20.86154942484982,0.010940252295644977,1.0,0.0,248.831249327132,0.5118103766258753,29.321895985341975,129.30986835536197,0.4540828729849193,1.9971947768039213,1.0,30.365956371966902,0.0,1.0,131.86355834228584,10603.345988037523,1.0,1.0,-0.8381193465414483,19.84249648084891,0.1168398921652291,-43.77025363873807,1.0,28.960517450169508,1.0,0.026129455200641517,4.477740356655655,0.9271506714699091,1.0,0.20756070219214987,6.006858781102568
2.46,2.46,1.0,19.14244762399531,0.07257080184406993,8.247999693619603,-0.006298031321993335,0.0037042397037439947,0.001471924245995856,20.843897584296297,0.007453398640992777,1.0,0.0,248.831249327132,0.5118103766258753,29.321895985341975,129.30986835536197,0.4540828729849193,1.9971947768039213,1.0,28.717399350967124,0.0,1.0,132.0259905853087,10633.546199738512,1.0,1.0,2.4988837827991692,19.859378500700295,0.09600668105752452,-43.62213517187408,1.0,29.01115673797506,1.0,0.01458193938102318,4.500896198690042,0.9268296025078908,1.0,0.4580437854761136,5.535152209875606
2.4899999999999998,2.4899999999999998,1.0,19.223320917193586,0.08098198972261009,8.307998831351442,-0.008320705852815347,0.0003377376213612882,0.0041062924164097766,20.941954773845943,0.009284925955494896,1.0,0.0,248.831249327132,0.5118103766258753,29.321895985341975,129.30986835536197,0.4540828729849193,1.9971947768039213,1.0,28.717399350967124,0.0,1.0,132.55284394122015,10672.650365474028,1.0,1.0,2.4988837827991692,19.859378500700295,0.09600668105752452,-43.62213517187408,1.0,29.01115673797506,1.0,0.01458193938102318,4.500896198690042,0.9268296025078908,1.0,0.4580437854761136,5.535152209875606
2.52,2.52,1.0,19.16827777085008,0.07027390409468538,8.383212044202791,-0.004410115770438153,0.0017542313555328065,0.0061425347916758315,20.921425747308156,0.007762549994966205,1.0,0.0,273.9262743452343,0.35833996332393947,29.43234839446911,133.3199897082398,0.15763655024666545,2.227063354668294,1.0,29.65119324207251,0.0,1.0,133.06081451335643,10738.211431315298,1.0,1.0,-0.1830748226846721,19.848278212712763,0.18803801238676093,-43.63595807505519,1.0,29.529876766802477,1.0,0.035273630435238804,4.509246301377138,0.9265063198851503,1.0,-0.20489109601831695,5.457495110269525
2.55,2.55,1.0,19.07536514101484,0.050851053698246496,8.540199628167473,-0.0068466092089801795,0.00012139523268446328,0.004953009139020708,20.89993183677062,0.008451218491687064,1.0,0.0,273.9262743452343,0.35833996332393947,29.43234839446911,133.3199897082398,0.15763655024666545,2.227063354668294,1.0,29.65119324207251,0.0,1.0,133.46982288601188,11121.89834345996,1.0,1.0,-0.1830748226846721,19.848278212712763,0.18803801238676093,-43.63595807505519,1.0,29.529876766802477,1.0,0.035273630435238804,4.509246301377138,0.9265063198851503,1.0,-0.20489109601831695,5.457495110269525
2.58,2.58,1.0,19.073167087725725,0.1164750150220345,8.497947479912492,-0.010942721030110458,0.003229907908371401,0.00457123642386199,20.880957366863697,0.012291120822863323,1.0,0.0,273.9262743452343,0.35833996332393947,29.43234839446911,133.3199897082398,0.15763655024666545,2.227063354668294,1.0,29.367587086229204,0.0,1.0,134.88713220482936,10840.075549204827,1.0,1.0,0.0043830065175444995,19.860748729144067,0.19119479375698697,-43.68516830288284,1.0,29.76932878879838,1.0,0.02036621707333747,4.537589328331852,0.9261796626935446,1.0,-0.7583657196043034,6.209062931417471
2.61,2.61,1.0,19.042630897580015,0.13137077921644688,8.568083009950728,-0.007834166859850361,-0.0011825129157848335,0.00822534533791886,20.88183651522316,0.011420543468329304,1.0,0.0,273.9262743452343,0.35833996332393947,29.43234839446911,133.3199897082398,0.15763655024666545,2.227063354668294,1.0,29.367587086229204,0.0,1.0,135.66750951667976,11161.333429899341,1.0,1.0,0.0043830065175444995,19.860748729144067,0.19119479375698697,-43.68516830288284,1.0,29.76932878879838,1.0,0.02036621707333747,4.537589328331852,0.9261796626935446,1.0,-0.7583657196043034,6.209062931417471
2.6399999999999997,2.6399999999999997,1.0,18.99243580094001,0.15770851042213285,8.690529813199593,-0.00635868212464841,-0.0042339571819668305,0.006689809313709323,20.886904942120992,0.010154446338173428,1.0,0.0,273.9262743452343,0.35833996332393947,29.43234839446911,133.3199897082398,0.15763655024666545,2.227063354668294,1.0,29.301834398702034,0.0,1.0,135.14121376452033,11052.56274432489,1.0,1.0,-0.09618516794129998,19.940874500496985,0.15443883831770552,-43.681029780184105,1.0,29.799289510293615,1.0,0.0338539630319891,4.542530122886565,0.9258483694232958,1.0,0.084228297097971,6.367303776107526
2.67,2.67,1.0,19.0612779135013,0.021036111166424745,8.771842429455388,-0.006719470894772105,-0.0036572364080124558,0.004927292192264976,20.982801953526113,0.009099718435080104,1.0,0.0,273.9262743452343,0.35833996332393947,29.43234839446911,133.3199897082398,0.15763655024666545,2.227063354668294,1.0,29.301834398702034,0.0,1.0,136.07363636628367,11542.095166906245,1.0,1.0,-0.09618516794129998,19.940874500496985,0.15443883831770552,-43.681029780184105,1.0,29.799289510293615,1.0,0.0338539630319891,4.542530122886565,0.9258483694232958,1.0,0.084228297097971,6.367303776107526
2.6999999999999997,2.6999999999999997,1.0,18.871716769986527,0.024202235654885926,8.765292181804112,-0.007985379749406205,-0.0036093053973748385,0.004587558847012662,20.807994296116043,0.00989136347368501,1.0,0.0,273.9262743452343,0.35833996332393947,29.43234839446911,133.3199897082398,0.15763655024666545,2.227063354668294,1.0,30.26242471398091,0.0,1.0,135.75657196179696,11358.50148558168,1.0,1.0,1.8475619386642146,19.753998214420946,0.21755491234121493,-43.67217975504684,1.0,29.847029770824435,1.0,0.01216170123830164,4.571019643066506,0.925511101509654,1.0,-0.9249731153082925,5.432118860131973
2.73,2.73,1.0,18.85162980830208,0.06749397482921891,8.930544012021796,-0.010197832398297151,-0.005854528328461219,0.0060889572902331724,20.860084329085538,0.013241853663849243,1.0,0.0,302.7435287975373,1.1346270053554985,32.338261136027164,137.13189768310508,0.2975673809080415,2.352364220867272,1.0,30.26242471398091,0.0,1.0,137.2061778086665,11427.34312522543,1.0,1.0,1.8475619386642146,19.753998214420946,0.21755491234121493,-43.67217975504684,1.0,29.847029770824435,1.0,0.01216170123830164,4.571019643066506,0.925511101509654,1.0,-0.9249731153082925,5.432118860131973
2.76,2.76,1.0,18.86578860353809,0.1083204921384515,8.948081275941998,-0.009087846693068119,-0.0055642057271558555,0.0035541964559712563,20.880562049027045,0.01123306081789206,1.0,0.0,302.7435287975373,1.1346270053554985,32.338261136027164,137.13189768310508,0.2975673809080415,2.352364220867272,1.0,29.803109117462153,0.0,1.0,137.71612817180662,11592.338574178033,1.0,1.0,-0.9263648516667629,19.74552281095811,0.23269198936858693,-43.7646999908338,1.0,29.421817433924257,1.0,0.04856895900287338,4.5854556576025285,0.9251664616322205,1.0,-0.4274527588059301,5.5788858830435295
2.79,2.79,1.0,18.912902699330917,0.12081414306013993,8.977708650686274,-0.005813796686818229,-0.009042875474590564,0.005598156532789424,20.935895901253645,0.012120774947594028,1.0,0.0,302.7435287975373,1.1346270053554985,32.338261136027164,137.13189768310508,0.2975673809080415,2.352364220867272,1.0,29.803109117462153,0.0,1.0,137.97912966107106,11556.320352161461,1.0,1.0,-0.9263648516667629,19.74552281095811,0.23269198936858693,-43.7646999908338,1.0,29.421817433924257,1.0,0.04856895900287338,4.5854556576025285,0.9251664616322205,1.0,-0.4274527588059301,5.5788858830435295
2.82,2.82,1.0,18.855441197266437,0.10625305858309714,9.134525608689966,-0.012807493947671385,-0.00783866173781144,0.009761857594231533,20.951814015780194,0.017910063728237377,1.0,0.0,302.7435287975373,1.1346270053554985,32.338261136027164,137.13189768310508,0.2975673809080415,2.352364220867272,1.0,30.415641233714723,0.0,1.0,138.51039581162186,11829.05652560567,1.0,1.0,-1.2840256680282693,19.760494629401773,0.22621136353299917,-43.71643703238029,1.0,30.10529417054172,1.0,0.03266918621658761,4.5980919753610925,0.9248130089894676,1.0,-0.94827560405862,5.600730034373535
2.85,2.85,1.0,18.884540228867433,0.13996189363255945,9.218296979125036,-0.01098358653729811,-0.010306247160166666,0.010814232802412671,21.014814969033807,0.018541993820879617,1.0,0.0,302.7435287975373,1.1346270053554985,32.338261136027164,137.13189768310508,0.2975673809080415,2.352364220867272,1.0,30.415641233714723,0.0,1.0,139.66984800974524,12096.748335388684,1.0,1.0,-1.2840256680282693,19.760494629401773,0.22621136353299917,-43.71643703238029,1.0,30.10529417054172,1.0,0.03266918621658761,4.5980919753610925,0.9248130089894676,1.0,-0.94827560405862,5.600730034373535
2.88,2.88,1.0,18.777377264220572,0.05352504617201817,9.288487274655235,-0.01057889260005318,-0.008475020791989859,0.010059802102055548,20.94919467914859,0.016880123352648865,1.0,0.0,302.7435287975373,1.1346270053554985,32.338261136027164,137.13189768310508,0.2975673809080415,2.352364220867272,1.0,29.8566277070567,0.0,1.0,139.5093044294795,11860.39799552632,1.0,1.0,0.869432618141861,19.783269484937893,0.2879287226827372,-43.74827661314724,1.0,30.31878363482807,1.0,0.049822926040617485,4.619224127593568,0.9244492721963279,1.0,-1.2451950924879434,5.756950918688789
2.9099999999999997,2.9099999999999997,1.0,18.746756967237733,0.06845536763499993,9.401862238573964,-0.009291302856429396,-0.009671266262793046,0.008586024774641557,20.972376986864354,0.015924243194779794,1.0,0.0,302.7435287975373,1.1346270053554985,32.338261136027164,137.13189768310508,0.2975673809080415,2.352364220867272,1.0,29.8566277070567,0.0,1.0,140.5186939721948,11828.63586282256,1.0,1.0,0.869432618141861,19.783269484937893,0.2879287226827372,-43.74827661314724,1.0,30.31878363482807,1.0,0.049822926040617485,4.619224127593568,0.9244492721963279,1.0,-1.2451950924879434,5.756950918688789
2.94,2.94,1.0,18.751100460790113,0.10888965192331318,9.519200728084261,-0.00815983272571847,-0.00912507053289981,0.00903055543153573,21.029284532491804,0.015211860955982408,1.0,0.0,335.1973083231841,-1.9745005281931016,30.45327265273407,141.22729956756615,0.3847076256655407,2.8337483184874186,1.0,31.940495080599486,0.0,1.0,141.12696748665778,12397.263518224356,1.0,1.0,0.8052694008382796,19.679731980646714,0.24936988704599644,-43.68078647143055,1.0,30.560957423611832,1.0,0.01788296377865168,4.623155345183121,0.924073760144007,1.0,-1.3180087591102316,5.795176772514036
2.9699999999999998,2.9699999999999998,1.0,18.704742949141167,0.13741205221767863,9.518337116540835,-0.010020361971483899,-0.007402957399010599,0.00804779790386684,20.987735283485442,0.014831671631768616,1.0,0.0,335.1973083231841,-1.9745005281931016,30.45327265273407,141.22729956756615,0.3847076256655407,2.8337483184874186,1.0,31.940495080599486,0.0,1.0,141.14290069207453,12132.112473954357,1.0,1.0,0.8052694008382796,19.679731980646714,0.24936988704599644,-43.68078647143055,1.0,30.560957423611832,1.0,0.01788296377865168,4.623155345183121,0.924073760144007,1.0,-1.3180087591102316,5.795176772514036
3.0,3.0,1.0,18.65329024084996,0.1639107226649784,9.599624998789286,-0.014808767914198454,-0.012546879608548459,0.008773855112108151,20.979154026122526,0.021300336348899964,1.0,0.0,335.1973083231841,-1.9745005281931016,30.45327265273407,141.22729956756615,0.3847076256655407,2.8337483184874186,1.0,31.251481632858734,0.0,1.0,141.66866150979246,12492.094228422446,1.0,1.0,0.2529233378625789,19.73788584716954,0.24615275926529961,-43.72337474408412,1.0,30.48671902213579,1.0,0.01951060448925846,4.632902203077237,0.9236849711500348,1.0,-0.420602963891736,5.489266769645161
