time_s,x_m,y_m,altitude_m,vx_mps,vy_mps,vz_mps,speed_mps,mass_kg,roll_deg,pitch_deg,yaw_deg,p_dps,q_dps,r_dps,alpha_deg,beta_deg,qbar_pa,mach,airspeed_mps,load_factor_g,density_kgpm3,pressure_pa,temperature_k,wind_x_mps,wind_y_mps,wind_z_mps,thrust_n,mass_flow_kgps,propulsion_throttle_actual,propulsion_health,energy_j_per_kg,target_distance_m,guidance_mode,pitch_command_deg,heading_command_deg,roll_command_deg
0.0,0.0,0.0,20.0,85.0,0.0,8.0,85.37564055396598,18.0,0.0,6.000000000000002,0.0,0.0,0.0,0.0,0.5847693590724268,0.08811800200359583,4448.934745633113,0.25074697923505807,85.30843941744567,1.7465918301190293,1.2226496753673843,101084.96761777384,288.02,0.0724,-0.1312,-0.0508,326.8,0.17539118863220368,0.86,nominal,3840.633,nan,pitch_program,13.0,0.0,0.0
0.03,2.565315651091616,-1.2835227588499162e-05,20.23292478961755,85.51052170305388,-0.0004278409196166387,7.7641596539183535,85.86228215720236,17.994738264341034,-0.0008126534808297882,6.2686802572688265,0.0011411212305384689,-0.02302376409959119,-8.95602525572747,0.0377561654122233,1.0424210530708349,0.08621106286110981,4499.716784583913,0.25217746875027874,85.79489108272011,1.7747823454395577,1.2226223230518514,101082.17485808964,288.01848598886744,0.0724,-0.1312,-0.0508,332.605,0.1785066900092231,0.86,nominal,3884.582960509618,nan,pitch_program,12.985,0.0,0.0
0.06,5.146126351367488,-3.617815347398751e-05,20.459319423908276,86.02702334252905,-0.0007780975295162784,7.546487809690894,86.35738662119927,17.98938306364076,-0.0023930187175695457,6.583396278429167,0.003007817133021754,-0.04571476105709507,-10.490562141127345,0.0615390204976536,1.532306343764975,0.08366703131054541,4551.683015970467,0.2536328649190527,86.2898201753368,1.8038840055193044,1.2225957380198964,101079.46045460348,288.01701442374457,0.0724,-0.1312,-0.0508,338.40999999999997,0.18162219138624247,0.86,nominal,3929.4364968501136,nan,pitch_program,12.97,0.0,0.0
0.09,7.742600284586727,-6.814837149339221e-05,20.6797417231004,86.54913110730799,-0.0010656739339801567,7.347409973070713,86.86044283722036,17.983934397899173,-0.004699754940364417,6.777942640720416,0.00532781771603982,-0.06789456837509925,-6.4848897162545,0.07640697717232767,1.8881059597634784,0.08075397993220808,4604.794362264303,0.25511166673187746,86.79271552817156,1.8336029467110406,1.2225698547312265,101076.81771432447,288.01558167879983,0.0724,-0.1312,-0.0508,344.215,0.18473769276326188,0.86,nominal,3975.167254107856,nan,pitch_program,12.955,0.0,0.0
0.12,10.354945375660353,-0.00010710938458306974,20.89450150819018,87.07816970245423,-0.0012987004363225845,7.158659502992707,87.37192939552055,17.978392267116273,-0.00769125528567216,6.876772688922876,0.007928243708311598,-0.08941221962351686,-3.294345045030546,0.08571000873590087,2.1399499743718264,0.07763750507279099,4659.1158638361385,0.2566152647777195,87.30404997587124,1.863635201991413,1.2225446367716177,101074.242918239,288.01418574019675,0.0724,-0.1312,-0.0508,350.02,0.1878531941402813,0.86,nominal,4021.832086363207,nan,pitch_program,12.94,0.0,0.0
0.15,12.983396278682367,-0.0001515614865877624,21.103775005707984,87.6150301007338,-0.0014817367334897548,6.975783250593413,87.89229234527504,17.972756671292064,-0.01052984089445572,6.962384361914077,0.010708478090053332,-0.08345446043123617,-2.8537375573312396,0.09154571673332994,2.373381038623128,0.07438899336437696,4714.7108410331975,0.2581449614946437,87.8242664868842,1.8942015627926159,1.2225200634168387,101071.7339493958,288.0128254624629,0.0724,-0.1312,-0.0508,355.825,0.1909686955173007,0.86,nominal,4069.4848620133735,nan,pitch_program,12.925,0.0,0.0
0.18,15.628185196877174,-0.00020008546067700535,21.30776761189908,88.1596306064936,-0.0016174658029747652,6.799753539703255,88.42147431190178,17.967027610426545,-0.012952231111346843,7.060839267580007,0.013605998950054153,-0.06895627605974669,-3.2818505719838895,0.09518923997515555,2.613876597752464,0.07105798555215524,4771.590016126761,0.25970059027519754,88.353308208324,1.9252437575698162,1.2224961105196348,101069.28834141615,288.01149951052264,0.0724,-0.1312,-0.0508,361.63,0.19408419689432013,0.86,nominal,4118.1363789963825,nan,pitch_program,12.91,0.0,0.0
0.21,18.289535851065146,-0.0002513007435720023,21.50673466339758,88.71168847293245,-0.001707176096499898,6.632235049949992,88.9592615548873,17.961205084519715,-0.015554247990773266,7.150524752818186,0.016574898323368427,-0.07449214182242665,-2.989541122693762,0.09745957916344898,2.8388014477141823,0.06770860253541704,4829.747281002639,0.2612815262977918,88.89096234633776,1.9564853123972954,1.222472748071046,101066.90302950979,288.0102062246879,0.0724,-0.1312,-0.0508,367.435,0.19719969827133954,0.86,nominal,4167.784127682234,nan,pitch_program,12.895,0.0,0.0
0.24,20.967673682092766,-0.0003038280739089288,21.70092194933861,89.27126103425394,-0.0017509110112308842,6.472909531367651,89.5056233290002,17.955289093571576,-0.018559754408781555,7.21463377302159,0.019584368219717405,-0.08764091984031219,-2.1369970986305824,0.09889229662318026,3.0316388167010886,0.0643778407446226,4889.196114184614,0.26288767881918107,89.43719781458071,1.9877486412994965,1.222449947185573,101064.57506366748,288.00894400732926,0.0724,-0.1312,-0.0508,373.24,0.20031519964835895,0.86,nominal,4218.441649990914,nan,pitch_program,12.88,0.0,0.0
0.27,23.662832283026518,-0.0003562678423104099,21.890535333932526,89.83862003112506,-0.00174799228004937,6.320446153130466,90.06067783293086,17.949279637582126,-0.02135705984256065,7.258031697810835,0.02261888248501684,-0.08050236358319289,-1.4466324287894181,0.09984090796891479,3.1981947274250104,0.061048332522815135,4949.966514170215,0.26451939294728416,89.99213184519212,2.0190918655914727,1.2224276836677437,101062.3019727987,288.0077115203294,0.0724,-0.1312,-0.0508,379.045,0.20343070102537836,0.86,nominal,4270.135664195991,nan,pitch_program,12.865,0.0,0.0
0.3,26.37525104165433,-0.0004072028815739853,22.075756333103907,90.41395862092712,-0.0016978346421191804,6.174033305712661,90.62451436366108,17.943176716551363,-0.024372743313482045,7.291252782838627,0.02567229711075376,-0.08763476581083557,-1.1074097344298532,0.10051929448375416,3.3495912575542763,0.05775009526005408,5012.085920544372,0.26617692981140795,90.55585312144737,2.0505998311172213,1.222405936182793,101060.08157794716,288.0065075838348,0.0724,-0.1312,-0.0508,384.84999999999997,0.20654620240239774,0.86,nominal,4322.890517668739,nan,pitch_program,12.850000000000001,0.0,0.0
0.32999999999999996,29.105171202531626,-0.0004551756946495401,22.256762146682117,90.99733869590987,-0.0015990937691851591,6.033527119273708,91.19714415371925,17.93698033047929,-0.027764010557583634,7.317489845487448,0.02874059767697118,-0.10003875433838083,-0.8746148361291962,0.10104876600316919,3.4891728217392055,0.054498167518357926,5075.5736499742425,0.26786032234274115,91.12837269338344,2.082241054052269,1.2223846839043888,101057.91175211924,288.00533104604654,0.0724,-0.1312,-0.0508,390.655,0.20966170377941715,0.86,nominal,4376.723827402884,nan,pitch_program,12.835,0.0,0.0
0.36,31.852835274954664,-0.0004986763795143007,22.43372723888125,91.58880241410127,-0.001450022828825353,5.898836406637769,91.77856503946944,17.930690479365907,-0.030846041936740527,7.334894907884017,0.031820227523618724,-0.08964410114150802,-0.580220751175029,0.10151953365542156,3.6152090347957455,0.05125336254561033,5140.44783512159,0.2695695642026263,91.70968825182803,2.113937062221727,1.222363906328968,101055.79040132495,288.0041807729472,0.0724,-0.1312,-0.0508,396.46,0.21277720515643656,0.86,nominal,4431.652211579236,nan,pitch_program,12.82,0.0,0.0
0.39,34.61848828605496,-0.0005361623227029154,22.606816481225298,92.1884337033433,-0.001249531439620488,5.769641411468313,92.36880464883143,17.924307163211214,-0.03406237153099321,7.34292494489562,0.03490936336086793,-0.09405763336401478,-0.26772570640670473,0.10197601473252298,3.727416288105903,0.048042224204679775,5206.730234076656,0.2713047361971977,92.29982714276387,2.1456576782120504,1.22234358408073,101053.71554676312,288.003055692872,0.0724,-0.1312,-0.0508,402.265,0.21589270653345596,0.86,nominal,4487.6951729726,nan,pitch_program,12.805,0.0,0.0
0.42,37.40237817832319,-0.0005660430112265414,22.776183390545533,92.7963297422743,-0.0009960229507875351,5.64556364400781,92.96790415776569,17.91783038201521,-0.0375768901215434,7.343410642901385,0.03800847883612864,-0.10394715994304798,-0.01625398320391115,0.10244645379619031,3.8279174292501503,0.04487561384290016,5274.444507337504,0.2730659588477356,92.89883023316621,2.1555092362442423,1.222323699118378,101051.68534592497,288.00195480796145,0.0724,-0.1312,-0.0508,404.1773684210526,0.21691906078826353,0.86,nominal,4544.873660590646,nan,pitch_program,12.79,0.0,0.0
0.44999999999999996,40.20456122124634,-0.0005867994496799719,22.941948539175577,93.40610143077168,-0.0006918812817810159,5.525504954334818,93.56939130920264,17.911322810191564,-0.04144026019847719,7.338189982289122,0.04111901665394078,-0.11553112827023203,0.17395106904336013,0.10295473819001251,3.919040541663712,0.041760281838969786,5342.870297131196,0.2748342064704812,93.50022477021764,2.154480528399949,1.2223042372697435,101049.69835136675,288.0008773344953,0.0724,-0.1312,-0.0508,404.14342105263154,0.21690084148196515,0.86,nominal,4602.59915462905,nan,pitch_program,12.775,0.0,0.0
0.48,43.02499834464448,-0.0005996919915415376,23.10421452998854,94.01457077993815,-0.0004297513953855247,5.408866360432093,94.17003427006757,17.904815784947104,-0.04496016094912762,7.3279558078471565,0.04481580138649395,-0.1016017906862631,0.34104690126744136,0.12247546251437144,4.001794674058638,0.038020365486823936,5411.641083585821,0.27659997822603993,94.10077846900215,2.153517004086377,1.2222851864733808,101047.75333117423,287.99982260555504,0.0724,-0.1312,-0.0508,404.1094736842105,0.2168826221756668,0.86,nominal,4660.572622633363,nan,pitch_program,12.76,0.0,0.0
0.51,45.863652047689115,-0.000603822976788417,23.26307850357251,94.62179010148779,-0.00013769950822931245,5.295465786132366,94.76985343410146,17.898309306281835,-0.04860097875663976,7.312989272433566,0.049275664531483715,-0.1024182141013087,0.49876396099701187,0.14785763556897544,4.076639244505109,0.033553457172584,5480.757367427135,0.2783633338799367,94.7005116340239,2.152600761961587,1.2222665353100288,101045.84911902579,287.99878998972673,0.0724,-0.1312,-0.0508,404.0755263157895,0.21686440286936848,0.86,nominal,4718.795428767596,nan,pitch_program,12.745,0.0,0.0
0.54,48.72048642905207,-0.0005939083071930769,23.418631806283514,95.2278127120986,0.00033048898651133485,5.185110090366922,95.36887165469126,17.891803374195753,-0.05242928980035515,7.293859813936187,0.05383388088333706,-0.10829509421059781,0.6375155025659903,0.15126995800746693,4.144323394774971,0.029115030364838226,5550.220010719628,0.2801243407116262,95.29944712931841,2.151726275149542,1.2222482730415132,101043.98461816211,287.9977788932591,0.0724,-0.1312,-0.0508,404.0415789473684,0.2168461835630701,0.86,nominal,4777.269165947578,nan,pitch_program,12.73,0.0,0.0
0.57,51.59546704446296,-0.0005694031047541779,23.57096061755892,95.83268718036271,0.0008168400812966342,5.077627042513522,95.967110143316,17.885297988688862,-0.0565239857345974,7.271283728107242,0.05882665911474308,-0.11539323111256085,0.7523789034927952,0.16579882842764643,4.205726723310321,0.024278782984608463,5620.029706171699,0.28188305998238794,95.89760577429442,2.1508923616943063,1.2222303895370377,101042.15879385867,287.99678875598585,0.0724,-0.1312,-0.0508,404.0076315789474,0.21682796425677175,0.86,nominal,4835.995275569858,nan,pitch_program,12.715,0.0,0.0
0.6,54.48856067654806,-0.0005282269287036627,23.72014689513591,96.4364544028367,0.0013725392016838383,4.972875919232889,96.56458581997,17.878793149761158,-0.06087751090395408,7.245807840287349,0.06431499439755617,-0.1220030284610651,0.8490099009166991,0.18234834233027156,4.261535905197373,0.019013537980913188,5690.186741086774,0.28363954125499946,96.49500441044864,2.1500948172155314,1.2222128751621537,101040.37066208846,287.9958190451816,0.0724,-0.1312,-0.0508,403.9736842105263,0.21680974495047337,0.86,nominal,4894.9747958403605,nan,pitch_program,12.7,0.0,0.0
0.63,57.39973518583833,-0.0004674787681440266,23.866268921230294,97.03915030967572,0.0020249386853212043,4.870734203146144,97.16131302427893,17.872288857412645,-0.06544293813987573,7.217811715721818,0.070239354612883,-0.12732149746853616,0.9329876446411669,0.19693633224896312,4.312255726792591,0.013390530920429989,5760.691146126277,0.2853938264479218,97.09165728020108,2.1493275814110606,1.2221957207145933,101038.61928296913,287.994869252012,0.0724,-0.1312,-0.0508,403.9397368421053,0.21679152564417503,0.86,nominal,4954.208520417339,nan,pitch_program,12.685,0.0,0.0
0.6599999999999999,60.32895942392899,-0.0003837740301522423,24.009401561902195,97.6408079363553,0.002790157933059478,4.771088022396743,97.7573049094883,17.86578511164332,-0.07015412250170433,7.187650852825732,0.07648449176139734,-0.13093885819682155,1.0051170297627878,0.20771801713735696,4.358358419481251,0.00752807902146311,5831.542853519755,0.2871459539683701,97.68757743284452,2.148586736476528,1.222178917393772,101036.90375764803,287.99393888984764,0.0724,-0.1312,-0.0508,403.9057894736842,0.21677330633787664,0.86,nominal,5013.69712941036,nan,pitch_program,12.67,0.0,0.0
0.69,63.27620313869015,-0.0002734332071707523,24.14961658981386,98.24145715870532,0.0036780274327163323,4.673834263722191,98.35257314843552,17.859281912453184,-0.07493505680715881,7.155687546735746,0.0829079352950933,-0.1326338184112349,1.0651737318520718,0.21378850954494655,4.400313559746517,0.001566958564170237,5902.741658138313,0.28889595787181604,98.28277643838402,2.147870414103852,1.222162456762862,101035.22322442883,287.99302749216616,0.0724,-0.1312,-0.0508,403.8718421052631,0.21675508703157828,0.86,nominal,5073.441159989678,nan,pitch_program,12.655,0.0,0.0
0.72,66.24143686447832,-0.00013261409125649572,24.286983086780847,98.8411241929387,0.00469397053047522,4.578883232232889,98.94712742374946,17.852779259842237,-0.07970493454203584,7.122241650958191,0.0893539168767645,-0.1322931666660286,1.114574498407299,0.2147046462385386,4.438537578695596,-0.00434194589843395,5974.287150720122,0.29064386637563727,98.8772638815559,2.1471767626151634,1.222146330701496,101033.57685394179,287.9921346099359,0.0724,-0.1312,-0.0508,403.8378947368421,0.21673686772527995,0.86,nominal,5133.440955393836,nan,pitch_program,12.64,0.0,0.0
0.75,69.22463182579115,4.257651271453189e-05,24.42156778226294,99.43983204376109,0.005839686799034254,4.486156516069735,99.54097563958288,17.84627715381048,-0.08438153858569296,7.087576748750269,0.09566161080099625,-0.1298809139324924,1.1551968320395123,0.2102963567254979,4.473381514816652,-0.010045137149478061,6046.17873612603,0.29238970248071344,99.47104757302972,2.1465035807925754,1.222130531365997,101031.96384508234,287.9912598094153,0.0724,-0.1312,-0.0508,403.80394736842106,0.21671864841898159,0.86,nominal,5193.696683331945,nan,pitch_program,12.625,0.0,0.0
0.78,72.22575986050434,0.0002559785563004567,24.55343530526173,100.03760115710652,0.00711340145286416,4.395584099959607,100.13412433056284,17.83977559435791,-0.08888398327433111,7.051924635579756,0.10167119078016311,-0.12542667419460232,1.1881018675508537,0.2005929962959785,4.505157459953637,-0.015392079718449444,6118.415676579355,0.29413348516973503,100.06413395688868,2.1458491194867517,1.2221150511597738,101030.38342198776,287.9904026705158,0.0724,-0.1312,-0.0508,403.77,0.21670042911268322,0.86,nominal,5254.208374060654,nan,pitch_program,12.61,0.0,0.0
0.8099999999999999,75.24479335027262,0.0005112784204981573,24.682648413522415,100.63444965894273,0.008509995473256687,4.307103608689485,100.72657877677712,17.83327458148453,-0.09313517990506008,7.01549847313635,0.1072289769640279,-0.1190209086347341,1.2139118698082951,0.18579376821110874,4.5341523897625,-0.02023997064104781,6190.997100669538,0.29587522974452285,100.65652822521314,2.145212255982777,1.2220998827063985,101028.83483128762,287.9895627853121,0.0724,-0.1312,-0.0508,403.73605263157896,0.21668220980638486,0.86,nominal,5314.975930101613,nan,pitch_program,12.595,0.0,0.0
0.84,78.28170515327038,0.0008119127116136815,24.809268220638895,101.23039343325871,0.01002114303718414,4.220660237216024,101.318342998263,17.82677411519034,-0.09706413433679821,6.978487953006637,0.11219211996363314,-0.1108119313021299,1.2334097989877637,0.1662534603302256,4.560623592835404,-0.024458088569169468,6263.921998002249,0.29761494781035497,101.24823431256749,2.1445920703001042,1.2220850188229062,101027.31733937738,287.98873975656585,0.0724,-0.1312,-0.0508,403.7021052631579,0.2166639905000865,0.86,nominal,5375.999124152764,nan,pitch_program,12.58,0.0,0.0
0.87,81.33646854333308,0.001160977900586791,24.933354399052874,101.82544633542348,0.01163550629910365,4.1362059471326145,101.90941986112132,17.82027419547534,-0.10060808499099744,6.941057371120556,0.11643295859444917,-0.10100259439596453,1.24744219782003,0.1424717386768093,4.58479742087011,-0.027931801229754857,6337.189227701518,0.2993526475874461,101.83925500180185,2.143987674000101,1.2220704524959551,101025.83022998342,287.9879331964061,0.0724,-0.1312,-0.0508,403.66815789473685,0.21664577119378817,0.86,nominal,5437.277608132627,nan,pitch_program,12.565,0.0,0.0
0.8999999999999999,84.40905715702382,0.0015611481190043635,25.054965351917012,102.41962045635816,0.013339007280585752,4.05369842880455,102.49981123546164,17.813774822339525,-0.10371444642995432,6.903351100678227,0.11984302452279588,-0.0898458317198693,1.2566725292893797,0.11508119739916901,4.606875547597346,-0.030566187856822826,6410.79753388329,0.30108833437468796,102.42959208167854,2.1433983428260412,1.222056176861626,101024.37280210039,287.9871427252125,0.0724,-0.1312,-0.0508,403.6342105263158,0.2166275518874898,0.86,nominal,5498.810927621011,nan,pitch_program,12.55,0.0,0.0
0.9299999999999999,87.49944494617252,0.0020146035836313345,25.174158366014098,103.01292630495627,0.015115182154232363,3.9731004699028625,103.089518098219,17.8072759957829,-0.10634250516133939,6.865497758788939,0.12233658803075159,-0.07763876141123766,1.26162472338969,0.08483231501278017,4.627039665709803,-0.03228918753074617,6484.745554930985,0.30282201085229377,103.01924644970767,2.142823381366,1.2220421851874508,101022.94436815572,287.9863679706209,0.0724,-0.1312,-0.0508,403.6002631578947,0.21660933258119142,0.86,nominal,5560.598531001584,nan,pitch_program,12.535000000000002,0.0,0.0
0.96,90.60760614251014,0.002518734746500476,25.29098975981257,103.6053732112539,0.01680437209563804,3.894379793282477,103.67854085877393,17.800777715805463,-0.10856976923596035,6.827609203291977,0.1247340675424913,-0.06471529294180847,1.2628008643410054,0.08171458438618306,4.645452575978669,-0.034003579767239944,6559.031838829465,0.30455367751459056,103.60821825925636,2.142262641892219,1.2220284708550166,101021.54425223301,287.9856085665612,0.0724,-0.1312,-0.0508,403.56631578947366,0.21659111327489305,0.86,nominal,5622.639802030294,nan,pitch_program,12.520000000000001,0.0,0.0
0.99,93.73351520536498,0.0030730850387017863,25.405514994649828,104.1969687618283,0.018478343073377018,3.817507827908492,104.26687876127647,17.794279982407215,-0.11041725276481267,6.78978541295618,0.12739549721478385,-0.05106528421761804,1.2606224155661672,0.09049791284498838,4.662260953304984,-0.03602735771897093,6633.654824946222,0.3062833323128339,104.19650679794671,2.141715758435713,1.222015027346898,101020.17178873759,287.9848641525347,0.0724,-0.1312,-0.0508,403.53236842105264,0.21657289396859472,0.86,nominal,5684.933996931647,nan,pitch_program,12.505,0.0,0.0
1.02,96.8771467871969,0.0036785358901961418,25.517788789248634,104.78771939439734,0.020181695049811856,3.7424598199602035,104.8545304156372,17.787782795588157,-0.11299808437514307,6.752113720764369,0.13042299399294827,-0.0741296075099963,1.2555253506432695,0.10266076296877857,4.677595910060676,-0.038347438665497134,6708.612866317975,0.3080109712398421,104.78411068644887,2.1411824575752365,1.2220018482332013,101018.82632102224,287.98413437286985,0.0724,-0.1312,-0.0508,403.49842105263156,0.21655467466229633,0.86,nominal,5747.480297771978,nan,pitch_program,12.49,0.0,0.0
1.05,100.03847570266439,0.004336782089301096,25.6278652194294,105.3776305155826,0.021941539970165153,3.669214339358888,105.44149386450279,17.781286155348287,-0.11560081317852718,6.714670031216575,0.13379547950887508,-0.07357688076297043,1.2478978337659,0.11413045658034632,4.691572957815421,-0.04098579756935064,6783.904237467768,0.30973658856442127,105.37102795814553,2.14066249344303,1.2219889271598412,101017.50720018982,287.9834188760737,0.0724,-0.1312,-0.0508,403.46447368421053,0.216536455355998,0.86,nominal,5810.277818643106,nan,pitch_program,12.475,0.0,0.0
1.08,103.21747690157324,0.00504990807569891,25.73579780358204,105.96670663029485,0.023770866213260477,3.597752805088044,106.02776666690464,17.774790061687607,-0.11790843462155708,6.677521075707616,0.137444961159783,-0.06273602348578855,1.2380497892934725,0.12334266888698033,4.704296020096095,-0.043893860217078466,6859.527143670965,0.31146017709057294,105.95725614723986,2.1401556940278863,1.221976257838496,101016.21378406754,287.98271731427667,0.0724,-0.1312,-0.0508,403.43052631578945,0.21651823604969964,0.86,nominal,5873.325613716284,nan,pitch_program,12.46,0.0,0.0
1.1099999999999999,106.41412544423163,0.005820138630712908,25.84163957929572,106.55495142194651,0.025674351833799916,3.528059190455939,106.61334594391587,17.768294514606115,-0.12089326110117486,6.6407253166724525,0.14129720106199722,-0.08460374849719901,1.2262568915171788,0.13009743990294903,4.715859443984001,-0.04691567336961365,6935.479726048064,0.3131817283137109,106.54279234183257,2.1396619450403467,1.2219638340376051,101014.94543628728,287.98202934273456,0.0724,-0.1312,-0.0508,403.3965789473684,0.21650001674340127,0.86,nominal,5936.622681458842,nan,pitch_program,12.445,0.0,0.0
1.14,109.62839647875131,0.006649776520478767,25.945443172150984,107.14236781732274,0.02765459632552866,3.4601197618421393,107.19822841374507,17.761799514103814,-0.12378278995253879,6.604333399759945,0.14529255685006415,-0.0809584482039788,1.212778707543723,0.13487973075809434,4.726346399697425,-0.05005404357881302,7011.760065548163,0.3149012325466561,107.1276332267235,2.1391811267254495,1.2219516495742726,101013.70152545894,287.981354619381,0.0724,-0.1312,-0.0508,403.3626315789474,0.21648179743710294,0.86,nominal,6000.167967806906,nan,pitch_program,12.43,0.0,0.0
1.17,112.86026522137017,0.007541107636486568,26.047260854451935,107.72895808729507,0.02971103720026005,3.393922743364997,107.78241046157689,17.7553050601807,-0.12721768231881347,6.568389237767312,0.1493884894384915,-0.09883620234879464,1.197838815871748,0.13825406765948722,4.73583266606677,-0.053214475365440134,7088.366190488037,0.31661867912070435,107.71177515176177,2.1387131567824267,1.221939698307372,101012.4814244658,287.98069280444605,0.0724,-0.1312,-0.0508,403.3286842105263,0.21646357813080455,0.86,nominal,6063.960373112231,nan,pitch_program,12.415,0.0,0.0
1.2,116.1097069383695,0.00849642879841759,26.14714459766494,108.31472389997741,0.031844038731034016,3.3294581071002325,108.3658881699314,17.748811152836776,-0.13044270149582726,6.532930816882083,0.15355998679932695,-0.09163759230542604,1.1816337992450354,0.1407993842953179,4.744385230869074,-0.056434542853714825,7165.296080010006,0.3183340564893781,108.29521416709422,2.1382579525802297,1.221927974131374,101011.2845098344,287.9800435601152,0.0724,-0.1312,-0.0508,403.2947368421053,0.21644535882450622,0.86,nominal,6127.998754997729,nan,pitch_program,12.4,0.0,0.0
1.23,119.37669693041501,0.00951800966972617,26.245146117450606,108.89966640151705,0.034052695710286005,3.2667173261887874,108.94865737601822,17.74231779207204,-0.1331253695327926,6.497990911737714,0.15779369046461494,-0.07340880265314668,1.1643379639629705,0.14289041313837478,4.752064675002529,-0.05972955660703189,7242.547670258187,0.3200473523887316,108.87794607765966,2.137815446794555,1.2219164709710533,101010.1101611936,287.97940655023655,0.0724,-0.1312,-0.0508,403.26078947368416,0.2164271395182078,0.86,nominal,6192.281934191202,nan,pitch_program,12.385,0.0,0.0
1.26,122.66121051848582,0.010608082600330523,26.34131691327989,109.48378626902678,0.03633576435347843,3.2056931943094304,109.53071370600006,17.735824977886494,-0.1364111989143034,6.463597529554368,0.1620831122147629,-0.09338938830245033,1.1461087733766888,0.14476326642025905,4.758927017494164,-0.06299936898756517,7320.1188582228215,0.32175855394115643,109.45996647846694,2.1373855967148865,1.2219051827768272,101008.95776079864,287.97878144006364,0.0724,-0.1312,-0.0508,403.22684210526313,0.21640892021190947,0.86,nominal,6256.80869798049,nan,pitch_program,12.37,0.0,0.0
1.29,125.96322303075517,0.011768928671039864,26.43570830394357,110.06708374231177,0.03869486902364471,3.146379688789381,110.11205259178483,17.729332710280136,-0.140479102665728,6.4297742924618815,0.16642820040196907,-0.11933477130208915,1.1270902203024873,0.14664428534354712,4.7650218083661295,-0.06622851336349474,7398.00750375393,0.3234676477157687,110.0412707751056,2.1369683373447694,1.2218941035205826,101007.82669310452,287.97816789602433,0.0724,-0.1312,-0.0508,403.1928947368421,0.21639070090561113,0.86,nominal,6321.577801826862,nan,pitch_program,12.355,0.0,0.0
1.3199999999999998,129.28270979138355,0.01300290631155037,26.52837145709231,110.64955868761274,0.041132588017016906,3.0887717716246166,110.69266931784794,17.72284098925297,-0.14430731878219807,6.3965412152312675,0.1708328369914101,-0.11120769227074134,1.1074032506876756,0.14865507038948875,4.770392485035827,-0.06950479981417156,7476.211434886281,0.32517461985876855,110.62185422806637,2.136563584503762,1.2218832271921947,101006.71634441057,287.97756558552885,0.0724,-0.1312,-0.0508,403.158947368421,0.21637248159931274,0.86,nominal,6386.587974304913,nan,pitch_program,12.34,0.0,0.0
1.3499999999999999,132.61964611115997,0.014312395581035227,26.619357413665195,111.23121065921346,0.04364964231616189,3.03286521909617,111.27255906755626,17.71634981480499,-0.14745452776806983,6.363915260846187,0.1753005713119221,-0.08835758498392478,1.0871514893843162,0.1507705785418573,4.775078953740751,-0.07286874984807962,7554.7284531588875,0.32687945621948,111.20171199559722,2.1361712679204343,1.221872547796654,101005.62610256691,287.97697417681115,0.0724,-0.1312,-0.0508,403.125,0.2163542622930144,0.86,nominal,6451.837922102119,nan,pitch_program,12.325,0.0,0.0
1.38,135.97400727897423,0.01569977010276941,26.708717109579876,111.81203892714193,0.04624581739113941,2.9786565304894004,111.8517169400942,17.7098591869362,-0.15110347516041528,6.331910359504777,0.17983310690887414,-0.10492684984350929,1.0664352286867957,0.15293722017737946,4.779119224023495,-0.07622431394193273,7633.5563357229585,0.3285821424032839,111.78083915169131,2.135791337698261,1.2218620593515126,101004.55535671327,287.9763933387877,0.0724,-0.1312,-0.0508,403.0910526315789,0.21633604298671602,0.86,nominal,6517.326331866139,nan,pitch_program,12.31,0.0,0.0
1.41,139.34576855351912,0.017167477016068838,26.796501395454488,112.39204248483,0.048923563776647666,2.9261428624870214,112.4301379501004,17.703369105646598,-0.15549877587500252,6.300537541506819,0.18443333903289172,-0.12964008908873634,1.0453490935455423,0.15520777038796538,4.782546531966625,-0.07955315188428434,7712.692835581479,0.330282663782861,112.35923068989379,2.1354236998866263,1.221851755884561,101003.50349704178,287.9758227409295,0.0724,-0.1312,-0.0508,403.0571052631579,0.2163178236804177,0.86,nominal,6583.051870149037,nan,pitch_program,12.295,0.0,0.0
1.44,142.7349051565493,0.018718060273320167,26.882761051495777,112.97122010100588,0.051686108575044284,2.875321868042956,113.00781706770812,17.696879570936186,-0.15950490429515898,6.269805728960035,0.189105440314178,-0.11648801532084807,1.0239643712268751,0.15761602579658554,4.785389329917501,-0.08295294018135137,7792.135686520634,0.33198100560892957,112.93688156096145,2.1350682275755513,1.2218416314320744,101002.46991461766,287.97526205316524,0.0724,-0.1312,-0.0508,403.02315789473687,0.21629960437411935,0.86,nominal,6649.013187869942,nan,pitch_program,12.28,0.0,0.0
1.47,146.14139226772167,0.020354086007738588,26.967546798513744,113.54957037241189,0.05453419114728068,2.826191567265631,113.5847492602427,17.690390582804962,-0.1638211323163732,6.239722099850734,0.19385148116864329,-0.12663830339055707,1.0023399532305792,0.16008842720364966,4.787676153265429,-0.08636761614981876,7871.882608225687,0.33367715312142904,113.51378671067789,2.13472484952144,1.2218316800375129,101001.45400124624,287.97471094580965,0.0724,-0.1312,-0.0508,402.9892105263158,0.21628138506782096,0.86,nominal,6715.208925067748,nan,pitch_program,12.265,0.0,0.0
1.5,149.5652050189352,0.022078189739317123,27.050909309645125,114.12709170711712,0.05747012438595118,2.7787503710459975,114.16092947223453,17.68390214125293,-0.1686124375153681,6.210291644286795,0.19867382778474776,-0.14228008307064524,0.9805475040557939,0.16264237615687419,4.789432026282118,-0.08978512185672533,7951.931304158564,0.33537109150470695,114.0899410645989,2.1343934386978227,1.221821895750135,101000.45514933129,287.9741690894873,0.0724,-0.1312,-0.0508,402.9552631578947,0.2162631657615226,0.86,nominal,6781.637708763685,nan,pitch_program,12.25,0.0,0.0
1.53,153.00631848989346,0.02389309099278891,27.132899217932508,114.70378236527546,0.06049670844905948,2.7329969429127203,114.73635265704667,17.677414246280083,-0.17279498536285762,6.181517826655655,0.20357562870696075,-0.12178349342666372,0.9586390577743289,0.1652957793981445,4.790677897375828,-0.09329824692943903,8032.27946575001,0.33706280597646093,114.665339558305,2.1340738193379574,1.2218122726241059,100999.47275178373,287.9736361550834,0.0724,-0.1312,-0.0508,402.9213157894737,0.21624494645522424,0.86,nominal,6848.298156636628,nan,pitch_program,12.235,0.0,0.0
1.56,156.46470770512354,0.02580151673583233,27.21356712032513,115.27964050766953,0.06361419143478063,2.6889300797541456,115.31101381618618,17.670926897886428,-0.17730230243429287,6.1534030752486,0.20855783266992317,-0.13240184266365324,0.9366495797361426,0.167974668498439,4.791436317247638,-0.09683043849104198,8112.924777497895,0.33875228189286255,115.23997717316288,2.133765899673661,1.2218028047180225,100998.50620197297,287.9731118137179,0.0724,-0.1312,-0.0508,402.8873684210526,0.21622672714892588,0.86,nominal,6915.188881658876,nan,pitch_program,12.220000000000002,0.0,0.0
1.5899999999999999,159.94034762990955,0.027806266081250534,27.292963584174245,115.85466415953339,0.06682497818060677,2.646548794970519,115.88490796311717,17.66444009607196,-0.18238490099762245,6.125948080947398,0.21362228980419581,-0.15136472399007525,0.9146351389291162,0.17071868977796165,4.791726615011407,-0.10036197499579777,8193.864912801424,0.34043950465815526,115.81384890556777,2.1334695129139156,1.221793486094139,100997.55489364764,287.97259573670283,0.0724,-0.1312,-0.0508,402.8534210526316,0.21620850784262752,0.86,nominal,6982.308488142812,nan,pitch_program,12.205000000000002,0.0,0.0
1.6199999999999999,163.43321316746218,0.02991023261262538,27.371139149522982,116.42885125175437,0.07013221771249487,2.605852178291202,116.45803015638813,17.657953840836683,-0.18677966672815163,6.099152544874495,0.21877224339143198,-0.12821296712256705,0.8926300317355218,0.1735657116661106,4.7915640227690774,-0.1040006255586154,8275.097538506961,0.34212445981692763,116.3869497983352,2.133184426648341,1.2217843108181003,100996.61822090819,287.9720875955281,0.0724,-0.1312,-0.0508,402.8194736842105,0.21619028853632916,0.86,nominal,7049.655575693774,nan,pitch_program,12.19,0.0,0.0
1.65,166.94327915767266,0.03211631300756412,27.448144327799774,117.00219967368263,0.07353601316462476,2.566839275893064,117.03037554367583,17.651468132180593,-0.19156648327664041,6.0730156910508475,0.22400858783356933,-0.14105486214475552,0.8706506835552411,0.1764366144804947,4.790966994578701,-0.10765760413562928,8356.620320775764,0.3438071331707987,116.95927498040218,2.1329105332580753,1.2217752729590812,100995.695578221,287.9715870618693,0.0724,-0.1312,-0.0508,402.78552631578947,0.21617206923003082,0.86,nominal,7117.228744519117,nan,pitch_program,12.175,0.0,0.0
1.68,170.4705203740976,0.03442748500643328,27.52402960499655,117.5747072141646,0.07703906662897192,2.529509239892513,117.60193930590184,17.64498297010369,-0.19701469635110191,6.047535187285195,0.2293333970687958,-0.16286827357257885,0.848746738992933,0.17938083634934915,4.789950702896926,-0.11131175579840981,8438.430918313594,0.34548751063307975,117.53081961738488,2.132647618169502,1.2217663665894165,100994.78636038034,287.9710938075675,0.0724,-0.1312,-0.0508,402.75157894736844,0.21615384992373246,0.86,nominal,7185.026589180348,nan,pitch_program,12.16,0.0,0.0
1.71,174.01491152234402,0.036846832792720524,27.59884543995363,118.14637160821437,0.08064492620957496,2.493861165236083,118.17271669595262,17.63849835460598,-0.202910320664902,6.0227081033229055,0.23475007161813596,-0.17753751915495614,0.826937792465816,0.1824422379412965,4.788528489669787,-0.11498324527457128,8520.526987813937,0.34716557833638134,118.10157894819203,2.132395453839353,1.22175758578479,100993.8899625276,287.97060750464027,0.0724,-0.1312,-0.0508,402.71763157894736,0.2161356306174341,0.86,nominal,7253.04770328466,nan,pitch_program,12.145,0.0,0.0
1.74,177.57642723905064,0.03937753642348983,27.67264226155719,118.71719055688754,0.08435678769231018,2.4598940534519653,118.74270305388112,17.632014285687454,-0.20789189441886843,5.998531228285408,0.24026247297124975,-0.14681182647148533,0.8052355729644991,0.18562446556256817,4.786710683459475,-0.11878864071824896,8602.906186251123,0.348841322673231,118.67154829885077,2.1321537593727324,1.2217489246245652,100993.00578018485,287.97012782529987,0.0724,-0.1312,-0.0508,402.68368421052634,0.21611741131113574,0.86,nominal,7321.290681505393,nan,pitch_program,12.13,0.0,0.0
1.77,181.1550420920789,0.0420227668538587,27.745470463628475,119.28716176760872,0.08817434767896241,2.42760673570951,119.31189384026432,17.62553076334812,-0.2131714145098031,5.975000916110136,0.2458712432924513,-0.1564844115411845,0.7836552287515539,0.1888201290740997,4.784512032869702,-0.12262814977036758,8685.566175568121,0.35051473038381065,119.24072311236516,2.1319223877903615,1.2217403771923747,100992.1332093148,287.9696544419864,0.0724,-0.1312,-0.0508,402.64973684210526,0.21609919200483738,0.86,nominal,7389.754123797393,nan,pitch_program,12.115,0.0,0.0
1.7999999999999998,184.7507305784905,0.04478577530665581,27.817380404816294,119.85628288038632,0.09210028175990365,2.396998039593963,119.88028456742545,17.619047787587974,-0.21913470308946026,5.952112181605942,0.25157812880023434,-0.1790122248631296,0.7622386273810334,0.19207700141807443,4.781944110408012,-0.12647070017297218,8768.504614107527,0.3521857883750839,119.80909888719046,2.131701065521921,1.2217319375761306,100991.27164632194,287.96918702736866,0.0724,-0.1312,-0.0508,402.6157894736842,0.216080972698539,0.86,nominal,7458.436627530344,nan,pitch_program,12.1,0.0,0.0
1.8299999999999998,188.3634671239783,0.047669928161086755,27.888422403395246,120.42455151625933,0.09613842848103134,2.3680666192984177,120.44787084047216,17.612565358407018,-0.22559753880816177,5.9298599933350955,0.25738650916894956,-0.1953881580868194,0.7409866559800155,0.195450044748171,4.779017009081866,-0.1303338909666702,8851.719162558571,0.35385448383509316,120.3766712161275,2.131489524828062,1.2217235998686344,100990.42048811437,287.9687252543779,0.0724,-0.1312,-0.0508,402.58184210526315,0.21606275339224065,0.86,nominal,7527.336792563788,nan,pitch_program,12.085,0.0,0.0
1.8599999999999999,191.993226082746,0.05067869875445569,27.958646731965114,120.99196529225667,0.10029235311229773,2.3408109523288956,121.01464836850651,17.60608347580525,-0.23227340797781607,5.9082391870016115,0.26330023323108015,-0.2022008910343927,0.7199043577127833,0.1989512753064768,4.775740163464849,-0.13424443937160624,8935.207485738521,0.3555208042611759,120.94343579593384,2.131287494684021,1.221715358168188,100989.57913216634,287.9682687962422,0.0724,-0.1312,-0.0508,402.54789473684207,0.2160445340859423,0.86,nominal,7596.453222850664,nan,pitch_program,12.07,0.0,0.0
1.89,195.63998173756585,0.05381564814069545,28.028103612025703,121.55852182732843,0.10456497954132549,2.315229335352983,121.58061296750938,17.59960213978267,-0.2390262121665895,5.88724406530259,0.269322656838953,-0.20446600355541192,0.6990102050635463,0.2025615144253721,4.7721225263841545,-0.1382163228658096,9018.967253355395,0.3571847374672292,121.50938842980742,2.1310946738755265,1.2217072065792312,100988.74697658293,287.9678173265218,0.0724,-0.1312,-0.0508,402.51394736842104,0.21602631477964393,0.86,nominal,7665.784527064527,nan,pitch_program,12.055,0.0,0.0
1.92,199.30370830002786,0.057084415014260065,28.096843207551164,122.12421874873361,0.10895889578548716,2.2913198508487396,122.14576056371503,17.59312135033928,-0.24587267417313047,5.866868681627286,0.27545650511502745,-0.2072797155414081,0.6783127456995814,0.20625908849512078,4.768172929184812,-0.1422503239819233,9102.99614096191,0.3588462715945346,122.07452503108372,2.1309107667603704,1.2216991392130923,100987.92342017688,287.9673705191509,0.0724,-0.1312,-0.0508,402.48,0.2160080954733456,0.86,nominal,7735.329319285533,nan,pitch_program,12.040000000000001,0.0,0.0
1.95,202.98437991073845,0.0604887171588789,28.1649156187698,122.68905369035281,0.11347673815396118,2.2690803739545267,122.71008718987954,17.58664110747508,-0.2528825139161322,5.847106861550011,0.2817042342546294,-0.21240951164156502,0.6578194056435196,0.2100355881303285,4.763899905015734,-0.14634254790035992,9187.29182987282,0.3605053951019672,122.63884161991895,2.1307354742609874,1.2216911501887138,100987.10786254221,287.966928048478,0.0724,-0.1312,-0.0508,402.44605263157894,0.2159898761670472,0.86,nominal,7805.086218826729,nan,pitch_program,12.025,0.0,0.0
1.98,206.68197063956282,0.06403235794238123,28.232370875849252,123.25302429414573,0.1181213594500776,2.2485085693150135,123.27358898440134,17.58016141119007,-0.2601035044799534,5.827952152000734,0.2880683982303883,-0.21912348602726633,0.6375391847306284,0.21389488693164155,4.759311469268696,-0.15049095160424344,9271.85200746005,0.3621620967638636,123.20233432257966,2.1305684797613353,1.2216832336333878,100986.2997041295,287.96648958930695,0.0724,-0.1312,-0.0508,402.4121052631579,0.21597165686074887,0.86,nominal,7875.053850397206,nan,pitch_program,12.01,0.0,0.0
2.01,210.39645448604077,0.06771923203054486,28.29925893203025,123.8161282159318,0.12289580293878766,2.2296018726998246,123.83626219437176,17.573682261484247,-0.26754654232685054,5.809397937617443,0.294551790711159,-0.2261915952538378,0.6174772756776958,0.21784515517222916,4.754415203054138,-0.15469673122630026,9356.674368005988,0.3638163656788021,123.76499937444542,2.130409458069348,1.221675383683566,100985.49834632831,287.9660548169418,0.0724,-0.1312,-0.0508,402.37815789473683,0.2159534375544505,0.86,nominal,7945.230844742389,nan,pitch_program,11.995000000000001,0.0,0.0
2.04,214.12780537992492,0.07155332861958918,28.365629656541355,124.37836312947148,0.12780321963481062,2.212357483703531,124.3981031771197,17.567203658357613,-0.2752048925409561,5.791437461618444,0.30115740311881695,-0.23302545244632544,0.5976382735233416,0.22189285170689643,4.749218322592235,-0.15896271218945163,9441.756613331496,0.3654681912737969,124.32683312145188,2.1302580747180513,1.2216675944856783,100984.70319155073,287.96562340723244,0.0724,-0.1312,-0.0508,402.3442105263158,0.21593521824815215,0.86,nominal,8015.61583910398,nan,pitch_program,11.98,0.0,0.0
2.07,217.87599718182165,0.07553873328293205,28.43153282731377,124.93972672989104,0.13284682211142904,2.1967723590804713,124.95910840117102,17.56072560181017,-0.28307407557272934,5.774063824121235,0.307888333329049,-0.23969987356530245,0.5780268682023758,0.22604133543854843,4.743727735157318,-0.16329162730302776,9527.096453346247,0.36711756330689027,124.88783202098965,2.130113985022247,1.2216598601969961,100983.91364331938,287.96519503662245,0.0724,-0.1312,-0.0508,402.3102631578947,0.2159169989418538,0.86,nominal,8086.207477608782,nan,pitch_program,11.965,0.0,0.0
2.1,221.6410036839197,0.0796796298948492,28.497018123490538,125.50021673660163,0.13802988706390515,2.182843205892283,125.51927444677658,17.554248091841913,-0.2911583621590674,5.757270020605604,0.31474773191459393,-0.24650635245006505,0.558646451836981,0.23029224508298152,4.737950104831183,-0.16768552613448937,9612.69160654383,0.3687644718686308,125.44799264242471,2.129976837706703,1.221652174986499,100983.12910635585,287.9647693821973,0.0724,-0.1312,-0.0508,402.27631578947364,0.2158987796355554,0.86,nominal,8157.004411603338,nan,pitch_program,11.95,0.0,0.0
2.13,225.42279861077367,0.08398030322077307,28.562135117860993,126.05983089513195,0.14335577753079576,2.170566479015163,126.07859800548243,17.547771128452847,-0.299467395978042,5.74104895426016,0.32173879631109586,-0.25362382242501225,0.5394999738555721,0.23464709725062283,4.731891863599616,-0.1721460421854148,9698.539800354314,0.3704089073808011,126.00731166668353,2.1298462742222584,1.2216445330357675,100982.34898667173,287.96434612173385,0.0724,-0.1312,-0.0508,402.2423684210526,0.21588056032925707,0.86,nominal,8228.005299867591,nan,pitch_program,11.935,0.0,0.0
2.16,229.22135562014265,0.08844514199170389,28.626933269210326,126.61856697896617,0.14882795903102747,2.159938378311049,126.63707587972186,17.54129471164297,-0.3080112220774379,5.725393450046367,0.32886478612221914,-0.2610654447002903,0.5205898947775157,0.2391079374560039,4.725559217945858,-0.17667481394764567,9784.63877149638,0.37205086059518694,126.56578588585292,2.1297219285235074,1.2216369285398765,100981.57269165985,287.9639249337501,0.0724,-0.1312,-0.0508,402.2084210526316,0.2158623410229587,0.86,nominal,8299.208808827718,nan,pitch_program,11.92,0.0,0.0
2.19,233.03664830388482,0.09307864209441886,28.691461914586444,127.17642279140615,0.15445000342383236,2.1509548458706353,127.19470498244422,17.53481884141228,-0.3167981909604495,5.710296275815638,0.3361290358346573,-0.268774472829704,0.5019179648923076,0.2436772173784438,4.718958169126581,-0.18127366940548628,9870.986266330776,0.3736903225924176,127.1234122028042,2.1296034280762726,1.2216293557083007,100980.7996301865,287.96350549755516,0.0724,-0.1312,-0.0508,402.1744736842105,0.21584412171666034,0.86,nominal,8370.61361277019,nan,pitch_program,11.905,0.0,0.0
2.2199999999999998,236.86865018889975,0.0978854096985212,28.755770261524216,127.73339616716466,0.1602255868034114,2.143611564592429,127.75148233651285,17.52834351776078,-0.3258355148618811,5.6957501532428,0.34353495844795906,-0.2767126895918442,0.48348556840559576,0.2483574899798885,4.7120945300697725,-0.18594458483890874,9957.580041174335,0.3753272847801083,127.6801876305807,2.1294903939381986,1.2216218087658233,100980.0292126843,287.96308749330007,0.0724,-0.1312,-0.0508,402.1405263157895,0.215825902410362,0.86,nominal,8442.218394023354,nan,pitch_program,11.890000000000002,0.0,0.0
2.25,240.717334738114,0.1028701643512083,28.81990738023714,128.28948497380864,0.16615848842290326,2.1379039570975364,128.30740507397897,17.521868740688472,-0.3351304931982569,5.681747769576185,0.35108604465274035,-0.28488272751663896,0.46529369335020965,0.25315127134734083,4.704973945266937,-0.1906895840558629,10044.417862591501,0.3769617388906429,128.23610929166293,2.129382441383422,1.221614281953458,100979.2608512461,287.9626706020284,0.0724,-0.1312,-0.0508,402.1065789473684,0.21580768310406362,0.86,nominal,8514.021843119463,nan,pitch_program,11.875,0.0,0.0
2.28,244.5826753515027,0.10803774213821264,28.8839221958004,128.8446871129568,0.172252592900145,2.1338271854420747,128.8624704351458,17.51539451019535,-0.3446911231814613,5.668281788644963,0.35878586286939773,-0.2933075713284186,0.44734295202332713,0.25806107742214335,4.697601907962863,-0.1955106882015032,10131.49750764938,0.37859367697834945,128.79117441702786,2.129279180541389,1.221606769529358,100978.49395971792,287.9622545057273,0.0724,-0.1312,-0.0508,402.0726315789474,0.21578946379776529,0.86,nominal,8586.02265892586,nan,pitch_program,11.86,0.0,0.0
2.31,248.46464536714043,0.11339309896864525,28.947863480347486,129.39900052125822,0.17851189434775327,2.1313761515694836,129.41667576744695,17.508920826281418,-0.3545260234633449,5.655344858984729,0.3666380616569194,-0.30200765105899147,0.42963367490360765,0.2630895046275879,4.689983771972141,-0.2004099237550494,10218.816764139041,0.3802230914161364,129.34538034502464,2.129180216722754,1.2215992657697319,100977.7279537923,287.9618388873777,0.0724,-0.1312,-0.0508,402.03868421052636,0.21577124449146692,0.86,nominal,8658.219548747795,nan,pitch_program,11.845,0.0,0.0
2.34,252.3632180622778,0.11894131398519722,29.011779845291468,129.95242317124584,0.18494050055173267,2.130545498132708,129.97001852422315,17.502447688946674,-0.3646441457680762,5.642929622290011,0.37464637328105765,-0.3109937711386284,0.41216589972544526,0.26823926605364923,4.682124762805722,-0.20538934896466407,10306.373430775295,0.3818499748918307,129.89872452014944,2.129085150918904,1.2215917649697603,100976.96225110188,287.9614234310056,0.0724,-0.1312,-0.0508,402.0047368421053,0.21575302518516856,0.86,nominal,8730.611228413281,nan,pitch_program,11.83,0.0,0.0
2.37,256.2783666544394,0.12468759307951617,29.075719733585814,130.50495307205458,0.19154263647729827,2.1313296098115626,130.5224962633891,17.49597509819112,-0.3750546235854282,5.631028720496447,0.38281461699014774,-0.3202716800564296,0.39493941764352064,0.2735131799372702,4.674029987503162,-0.2104510689334321,10394.16531737273,0.3834743204041886,130.4512044917093,2.128993580228638,1.2215842614444974,100976.19627131142,287.96100782173164,0.0724,-0.1312,-0.0508,401.9707894736842,0.21573480587887017,0.86,nominal,8803.196422338577,nan,pitch_program,11.815,0.0,0.0
2.4,260.21006430254016,0.13063727250099777,29.13973141203636,131.0565882700239,0.19832264738271996,2.1337226150183213,131.0741066460072,17.489503054014754,-0.3857667967991369,5.619634801850234,0.3911467015838898,-0.32984793716109834,0.3779538069076582,0.2789141457885217,4.665704443804363,-0.21559723575874642,10482.190245000664,0.3850961212586355,131.00281791239357,2.128905098288021,1.2215767495297793,100975.42943621044,287.9605917458217,0.0724,-0.1312,-0.0508,401.9368421052631,0.2157165865725718,0.86,nominal,8875.97386357628,nan,pitch_program,11.8,0.0,0.0
2.4299999999999997,264.15828410801583,0.1367958225616826,29.203862963675103,131.60732684918918,0.20528500202282746,2.1377183879580115,131.62484743477418,17.483031556417576,-0.39679029561389756,5.608740526447939,0.39964662763747055,-0.3397318903643941,0.36120844980838496,0.28444513331252397,4.65715302882636,-0.22083004350945748,10570.446046117055,0.38671537106274567,131.5535625367575,2.1286732104845303,1.2215692235831108,100974.6611698039,287.9601748907361,0.0724,-0.1312,-0.0508,401.9028947368421,0.21569836726627348,0.86,nominal,8948.942293846514,nan,pitch_program,11.785,0.0,0.0
2.46,268.12299943978144,0.14316865566020806,29.26815899684367,132.15717772551935,0.2124277699508489,2.1432011056188784,132.17472549966232,17.476560605399587,-0.40821347066902103,5.60236906854566,0.4083830773935423,-0.3523268011078173,0.2103407100363718,0.29130720080632166,4.652459253650536,-0.2261838385493058,10658.932013556885,0.3883320900389478,132.10344517723826,2.1288796642206873,1.221561678369863,100973.89093773587,287.9597569665205,0.0724,-0.1312,-0.0508,401.86894736842106,0.21568014795997512,0.86,nominal,9022.101621881939,nan,pitch_program,11.77,0.0,0.0
2.4899999999999998,272.1041807758301,0.14976134634261426,29.332677118994326,132.7060445349553,0.21975635608020636,2.1506040716885626,132.7236514222041,17.470090200960787,-0.4201201199262208,5.597062870983855,0.417389919543158,-0.3675926650025736,0.17470878644215662,0.3000660746622511,4.647986978961574,-0.2317082900476524,10747.63187981034,0.38994601607909746,132.65237658208616,2.1289533850926072,1.2215541071300569,100973.1180499428,287.9593375987265,0.0724,-0.1312,-0.0508,401.835,0.21566192865367675,0.86,nominal,9095.439121490355,nan,pitch_program,11.755,0.0,0.0
2.52,276.1017985966522,0.15657970733235385,29.397472045939892,133.25392736073712,0.22727869965798636,2.1598308981855676,133.271623694531,17.463620343101177,-0.43254937750086764,5.594365625353464,0.42672753834985233,-0.383958693955016,0.08760073334033948,0.3104311630620033,4.645332679978383,-0.23744585385647674,10836.543412706396,0.3915571448783051,133.20035520254777,2.1292101837774937,1.221546503443176,100972.34185101822,287.95891643170137,0.0724,-0.1312,-0.0508,401.80105263157895,0.2156437093473784,0.86,nominal,9168.953560327656,nan,pitch_program,11.74,0.0,0.0
2.55,280.11582195433454,0.1636298961667039,29.462603932329262,133.80077858941098,0.23500629447833477,2.1710628796456892,133.81859771017778,17.457151031820754,-0.4455107432054206,5.593543296515875,0.4364257541781492,-0.4005334715920546,0.02494488503868536,0.3219349232578948,4.6436947106190924,-0.2434264213990182,10925.657348732528,0.393165345797326,133.74733650379324,2.1295264187035583,1.2215388602505852,100971.56162041918,287.95849307443984,0.0724,-0.1312,-0.0508,401.7671052631579,0.21562549004108003,0.86,nominal,9242.637991412175,nan,pitch_program,11.725000000000001,0.0,0.0
2.58,284.1462190957929,0.17091840940978337,29.528134922582186,134.3465713819448,0.24295044143598266,2.1843663417641004,134.36454786630296,17.45068226711952,-0.45901578651054037,5.594392480990552,0.44650564419049515,-0.41741582031115265,-0.030944790904140308,0.33416236115280107,4.642852288580614,-0.24966716276390843,11014.967414805165,0.3947705439380688,134.29329490870376,2.129898190961835,1.2215311702602896,100970.7766137854,287.9580671230032,0.0724,-0.1312,-0.0508,401.73315789473685,0.2156072707347817,0.86,nominal,9316.48794599655,nan,pitch_program,11.71,0.0,0.0
2.61,288.19295756468404,0.17845207138786554,29.594128853831364,134.89128229637106,0.2511220659360722,2.1997977083059044,134.90945189944526,17.444214048997477,-0.4730889227188091,5.597055325323155,0.45698361928178644,-0.4350481110406707,-0.0915859526335649,0.34686798581077627,4.642934707640568,-0.2561770456392564,11104.467818833977,0.3963726742174249,134.83820817501802,2.13036725421936,1.2215234259818004,100969.98606649869,287.95763816245005,0.0724,-0.1312,-0.0508,401.6992105263158,0.21558905142848334,0.86,nominal,9390.499369628795,nan,pitch_program,11.695,0.0,0.0
2.6399999999999997,292.25600404300843,0.1862380298245436,29.660652230681663,135.43488261081245,0.2595319478892689,2.217445895009934,135.45328290939952,17.437746377454623,-0.4877615697445507,5.601116695180212,0.46786920683951555,-0.4536857568714035,-0.1384022082577081,0.359973900633194,4.643500403433213,-0.2629623642661232,11194.151943711102,0.3979716579740395,135.38204943587547,2.1308759243535196,1.2215156196117616,100969.18918200754,287.9572057605005,0.0724,-0.1312,-0.0508,401.6652631578947,0.21557083212218495,0.86,nominal,9464.667560664926,nan,pitch_program,11.68,0.0,0.0
2.67,296.33532467318935,0.19428374463679496,29.727772588022468,135.9773543393647,0.2681904937417119,2.2373452446935556,135.9960239603277,17.431279252490956,-0.5030658510310483,5.606692043638659,0.4791767046434361,-0.47333653567869866,-0.18908143398098476,0.37349428918294963,4.644661929042313,-0.2700299138461468,11284.014752589925,0.3995674457832459,135.924801767051,2.131463653453758,1.2215077432260752,100968.38515143999,287.9567694781778,0.0724,-0.1312,-0.0508,401.63131578947366,0.21555261281588659,0.86,nominal,9538.989127559345,nan,pitch_program,11.665,0.0,0.0
2.6999999999999997,300.430884915836,0.20259700018837243,29.795559396138415,136.51867475488837,0.277108518385916,2.2595602705316113,136.53765399543863,17.42481267410648,-0.5190322550816941,5.613526324214732,0.49091923747168076,-0.49394905979395864,-0.23127477056635676,0.3874955291804976,4.646148692250486,-0.27738862175381196,11374.050478703255,0.4011599761545401,136.46644413522444,2.1320961030450523,1.2214997886736936,100967.57314276209,287.9563288639251,0.0724,-0.1312,-0.0508,401.59736842105264,0.21553439350958825,0.86,nominal,9613.460101841201,nan,pitch_program,11.65,0.0,0.0
2.73,304.5426497447031,0.21118591288185695,29.864083084555396,137.05882762890397,0.28629708978281787,2.2841229472327296,137.0781580510597,17.41834664230119,-0.5356920012086952,5.621621967946675,0.5031141787302048,-0.5155335292281696,-0.27356683352500205,0.40204490973140417,4.647961518235144,-0.2850492995120182,11464.25431832604,0.4027492054814736,137.006961587791,2.1327889295297178,1.221491747691181,100966.75231247267,287.95588345995037,0.0724,-0.1312,-0.0508,401.56342105263155,0.21551617420328986,0.86,nominal,9688.077317716807,nan,pitch_program,11.635,0.0,0.0
2.76,308.6705836096594,0.2200589503440468,29.9334153471118,137.59779549854187,0.2957679154063278,2.3110754185468103,137.6175202301965,17.411881157075094,-0.5530786277071656,5.630838079105785,0.5157793908552387,-0.538164937846012,-0.3111816653496217,0.4172022147628837,4.649953726907947,-0.2930242346346051,11554.621272983431,0.4043350874374907,137.54633824324037,2.1335267657777193,1.2214836118669212,100965.92180194972,287.9554328002437,0.0724,-0.1312,-0.0508,401.52947368421053,0.21549795489699153,0.86,nominal,9762.837464768028,nan,pitch_program,11.620000000000001,0.0,0.0
2.79,312.8146505354997,0.2292249474866424,30.003628680468243,138.13556419467773,0.3055332380865205,2.3404444452146924,138.15572780794375,17.405416218428183,-0.5712284979458971,5.64113070324172,0.5289349435831776,-0.5619296919692983,-0.3473525882817684,0.4330114686923814,4.652082130205404,-0.30132665785508383,11645.146837851184,0.40591758501334846,138.08456138672625,2.134313230303532,1.2214753726952794,100965.08074297979,287.95497641357696,0.0724,-0.1312,-0.0508,401.49552631578945,0.21547973559069317,0.86,nominal,9837.737648270635,nan,pitch_program,11.605,0.0,0.0
2.82,316.97481413291393,0.23869312623419522,30.07479640421297,138.67211991380807,0.315605958251761,2.3722574581576183,138.69276857124973,17.398951826360463,-0.5901802022102305,5.652409105205606,0.5426015244345478,-0.5868992537243604,-0.38052206430937674,0.44950858022704787,4.654256525210931,-0.30997054297458404,11735.826562908898,0.4074966627155964,138.62161881609916,2.135140679709326,1.2214670215742467,100964.22825751748,287.95451382337257,0.0724,-0.1312,-0.0508,401.4615789473684,0.2154615162843948,0.86,nominal,9912.775029136492,nan,pitch_program,11.59,0.0,0.0
2.85,321.151037656157,0.24847311359866303,30.14699241416043,139.20745077476798,0.32599957881559394,2.4065336649152758,139.2286322248955,17.39248798087193,-0.609974309136865,5.6646216012883315,0.5568011394487277,-0.6131345178576533,-0.4119938764351195,0.4667248563723898,4.656429212757434,-0.3189704924625935,11826.656293436345,0.40907229068854506,139.15750024448147,2.1360087569091593,1.2214585498344033,100963.36346064258,287.9540445493079,0.0724,-0.1312,-0.0508,401.4276315789474,0.21544329697809647,0.86,nominal,9987.947018765932,nan,pitch_program,11.575,0.0,0.0
2.88,325.3432840260123,0.25857496130266544,30.22029112146884,139.74154566184512,0.3367282568000799,2.443290243613698,139.76330933794824,17.38602468196259,-0.6306534494992115,5.677699409352913,0.5715565848220195,-0.6407007970979021,-0.44120023245210155,0.4846926457625503,4.658536240518878,-0.3283417635213227,11917.631997118026,0.41064444162407326,139.69219624913384,2.1369123561178354,1.2214499487460668,100962.48546128978,287.95356810771045,0.0724,-0.1312,-0.0508,401.3936842105263,0.21542507767179808,0.86,nominal,10063.251136473857,nan,pitch_program,11.56,0.0,0.0
2.9099999999999997,329.551515871081,0.26900916521382673,30.294767285388286,140.2743948356216,0.3478067970387091,2.4825387973148927,140.29679189114805,17.379561929632434,-0.6522626607364571,5.691595099538978,0.5868919249085971,-0.6696732738688431,-0.46885531251832874,0.5034466844128629,4.6605373056032855,-0.3381003101190583,12008.74986069484,0.41221309236610243,140.22569881751792,2.137850114499616,1.2214412095389267,100961.59336425328,287.953084012645,0.0724,-0.1312,-0.0508,401.3597368421053,0.21540685836549975,0.86,nominal,10138.685087073303,nan,pitch_program,11.545,0.0,0.0
2.94,333.7756955505239,0.27978668641115995,30.370495942397223,140.80598931476283,0.35925070657777325,2.524288566964625,140.8290727113851,17.37309972388147,-0.6748496028860581,5.706251759045181,0.6028322798449909,-0.7001349444184902,-0.49464564835964037,0.5230255671032825,4.662383576540176,-0.34826287533595995,12100.006197728688,0.413778222251583,140.75800078304474,2.138817755144504,1.221432323410368,100960.68627103682,287.9525917763744,0.0724,-0.1312,-0.0508,401.3257894736842,0.21538863905920136,0.86,nominal,10214.246684407804,nan,pitch_program,11.53,0.0,0.0
2.9699999999999998,338.0157851874883,0.2909189729020458,30.447552272976164,141.33632123214656,0.37107621636286225,2.568544352631373,141.36014578758156,17.366638064709694,-0.6984647252227904,5.72162850377135,0.6194042095989468,-0.7321730225957787,-0.5191084815062168,0.5434709794432289,4.66404404934548,-0.3588470621822732,12191.397505980702,0.41533981403625614,141.28909614020924,2.139813814182723,1.2214232815411155,100959.76328145083,287.95209091022565,0.0724,-0.1312,-0.0508,401.29184210526313,0.215370419752903,0.86,nominal,10289.933897040937,nan,pitch_program,11.515,0.0,0.0
3.0,342.2717466885391,0.30241798318456614,30.526011539986072,141.86538336836014,0.38330034275067676,2.6153089003302266,141.89000584272557,17.360176952117108,-0.7231613700923917,5.737676092180376,0.6366355339935321,-0.7658786970859571,-0.5419684252958878,0.5648278944178639,4.66548017543931,-0.3698714142105292,12282.920397360947,0.4168978526390947,141.8189796175786,2.1408342861189773,1.22141407510247,100958.82349435132,287.9515809249901,0.0724,-0.1312,-0.0508,401.2578947368421,0.21535220044660466,0.86,nominal,10365.744790092951,nan,pitch_program,11.5,0.0,0.0
3.03,346.54354177242413,0.3142962106937462,30.605948973398082,142.39316946283452,0.39594091697266853,2.6645811137336164,142.41864860822446,17.35371638610371,-0.7489959642832752,5.754360118325134,0.6545556885749025,-0.8013482699004347,-0.5637235652765828,0.5871436668574537,4.666669781764812,-0.3813554613896469,12374.571648101008,0.4184523259463854,142.34764695151253,2.141877933595076,1.221404695269844,100957.86600902201,287.9510613316729,0.0724,-0.1312,-0.0508,401.223947368421,0.21533398114030627,0.86,nominal,10441.67756519643,nan,pitch_program,11.485,0.0,0.0
3.06,350.83113198549046,0.3265667102301402,30.68743972320994,142.91967376887774,0.4090166512131346,2.71635832706195,142.9460704160293,17.3472563666695,-0.7760281977833968,5.771636440528436,0.6731955091393577,-0.8386846339643058,-0.5840532327467137,0.6104685507748076,4.667581575259067,-0.3933197826458897,12466.348131105426,0.42000322361512865,142.8750944791918,2.1429407429299987,1.2213951332282968,100956.88992573954,287.9505316417991,0.0724,-0.1312,-0.0508,401.19,0.21531576183400794,0.86,nominal,10517.730504453823,nan,pitch_program,11.47,0.0,0.0
3.09,355.13447872760764,0.33924312530172274,30.770558753483716,143.44489140390658,0.42254716905275114,2.7706343424591515,143.4722685073608,17.34079689381448,-0.8043212693581605,5.789476890826097,0.6925876385229356,-0.8779974117873661,-0.6034941919985793,0.6348550990252217,4.668201652524026,-0.4057860445650791,12558.246872019396,0.42155053797800196,143.40131944664705,2.1440219418063964,1.2213853801849772,100955.89434704396,287.94999136810236,0.0724,-0.1312,-0.0508,401.156052631579,0.21529754252770958,0.86,nominal,10593.90201532397,nan,pitch_program,11.455,0.0,0.0
