time_s,x_m,y_m,altitude_m,vx_mps,vy_mps,vz_mps,speed_mps,mass_kg,roll_deg,pitch_deg,yaw_deg,p_dps,q_dps,r_dps,alpha_deg,beta_deg,qbar_pa,mach,airspeed_mps,load_factor_g,density_kgpm3,pressure_pa,temperature_k,wind_x_mps,wind_y_mps,wind_z_mps,thrust_n,mass_flow_kgps,propulsion_throttle_actual,propulsion_health,energy_j_per_kg,target_distance_m,guidance_mode,pitch_command_deg,heading_command_deg,roll_command_deg,elevator_command_deg,aileron_command_deg,rudder_command_deg,elevator_deg,aileron_deg,rudder_deg,throttle,elevator_saturated,aileron_saturated,rudder_saturated,elevator_failed,aileron_failed,rudder_failed,elevator_raw_rad,aileron_raw_rad,rudder_raw_rad,elevator_effective_rad,aileron_effective_rad,rudder_effective_rad,sensor_time_s,imu_valid,imu_ax_mps2,imu_ay_mps2,imu_az_mps2,gyro_p_rps,gyro_q_rps,gyro_r_rps,imu_accel_norm_mps2,imu_gyro_norm_rps,gps_valid,gps_latency_s,gps_x_m,gps_y_m,gps_z_m,gps_vx_mps,gps_vy_mps,gps_vz_mps,baro_valid,baro_alt_m,baro_bias_m,pitot_valid,pitot_airspeed_mps,pitot_qbar_pa,pitot_compressibility_factor,mag_valid,mag_heading_deg,mag_x_ut,mag_y_ut,mag_z_ut,radar_valid,radar_agl_m,optical_flow_valid,optical_flow_x_radps,optical_flow_y_radps,optical_flow_quality,horizon_valid,horizon_roll_deg,horizon_pitch_deg
0.0,0.0,0.0,20.0,85.0,0.0,8.0,85.37564055396598,18.1660882792304,0.0,6.000000000000002,0.0,0.0,0.0,0.0,0.670573726876594,-0.07903107478510403,4463.786944728638,0.25116517384833953,85.4507164248922,1.7293850586404564,1.2226496753673843,101084.96761777384,288.02,-0.08124286468442743,0.11786661907968898,0.06317710994907,326.8,0.17539118863220368,0.86,nominal,3840.633,nan,pitch_program,13.0,0.0,0.0,-20.05352282957881,-0.0,-0.06717641356733842,-2.6999999999999997,0.0,-0.04030584814040305,0.86,0.0,0.0,0.0,0.0,0.0,0.0,-0.047123889803846894,0.0,-0.0007034697578588669,-0.047123889803846894,0.0,-0.0007034697578588669,0.0,1.0,16.911415270186744,0.04632934279356251,0.22884005925179307,0.0020496890485300055,0.0034670290373362495,0.0014289454661326477,16.913026950295663,0.004273570016576025,1.0,0.0,-0.6470631796003397,1.3313514358594836,21.640168148178226,85.17703608167885,0.05225276163995546,7.880257797746393,1.0,19.512552440544518,0.0,1.0,85.4933992298977,4444.279135840035,1.0,1.0,1.4356082144579825,19.448508450116893,0.02515073517330344,-43.862311760623584,1.0,19.865327484861723,1.0,0.014473502116766398,4.261962511288229,0.95,1.0,0.5447866360085145,6.047405196481685
0.03,2.565157913911409,1.1456234691200727e-05,20.232966487473885,85.50526379704696,0.0003818744897066909,7.765549582462777,85.85717149700487,18.160826543571435,0.0007312164932377396,6.261721656952381,-0.0010268115047986433,0.02071843730646661,-8.724070618379283,-0.0339757106024041,1.119230582825431,-0.07732499379868328,4514.160295420485,0.25258187369718477,85.93247620620006,1.7575471244361451,1.2226223181553226,101082.17435813956,288.0184857178314,-0.08124286468442743,0.11786661907968898,0.06317710994907,332.605,0.1785066900092231,0.86,nominal,3884.144569537439,nan,pitch_program,12.985,0.0,0.0,-0.5927489693381786,-0.017635204759715715,-0.07965874829298775,-1.4356493816029072,0.0,-0.06391758823195386,0.86,0.0,0.0,0.0,0.0,0.0,0.0,-0.025056808613191237,0.0,-0.0011155723645815759,-0.025056808613191237,0.0,-0.0011155723645815759,0.03,1.0,17.22341632424034,0.00911650304858987,0.7273954106718202,-0.0017489201511032288,-0.15036751287425335,-9.950279581022502e-07,17.238771913109208,0.15037768335319493,1.0,0.0,-0.6470631796003397,1.3313514358594836,21.640168148178226,85.17703608167885,0.05225276163995546,7.880257797746393,1.0,19.512552440544518,0.0,1.0,85.7012575653924,4492.4461583364955,1.0,1.0,1.4356082144579825,19.448508450116893,0.02515073517330344,-43.862311760623584,1.0,19.865327484861723,1.0,0.014473502116766398,4.261962511288229,0.95,1.0,0.5447866360085145,6.047405196481685
0.06,5.145653174642071,3.2289091686346925e-05,20.459428785120448,86.01650869102207,0.0006944285665048734,7.548743254885491,86.34710934711761,18.15547134287116,0.0021528903895084222,6.5693615213001735,-0.002705980158277381,0.04113484837082406,-10.2546881788164,-0.055363874714282044,1.6004074691306516,-0.07504622025266586,4565.704421479174,0.2540232226910048,86.42262581512209,1.786569130659452,1.2225957251779531,101079.45914340978,288.0170137128967,-0.08124286468442743,0.11786661907968898,0.06317710994907,338.40999999999997,0.18162219138624247,0.86,nominal,3928.550103597144,nan,pitch_program,12.97,0.0,0.0,0.11980245594837761,-0.03445775492141886,-0.08581797619394071,-0.5023782790721364,0.0,-0.07705782100914596,0.86,0.0,0.0,0.0,0.0,0.0,0.0,-0.008768155060311703,0.0,-0.0013449126910220566,-0.008768155060311703,0.0,-0.0013449126910220566,0.06,1.0,17.499387816902587,-0.060667897658972104,1.2050939778755858,0.001650554619232915,-0.17919976957505174,-0.002156012759946163,17.540938003871887,0.17922033963064504,1.0,0.0,-0.6470631796003397,1.3313514358594836,21.640168148178226,85.17703608167885,0.05225276163995546,7.880257797746393,1.0,20.987841748947595,0.0,1.0,86.34673449841021,4540.987540248348,1.0,1.0,-0.18877188112678678,19.03005350315998,0.10544209811934728,-44.059846290660396,1.0,20.602893690745262,1.0,-0.01665696899459998,4.224983447553027,0.9488514280371989,1.0,-0.02309409702215544,6.398314778160573
0.09,7.741653993817309,6.0817795361282346e-05,20.67993129300962,86.53336063917462,0.0009509567891645141,7.350083596305792,86.84495514010274,18.150022677129574,0.004227680249047177,6.759904676870411,-0.004792257328354675,0.06108870250498158,-6.351448209728876,-0.06871907757519394,1.9509172639769254,-0.07243623962046607,4618.3811534708575,0.25548775544656804,86.92066621663521,1.8161137400579705,1.2225698324709886,101076.81544151124,288.01558044659544,-0.08124286468442743,0.11786661907968898,0.06317710994907,344.215,0.18473769276326188,0.86,nominal,3973.8239648578215,nan,pitch_program,12.955,0.0,0.0,-1.1349403375146152,-0.05030976933673146,-0.08800206554657088,-0.8819155141376237,0.0,-0.08362436773160091,0.86,0.0,0.0,0.0,0.0,0.0,0.0,-0.015392329446120134,0.0,-0.0014595205518149377,-0.015392329446120134,0.0,-0.0014595205518149377,0.09,1.0,17.768800981582963,-0.013471266270325868,1.4595193027341895,0.0008439948199602861,-0.11007366097781549,-0.0049678657807968925,17.828647351753084,0.11018894163540728,1.0,0.0,-0.6470631796003397,1.3313514358594836,21.640168148178226,85.17703608167885,0.05225276163995546,7.880257797746393,1.0,20.987841748947595,0.0,1.0,87.03480550283997,4671.014316018059,1.0,1.0,-0.18877188112678678,19.03005350315998,0.10544209811934728,-44.059846290660396,1.0,20.602893690745262,1.0,-0.01665696899459998,4.224983447553027,0.9488514280371989,1.0,-0.02309409702215544,6.398314778160573
0.12,10.353367133413544,9.55802499067144e-05,20.894778291719003,87.05710465320784,0.0011587484848477351,7.161566623646053,87.35117348065337,18.144480546346674,0.006918165557558237,6.856790977251162,-0.0071299650101552,0.08044510484073362,-3.229551626869497,-0.077059994398331,2.1996867606718125,-0.06964423712853811,4672.255172819095,0.25697685835208095,87.4270688206129,1.8459289926445066,1.222544604270836,101074.2395998626,288.0141839411038,-0.08124286468442743,0.11786661907968898,0.06317710994907,350.02,0.1878531941402813,0.86,nominal,4020.0215317580873,nan,pitch_program,12.94,0.0,0.0,-2.1685973862468195,-0.06508262963821676,-0.08773788979477197,-1.6539246374031413,-0.039049577782930056,-0.08609248096950355,0.86,0.0,0.0,0.0,0.0,0.0,0.0,-0.028866430502538173,-0.0006815437038257571,-0.0015025972541283968,-0.028866430502538173,-0.0006815437038257571,-0.0015025972541283968,0.12,1.0,18.040280693031878,0.0036495778995530356,1.566738835995895,0.0014056432348975598,-0.053987979511064356,-0.002635503251441764,18.108186308490847,0.05407054320033486,1.0,0.0,-0.6470631796003397,1.3313514358594836,21.640168148178226,85.17703608167885,0.05225276163995546,7.880257797746393,1.0,20.350102074906836,0.0,1.0,88.07814704029614,4595.799349158465,1.0,1.0,-0.5256151104327333,18.825953734767598,-0.018976636061294624,-44.12527990838515,1.0,20.853201769808862,1.0,0.004839182370483748,4.19023853222824,0.9477630542707025,1.0,0.19126844601113746,7.058342473073739
0.15,12.981025386255155,0.00013523733296322987,21.104144093268154,87.58860842805367,0.001321902768550516,6.978860051638349,87.86619836848921,18.138844950522465,0.009468574048298846,6.940607952848415,-0.009628427724289413,0.07501024330883305,-2.793911480013698,-0.08227962392120348,2.4302603336683726,-0.06673363658773976,4727.388998055991,0.25849181823538825,87.94227128583663,1.8762725775320386,1.222520020078099,101071.7295244692,288.01282306339374,-0.08124286468442743,0.11786661907968898,0.06317710994907,355.825,0.1909686955173007,0.86,nominal,4067.195362537596,nan,pitch_program,12.925,0.0,0.0,-2.26932556968859,-0.05726681394462106,-0.08591762393345467,-2.0231651967744106,-0.015619831113172025,-0.08598756674787424,0.86,0.0,0.0,0.0,0.0,0.0,0.0,-0.03531089399547242,-0.00027261748153030284,-0.0015007661555287981,-0.03531089399547242,-0.00027261748153030284,-0.0015007661555287981,0.15,1.0,18.391624116802628,0.0013512114639747837,1.7880878490705492,0.0008394554290603459,-0.04713455131408551,-0.005130920490532379,18.478341311803995,0.04742042764545364,1.0,0.0,-0.6470631796003397,1.3313514358594836,21.640168148178226,85.17703608167885,0.05225276163995546,7.880257797746393,1.0,20.350102074906836,0.0,1.0,87.9766922848631,4659.310465669398,1.0,1.0,-0.5256151104327333,18.825953734767598,-0.018976636061294624,-44.12527990838515,1.0,20.853201769808862,1.0,0.004839182370483748,4.19023853222824,0.9477630542707025,1.0,0.19126844601113746,7.058342473073739
0.18,15.624859237532846,0.0001785228579043231,21.308231089244394,88.12779504258972,0.0014428508313697745,6.802899865874694,88.38997515406166,18.133115889656946,0.012286878280848384,7.036775085287957,-0.0122319202968835,0.08338427396265675,-3.2055881303904994,-0.0855297476977068,2.667495614997464,-0.06377816705842947,4783.793196076129,0.2600324731027525,88.4662183313353,1.9070905649225474,1.2224960560983391,101069.28278497567,288.0114964979199,-0.08124286468442743,0.11786661907968898,0.06317710994907,361.63,0.19408419689432013,0.86,nominal,4115.3562182791575,nan,pitch_program,12.91,0.0,0.0,-2.066510271747841,-0.06191165376875967,-0.08313272315600369,-2.0491722417584692,-0.04339492470652461,-0.08427466059275189,0.86,0.0,0.0,0.0,0.0,0.0,0.0,-0.03576480255915852,-0.0007573843147838885,-0.0014708703033442367,-0.03576480255915852,-0.0007573843147838885,-0.0014708703033442367,0.18,1.0,18.577557082072776,0.041098735796012496,1.9041547206310956,0.004402874405174032,-0.05717639382675775,-0.0015707660864979229,18.674932970264123,0.05736717371597393,1.0,0.0,-0.6470631796003397,1.3313514358594836,21.640168148178226,85.17703608167885,0.05225276163995546,7.880257797746393,1.0,20.09541849470333,0.0,1.0,88.26605963167181,4793.023044714077,1.0,1.0,-1.0786287682689157,18.722960625105532,0.04596536869204897,-44.12249506186454,1.0,21.421281857561496,1.0,0.004572056428603596,4.1609556832011245,0.946729422276889,1.0,0.5563532482611446,6.689612405490274
0.21,18.285091020000934,0.00022419106964205362,21.507289853342876,88.67439274893631,0.0015222737245910176,6.635292136616002,88.92229772924317,18.127293363750116,0.01481785817830363,7.12413041430616,-0.014899116735289547,0.07340711254256137,-2.911865652739377,-0.08753982542669642,2.889247075705959,-0.06078890412724786,4841.461916979964,0.2615982144417388,88.99870271587254,1.938098129515975,1.2224726828818524,101066.89637369162,288.01020261595323,-0.08124286468442743,0.11786661907968898,0.06317710994907,367.435,0.19719969827133954,0.86,nominal,4164.501980764367,nan,pitch_program,12.895,0.0,0.0,-2.115457752192088,-0.05000319332489544,-0.07976224319592051,-2.0889435480186402,-0.017357969882609844,-0.08156721015465307,0.86,0.0,0.0,0.0,0.0,0.0,0.0,-0.036458942801217545,-0.0003029537259135554,-0.0014236163788648492,-0.036458942801217545,-0.0003029537259135554,-0.0014236163788648492,0.21,1.0,18.885405172504182,0.05723339308617079,2.1427546655561907,0.0030169537393592294,-0.05236512740447323,-0.0005669227609013835,19.006662035920318,0.05245502816097781,1.0,0.0,18.186977528098314,0.5407687912819994,20.858077014130867,88.79083514050659,-0.057142797129389446,6.647448774974975,1.0,20.09541849470333,0.0,1.0,89.1656616985033,4784.9185558772,1.0,1.0,-1.0786287682689157,18.722960625105532,0.04596536869204897,-44.12249506186454,1.0,21.421281857561496,1.0,0.004572056428603596,4.1609556832011245,0.946729422276889,1.0,0.5563532482611446,6.689612405490274
0.24,20.96194482245396,0.0002710059493644659,21.70156136244262,89.2284600817676,0.0015604959907470767,6.475716969991557,89.46313766727711,18.121377372801977,0.017530483087603434,7.1863436232124815,-0.01760245254811125,0.07919675008011536,-2.073798991389632,-0.08882403510043382,3.0794722068825817,-0.057807941305854496,4900.408663257687,0.2631889605108613,89.53969641982489,1.9691175843368396,1.2224498721081518,101064.56739829466,288.0089398511441,-0.08124286468442743,0.11786661907968898,0.06317710994907,373.24,0.20031519964835895,0.86,nominal,4214.646117372086,nan,pitch_program,12.88,0.0,0.0,-2.368958882764478,-0.05243366839025496,-0.07608708105866312,-2.256952748866143,-0.006943187953043938,-0.0782791326970591,0.86,0.0,0.0,0.0,0.0,0.0,0.0,-0.03939125652965091,-0.00012118149036542217,-0.0013662286011692302,-0.03939125652965091,-0.00012118149036542217,-0.0013662286011692302,0.24,1.0,19.294952851584668,0.014534848457155537,2.2398607269245514,-0.0021655458965955843,-0.03342435496631782,0.0017288326470854157,19.424530699162695,0.03353902139696841,1.0,0.0,18.186977528098314,0.5407687912819994,20.858077014130867,88.79083514050659,-0.057142797129389446,6.647448774974975,1.0,22.85321358883543,0.0,1.0,89.75116940948352,4846.098401099218,1.0,1.0,-0.9132844028598215,18.59921339547543,0.012412802980145781,-44.19779198652655,1.0,21.780507313876864,1.0,-0.011624302386495412,4.1242817425840865,0.9457460965938934,1.0,0.32678389588998363,7.107375271692142
0.27,23.655652687921897,0.00031771760136589677,21.891247723017102,89.79026218226448,0.0015570550667143627,6.3228786858159935,90.01261011691508,18.115367916812527,0.020599984923336655,7.228281228572751,-0.020328417600593614,0.09091675470046041,-1.3979501607826115,-0.08968238752079813,3.243950643766492,-0.054857996040313384,4960.6630386306,0.2648050536693416,90.08931574352954,2.0002105749936883,1.2224276000229302,101062.29343273533,288.0077068898004,-0.08124286468442743,0.11786661907968898,0.06317710994907,379.045,0.20343070102537836,0.86,nominal,4265.814794512808,nan,pitch_program,12.865,0.0,0.0,-2.577004100970195,-0.059961434986642165,-0.0722438464723797,-2.4489835601285743,-0.03875413617320288,-0.07465796096225147,0.86,0.0,0.0,0.0,0.0,0.0,0.0,-0.04274282645145615,-0.0006763872749886256,-0.001303027231616682,-0.04274282645145615,-0.0006763872749886256,-0.001303027231616682,0.27,1.0,19.4494916710017,0.05325691599499008,2.4708214530126003,0.0017679170850692983,-0.025270792336565207,-0.0038296854938761555,19.605879761238285,0.025620401384823934,1.0,0.0,18.186977528098314,0.5407687912819994,20.858077014130867,88.79083514050659,-0.057142797129389446,6.647448774974975,1.0,22.85321358883543,0.0,1.0,89.82795521764554,4956.359845982352,1.0,1.0,-0.9132844028598215,18.59921339547543,0.012412802980145781,-44.19779198652655,1.0,21.780507313876864,1.0,-0.011624302386495412,4.1242817425840865,0.9457460965938934,1.0,0.32678389588998363,7.107375271692142
0.3,26.366452287373974,0.0003630445340812725,22.076527468073817,90.35998664840253,0.0015108977571791917,6.175991501890517,90.57080136784546,18.109264995781764,0.0233746581071376,7.26023824382527,-0.023071735165788736,0.08095806565507312,-1.0652686027579537,-0.09030518798555259,3.39354676388184,-0.05190956209585757,5022.251992960713,0.26644675014104163,90.64764770408046,2.031463184119935,1.222405845641593,101060.07233380727,288.0065025714575,-0.08124286468442743,0.11786661907968898,0.06317710994907,384.84999999999997,0.20654620240239774,0.86,nominal,4318.0318083016455,nan,pitch_program,12.850000000000001,0.0,0.0,-2.670501769516175,-0.047862442105186934,-0.06828251775834861,-2.581894485761135,-0.01550165446928115,-0.07083269503990974,0.86,0.0,0.0,0.0,0.0,0.0,0.0,-0.04506255971561766,-0.00027055490999545025,-0.0012362637465074813,-0.04506255971561766,-0.00027055490999545025,-0.0012362637465074813,0.3,1.0,19.746198545467102,0.08884028079291155,2.631418992341856,-0.0015473148128673875,-0.015663376844119323,-0.004061335502532729,19.920959201448003,0.016255153132319147,1.0,0.0,18.186977528098314,0.5407687912819994,20.858077014130867,88.79083514050659,-0.057142797129389446,6.647448774974975,1.0,21.102324471125183,0.0,1.0,90.3640625025977,5078.456259467242,1.0,1.0,-0.7591745157200153,18.512072917342216,-0.020735015627311986,-44.2285368635201,1.0,22.132065869517366,1.0,0.004639342391926576,4.11280431881081,0.9448086813298154,1.0,0.3991330111647233,7.370400084465506
0.32999999999999996,29.094583108167466,0.000405681995059055,22.257574936794427,90.93769402644972,0.0014212486992594166,6.03491562402034,91.13772217615042,18.10306860970969,0.026289468231743343,7.285278423355677,-0.025828816932110307,0.08552609628348258,-0.8347120964212951,-0.09080159008809563,3.5314708952985194,-0.048990187062872566,5085.19451047138,0.26811408261870884,91.21470327308523,2.0628440124089056,1.2223845884736066,101057.90200879914,288.0053257629108,-0.08124286468442743,0.11786661907968898,0.06317710994907,390.655,0.20966170377941715,0.86,nominal,4371.314448982505,nan,pitch_program,12.835,0.0,0.0,-2.732105050243039,-0.04898590352089312,-0.06428205181938514,-2.6720208244502777,-0.006200661787712461,-0.06690230910759498,0.86,0.0,0.0,0.0,0.0,0.0,0.0,-0.046635561068510745,-0.00010822196399818012,-0.0011676655711145216,-0.046635561068510745,-0.00010822196399818012,-0.0011676655711145216,0.32999999999999996,1.0,20.069795574931476,0.02748905678877485,2.816796651319954,0.0029217775699100696,-0.013112811123323485,-0.002152273150642853,20.266519026282474,0.013605692905507012,1.0,0.0,18.186977528098314,0.5407687912819994,20.858077014130867,88.79083514050659,-0.057142797129389446,6.647448774974975,1.0,21.102324471125183,0.0,1.0,91.64507447448152,5121.363621935683,1.0,1.0,-0.7591745157200153,18.512072917342216,-0.020735015627311986,-44.2285368635201,1.0,22.132065869517366,1.0,0.004639342391926576,4.11280431881081,0.9448086813298154,1.0,0.3991330111647233,7.370400084465506
0.36,31.84028590392904,0.00044428461485742125,22.434561675572112,91.52342652538574,0.0012867539932788759,5.899557959256217,91.71337082845686,18.096778758596308,0.029506341521661112,7.301586089043874,-0.02859636579055335,0.0955176815326867,-0.5436333505056048,-0.0912405319344061,3.656023363823841,-0.0461123928148341,5149.508480332934,0.2698070470251133,91.79048091358473,2.0942755474302555,1.222363808357907,101055.78039868666,288.0041753491088,-0.08124286468442743,0.11786661907968898,0.06317710994907,396.46,0.21277720515643656,0.86,nominal,4425.67908861477,nan,pitch_program,12.82,0.0,0.0,-2.8197626290807327,-0.05478655134878525,-0.060291920574691904,-2.7606659072285504,-0.0024802647150849845,-0.06293607598785313,0.86,0.0,0.0,0.0,0.0,0.0,0.0,-0.04818270962869453,-4.3288785599272046e-05,-0.0010984417442733798,-0.04818270962869453,-4.3288785599272046e-05,-0.0010984417442733798,0.36,1.0,20.34126807858549,0.03218794457864532,2.8303424409250657,0.0026928029066799154,-0.010612187447163279,-0.003553318463452233,20.537260319759277,0.011510681214014409,1.0,0.0,18.186977528098314,0.5407687912819994,20.858077014130867,88.79083514050659,-0.057142797129389446,6.647448774974975,1.0,22.53501747677327,0.0,1.0,92.44394432596997,5233.670539245797,1.0,1.0,0.3946058619992388,18.519153910346247,0.011103834317818006,-44.315923110518455,1.0,22.380509943236863,1.0,0.005949880007503133,4.0666174189674225,0.9439135958110697,1.0,0.7670381908264619,6.949587792651671
0.39,34.60380390948704,0.00047745871511197256,22.607649780355644,92.11726685193351,0.0011058033418183766,5.769603492784347,92.29777450164808,18.090395442441615,0.033076756362275694,7.308668367164903,-0.03137302337838472,0.10724511572496448,-0.2361260404318571,-0.09167504413232935,3.766966016235965,-0.043281142641285075,5215.2153493616825,0.2715257246571917,92.37500814135879,2.125729037216671,1.2223434862444733,101053.70555792711,288.00305027642764,-0.08124286468442743,0.11786661907968898,0.06317710994907,402.265,0.21589270653345596,0.86,nominal,4481.144897697064,nan,pitch_program,12.805,0.0,0.0,-2.9183233130466326,-0.06181654407326853,-0.05633861043816338,-2.8552603507193997,-0.038082032329995116,-0.025174430395141254,0.86,0.0,0.0,0.0,0.0,0.0,0.0,-0.04983369412170157,-0.0006646568500093424,-0.000439376697709352,-0.04983369412170157,-0.0006646568500093424,-0.000439376697709352,0.39,1.0,20.629709624268415,-0.0522255713273591,3.094919276205676,0.0012485514340055165,-0.004099134200666386,-0.001487010661348908,20.86063690346397,0.004535744986812575,1.0,0.0,18.186977528098314,0.5407687912819994,20.858077014130867,88.79083514050659,-0.057142797129389446,6.647448774974975,1.0,22.53501747677327,0.0,1.0,92.1280936598976,5154.718568256803,1.0,1.0,0.3946058619992388,18.519153910346247,0.011103834317818006,-44.315923110518455,1.0,22.380509943236863,1.0,0.005949880007503133,4.0666174189674225,0.9439135958110697,1.0,0.7670381908264619,6.949587792651671
0.42,37.38538320980769,0.000506543409268666,22.776990271979304,92.71931001068843,0.0009694898052231135,5.644683054121985,92.8909731705915,18.08391866124561,0.03631317308864169,7.3083409300618305,-0.03474560890047019,0.09357946410403559,0.010847046508011526,-0.11151276185379937,3.8663998772664816,-0.03980864487209592,5282.3383709387435,0.2732702341490617,92.96832518400309,2.135518086282738,1.2223236043849572,101051.67567391769,288.00194956323213,-0.08124286468442743,0.11786661907968898,0.06317710994907,404.1773684210526,0.21691906078826353,0.86,nominal,4537.73241994048,nan,pitch_program,12.79,0.0,0.0,-2.999840608827696,-0.045390078413291346,-0.05978929146527518,-2.9420085055843774,-0.015232812931998047,-0.04594334703722161,0.86,0.0,0.0,0.0,0.0,0.0,0.0,-0.05134773504412537,-0.000265862740003737,-0.0008018626751858989,-0.05134773504412537,-0.000265862740003737,-0.0008018626751858989,0.42,1.0,20.633189837865537,0.04643491499660714,3.2172078107991076,-0.001781622606717125,-0.003377003476233794,-0.004746628282549227,20.88255504445266,0.006091700226041731,1.0,0.0,35.620165455810174,1.0241117501813966,20.12903327276095,92.8584694165891,-0.09316633427381167,5.708583811918535,1.0,22.367221958137552,0.0,1.0,92.68949944492513,5296.568964587699,1.0,1.0,0.19106027336399964,18.465305564341957,-0.016010824062045514,-44.28840647777898,1.0,22.610240821782355,1.0,-0.025216030814142205,4.089368332895006,0.9430575243200517,1.0,0.08465253293741917,7.4979956579835445
0.44999999999999996,40.185079924909516,0.0005278199895431013,22.942701786336396,93.3232238367275,0.0007092193424811798,5.523717145236387,93.48655282383405,18.077411089421965,0.039603719973329544,7.302398541784337,-0.038271994680391414,0.09473800816816909,0.19800232382832422,-0.11672321729535867,3.956602932953199,-0.03626961152281304,5350.163149479078,0.27502172488064164,93.5640188486389,2.1345281378390153,1.2223041488344322,101049.68932241193,288.0008724383888,-0.08124286468442743,0.11786661907968898,0.06317710994907,404.14342105263154,0.21690084148196515,0.86,nominal,4594.858825914732,nan,pitch_program,12.775,0.0,0.0,-3.06355869465696,-0.042884621704749416,-0.05681003953845849,-3.014938619027927,-0.006093125172799218,-0.018377338814888646,0.86,0.0,0.0,0.0,0.0,0.0,0.0,-0.052620605647568285,-0.0001063450960014948,-0.0003207450700743596,-0.052620605647568285,-0.0001063450960014948,-0.0003207450700743596,0.44999999999999996,1.0,20.654733027007143,0.018171093260677944,3.3586142760387228,0.0036594112860743773,0.005562602754886093,-0.0022023738781459658,20.926027249833663,0.007013151293709168,1.0,0.0,35.620165455810174,1.0241117501813966,20.12903327276095,92.8584694165891,-0.09316633427381167,5.708583811918535,1.0,22.367221958137552,0.0,1.0,93.10216379390377,5319.720765796059,1.0,1.0,0.19106027336399964,18.465305564341957,-0.016010824062045514,-44.28840647777898,1.0,22.610240821782355,1.0,-0.025216030814142205,4.089368332895006,0.9430575243200517,1.0,0.08465253293741917,7.4979956579835445
0.48,43.00285568477647,0.0005415723704735305,23.1048852856289,93.92585866223182,0.0004584126976809704,5.406116643083405,94.08131069881156,18.070904064177505,0.04316077941495029,7.291512114716371,-0.04235690143011859,0.10127425579331852,0.36278326030077235,-0.13532285454896234,4.038557169701831,-0.0321941046361553,5418.3262778995595,0.27677078344266975,94.15888659618695,2.1336011423531858,1.2222851077239618,101047.74529114664,287.9998182456434,-0.08124286468442743,0.11786661907968898,0.06317710994907,404.1094736842105,0.2168826221756668,0.86,nominal,4652.2280346894695,nan,pitch_program,12.76,0.0,0.0,-3.122214603447256,-0.0447405063373002,-0.05876808404281408,-3.0793042096795245,-0.0024372500691196876,-0.0426117859516439,0.86,0.0,0.0,0.0,0.0,0.0,0.0,-0.053743997129429545,-4.253803840059792e-05,-0.0007437159650112513,-0.053743997129429545,-4.253803840059792e-05,-0.0007437159650112513,0.48,1.0,20.617219153476157,0.08526667560850426,3.377890570780977,0.0018976603229686527,0.006495774097772209,-0.0033863200623926682,20.892274666407307,0.007567255737426939,1.0,0.0,35.620165455810174,1.0241117501813966,20.12903327276095,92.8584694165891,-0.09316633427381167,5.708583811918535,1.0,22.807064173822614,0.0,1.0,93.93142392295134,5391.571970998292,1.0,1.0,-0.49071015565240567,18.465523897575558,0.04516763084233624,-44.27532376803599,1.0,22.94585175327526,1.0,-0.020827079058775514,4.056711492256583,0.9422377867859277,1.0,0.9075725630531161,6.8750919064025675
0.51,45.83867365861737,0.0005433649253243181,23.26363636870831,94.52726579469658,5.975182835958663e-05,5.291702769313682,94.67526655269339,18.064397585512236,0.04695740508220899,7.2759628699904555,-0.04646749732264021,0.10918238990311968,0.518201113728043,-0.1363217490337887,4.1127180627543565,-0.028207220320344638,5486.8282949937375,0.2785174692325108,94.75294860731655,2.1327200715079364,1.2222664698151744,101045.84243226472,287.99878636360336,-0.08124286468442743,0.11786661907968898,0.06317710994907,404.0755263157895,0.21686440286936848,0.86,nominal,4709.841388006966,nan,pitch_program,12.745,0.0,0.0,-3.180202201930978,-0.04801559955352379,-0.05323619235747234,-3.139843005030397,-0.000974900027647875,-0.01704471438065756,0.86,0.0,0.0,0.0,0.0,0.0,0.0,-0.0548005984334933,-1.701521536023917e-05,-0.0002974863860045005,-0.0548005984334933,-1.701521536023917e-05,-0.0002974863860045005,0.51,1.0,20.661319236701086,-0.037231837834926645,3.5692211779695637,0.005005818334915398,0.007358160956868226,-0.006818229360180424,20.96737557797564,0.011211110626400109,1.0,0.0,35.620165455810174,1.0241117501813966,20.12903327276095,92.8584694165891,-0.09316633427381167,5.708583811918535,1.0,22.807064173822614,0.0,1.0,94.3881598729238,5402.747928991847,1.0,1.0,-0.49071015565240567,18.465523897575558,0.04516763084233624,-44.27532376803599,1.0,22.94585175327526,1.0,-0.020827079058775514,4.056711492256583,0.9422377867859277,1.0,0.9075725630531161,6.8750919064025675
0.54,48.69249858816023,0.0005330008163936705,23.419044970598982,95.12749765142875,-0.00034547029768825324,5.1802867296891,95.26844272970838,18.057891653426154,0.05103445569297145,7.256316587031212,-0.05096971630152002,0.11692057116782432,0.6547485622354055,-0.14942873492798278,4.179827836503803,-0.023859931667945138,5555.67005957972,0.2802618481417391,95.34622727524714,2.1318792718080064,1.2222482245354753,101043.9796659082,287.99777620769106,-0.08124286468442743,0.11786661907968898,0.06317710994907,404.0415789473684,0.2168461835630701,0.86,nominal,4767.700467432787,nan,pitch_program,12.73,0.0,0.0,-3.2338850605642726,-0.050564146142454525,-0.05234694894273596,-3.196268238350722,-0.0003899600110591501,-0.0068178857522630245,0.86,0.0,0.0,0.0,0.0,0.0,0.0,-0.05578540453613899,-6.806086144095669e-06,-0.00011899455440180022,-0.05578540453613899,-6.806086144095669e-06,-0.00011899455440180022,0.54,1.0,20.514732957358206,0.05279169382255887,3.6906248351742925,0.001061963287705646,0.009078219835444367,-0.005092566101341475,20.844130275659403,0.010463081329208066,1.0,0.0,35.620165455810174,1.0241117501813966,20.12903327276095,92.8584694165891,-0.09316633427381167,5.708583811918535,1.0,23.61280516823909,0.0,1.0,95.07524211909066,5566.184433946194,1.0,1.0,0.22209420728071447,18.50203184749359,-0.049204014161464776,-44.30282056046336,1.0,23.607086005599434,1.0,-0.008377299640551858,4.0593959960014505,0.9414523875735026,1.0,-0.025501630835610804,7.1298105398516425
0.57,51.56429663556365,0.0005087371267307477,23.571195976445946,95.7266015801142,-0.0008087896554307582,5.07170019489884,95.86085954965667,18.051386267919263,0.055373496026283615,7.233279322824198,-0.05594543510923168,0.12371859625200585,0.7677557036366137,-0.16524615663076703,4.240751778749685,-0.01910000464794764,5624.8522870077995,0.2820039807478715,95.93874318805645,2.1310779416862813,1.2222303619059016,101042.15597285048,287.99678722615306,-0.08124286468442743,0.11786661907968898,0.06317710994907,404.0076315789474,0.21682796425677175,0.86,nominal,4825.806665821914,nan,pitch_program,12.715,0.0,0.0,-3.2812338521314572,-0.05191404304976971,-0.05197189074795038,-3.2472476066191636,-0.00015598400442366005,-0.00272715430090521,0.86,0.0,0.0,0.0,0.0,0.0,0.0,-0.05667516236301001,-2.7224344576382676e-06,-4.7597821760720084e-05,-0.05667516236301001,-2.7224344576382676e-06,-4.7597821760720084e-05,0.57,1.0,20.52025510931496,0.0029977595857565674,3.7287249389407493,0.0019327710147513696,0.012083139437512935,-0.0006206071552411221,20.856276475157493,0.012252469779721145,1.0,0.0,35.620165455810174,1.0241117501813966,20.12903327276095,92.8584694165891,-0.09316633427381167,5.708583811918535,1.0,23.61280516823909,0.0,1.0,96.98081106922702,5648.404952028446,1.0,1.0,0.22209420728071447,18.50203184749359,-0.049204014161464776,-44.30282056046336,1.0,23.607086005599434,1.0,-0.008377299640551858,4.0593959960014505,0.9414523875735026,1.0,-0.025501630835610804,7.1298105398516425
0.6,54.45403516328623,0.00046801228932489197,23.720170149637354,96.32461759075261,-0.0013574945801951921,4.9658057730469265,96.45253331469912,18.04488142899156,0.05992784476337338,7.207387195021765,-0.06135267761361033,0.12915792574427817,0.8628905853451984,-0.17968046221721998,4.296162441266778,-0.013981425909832482,5694.375273999199,0.283743915638033,96.53051285656109,2.1303119738334213,1.2222128724321049,101040.37038336434,287.9958188940273,-0.08124286468442743,0.11786661907968898,0.06317710994907,403.9736842105263,0.21680974495047337,0.86,nominal,4884.160998009513,nan,pitch_program,12.7,0.0,0.0,-3.323933029516237,-0.05182338889455687,-0.0504273093287548,-3.2932588603574073,-6.239360176946402e-05,-0.001090861720362084,0.86,0.0,0.0,0.0,0.0,0.0,0.0,-0.05747821023371292,-1.0889737830553072e-06,-1.9039128704288036e-05,-0.05747821023371292,-1.0889737830553072e-06,-1.9039128704288036e-05,0.6,1.0,20.560797991161653,0.0372471138942896,3.8708836240750966,0.0022564420448453718,0.01076022915743369,0.00012245900143331798,20.922034829623605,0.01099495604489914,1.0,0.0,35.620165455810174,1.0241117501813966,20.12903327276095,92.8584694165891,-0.09316633427381167,5.708583811918535,1.0,24.181861485117775,0.0,1.0,96.18766153991554,5710.539749654555,1.0,1.0,-0.8969280140907075,18.571099648717823,-0.043542552467979896,-44.2386121500826,1.0,22.90646057343322,1.0,-0.008968791306058918,4.064870620964638,0.9406995746259066,1.0,-0.15898142901368834,6.952593329396805
0.63,57.36168258936684,0.0004077821927731569,23.86604465910066,96.9215808693539,-0.0020076698850578366,4.862483648776766,97.04347783071292,18.038377136643046,0.06463609089995491,7.179013574037699,-0.06709234191421647,0.13298504072263267,0.9455804920697156,-0.19084434415338147,4.346555518255406,-0.008606853708061588,5764.239067403779,0.28548169396215817,97.12155026293442,2.1295754780195515,1.2221957470423988,101038.62197089555,287.9948707097158,-0.08124286468442743,0.11786661907968898,0.06317710994907,403.9397368421053,0.21679152564417503,0.86,nominal,4942.764241596204,nan,pitch_program,12.685,0.0,0.0,-3.3636739496424877,-0.05016617253047755,-0.04705338232788151,-3.335507913928456,-2.4957440707785612e-05,-0.0004363446881448336,0.86,0.0,0.0,0.0,0.0,0.0,0.0,-0.05821559532437918,-4.3558951322212293e-07,-7.6156514817152146e-06,-0.05821559532437918,-4.3558951322212293e-07,-7.6156514817152146e-06,0.63,1.0,20.512493044008657,-0.06923390400961837,3.937390840714915,0.004311619910058673,0.01470954350643064,-0.002312183639866473,20.887082391911843,0.015501836329959634,1.0,0.0,58.384206375859826,-0.8723172367036609,23.785201368072592,96.89911620349987,0.015392374959800996,4.786626421167299,1.0,24.181861485117775,0.0,1.0,96.94245219372276,5737.052499939324,1.0,1.0,-0.8969280140907075,18.571099648717823,-0.043542552467979896,-44.2386121500826,1.0,22.90646057343322,1.0,-0.008968791306058918,4.064870620964638,0.9406995746259066,1.0,-0.15898142901368834,6.952593329396805
0.6599999999999999,60.287208302371454,0.0003247026084225942,24.008893332593654,97.51752376682028,-0.00276931947835209,4.761622449766467,97.63370574568809,18.03187339087372,0.0694286371750302,7.148509858503829,-0.07303735670945077,0.1350389636213094,1.0165598136352916,-0.19780967380509099,4.392396479723137,-0.003102335626871198,5834.443616366793,0.2872173534076933,97.71186821278079,2.1288647119863446,1.2221789770579774,101036.90984902077,287.9939421933381,-0.08124286468442743,0.11786661907968898,0.06317710994907,403.9057894736842,0.21677330633787664,0.86,nominal,5001.617062617883,nan,pitch_program,12.67,0.0,0.0,-3.400517644497903,-0.04688751329926803,-0.04163871196768633,-3.374513752270124,-9.982976283114246e-06,-0.00017453787525793346,0.86,0.0,0.0,0.0,0.0,0.0,0.0,-0.05889637563094193,-1.7423580528884917e-07,-3.046260592686086e-06,-0.05889637563094193,-1.7423580528884917e-07,-3.046260592686086e-06,0.6599999999999999,1.0,20.470275336488932,-0.04175477084846056,3.981826312056492,0.0035061532907474883,0.017644464263874914,-0.004484465418676096,20.853988985130425,0.018539974653399075,1.0,0.0,58.384206375859826,-0.8723172367036609,23.785201368072592,96.89911620349987,0.015392374959800996,4.786626421167299,1.0,23.26645668284592,0.0,1.0,98.76832050977384,5839.093757247808,1.0,1.0,-1.3895225495802142,18.65117713156117,0.013620991332971743,-44.22750407685643,1.0,24.306345552042067,1.0,-0.0115631039526865,4.037223178212226,0.9399777666685158,1.0,-0.9018216828208095,7.201156690451342
0.69,63.23058256798414,0.00021525289353139097,24.148786975394977,98.11247552042306,-0.003648323829706775,4.663121426710683,98.22322824819051,18.025370191683585,0.07423149926318404,7.116233568957546,-0.07904666231500515,0.13522446501546131,1.075626321987995,-0.20010882253824228,4.434147652610743,0.0023950501436387737,5904.988731837757,0.28895092731842037,98.30147803513665,2.1281779186258953,1.2221625541554664,101035.23316762304,287.9930328846599,-0.08124286468442743,0.11786661907968898,0.06317710994907,403.8718421052631,0.21675508703157828,0.86,nominal,5060.719985540322,nan,pitch_program,12.655,0.0,0.0,-3.4341937274412375,-0.04198666476173478,-0.03418744009328529,-3.4103217373727923,-3.993190513245698e-06,-6.981515010317339e-05,0.86,0.0,0.0,0.0,0.0,0.0,0.0,-0.059521342869488576,-6.969432211553967e-08,-1.2185042370744344e-06,-0.059521342869488576,-6.969432211553967e-08,-1.2185042370744344e-06,0.69,1.0,20.43462026014482,0.004283106197101212,4.1068923362405245,0.0012180980297847182,0.019264145121030682,-0.000233223439484911,20.843231231812187,0.01930402660656633,1.0,0.0,58.384206375859826,-0.8723172367036609,23.785201368072592,96.89911620349987,0.015392374959800996,4.786626421167299,1.0,23.26645668284592,0.0,1.0,98.4845749213933,5843.685231246099,1.0,1.0,-1.3895225495802142,18.65117713156117,0.013620991332971743,-44.22750407685643,1.0,24.306345552042067,1.0,-0.0115631039526865,4.037223178212226,0.9399777666685158,1.0,-0.9018216828208095,7.201156690451342
0.72,66.19177642146195,7.583827842587256e-05,24.285793764708433,98.70646178259356,-0.004647153836850614,4.566892977115187,98.81205458191357,18.018867539072637,0.07896904532992911,7.0824996191078435,-0.08497313577062454,0.13350300599838213,1.1242019393870162,-0.19753772697852687,4.472218314074183,0.007744437622681593,5975.87402230782,0.2906824432677631,98.89038909679013,2.1275133228991647,1.2221464703205822,101033.59110815954,287.99214234052937,-0.08124286468442743,0.11786661907968898,0.06317710994907,403.8378947368421,0.21673686772527995,0.86,nominal,5120.073344772211,nan,pitch_program,12.64,0.0,0.0,-3.465023970520645,-0.03551053260137318,-0.024824008500976203,-3.443143077261504,-1.5972762052982794e-06,-2.7926060041269357e-05,0.86,0.0,0.0,0.0,0.0,0.0,0.0,-0.06009418331546275,-2.787772884621587e-08,-4.874016948297738e-07,-0.06009418331546275,-2.787772884621587e-08,-4.874016948297738e-07,0.72,1.0,20.420466635215945,-0.0519810560691032,4.161490345151538,0.003923370752018438,0.02226048699827473,-0.002724171195892459,20.84025339392367,0.022767152394682175,1.0,0.0,58.384206375859826,-0.8723172367036609,23.785201368072592,96.89911620349987,0.015392374959800996,4.786626421167299,1.0,24.437716531169727,0.0,1.0,98.28141269548775,5904.973649215768,1.0,1.0,-0.12786648006770912,18.742933157156997,-0.06103045222161597,-44.32908346369152,1.0,24.287452609367897,1.0,-0.0007361495600747038,4.056722000709116,0.9392855155882289,1.0,-0.060648179154468886,6.852534017631977
0.75,69.17076157362857,-9.71153564142275e-05,24.419979579608757,99.29950507222034,-0.005765121161336669,4.472860496677483,99.4001922626273,18.01236543304088,0.08356634245326833,7.047567667022617,-0.09066922282234076,0.12989006642058676,1.1641300042901603,-0.19007931242629875,4.506953623908012,0.01280640883208875,6047.098913213727,0.29241192370429253,99.47860902162324,2.1268688067549233,1.222130717809364,101031.98287970263,287.9912701327325,-0.08124286468442743,0.11786661907968898,0.06317710994907,403.80394736842106,0.21671864841898159,0.86,nominal,5179.677303668006,nan,pitch_program,12.625,0.0,0.0,-3.4935084815412023,-0.02755063074657019,-0.013752215742169553,-3.473362319829323,-6.389104821193117e-07,-1.1170424016507743e-05,0.86,0.0,0.0,0.0,0.0,0.0,0.0,-0.060621608595730014,-1.1151091538486348e-08,-1.9496067793190953e-07,-0.060621608595730014,-1.1151091538486348e-08,-1.9496067793190953e-07,0.75,1.0,20.418635035042335,-0.05622845627051295,4.339953178466525,0.0028289971344714793,0.018951629195820288,-0.00656940359356374,20.874841602389093,0.020256469029370443,1.0,0.0,58.384206375859826,-0.8723172367036609,23.785201368072592,96.89911620349987,0.015392374959800996,4.786626421167299,1.0,24.437716531169727,0.0,1.0,98.68738661122684,5977.124024689067,1.0,1.0,-0.12786648006770912,18.742933157156997,-0.06103045222161597,-44.32908346369152,1.0,24.287452609367897,1.0,-0.0007361495600747038,4.056722000709116,0.9392855155882289,1.0,-0.060648179154468886,6.852534017631977
0.78,72.16751033585582,-0.000307070030151879,24.55140824712184,99.89162540757512,-0.006998489124588383,4.380955583769538,99.9876474739411,18.00586387358831,0.08795134826273802,7.011666426429524,-0.09599170385542732,0.1244542611242496,1.1964431635139672,-0.1778734148910995,4.538660839038975,0.017447413387161107,6118.662689235058,0.29413938712309723,100.06614408893148,2.1262427032272506,1.2221152891192624,101030.40771598711,287.99041584639366,-0.08124286468442743,0.11786661907968898,0.06317710994907,403.77,0.21670042911268322,0.86,nominal,5239.531891373197,nan,pitch_program,12.61,0.0,0.0,-3.519880896571936,-0.018240736704050995,-0.0012353792498214745,-3.5012734658748905,-2.555641928477247e-07,-4.4681696066030975e-06,0.86,0.0,0.0,0.0,0.0,0.0,0.0,-0.06110874999223016,-4.460436615394539e-09,-7.798427117276381e-08,-0.06110874999223016,-4.460436615394539e-09,-7.798427117276381e-08,0.78,1.0,20.34773150041216,0.07045147107516425,4.3942769836389,0.0027805197431042053,0.01882796266089325,-0.002723184474339002,20.816935673426592,0.01922600326856998,1.0,0.0,58.384206375859826,-0.8723172367036609,23.785201368072592,96.89911620349987,0.015392374959800996,4.786626421167299,1.0,24.035735825416374,0.0,1.0,99.79935019062096,6060.340892233619,1.0,1.0,-0.03761565548069951,18.757861570419124,-0.0008757614041586606,-44.18835983884846,1.0,24.494267680247095,1.0,-0.0019983656768222634,4.0698365986372345,0.9386214793821954,1.0,0.3806642599510324,6.956806544405258
0.8099999999999999,75.18199555187113,-0.0005572874041610964,24.68014176698131,100.48284053384336,-0.008340579133640579,4.291117328648932,100.57442517480915,17.999362860714932,0.09205700098913217,6.975006216440652,-0.10080603423692114,0.11731630555766329,1.2217553202627272,-0.16120320080631734,4.567622507103962,0.02154378784544345,6190.564502684212,0.2958648483853676,100.65299934197607,2.1256339531146446,1.2221001769627213,101028.86487271257,287.9895790785146,-0.08124286468442743,0.11786661907968898,0.06317710994907,403.73605263157896,0.21668220980638486,0.86,nominal,5299.637011880809,nan,pitch_program,12.595,0.0,0.0,-3.544238571075593,-0.007754168716398523,0.012415582320383917,-3.527052528995312,-1.0222567713908989e-07,-1.7872678426412391e-06,0.86,0.0,0.0,0.0,0.0,0.0,0.0,-0.06155867952176096,-1.7841746461578158e-09,-3.119370846910553e-08,-0.06155867952176096,-1.7841746461578158e-09,-3.119370846910553e-08,0.8099999999999999,1.0,20.37186726895761,0.027416974198198676,4.445401699624074,-0.0006422946445560156,0.02325926632977377,-0.0023515153720619904,20.851266723763363,0.023386655108305184,1.0,0.0,58.384206375859826,-0.8723172367036609,23.785201368072592,96.89911620349987,0.015392374959800996,4.786626421167299,1.0,24.035735825416374,0.0,1.0,100.9160520394869,6160.202230649929,1.0,1.0,-0.03761565548069951,18.757861570419124,-0.0008757614041586606,-44.18835983884846,1.0,24.494267680247095,1.0,-0.0019983656768222634,4.0698365986372345,0.9386214793821954,1.0,0.3806642599510324,6.956806544405258
0.84,78.21419053190291,-0.0008507451639532855,24.806240534048406,101.07316600105983,-0.009781925326406305,4.203292235569822,101.16052909500553,17.99286239442074,0.09582319216659031,6.937774079481118,-0.10499037542690945,0.10864698322045006,1.2408426083837132,-0.14048592545198574,4.594091847674336,0.02498547871873965,6262.8033684608035,0.29758831870749003,101.23917858409582,2.12504168615088,1.2220853742410456,101027.35362487432,287.98875943652865,-0.08124286468442743,0.11786661907968898,0.06317710994907,403.7021052631579,0.2166639905000865,0.86,nominal,5359.992442123957,nan,pitch_program,12.58,0.0,0.0,-3.566748690226265,0.003699817297109179,0.026851699191237362,-3.550870225733884,-4.089027085563596e-08,-7.149071370564956e-07,0.86,0.0,0.0,0.0,0.0,0.0,0.0,-0.06197437675009056,-7.136698584631264e-10,-1.2477483387642211e-08,-0.06197437675009056,-7.136698584631264e-10,-1.2477483387642211e-08,0.84,1.0,20.347660268356538,0.0012008043047926683,4.5187756248876045,0.004061189771820894,0.020923631013689274,-0.0010511420814061309,20.84338295446458,0.02134002101299493,1.0,0.0,80.03263755627364,-1.291870318248277,26.84716031842451,101.05965731457712,-0.11903978587091164,4.293264338318418,1.0,24.287262053981546,0.0,1.0,101.07775633033053,6207.085666676652,1.0,1.0,1.1080198670834138,18.76342224574323,-0.10033452280847743,-44.16511834681677,1.0,24.703406874781763,1.0,-0.00880465965185683,4.059021404604328,0.937984398664879,1.0,-0.18213997520789704,6.732611557795192
0.87,81.26406899315201,-0.0011900600615268385,24.92976353676535,101.66261537496982,-0.011310496585785102,4.117433423898108,101.74596184029427,17.98636247470574,0.09919858421443441,6.900132044385169,-0.10843932630972783,0.09866377884698761,1.25453849919135,-0.11626305717040061,4.618291680036013,0.02767944414426746,6335.378172726295,0.29930980597406903,101.82468448503666,2.124465060448694,1.2220708740210866,101025.87326438271,287.98795653701103,-0.08124286468442743,0.11786661907968898,0.06317710994907,403.66815789473685,0.21664577119378817,0.86,nominal,5420.597840991129,nan,pitch_program,12.565,0.0,0.0,-3.5876125575376245,0.01588070898059449,0.04169542518531475,-3.5729156248161282,-1.6356108342254385e-08,-2.8596285482259825e-07,0.86,0.0,0.0,0.0,0.0,0.0,0.0,-0.06235914154899186,-2.854679433852506e-10,-4.9909933550568845e-09,-0.06235914154899186,-2.854679433852506e-10,-4.9909933550568845e-09,0.87,1.0,20.29494427296522,0.01970417119534698,4.526282268875535,0.0011429944002008983,0.01896640268251256,-0.001563983753527462,20.793565891271832,0.019065070471818563,1.0,0.0,80.03263755627364,-1.291870318248277,26.84716031842451,101.05965731457712,-0.11903978587091164,4.293264338318418,1.0,24.287262053981546,0.0,1.0,101.86594382184828,6406.702034087939,1.0,1.0,1.1080198670834138,18.76342224574323,-0.10033452280847743,-44.16511834681677,1.0,24.703406874781763,1.0,-0.00880465965185683,4.059021404604328,0.937984398664879,1.0,-0.18213997520789704,6.732611557795192
0.8999999999999999,84.3316050079777,-0.0015774198294164125,25.050768525261404,102.25120049418986,-0.0129119922629858,4.033499616535176,102.33072504570241,17.979863101569926,0.10214222420213731,6.862222568178094,-0.11106728503844081,0.08762608041737449,1.2634944981241196,-0.08918776905599889,4.640420626505398,0.02955265754665838,6408.287688102055,0.3010293151927841,102.40951873555848,2.12390339491802,1.2220566695154769,101024.4230980446,287.9871700045858,-0.08124286468442743,0.11786661907968898,0.06317710994907,403.6342105263158,0.2166275518874898,0.86,nominal,5481.452763347828,nan,pitch_program,12.55,0.0,0.0,-3.606978806491921,0.028522486879406353,0.05655071042298368,-3.5933535338216043,-6.5424433369017545e-09,-1.1438514192903931e-07,0.86,0.0,0.0,0.0,0.0,0.0,0.0,-0.06271585035336041,-1.1418717735410024e-10,-1.996397342022754e-09,-0.06271585035336041,-1.1418717735410024e-10,-1.996397342022754e-09,0.8999999999999999,1.0,20.30365300871621,0.05079373852165545,4.645605526224441,0.0003380475641978327,0.02573190603052972,-0.0006501894925020077,20.82840743329914,0.02574233886995958,1.0,0.0,80.03263755627364,-1.291870318248277,26.84716031842451,101.05965731457712,-0.11903978587091164,4.293264338318418,1.0,25.79572118918901,0.0,1.0,102.83287686588949,6312.087262368704,1.0,1.0,0.7100818377411279,18.879047967517064,-0.07857330774140589,-44.14971109356271,1.0,25.08842737738997,1.0,-0.007552510817143352,4.068945517898623,0.9373730786868465,1.0,-0.10698724091218,7.2699178878875355
0.9299999999999999,87.41677295739099,-0.0020145261507322977,25.16931216109465,102.83893164710979,-0.014570210710529512,3.9514545277748456,102.91481947462684,17.9733642750133,0.10462490044234843,6.824172573439859,-0.11281132955433286,0.07582896137703538,1.2682269899209537,-0.06000912979536274,4.660657659049879,0.03055462121430145,6481.530582700812,0.3027468487893085,102.99368214764453,2.1233560394420086,1.2220427540650463,101023.00244576737,287.98639947095285,-0.08124286468442743,0.11786661907968898,0.06317710994907,403.6002631578947,0.21660933258119142,0.86,nominal,5542.556668852115,nan,pitch_program,12.535000000000002,0.0,0.0,-3.624957536940453,0.04134034539086155,0.07101372232746944,-3.612315935692914,-2.616977334760702e-09,0.04260818764242489,0.86,0.0,0.0,0.0,0.0,0.0,0.0,-0.0630468067001011,-4.5674870941640104e-11,0.0007436531626678747,-0.0630468067001011,-4.5674870941640104e-11,0.0007436531626678747,0.9299999999999999,1.0,20.24074594996844,0.002021706296748597,4.755287204787952,-0.00035206373734495474,0.020459648249734414,0.0003509106656222503,20.791838713747282,0.020465685761128585,1.0,0.0,80.03263755627364,-1.291870318248277,26.84716031842451,101.05965731457712,-0.11903978587091164,4.293264338318418,1.0,25.79572118918901,0.0,1.0,102.84811410903087,6361.031577027546,1.0,1.0,0.7100818377411279,18.879047967517064,-0.07857330774140589,-44.14971109356271,1.0,25.08842737738997,1.0,-0.007552510817143352,4.068945517898623,0.9373730786868465,1.0,-0.10698724091218,7.2699178878875355
0.96,90.51954749614546,-0.00249815797305729,25.285450162518018,103.42581795848245,-0.016121060744166416,3.8712667141123562,103.4982453292883,17.966865995035864,0.10673931389401453,6.786092368077926,-0.11455442604398157,0.06359562847120462,1.2692316500299723,-0.06003507591831207,4.6791631427150735,0.031651687256875054,6555.1054352252295,0.3044624070329879,103.57717479919235,2.1228228737260633,1.2220291211217442,101021.6106388151,287.9856445739436,-0.08124286468442743,0.11786661907968898,0.06317710994907,403.56631578947366,0.21659111327489305,0.86,nominal,5603.90895295703,nan,pitch_program,12.520000000000001,0.0,0.0,-3.6416750177309187,0.054807568980365054,0.07302631677960052,-3.629931384915717,-1.046790933904281e-09,0.060859065124730265,0.86,0.0,0.0,0.0,0.0,0.0,0.0,-0.06335425428825689,-1.8269948376656043e-11,0.0010621910661121965,-0.06335425428825689,-1.8269948376656043e-11,0.0010621910661121965,0.96,1.0,20.24493686538057,-0.0005619379083952429,4.8139188201459095,0.0032268726577228974,0.021130277814989617,-0.0011356496905974502,20.809403725382776,0.02140539763488537,1.0,0.0,80.03263755627364,-1.291870318248277,26.84716031842451,101.05965731457712,-0.11903978587091164,4.293264338318418,1.0,25.31733656814619,0.0,1.0,103.34397543727654,6497.045921328133,1.0,1.0,-2.213605306804391,18.95233550416193,-0.03393269624087379,-44.09869719082794,1.0,25.582511187899936,1.0,0.0014641638932614293,4.062982204221345,0.936786374593705,1.0,-0.2600352611461647,7.322205511860562
0.99,93.63990350156827,-0.0030275405662842413,25.399237412406162,104.01186684742686,-0.01764608644089837,3.7929083296048174,104.08100167690552,17.960368261637615,0.1085141274862549,6.748080718283378,-0.11666256759493768,0.05088012645235018,1.2669217233532597,-0.07216179669347476,4.69608164307756,0.03316159320798914,6629.010716651337,0.3061759876758129,104.1599959111072,2.1223035503030347,1.2220157642359544,101020.24701851286,287.9849049568193,-0.08124286468442743,0.11786661907968898,0.06317710994907,403.53236842105264,0.21657289396859472,0.86,nominal,5665.508886604377,nan,pitch_program,12.505,0.0,0.0,-3.6572134041222366,0.06862057631641401,0.07042834983402224,-3.6463005964396284,0.04117234537113203,0.06660063595030545,0.86,0.0,0.0,0.0,0.0,0.0,0.0,-0.06363995092530454,0.0007185929874945006,0.0011624003812549326,-0.06363995092530454,0.0007185929874945006,0.0011624003812549326,0.99,1.0,20.22165826892327,0.011559620835784053,4.890174330998317,0.001955674867776497,0.022258259704819015,-0.00013715945580211543,20.804552428675354,0.02234443111810946,1.0,0.0,80.03263755627364,-1.291870318248277,26.84716031842451,101.05965731457712,-0.11903978587091164,4.293264338318418,1.0,25.31733656814619,0.0,1.0,103.96515192862935,6681.877064953636,1.0,1.0,-2.213605306804391,18.95233550416193,-0.03393269624087379,-44.09869719082794,1.0,25.582511187899936,1.0,0.0014641638932614293,4.062982204221345,0.936786374593705,1.0,-0.2600352611461647,7.322205511860562
1.02,96.77781604000086,-0.0036033870811150006,25.510728070820697,104.59708461441944,-0.01919488382769198,3.7163552804845352,104.6630869736335,17.953871074818558,0.11102977144921457,6.710223881758374,-0.11921959141870013,0.07386739977911774,1.2617301075181975,-0.08706445195484228,4.711542243247288,0.035052167956965447,6703.244813208328,0.3078875865517954,104.74214405111138,2.121797817958425,1.2220026770432688,101018.91093489609,287.98418026753967,-0.08124286468442743,0.11786661907968898,0.06317710994907,403.49842105263156,0.21655467466229633,0.86,nominal,5727.3556688609,nan,pitch_program,12.49,0.0,0.0,-3.671671826084222,0.05042098404238149,0.06724533207709432,-3.6615233342263847,0.01646893814845281,0.06698745362637877,0.86,0.0,0.0,0.0,0.0,0.0,0.0,-0.0639056378208512,0.0002874371949978002,0.001169151623307325,-0.0639056378208512,0.0002874371949978002,0.001169151623307325,1.02,1.0,20.193851842084342,-0.07917257848193986,5.003835045280292,0.00030537717236610524,0.020916994888335688,-0.0029228347650589958,20.80471787065645,0.021122426315172724,1.0,0.0,80.03263755627364,-1.291870318248277,26.84716031842451,101.05965731457712,-0.11903978587091164,4.293264338318418,1.0,25.991066353048556,0.0,1.0,105.32066429782884,6819.733447151717,1.0,1.0,-1.1292950773970598,19.03188149078747,0.026971987755900338,-44.085744914592084,1.0,25.715508461766586,1.0,-0.02625432319508149,4.080160159194385,0.9362231798229482,1.0,-0.12024413230871979,6.479951571159482
1.05,99.93326033667213,-0.004227283955811635,25.619975672702946,105.18147655570912,-0.02079656248988781,3.6415867294082824,105.24449912866706,17.947374434578688,0.11359914706193491,6.6725967943287054,-0.12217973200118493,0.07414848539420307,1.2540417796466996,-0.10045765733837317,4.725658707822621,0.037317987836016156,6777.806034106029,0.30959719780779466,105.32361721218587,2.1213054498276214,1.2219898532530031,101017.60174553755,287.98347015812743,-0.08124286468442743,0.11786661907968898,0.06317710994907,403.46447368421053,0.216536455355998,0.86,nominal,5789.448432852713,nan,pitch_program,12.475,0.0,0.0,-3.6851410283865245,0.0531320241577504,0.06528237161515545,-3.6756939507224686,0.006587575259381125,0.06596440441964477,0.86,0.0,0.0,0.0,0.0,0.0,0.0,-0.06415296173574528,0.0001149748779991201,0.0011512960462399006,-0.06415296173574528,0.0001149748779991201,0.0011512960462399006,1.05,1.0,20.212288976451944,0.050484695733186216,5.10658050341331,0.0009045658606648087,0.02085291990922567,-2.45844403803366e-05,20.847454012659316,0.02087254446711204,1.0,0.0,100.1900392516975,-3.4374579030688945,26.943361892138945,105.04775653091001,-0.03241429659166085,3.510792841443818,1.0,25.991066353048556,0.0,1.0,105.39325342101635,6798.940039911795,1.0,1.0,-1.1292950773970598,19.03188149078747,0.026971987755900338,-44.085744914592084,1.0,25.715508461766586,1.0,-0.02625432319508149,4.080160159194385,0.9362231798229482,1.0,-0.12024413230871979,6.479951571159482
1.08,103.10621174929179,-0.004901220350600816,25.7270332114987,105.76504708732173,-0.022464546492972703,3.5685846265251344,105.82523558337067,17.940878340918008,0.11591629277971953,6.635265370780102,-0.12545255704725033,0.06459721559212696,1.2441613003992658,-0.11085148216147654,4.7385334170524205,0.0398870417181429,6852.692620530415,0.31130481415522915,105.90441289812932,2.1208262910023907,1.2219772866383702,101016.31881454377,287.98277428412524,-0.08124286468442743,0.11786661907968898,0.06317710994907,403.43052631578945,0.21651823604969964,0.86,nominal,5851.786253381495,nan,pitch_program,12.46,0.0,0.0,-3.6976895527511875,0.06455804457418264,0.06506208139567614,-3.6888913119397,0.04136985684826204,0.06542301060526359,0.86,0.0,0.0,0.0,0.0,0.0,0.0,-0.06438329914156098,0.0007220402130808968,0.001141846941629018,-0.06438329914156098,0.0007220402130808968,0.001141846941629018,1.08,1.0,20.14261994988087,0.013230223295583644,5.134889309115866,-0.0028090860987651494,0.020889881036401783,-0.004670288498110327,20.786832411433437,0.021589110428196806,1.0,0.0,100.1900392516975,-3.4374579030688945,26.943361892138945,105.04775653091001,-0.03241429659166085,3.510792841443818,1.0,26.645140207412382,0.0,1.0,105.32095838459978,6847.237494456489,1.0,1.0,0.8320730398277991,19.06466806991922,-0.05801898504695266,-44.08974713037082,1.0,25.871594122177015,1.0,-0.007842553534920188,4.107912320656243,0.9356824169712532,1.0,-0.16266008123012793,6.218794955439122
1.1099999999999999,106.29664574395487,-0.005627316982686523,25.83195321418113,106.34779982210249,-0.024203221069523544,3.4973334227476363,106.40529335454961,17.934382793836516,0.11889098894521749,6.598287391477403,-0.12894678769964493,0.08573543022221532,1.2323596901071319,-0.11822398366213613,4.750259229096286,0.04259105116283406,6927.902750568799,0.3130104270213973,106.48452817497069,2.1203602407623365,1.2219649710276603,101015.06151165426,287.9820923041078,-0.08124286468442743,0.11786661907968898,0.06317710994907,403.3965789473684,0.21650001674340127,0.86,nominal,5914.3681509217295,nan,pitch_program,12.445,0.0,0.0,-3.7093797189805056,0.048374742140959485,0.06639260133461537,-3.7011843561641835,0.01654794273930482,0.06600476504287466,0.86,0.0,0.0,0.0,0.0,0.0,0.0,-0.06459785323837149,0.0002888160852323587,0.001152000472003419,-0.06459785323837149,0.0002888160852323587,0.001152000472003419,1.1099999999999999,1.0,20.13765307462417,0.0388289694410576,5.137374153038204,-0.0007263420922293451,0.01757117322750929,-0.003393119306334811,20.7826656671153,0.01791052651523973,1.0,0.0,100.1900392516975,-3.4374579030688945,26.943361892138945,105.04775653091001,-0.03241429659166085,3.510792841443818,1.0,26.645140207412382,0.0,1.0,106.62917138681664,6845.64980447086,1.0,1.0,0.8320730398277991,19.06466806991922,-0.05801898504695266,-44.08974713037082,1.0,25.871594122177015,1.0,-0.007842553534920188,4.107912320656243,0.9356824169712532,1.0,-0.16266008123012793,6.218794955439122
1.14,109.50453787297951,-0.006407752249121543,25.93478780852514,106.92973763415463,-0.026014508881167343,3.427819811467002,106.98466906956203,17.927887793334214,0.12179642716239898,6.561712921109407,-0.13259124116434307,0.08292729462756987,1.2188928860682111,-0.1232419918612579,4.760918177781426,0.045418303390568994,7003.434543246434,0.31471402667572784,107.06395971385878,2.119907193301124,1.2219529002963283,101013.8292114333,287.9814238792446,-0.08124286468442743,0.11786661907968898,0.06317710994907,403.3626315789474,0.21648179743710294,0.86,nominal,5977.193094824325,nan,pitch_program,12.43,0.0,0.0,-3.7202731397742577,0.05409885373334724,0.06893275815058895,-3.712637626330228,0.006619177095721927,0.06776156090750324,0.86,0.0,0.0,0.0,0.0,0.0,0.0,-0.0647977505128894,0.0001155264340929435,0.0011826623441266082,-0.0647977505128894,0.0001155264340929435,0.0011826623441266082,1.14,1.0,20.10492866966329,-0.06235022970596924,5.371348274647939,0.0017184312099352706,0.02391590633283077,0.0004964700692157062,20.810176036039596,0.023982703435468686,1.0,0.0,100.1900392516975,-3.4374579030688945,26.943361892138945,105.04775653091001,-0.03241429659166085,3.510792841443818,1.0,24.530877478493817,0.0,1.0,107.30112232548562,6928.193135347371,1.0,1.0,0.009332010199966856,19.083349593743396,0.027610594814763703,-44.010247315577594,1.0,25.769270953808494,1.0,-0.014231992436406764,4.115221301625492,0.9351630304786871,1.0,0.23813472592071147,6.651522394034343
1.17,112.72986375561746,-0.007244670222600569,26.035588780667542,107.51086275459826,-0.027897265782634212,3.3600324047467143,107.56335903204422,17.9213933394111,0.1243131546464293,6.525585394504915,-0.13633677480470413,0.06966286849892603,1.2039817524102054,-0.12662385852663008,4.7705841171740495,0.04834743184828727,7079.28606571881,0.31641560242225303,107.64270385648928,2.1194670655004275,1.2219410683602339,101012.62129257942,287.98076867292565,-0.08124286468442743,0.11786661907968898,0.06317710994907,403.3286842105263,0.21646357813080455,0.86,nominal,6040.260009844158,nan,pitch_program,12.415,0.0,0.0,-3.730422558707729,0.06900002193406754,0.07232649756979734,-3.7233085857567283,0.04404768399872929,0.0705005229048797,0.86,0.0,0.0,0.0,0.0,0.0,0.0,-0.06498399388922856,0.0007687771136558479,0.0012304662490678277,-0.06498399388922856,0.0007687771136558479,0.0012304662490678277,1.17,1.0,20.046383824091517,-0.025814276174882692,5.420268457670594,-0.0006331642120236895,0.020102700590736062,-0.0024301709347978695,20.766258231873916,0.0202589535448528,1.0,0.0,100.1900392516975,-3.4374579030688945,26.943361892138945,105.04775653091001,-0.03241429659166085,3.510792841443818,1.0,24.530877478493817,0.0,1.0,107.36498263590526,6992.638276455708,1.0,1.0,0.009332010199966856,19.083349593743396,0.027610594814763703,-44.010247315577594,1.0,25.769270953808494,1.0,-0.014231992436406764,4.115221301625492,0.9351630304786871,1.0,0.23813472592071147,6.651522394034343
