time_s,sensor_time_s,imu_valid,imu_ax_mps2,imu_ay_mps2,imu_az_mps2,gyro_p_rps,gyro_q_rps,gyro_r_rps,imu_accel_norm_mps2,imu_gyro_norm_rps,gps_valid,gps_latency_s,gps_x_m,gps_y_m,gps_z_m,gps_vx_mps,gps_vy_mps,gps_vz_mps,baro_valid,baro_alt_m,baro_bias_m,pitot_valid,pitot_airspeed_mps,pitot_qbar_pa,pitot_compressibility_factor,mag_valid,mag_heading_deg,mag_x_ut,mag_y_ut,mag_z_ut,radar_valid,radar_agl_m,optical_flow_valid,optical_flow_x_radps,optical_flow_y_radps,optical_flow_quality,horizon_valid,horizon_roll_deg,horizon_pitch_deg
0.0,0.0,1.0,16.911415270186744,0.04632934279356251,0.22884005925179307,0.0020496890485300055,0.0034670290373362495,0.0014289454661326477,16.913026950295663,0.004273570016576025,1.0,0.0,-0.6470631796003397,1.3313514358594836,21.640168148178226,85.17703608167885,0.05225276163995546,7.880257797746393,1.0,19.512552440544518,0.0,1.0,85.4933992298977,4444.279135840035,1.0,1.0,1.4356082144579825,19.448508450116893,0.02515073517330344,-43.862311760623584,1.0,19.865327484861723,1.0,0.014473502116766398,4.261962511288229,0.95,1.0,0.5447866360085145,6.047405196481685
0.03,0.03,1.0,17.22341632424034,0.00911650304858987,0.7273954106718202,-0.0017489201511032288,-0.15036751287425335,-9.950279581022502e-07,17.238771913109208,0.15037768335319493,1.0,0.0,-0.6470631796003397,1.3313514358594836,21.640168148178226,85.17703608167885,0.05225276163995546,7.880257797746393,1.0,19.512552440544518,0.0,1.0,85.7012575653924,4492.4461583364955,1.0,1.0,1.4356082144579825,19.448508450116893,0.02515073517330344,-43.862311760623584,1.0,19.865327484861723,1.0,0.014473502116766398,4.261962511288229,0.95,1.0,0.5447866360085145,6.047405196481685
0.06,0.06,1.0,17.499387816902587,-0.060667897658972104,1.2050939778755858,0.001650554619232915,-0.17919976957505174,-0.002156012759946163,17.540938003871887,0.17922033963064504,1.0,0.0,-0.6470631796003397,1.3313514358594836,21.640168148178226,85.17703608167885,0.05225276163995546,7.880257797746393,1.0,20.987841748947595,0.0,1.0,86.34673449841021,4540.987540248348,1.0,1.0,-0.18877188112678678,19.03005350315998,0.10544209811934728,-44.059846290660396,1.0,20.602893690745262,1.0,-0.01665696899459998,4.224983447553027,0.9488514280371989,1.0,-0.02309409702215544,6.398314778160573
0.09,0.09,1.0,17.768800981582963,-0.013471266270325868,1.4595193027341895,0.0008439948199602861,-0.11007366097781549,-0.0049678657807968925,17.828647351753084,0.11018894163540728,1.0,0.0,-0.6470631796003397,1.3313514358594836,21.640168148178226,85.17703608167885,0.05225276163995546,7.880257797746393,1.0,20.987841748947595,0.0,1.0,87.03480550283997,4671.014316018059,1.0,1.0,-0.18877188112678678,19.03005350315998,0.10544209811934728,-44.059846290660396,1.0,20.602893690745262,1.0,-0.01665696899459998,4.224983447553027,0.9488514280371989,1.0,-0.02309409702215544,6.398314778160573
0.12,0.12,1.0,18.040280693031878,0.0036495778995530356,1.566738835995895,0.0014056432348975598,-0.053987979511064356,-0.002635503251441764,18.108186308490847,0.05407054320033486,1.0,0.0,-0.6470631796003397,1.3313514358594836,21.640168148178226,85.17703608167885,0.05225276163995546,7.880257797746393,1.0,20.350102074906836,0.0,1.0,88.07814704029614,4595.799349158465,1.0,1.0,-0.5256151104327333,18.825953734767598,-0.018976636061294624,-44.12527990838515,1.0,20.853201769808862,1.0,0.004839182370483748,4.19023853222824,0.9477630542707025,1.0,0.19126844601113746,7.058342473073739
0.15,0.15,1.0,18.391624116802628,0.0013512114639747837,1.7880878490705492,0.0008394554290603459,-0.04713455131408551,-0.005130920490532379,18.478341311803995,0.04742042764545364,1.0,0.0,-0.6470631796003397,1.3313514358594836,21.640168148178226,85.17703608167885,0.05225276163995546,7.880257797746393,1.0,20.350102074906836,0.0,1.0,87.9766922848631,4659.310465669398,1.0,1.0,-0.5256151104327333,18.825953734767598,-0.018976636061294624,-44.12527990838515,1.0,20.853201769808862,1.0,0.004839182370483748,4.19023853222824,0.9477630542707025,1.0,0.19126844601113746,7.058342473073739
0.18,0.18,1.0,18.577557082072776,0.041098735796012496,1.9041547206310956,0.004402874405174032,-0.05717639382675775,-0.0015707660864979229,18.674932970264123,0.05736717371597393,1.0,0.0,-0.6470631796003397,1.3313514358594836,21.640168148178226,85.17703608167885,0.05225276163995546,7.880257797746393,1.0,20.09541849470333,0.0,1.0,88.26605963167181,4793.023044714077,1.0,1.0,-1.0786287682689157,18.722960625105532,0.04596536869204897,-44.12249506186454,1.0,21.421281857561496,1.0,0.004572056428603596,4.1609556832011245,0.946729422276889,1.0,0.5563532482611446,6.689612405490274
0.21,0.21,1.0,18.885405172504182,0.05723339308617079,2.1427546655561907,0.0030169537393592294,-0.05236512740447323,-0.0005669227609013835,19.006662035920318,0.05245502816097781,1.0,0.0,18.186977528098314,0.5407687912819994,20.858077014130867,88.79083514050659,-0.057142797129389446,6.647448774974975,1.0,20.09541849470333,0.0,1.0,89.1656616985033,4784.9185558772,1.0,1.0,-1.0786287682689157,18.722960625105532,0.04596536869204897,-44.12249506186454,1.0,21.421281857561496,1.0,0.004572056428603596,4.1609556832011245,0.946729422276889,1.0,0.5563532482611446,6.689612405490274
0.24,0.24,1.0,19.294952851584668,0.014534848457155537,2.2398607269245514,-0.0021655458965955843,-0.03342435496631782,0.0017288326470854157,19.424530699162695,0.03353902139696841,1.0,0.0,18.186977528098314,0.5407687912819994,20.858077014130867,88.79083514050659,-0.057142797129389446,6.647448774974975,1.0,22.85321358883543,0.0,1.0,89.75116940948352,4846.098401099218,1.0,1.0,-0.9132844028598215,18.59921339547543,0.012412802980145781,-44.19779198652655,1.0,21.780507313876864,1.0,-0.011624302386495412,4.1242817425840865,0.9457460965938934,1.0,0.32678389588998363,7.107375271692142
0.27,0.27,1.0,19.4494916710017,0.05325691599499008,2.4708214530126003,0.0017679170850692983,-0.025270792336565207,-0.0038296854938761555,19.605879761238285,0.025620401384823934,1.0,0.0,18.186977528098314,0.5407687912819994,20.858077014130867,88.79083514050659,-0.057142797129389446,6.647448774974975,1.0,22.85321358883543,0.0,1.0,89.82795521764554,4956.359845982352,1.0,1.0,-0.9132844028598215,18.59921339547543,0.012412802980145781,-44.19779198652655,1.0,21.780507313876864,1.0,-0.011624302386495412,4.1242817425840865,0.9457460965938934,1.0,0.32678389588998363,7.107375271692142
0.3,0.3,1.0,19.746198545467102,0.08884028079291155,2.631418992341856,-0.0015473148128673875,-0.015663376844119323,-0.004061335502532729,19.920959201448003,0.016255153132319147,1.0,0.0,18.186977528098314,0.5407687912819994,20.858077014130867,88.79083514050659,-0.057142797129389446,6.647448774974975,1.0,21.102324471125183,0.0,1.0,90.3640625025977,5078.456259467242,1.0,1.0,-0.7591745157200153,18.512072917342216,-0.020735015627311986,-44.2285368635201,1.0,22.132065869517366,1.0,0.004639342391926576,4.11280431881081,0.9448086813298154,1.0,0.3991330111647233,7.370400084465506
0.32999999999999996,0.32999999999999996,1.0,20.069795574931476,0.02748905678877485,2.816796651319954,0.0029217775699100696,-0.013112811123323485,-0.002152273150642853,20.266519026282474,0.013605692905507012,1.0,0.0,18.186977528098314,0.5407687912819994,20.858077014130867,88.79083514050659,-0.057142797129389446,6.647448774974975,1.0,21.102324471125183,0.0,1.0,91.64507447448152,5121.363621935683,1.0,1.0,-0.7591745157200153,18.512072917342216,-0.020735015627311986,-44.2285368635201,1.0,22.132065869517366,1.0,0.004639342391926576,4.11280431881081,0.9448086813298154,1.0,0.3991330111647233,7.370400084465506
0.36,0.36,1.0,20.34126807858549,0.03218794457864532,2.8303424409250657,0.0026928029066799154,-0.010612187447163279,-0.003553318463452233,20.537260319759277,0.011510681214014409,1.0,0.0,18.186977528098314,0.5407687912819994,20.858077014130867,88.79083514050659,-0.057142797129389446,6.647448774974975,1.0,22.53501747677327,0.0,1.0,92.44394432596997,5233.670539245797,1.0,1.0,0.3946058619992388,18.519153910346247,0.011103834317818006,-44.315923110518455,1.0,22.380509943236863,1.0,0.005949880007503133,4.0666174189674225,0.9439135958110697,1.0,0.7670381908264619,6.949587792651671
0.39,0.39,1.0,20.629709624268415,-0.0522255713273591,3.094919276205676,0.0012485514340055165,-0.004099134200666386,-0.001487010661348908,20.86063690346397,0.004535744986812575,1.0,0.0,18.186977528098314,0.5407687912819994,20.858077014130867,88.79083514050659,-0.057142797129389446,6.647448774974975,1.0,22.53501747677327,0.0,1.0,92.1280936598976,5154.718568256803,1.0,1.0,0.3946058619992388,18.519153910346247,0.011103834317818006,-44.315923110518455,1.0,22.380509943236863,1.0,0.005949880007503133,4.0666174189674225,0.9439135958110697,1.0,0.7670381908264619,6.949587792651671
0.42,0.42,1.0,20.633189837865537,0.04643491499660714,3.2172078107991076,-0.001781622606717125,-0.003377003476233794,-0.004746628282549227,20.88255504445266,0.006091700226041731,1.0,0.0,35.620165455810174,1.0241117501813966,20.12903327276095,92.8584694165891,-0.09316633427381167,5.708583811918535,1.0,22.367221958137552,0.0,1.0,92.68949944492513,5296.568964587699,1.0,1.0,0.19106027336399964,18.465305564341957,-0.016010824062045514,-44.28840647777898,1.0,22.610240821782355,1.0,-0.025216030814142205,4.089368332895006,0.9430575243200517,1.0,0.08465253293741917,7.4979956579835445
0.44999999999999996,0.44999999999999996,1.0,20.654733027007143,0.018171093260677944,3.3586142760387228,0.0036594112860743773,0.005562602754886093,-0.0022023738781459658,20.926027249833663,0.007013151293709168,1.0,0.0,35.620165455810174,1.0241117501813966,20.12903327276095,92.8584694165891,-0.09316633427381167,5.708583811918535,1.0,22.367221958137552,0.0,1.0,93.10216379390377,5319.720765796059,1.0,1.0,0.19106027336399964,18.465305564341957,-0.016010824062045514,-44.28840647777898,1.0,22.610240821782355,1.0,-0.025216030814142205,4.089368332895006,0.9430575243200517,1.0,0.08465253293741917,7.4979956579835445
0.48,0.48,1.0,20.617219153476157,0.08526667560850426,3.377890570780977,0.0018976603229686527,0.006495774097772209,-0.0033863200623926682,20.892274666407307,0.007567255737426939,1.0,0.0,35.620165455810174,1.0241117501813966,20.12903327276095,92.8584694165891,-0.09316633427381167,5.708583811918535,1.0,22.807064173822614,0.0,1.0,93.93142392295134,5391.571970998292,1.0,1.0,-0.49071015565240567,18.465523897575558,0.04516763084233624,-44.27532376803599,1.0,22.94585175327526,1.0,-0.020827079058775514,4.056711492256583,0.9422377867859277,1.0,0.9075725630531161,6.8750919064025675
0.51,0.51,1.0,20.661319236701086,-0.037231837834926645,3.5692211779695637,0.005005818334915398,0.007358160956868226,-0.006818229360180424,20.96737557797564,0.011211110626400109,1.0,0.0,35.620165455810174,1.0241117501813966,20.12903327276095,92.8584694165891,-0.09316633427381167,5.708583811918535,1.0,22.807064173822614,0.0,1.0,94.3881598729238,5402.747928991847,1.0,1.0,-0.49071015565240567,18.465523897575558,0.04516763084233624,-44.27532376803599,1.0,22.94585175327526,1.0,-0.020827079058775514,4.056711492256583,0.9422377867859277,1.0,0.9075725630531161,6.8750919064025675
0.54,0.54,1.0,20.514732957358206,0.05279169382255887,3.6906248351742925,0.001061963287705646,0.009078219835444367,-0.005092566101341475,20.844130275659403,0.010463081329208066,1.0,0.0,35.620165455810174,1.0241117501813966,20.12903327276095,92.8584694165891,-0.09316633427381167,5.708583811918535,1.0,23.61280516823909,0.0,1.0,95.07524211909066,5566.184433946194,1.0,1.0,0.22209420728071447,18.50203184749359,-0.049204014161464776,-44.30282056046336,1.0,23.607086005599434,1.0,-0.008377299640551858,4.0593959960014505,0.9414523875735026,1.0,-0.025501630835610804,7.1298105398516425
0.57,0.57,1.0,20.52025510931496,0.0029977595857565674,3.7287249389407493,0.0019327710147513696,0.012083139437512935,-0.0006206071552411221,20.856276475157493,0.012252469779721145,1.0,0.0,35.620165455810174,1.0241117501813966,20.12903327276095,92.8584694165891,-0.09316633427381167,5.708583811918535,1.0,23.61280516823909,0.0,1.0,96.98081106922702,5648.404952028446,1.0,1.0,0.22209420728071447,18.50203184749359,-0.049204014161464776,-44.30282056046336,1.0,23.607086005599434,1.0,-0.008377299640551858,4.0593959960014505,0.9414523875735026,1.0,-0.025501630835610804,7.1298105398516425
0.6,0.6,1.0,20.560797991161653,0.0372471138942896,3.8708836240750966,0.0022564420448453718,0.01076022915743369,0.00012245900143331798,20.922034829623605,0.01099495604489914,1.0,0.0,35.620165455810174,1.0241117501813966,20.12903327276095,92.8584694165891,-0.09316633427381167,5.708583811918535,1.0,24.181861485117775,0.0,1.0,96.18766153991554,5710.539749654555,1.0,1.0,-0.8969280140907075,18.571099648717823,-0.043542552467979896,-44.2386121500826,1.0,22.90646057343322,1.0,-0.008968791306058918,4.064870620964638,0.9406995746259066,1.0,-0.15898142901368834,6.952593329396805
0.63,0.63,1.0,20.512493044008657,-0.06923390400961837,3.937390840714915,0.004311619910058673,0.01470954350643064,-0.002312183639866473,20.887082391911843,0.015501836329959634,1.0,0.0,58.384206375859826,-0.8723172367036609,23.785201368072592,96.89911620349987,0.015392374959800996,4.786626421167299,1.0,24.181861485117775,0.0,1.0,96.94245219372276,5737.052499939324,1.0,1.0,-0.8969280140907075,18.571099648717823,-0.043542552467979896,-44.2386121500826,1.0,22.90646057343322,1.0,-0.008968791306058918,4.064870620964638,0.9406995746259066,1.0,-0.15898142901368834,6.952593329396805
0.6599999999999999,0.6599999999999999,1.0,20.470275336488932,-0.04175477084846056,3.981826312056492,0.0035061532907474883,0.017644464263874914,-0.004484465418676096,20.853988985130425,0.018539974653399075,1.0,0.0,58.384206375859826,-0.8723172367036609,23.785201368072592,96.89911620349987,0.015392374959800996,4.786626421167299,1.0,23.26645668284592,0.0,1.0,98.76832050977384,5839.093757247808,1.0,1.0,-1.3895225495802142,18.65117713156117,0.013620991332971743,-44.22750407685643,1.0,24.306345552042067,1.0,-0.0115631039526865,4.037223178212226,0.9399777666685158,1.0,-0.9018216828208095,7.201156690451342
0.69,0.69,1.0,20.43462026014482,0.004283106197101212,4.1068923362405245,0.0012180980297847182,0.019264145121030682,-0.000233223439484911,20.843231231812187,0.01930402660656633,1.0,0.0,58.384206375859826,-0.8723172367036609,23.785201368072592,96.89911620349987,0.015392374959800996,4.786626421167299,1.0,23.26645668284592,0.0,1.0,98.4845749213933,5843.685231246099,1.0,1.0,-1.3895225495802142,18.65117713156117,0.013620991332971743,-44.22750407685643,1.0,24.306345552042067,1.0,-0.0115631039526865,4.037223178212226,0.9399777666685158,1.0,-0.9018216828208095,7.201156690451342
0.72,0.72,1.0,20.420466635215945,-0.0519810560691032,4.161490345151538,0.003923370752018438,0.02226048699827473,-0.002724171195892459,20.84025339392367,0.022767152394682175,1.0,0.0,58.384206375859826,-0.8723172367036609,23.785201368072592,96.89911620349987,0.015392374959800996,4.786626421167299,1.0,24.437716531169727,0.0,1.0,98.28141269548775,5904.973649215768,1.0,1.0,-0.12786648006770912,18.742933157156997,-0.06103045222161597,-44.32908346369152,1.0,24.287452609367897,1.0,-0.0007361495600747038,4.056722000709116,0.9392855155882289,1.0,-0.060648179154468886,6.852534017631977
0.75,0.75,1.0,20.418635035042335,-0.05622845627051295,4.339953178466525,0.0028289971344714793,0.018951629195820288,-0.00656940359356374,20.874841602389093,0.020256469029370443,1.0,0.0,58.384206375859826,-0.8723172367036609,23.785201368072592,96.89911620349987,0.015392374959800996,4.786626421167299,1.0,24.437716531169727,0.0,1.0,98.68738661122684,5977.124024689067,1.0,1.0,-0.12786648006770912,18.742933157156997,-0.06103045222161597,-44.32908346369152,1.0,24.287452609367897,1.0,-0.0007361495600747038,4.056722000709116,0.9392855155882289,1.0,-0.060648179154468886,6.852534017631977
0.78,0.78,1.0,20.34773150041216,0.07045147107516425,4.3942769836389,0.0027805197431042053,0.01882796266089325,-0.002723184474339002,20.816935673426592,0.01922600326856998,1.0,0.0,58.384206375859826,-0.8723172367036609,23.785201368072592,96.89911620349987,0.015392374959800996,4.786626421167299,1.0,24.035735825416374,0.0,1.0,99.79935019062096,6060.340892233619,1.0,1.0,-0.03761565548069951,18.757861570419124,-0.0008757614041586606,-44.18835983884846,1.0,24.494267680247095,1.0,-0.0019983656768222634,4.0698365986372345,0.9386214793821954,1.0,0.3806642599510324,6.956806544405258
0.8099999999999999,0.8099999999999999,1.0,20.37186726895761,0.027416974198198676,4.445401699624074,-0.0006422946445560156,0.02325926632977377,-0.0023515153720619904,20.851266723763363,0.023386655108305184,1.0,0.0,58.384206375859826,-0.8723172367036609,23.785201368072592,96.89911620349987,0.015392374959800996,4.786626421167299,1.0,24.035735825416374,0.0,1.0,100.9160520394869,6160.202230649929,1.0,1.0,-0.03761565548069951,18.757861570419124,-0.0008757614041586606,-44.18835983884846,1.0,24.494267680247095,1.0,-0.0019983656768222634,4.0698365986372345,0.9386214793821954,1.0,0.3806642599510324,6.956806544405258
0.84,0.84,1.0,20.347660268356538,0.0012008043047926683,4.5187756248876045,0.004061189771820894,0.020923631013689274,-0.0010511420814061309,20.84338295446458,0.02134002101299493,1.0,0.0,80.03263755627364,-1.291870318248277,26.84716031842451,101.05965731457712,-0.11903978587091164,4.293264338318418,1.0,24.287262053981546,0.0,1.0,101.07775633033053,6207.085666676652,1.0,1.0,1.1080198670834138,18.76342224574323,-0.10033452280847743,-44.16511834681677,1.0,24.703406874781763,1.0,-0.00880465965185683,4.059021404604328,0.937984398664879,1.0,-0.18213997520789704,6.732611557795192
0.87,0.87,1.0,20.29494427296522,0.01970417119534698,4.526282268875535,0.0011429944002008983,0.01896640268251256,-0.001563983753527462,20.793565891271832,0.019065070471818563,1.0,0.0,80.03263755627364,-1.291870318248277,26.84716031842451,101.05965731457712,-0.11903978587091164,4.293264338318418,1.0,24.287262053981546,0.0,1.0,101.86594382184828,6406.702034087939,1.0,1.0,1.1080198670834138,18.76342224574323,-0.10033452280847743,-44.16511834681677,1.0,24.703406874781763,1.0,-0.00880465965185683,4.059021404604328,0.937984398664879,1.0,-0.18213997520789704,6.732611557795192
0.8999999999999999,0.8999999999999999,1.0,20.30365300871621,0.05079373852165545,4.645605526224441,0.0003380475641978327,0.02573190603052972,-0.0006501894925020077,20.82840743329914,0.02574233886995958,1.0,0.0,80.03263755627364,-1.291870318248277,26.84716031842451,101.05965731457712,-0.11903978587091164,4.293264338318418,1.0,25.79572118918901,0.0,1.0,102.83287686588949,6312.087262368704,1.0,1.0,0.7100818377411279,18.879047967517064,-0.07857330774140589,-44.14971109356271,1.0,25.08842737738997,1.0,-0.007552510817143352,4.068945517898623,0.9373730786868465,1.0,-0.10698724091218,7.2699178878875355
0.9299999999999999,0.9299999999999999,1.0,20.24074594996844,0.002021706296748597,4.755287204787952,-0.00035206373734495474,0.020459648249734414,0.0003509106656222503,20.791838713747282,0.020465685761128585,1.0,0.0,80.03263755627364,-1.291870318248277,26.84716031842451,101.05965731457712,-0.11903978587091164,4.293264338318418,1.0,25.79572118918901,0.0,1.0,102.84811410903087,6361.031577027546,1.0,1.0,0.7100818377411279,18.879047967517064,-0.07857330774140589,-44.14971109356271,1.0,25.08842737738997,1.0,-0.007552510817143352,4.068945517898623,0.9373730786868465,1.0,-0.10698724091218,7.2699178878875355
0.96,0.96,1.0,20.24493686538057,-0.0005619379083952429,4.8139188201459095,0.0032268726577228974,0.021130277814989617,-0.0011356496905974502,20.809403725382776,0.02140539763488537,1.0,0.0,80.03263755627364,-1.291870318248277,26.84716031842451,101.05965731457712,-0.11903978587091164,4.293264338318418,1.0,25.31733656814619,0.0,1.0,103.34397543727654,6497.045921328133,1.0,1.0,-2.213605306804391,18.95233550416193,-0.03393269624087379,-44.09869719082794,1.0,25.582511187899936,1.0,0.0014641638932614293,4.062982204221345,0.936786374593705,1.0,-0.2600352611461647,7.322205511860562
0.99,0.99,1.0,20.22165826892327,0.011559620835784053,4.890174330998317,0.001955674867776497,0.022258259704819015,-0.00013715945580211543,20.804552428675354,0.02234443111810946,1.0,0.0,80.03263755627364,-1.291870318248277,26.84716031842451,101.05965731457712,-0.11903978587091164,4.293264338318418,1.0,25.31733656814619,0.0,1.0,103.96515192862935,6681.877064953636,1.0,1.0,-2.213605306804391,18.95233550416193,-0.03393269624087379,-44.09869719082794,1.0,25.582511187899936,1.0,0.0014641638932614293,4.062982204221345,0.936786374593705,1.0,-0.2600352611461647,7.322205511860562
1.02,1.02,1.0,20.193851842084342,-0.07917257848193986,5.003835045280292,0.00030537717236610524,0.020916994888335688,-0.0029228347650589958,20.80471787065645,0.021122426315172724,1.0,0.0,80.03263755627364,-1.291870318248277,26.84716031842451,101.05965731457712,-0.11903978587091164,4.293264338318418,1.0,25.991066353048556,0.0,1.0,105.32066429782884,6819.733447151717,1.0,1.0,-1.1292950773970598,19.03188149078747,0.026971987755900338,-44.085744914592084,1.0,25.715508461766586,1.0,-0.02625432319508149,4.080160159194385,0.9362231798229482,1.0,-0.12024413230871979,6.479951571159482
1.05,1.05,1.0,20.212288976451944,0.050484695733186216,5.10658050341331,0.0009045658606648087,0.02085291990922567,-2.45844403803366e-05,20.847454012659316,0.02087254446711204,1.0,0.0,100.1900392516975,-3.4374579030688945,26.943361892138945,105.04775653091001,-0.03241429659166085,3.510792841443818,1.0,25.991066353048556,0.0,1.0,105.39325342101635,6798.940039911795,1.0,1.0,-1.1292950773970598,19.03188149078747,0.026971987755900338,-44.085744914592084,1.0,25.715508461766586,1.0,-0.02625432319508149,4.080160159194385,0.9362231798229482,1.0,-0.12024413230871979,6.479951571159482
1.08,1.08,1.0,20.14261994988087,0.013230223295583644,5.134889309115866,-0.0028090860987651494,0.020889881036401783,-0.004670288498110327,20.786832411433437,0.021589110428196806,1.0,0.0,100.1900392516975,-3.4374579030688945,26.943361892138945,105.04775653091001,-0.03241429659166085,3.510792841443818,1.0,26.645140207412382,0.0,1.0,105.32095838459978,6847.237494456489,1.0,1.0,0.8320730398277991,19.06466806991922,-0.05801898504695266,-44.08974713037082,1.0,25.871594122177015,1.0,-0.007842553534920188,4.107912320656243,0.9356824169712532,1.0,-0.16266008123012793,6.218794955439122
1.1099999999999999,1.1099999999999999,1.0,20.13765307462417,0.0388289694410576,5.137374153038204,-0.0007263420922293451,0.01757117322750929,-0.003393119306334811,20.7826656671153,0.01791052651523973,1.0,0.0,100.1900392516975,-3.4374579030688945,26.943361892138945,105.04775653091001,-0.03241429659166085,3.510792841443818,1.0,26.645140207412382,0.0,1.0,106.62917138681664,6845.64980447086,1.0,1.0,0.8320730398277991,19.06466806991922,-0.05801898504695266,-44.08974713037082,1.0,25.871594122177015,1.0,-0.007842553534920188,4.107912320656243,0.9356824169712532,1.0,-0.16266008123012793,6.218794955439122
1.14,1.14,1.0,20.10492866966329,-0.06235022970596924,5.371348274647939,0.0017184312099352706,0.02391590633283077,0.0004964700692157062,20.810176036039596,0.023982703435468686,1.0,0.0,100.1900392516975,-3.4374579030688945,26.943361892138945,105.04775653091001,-0.03241429659166085,3.510792841443818,1.0,24.530877478493817,0.0,1.0,107.30112232548562,6928.193135347371,1.0,1.0,0.009332010199966856,19.083349593743396,0.027610594814763703,-44.010247315577594,1.0,25.769270953808494,1.0,-0.014231992436406764,4.115221301625492,0.9351630304786871,1.0,0.23813472592071147,6.651522394034343
1.17,1.17,1.0,20.046383824091517,-0.025814276174882692,5.420268457670594,-0.0006331642120236895,0.020102700590736062,-0.0024301709347978695,20.766258231873916,0.0202589535448528,1.0,0.0,100.1900392516975,-3.4374579030688945,26.943361892138945,105.04775653091001,-0.03241429659166085,3.510792841443818,1.0,24.530877478493817,0.0,1.0,107.36498263590526,6992.638276455708,1.0,1.0,0.009332010199966856,19.083349593743396,0.027610594814763703,-44.010247315577594,1.0,25.769270953808494,1.0,-0.014231992436406764,4.115221301625492,0.9351630304786871,1.0,0.23813472592071147,6.651522394034343
1.2,1.2,1.0,20.049229282259724,-0.046345022738510294,5.422358024368904,0.0006527240888069144,0.022148677674666294,-0.0025712993411042147,20.76958615904976,0.022306984372028705,1.0,0.0,100.1900392516975,-3.4374579030688945,26.943361892138945,105.04775653091001,-0.03241429659166085,3.510792841443818,1.0,25.18055600503812,0.0,1.0,107.50757794673557,7155.583223597323,1.0,1.0,-0.49510393831629584,19.140097985976237,-0.09456570537235127,-44.02790322612441,1.0,25.806414738317052,1.0,0.0019140268675678657,4.1186236497463256,0.9346639809355887,1.0,0.4689713161308818,6.5121618029997075
1.23,1.23,1.0,20.00691609365418,0.0028625001634528142,5.489395831409042,-0.00020505847901826075,0.0196554024343182,-0.0016100812337414652,20.74632898530043,0.01972230350172275,1.0,0.0,100.1900392516975,-3.4374579030688945,26.943361892138945,105.04775653091001,-0.03241429659166085,3.510792841443818,1.0,25.18055600503812,0.0,1.0,108.69076370243448,7230.525090286345,1.0,1.0,-0.49510393831629584,19.140097985976237,-0.09456570537235127,-44.02790322612441,1.0,25.806414738317052,1.0,0.0019140268675678657,4.1186236497463256,0.9346639809355887,1.0,0.4689713161308818,6.5121618029997075
1.26,1.26,1.0,20.073502392323356,-0.019887916203916535,5.516034212956062,-0.0003265572887090032,0.022807516808913218,-0.0015790866677685993,20.817601381098743,0.0228644478909068,1.0,0.0,122.71290904614128,1.2534633489673919,23.493336722819773,109.0724446912383,0.04191285804676697,3.1074609040191454,1.0,27.821014178184573,0.0,1.0,109.3460841939008,7329.64945437811,1.0,1.0,-1.8729311868056528,19.197243738879656,-0.08530168974803648,-44.01089520762218,1.0,26.64002341805425,1.0,-0.016222774033622617,4.14761598304405,0.934184240685132,1.0,-0.07513091263270187,6.679658088816754
1.29,1.29,1.0,19.964716550585678,-0.02169468040673527,5.600552576326693,0.002977710602438317,0.01942045076948945,-0.0035819199265536804,20.735394058579818,0.019971249807718076,1.0,0.0,122.71290904614128,1.2534633489673919,23.493336722819773,109.0724446912383,0.04191285804676697,3.1074609040191454,1.0,27.821014178184573,0.0,1.0,110.18463141989511,7323.974256684346,1.0,1.0,-1.8729311868056528,19.197243738879656,-0.08530168974803648,-44.01089520762218,1.0,26.64002341805425,1.0,-0.016222774033622617,4.14761598304405,0.934184240685132,1.0,-0.07513091263270187,6.679658088816754
1.3199999999999998,1.3199999999999998,1.0,19.943850663704513,-0.06688852117593308,5.740269949901576,-0.0029407727616399142,0.01639899136803208,-0.0007890268835688914,20.753610588718175,0.016679257349995782,1.0,0.0,122.71290904614128,1.2534633489673919,23.493336722819773,109.0724446912383,0.04191285804676697,3.1074609040191454,1.0,26.934851449140123,0.0,1.0,110.18868730871282,7553.426048915822,1.0,1.0,2.1872611989087605,19.270503547521336,-0.0421957027282633,-43.92022910513239,1.0,26.55270466438472,1.0,-0.01085831463176725,4.149683593116417,0.9337227904555828,1.0,0.4782157908891125,6.468482055654088
1.3499999999999999,1.3499999999999999,1.0,19.98797027858351,-0.02805872203183957,5.773418735625355,0.0052469459823899535,0.01932478904284871,-0.0005897729432034896,20.8050981022991,0.020033116228317015,1.0,0.0,122.71290904614128,1.2534633489673919,23.493336722819773,109.0724446912383,0.04191285804676697,3.1074609040191454,1.0,26.934851449140123,0.0,1.0,110.97578044651934,7469.963933280788,1.0,1.0,2.1872611989087605,19.270503547521336,-0.0421957027282633,-43.92022910513239,1.0,26.55270466438472,1.0,-0.01085831463176725,4.149683593116417,0.9337227904555828,1.0,0.4782157908891125,6.468482055654088
1.38,1.38,1.0,19.833218134062385,0.06700285922734113,5.8463871982821916,0.005653166514616259,0.020323555016581285,-0.0038043096219388707,20.677071219316424,0.021435436824416745,1.0,0.0,122.71290904614128,1.2534633489673919,23.493336722819773,109.0724446912383,0.04191285804676697,3.1074609040191454,1.0,26.7689926075628,0.0,1.0,111.28087898213273,7443.01584105918,1.0,1.0,-0.8991984638482061,19.32741560115741,-0.12849102417622268,-43.993922651978956,1.0,26.676310037707076,1.0,-0.011899406665068496,4.166605489387571,0.9332786168290901,1.0,-0.24898938201566642,6.581415871855618
1.41,1.41,1.0,19.86624817759576,0.016301120209773937,5.886084525846538,0.0001563434938940233,0.01932589360816571,-0.00029908827291605464,20.719895593987847,0.019328840131710417,1.0,0.0,122.71290904614128,1.2534633489673919,23.493336722819773,109.0724446912383,0.04191285804676697,3.1074609040191454,1.0,26.7689926075628,0.0,1.0,111.5821507662729,7733.284490729276,1.0,1.0,-0.8991984638482061,19.32741560115741,-0.12849102417622268,-43.993922651978956,1.0,26.676310037707076,1.0,-0.011899406665068496,4.166605489387571,0.9332786168290901,1.0,-0.24898938201566642,6.581415871855618
1.44,1.44,1.0,19.85599610833593,-0.0019775562135171242,6.012067683544219,0.004931171912126582,0.018122254289428326,-0.0037200635466717426,20.74621756360655,0.019146055200717597,1.0,0.0,122.71290904614128,1.2534633489673919,23.493336722819773,109.0724446912383,0.04191285804676697,3.1074609040191454,1.0,26.318793974303855,0.0,1.0,112.84040486142769,7706.402047929174,1.0,1.0,0.20481012830494916,19.420387459219036,-0.011489576336041807,-43.9595102435642,1.0,26.96773515138145,1.0,-0.012903832515119553,4.1787213682490245,0.9328507103788317,1.0,0.32527012500270247,6.211875538827918
1.47,1.47,1.0,19.81046013781821,0.016419743520563218,6.124094972447871,0.003761062287643534,0.018499330966787467,-0.0006016085773651266,20.73545610088244,0.018887370611883364,1.0,0.0,144.71981848587288,-1.8443254047359077,26.79199313563123,113.1219149816119,-0.06279763163804296,2.7845460040645698,1.0,26.318793974303855,0.0,1.0,113.88969126846338,7829.924555807853,1.0,1.0,0.20481012830494916,19.420387459219036,-0.011489576336041807,-43.9595102435642,1.0,26.96773515138145,1.0,-0.012903832515119553,4.1787213682490245,0.9328507103788317,1.0,0.32527012500270247,6.211875538827918
1.5,1.5,1.0,19.89440816289817,0.022880632643704046,6.118955203287566,0.0030355408874927097,0.015980983892866993,-0.0014955380390146292,20.814168550657495,0.016335329463768217,1.0,0.0,144.71981848587288,-1.8443254047359077,26.79199313563123,113.1219149816119,-0.06279763163804296,2.7845460040645698,1.0,27.47632234528879,0.0,1.0,114.39887569521926,8030.275655745206,1.0,1.0,-0.39600703044761587,19.383902416741478,-0.03381930011706025,-43.87738628501497,1.0,27.2476240501549,1.0,-0.014478722797429778,4.197348721022947,0.9324380643403544,1.0,0.256935541642045,5.7501368578873295
1.53,1.53,1.0,19.788244213420214,-0.008744704419572662,6.1422921056065904,-0.0005080987459321167,0.017269211553852734,0.001118896712949137,20.71961480892951,0.0173128784978578,1.0,0.0,144.71981848587288,-1.8443254047359077,26.79199313563123,113.1219149816119,-0.06279763163804296,2.7845460040645698,1.0,27.47632234528879,0.0,1.0,114.45883115022437,8003.825696268855,1.0,1.0,-0.39600703044761587,19.383902416741478,-0.03381930011706025,-43.87738628501497,1.0,27.2476240501549,1.0,-0.014478722797429778,4.197348721022947,0.9324380643403544,1.0,0.256935541642045,5.7501368578873295
1.56,1.56,1.0,19.72526291432026,0.029555684267535583,6.239847690434543,0.00627027207982892,0.016942718430861696,-0.003737449070581411,20.688706334069128,0.018448320935460023,1.0,0.0,144.71981848587288,-1.8443254047359077,26.79199313563123,113.1219149816119,-0.06279763163804296,2.7845460040645698,1.0,26.763980568078292,0.0,1.0,114.68360256428771,8044.025608024989,1.0,1.0,0.5112128981797389,19.337660459065347,-0.06741288531146106,-43.84215656429667,1.0,27.1131619340352,1.0,-0.001047057210357534,4.2150376634282365,0.9320396737158209,1.0,0.16956769271978359,5.894552841670074
1.5899999999999999,1.5899999999999999,1.0,19.75353456144131,-0.04719201284702651,6.3335491280867915,0.001702678576452489,0.01420032600275769,-0.007696118002038796,20.744112401209694,0.016241262426936277,1.0,0.0,144.71981848587288,-1.8443254047359077,26.79199313563123,113.1219149816119,-0.06279763163804296,2.7845460040645698,1.0,26.763980568078292,0.0,1.0,115.73887256043405,8116.175289202339,1.0,1.0,0.5112128981797389,19.337660459065347,-0.06741288531146106,-43.84215656429667,1.0,27.1131619340352,1.0,-0.001047057210357534,4.2150376634282365,0.9320396737158209,1.0,0.16956769271978359,5.894552841670074
1.6199999999999999,1.6199999999999999,1.0,19.73710514711929,-0.024996734951924934,6.387588153209833,0.0014619839514302038,0.016032537902687327,-0.0030490534625918246,20.74500486479161,0.016385249332649426,1.0,0.0,144.71981848587288,-1.8443254047359077,26.79199313563123,113.1219149816119,-0.06279763163804296,2.7845460040645698,1.0,26.755826081515686,0.0,1.0,115.7158396950352,8132.24334696878,1.0,1.0,-2.1246146950086215,19.44308368168565,-0.060451544959293314,-43.88641769386267,1.0,26.96858921266778,1.0,-0.007902496692934604,4.23736105597635,0.9316545347301528,1.0,0.2768616041837287,5.816829918366276
1.65,1.65,1.0,19.700786704133186,-0.017631882667019427,6.453349047612213,0.00442868035975837,0.018684868204689523,-0.003195549101607759,20.730822983551683,0.01946661356313196,1.0,0.0,144.71981848587288,-1.8443254047359077,26.79199313563123,113.1219149816119,-0.06279763163804296,2.7845460040645698,1.0,26.755826081515686,0.0,1.0,116.84616894791436,8261.587117568512,1.0,1.0,-2.1246146950086215,19.44308368168565,-0.060451544959293314,-43.88641769386267,1.0,26.96858921266778,1.0,-0.007902496692934604,4.23736105597635,0.9316545347301528,1.0,0.2768616041837287,5.816829918366276
1.68,1.68,1.0,19.643395621766732,0.07166585062790874,6.568860068170782,0.0024854454295362384,0.017143185518361064,-0.003517423790749252,20.71275090717308,0.017675930493863002,1.0,0.0,170.28136531411042,1.1294660619344068,26.456971773452338,117.21253218969416,-0.2062917239641252,2.471785122799253,1.0,27.428938161962126,0.0,1.0,117.27935391125843,8348.178314168441,1.0,1.0,0.4046091191522613,19.5606552605587,-0.04540949957574993,-43.79185093055595,1.0,27.1766826318312,1.0,-0.006639390419997867,4.249832647470306,0.9312816445663257,1.0,0.5346710118698016,5.99088860769693
1.71,1.71,1.0,19.70285802337411,0.011236439789519447,6.588725031765852,0.0013786372621954898,0.016219272557368603,-0.004131851082241387,20.77532281556738,0.016793976192574035,1.0,0.0,170.28136531411042,1.1294660619344068,26.456971773452338,117.21253218969416,-0.2062917239641252,2.471785122799253,1.0,27.428938161962126,0.0,1.0,118.10273417521248,8481.606806983893,1.0,1.0,0.4046091191522613,19.5606552605587,-0.04540949957574993,-43.79185093055595,1.0,27.1766826318312,1.0,-0.006639390419997867,4.249832647470306,0.9312816445663257,1.0,0.5346710118698016,5.99088860769693
1.74,1.74,1.0,19.69378381040116,-0.059887785579163424,6.738154835743299,0.005829056055372241,0.01501280325469279,-0.0018960185159890687,20.814692837227536,0.016215950242701154,1.0,0.0,170.28136531411042,1.1294660619344068,26.456971773452338,117.21253218969416,-0.2062917239641252,2.471785122799253,1.0,27.241260583595068,0.0,1.0,118.57074256020395,8645.235162225707,1.0,1.0,0.34320900425667217,19.516157977931883,-0.01607378140085071,-43.784281725948304,1.0,27.47377282581039,1.0,-0.016220799349022083,4.277656348614676,0.9309200013098892,1.0,0.3675211955557567,5.712946545634275
1.77,1.77,1.0,19.57685455516983,-0.021772973034593995,6.792625870353848,0.00591195761400282,0.008761507557687283,-0.00030011399642555954,20.721811565382716,0.010573803758535895,1.0,0.0,170.28136531411042,1.1294660619344068,26.456971773452338,117.21253218969416,-0.2062917239641252,2.471785122799253,1.0,27.241260583595068,0.0,1.0,118.61723141882901,8660.352869984552,1.0,1.0,0.34320900425667217,19.516157977931883,-0.01607378140085071,-43.784281725948304,1.0,27.47377282581039,1.0,-0.016220799349022083,4.277656348614676,0.9309200013098892,1.0,0.3675211955557567,5.712946545634275
1.7999999999999998,1.7999999999999998,1.0,19.584958407451907,-0.014323663838234238,6.777400693923343,0.000839555418443415,0.01438843713993065,-0.0030290457770416807,20.72447734334836,0.014727766122185248,1.0,0.0,170.28136531411042,1.1294660619344068,26.456971773452338,117.21253218969416,-0.2062917239641252,2.471785122799253,1.0,27.568876690497337,0.0,1.0,120.83306899604412,8775.932261434176,1.0,1.0,-0.556156778631904,19.65020371242095,-0.10812936659215401,-43.75364097417091,1.0,27.533944048546804,1.0,-0.001434739497824595,4.285339352271244,0.9305686040605059,1.0,-0.32760414528261034,6.31112628166318
1.8299999999999998,1.8299999999999998,1.0,19.580190982090624,-0.052061966542216113,6.817368963665927,0.0040149737960697394,0.011320091204487143,-0.006260874899539526,20.733140353797314,0.013544852674308343,1.0,0.0,170.28136531411042,1.1294660619344068,26.456971773452338,117.21253218969416,-0.2062917239641252,2.471785122799253,1.0,27.568876690497337,0.0,1.0,119.61865869880927,8728.367561578685,1.0,1.0,-0.556156778631904,19.65020371242095,-0.10812936659215401,-43.75364097417091,1.0,27.533944048546804,1.0,-0.001434739497824595,4.285339352271244,0.9305686040605059,1.0,-0.32760414528261034,6.31112628166318
1.8599999999999999,1.8599999999999999,1.0,19.507064009881923,-0.06167972858684782,6.935215540867279,0.004042144846590374,0.01301137704840312,-0.0026276286603191135,20.703298415296924,0.013875853128116448,1.0,0.0,170.28136531411042,1.1294660619344068,26.456971773452338,117.21253218969416,-0.2062917239641252,2.471785122799253,1.0,28.102821231993268,0.0,1.0,120.7693942589112,8884.51817433088,1.0,1.0,0.43940763830877017,19.608481477839078,-0.12158118818666745,-43.800240144439805,1.0,28.102910571966987,1.0,-0.02365170396644705,4.309842693666945,0.9302264532054807,1.0,0.08997965355608488,5.38790839153959
1.89,1.89,1.0,19.47647834054698,-0.029201130316852852,6.924945561906081,0.005374930730476778,0.011509860793488768,-0.002813489810472188,20.67096834430284,0.013010860876842252,1.0,0.0,195.22197937226025,0.1810396126637971,27.25511181803232,121.33476945771183,0.0964811105331844,2.0986996901124906,1.0,28.102821231993268,0.0,1.0,121.23754031896704,8983.99886850487,1.0,1.0,0.43940763830877017,19.608481477839078,-0.12158118818666745,-43.800240144439805,1.0,28.102910571966987,1.0,-0.02365170396644705,4.309842693666945,0.9302264532054807,1.0,0.08997965355608488,5.38790839153959
1.92,1.92,1.0,19.474940268692375,-0.011112713846633267,7.031291023627038,0.0032455990005147376,0.013789127375918461,-0.007365933659738066,20.705373105077896,0.015966556464720512,1.0,0.0,195.22197937226025,0.1810396126637971,27.25511181803232,121.33476945771183,0.0964811105331844,2.0986996901124906,1.0,28.850496825035115,0.0,1.0,121.48863252523672,9130.953428674899,1.0,1.0,1.1955258967018387,19.64759085014189,-0.03292087830679042,-43.81501427856519,1.0,28.00986354773242,1.0,-0.024452638575914606,4.327918913114959,0.929892550768215,1.0,0.1702616849679791,6.443995299134968
1.95,1.95,1.0,19.42917394563242,0.015943248228132104,7.13087672026899,0.0027890756441351335,0.01208584887790972,-0.0025137681452433243,20.696435857327707,0.012655659458772565,1.0,0.0,195.22197937226025,0.1810396126637971,27.25511181803232,121.33476945771183,0.0964811105331844,2.0986996901124906,1.0,28.850496825035115,0.0,1.0,122.63677641946684,9152.553982444044,1.0,1.0,1.1955258967018387,19.64759085014189,-0.03292087830679042,-43.81501427856519,1.0,28.00986354773242,1.0,-0.024452638575914606,4.327918913114959,0.929892550768215,1.0,0.1702616849679791,6.443995299134968
1.98,1.98,1.0,19.514077506454015,-0.004619924478391428,7.164358880135797,0.007731582681226163,0.009399045387504181,-0.004409904622884504,20.787671356719525,0.01294475506666457,1.0,0.0,195.22197937226025,0.1810396126637971,27.25511181803232,121.33476945771183,0.0964811105331844,2.0986996901124906,1.0,27.606116701432367,0.0,1.0,123.17778855386578,9266.17369637485,1.0,1.0,-1.0477167492315238,19.65862017946584,-0.030035715035793414,-43.77622051479931,1.0,27.932837904947178,1.0,-0.0023772931155355663,4.335674621971072,0.929565900843173,1.0,-0.2730869738894261,5.597246017499487
2.01,2.01,1.0,19.42708252655409,0.022172552100913675,7.307945359304992,0.0048571983312832145,0.01289747900917587,-0.005075780251795201,20.756157941444684,0.01468675885231547,1.0,0.0,195.22197937226025,0.1810396126637971,27.25511181803232,121.33476945771183,0.0964811105331844,2.0986996901124906,1.0,27.606116701432367,0.0,1.0,123.3830522518165,9232.42814536137,1.0,1.0,-1.0477167492315238,19.65862017946584,-0.030035715035793414,-43.77622051479931,1.0,27.932837904947178,1.0,-0.0023772931155355663,4.335674621971072,0.929565900843173,1.0,-0.2730869738894261,5.597246017499487
2.04,2.04,1.0,19.349014609160577,-0.10551150735368933,7.298352935847093,0.0016278963390812008,0.010495325593106116,-0.006787515636878091,20.679977142150843,0.012604454542619718,1.0,0.0,195.22197937226025,0.1810396126637971,27.25511181803232,121.33476945771183,0.0964811105331844,2.0986996901124906,1.0,28.093515503619873,0.0,1.0,124.62973842645187,9532.771101003893,1.0,1.0,-0.025243907016276664,19.71352651896102,-0.07492732459600199,-43.79337840164013,1.0,28.595623787796352,1.0,-0.028607326360416536,4.3674040716677975,0.9292455101162206,1.0,-0.0874525746625889,5.888941357775235
2.07,2.07,1.0,19.275625364779973,-0.0375653981541588,7.3768241723249375,0.006524616221785931,0.008732990970063598,-0.006530120407913087,20.639008678516635,0.012707408101837583,1.0,0.0,195.22197937226025,0.1810396126637971,27.25511181803232,121.33476945771183,0.0964811105331844,2.0986996901124906,1.0,28.093515503619873,0.0,1.0,124.52253173745927,9359.28190706186,1.0,1.0,-0.025243907016276664,19.71352651896102,-0.07492732459600199,-43.79337840164013,1.0,28.595623787796352,1.0,-0.028607326360416536,4.3674040716677975,0.9292455101162206,1.0,-0.0874525746625889,5.888941357775235
2.1,2.1,1.0,19.292867457144226,-0.014653269958578009,7.42531117831224,0.004595668096985496,0.007043676635707113,-0.005433920326909737,20.672450157928157,0.010013043289892408,1.0,0.0,219.9909287502039,-1.9203647303387985,28.242547750301924,125.08435042261267,-0.05815480023651225,2.3133978834193627,1.0,26.935183101548322,0.0,1.0,125.00266737045962,9441.823818083923,1.0,1.0,-0.8496887642888278,19.730398016694622,-0.12020775788810797,-43.74065400585434,1.0,28.17752931867761,1.0,-0.030937945453699506,4.380449938127524,0.92893038840992,1.0,0.11266642644153783,5.410458052234702
2.13,2.13,1.0,19.20473169627137,-0.11526017737722558,7.581302013993376,0.005898300120991707,0.0037622673228453985,-0.005773691647496424,20.647303568786878,0.009070838713493424,1.0,0.0,219.9909287502039,-1.9203647303387985,28.242547750301924,125.08435042261267,-0.05815480023651225,2.3133978834193627,1.0,26.935183101548322,0.0,1.0,126.12841476331896,9672.39415337176,1.0,1.0,-0.8496887642888278,19.730398016694622,-0.12020775788810797,-43.74065400585434,1.0,28.17752931867761,1.0,-0.030937945453699506,4.380449938127524,0.92893038840992,1.0,0.11266642644153783,5.410458052234702
2.16,2.16,1.0,19.31628631005117,-0.0008929109441356969,7.616091986685603,0.0019199483374638835,0.008940844754076036,-0.006624430535730155,20.763520288207797,0.011291943431390958,1.0,0.0,219.9909287502039,-1.9203647303387985,28.242547750301924,125.08435042261267,-0.05815480023651225,2.3133978834193627,1.0,28.20582117050952,0.0,1.0,126.06824563480697,9758.28441475116,1.0,1.0,0.122328996679237,19.77638916303588,-0.15552335787551483,-43.75085001759644,1.0,28.52509751305402,1.0,-0.022424169607494215,4.410911945514088,0.9286195492581906,1.0,0.41474200193368366,5.702783831947464
2.19,2.19,1.0,19.26393128014242,-0.08501108321292983,7.65170679357191,0.008255727631699428,0.00817628150708304,-0.002573300315547731,20.728118392780207,0.011900860999350912,1.0,0.0,219.9909287502039,-1.9203647303387985,28.242547750301924,125.08435042261267,-0.05815480023651225,2.3133978834193627,1.0,28.20582117050952,0.0,1.0,126.83754759896908,9774.026768818423,1.0,1.0,0.122328996679237,19.77638916303588,-0.15552335787551483,-43.75085001759644,1.0,28.52509751305402,1.0,-0.022424169607494215,4.410911945514088,0.9286195492581906,1.0,0.41474200193368366,5.702783831947464
2.2199999999999998,2.2199999999999998,1.0,19.262355964430377,-0.0013664614134195965,7.726340075755514,0.005378823978088969,0.005682999342865248,-0.00684199411618067,20.75414874510321,0.010394282678671126,1.0,0.0,219.9909287502039,-1.9203647303387985,28.242547750301924,125.08435042261267,-0.05815480023651225,2.3133978834193627,1.0,28.789791396385265,0.0,1.0,127.06345970485367,9809.846696165227,1.0,1.0,0.555021818786779,19.768036767323665,-0.17647927622340615,-43.71680754373705,1.0,28.716068334597395,1.0,-0.0032236409230196744,4.438494445487854,0.9283120105054011,1.0,0.5469115011443753,5.741893516461246
2.25,2.25,1.0,19.128086580285864,-0.022668120843373673,7.810923727053193,0.0072843537966760605,0.004659863971011721,-0.003498576542438702,20.661431207359698,0.009328246367178796,1.0,0.0,219.9909287502039,-1.9203647303387985,28.242547750301924,125.08435042261267,-0.05815480023651225,2.3133978834193627,1.0,28.789791396385265,0.0,1.0,127.6224614454131,9845.624622372068,1.0,1.0,0.555021818786779,19.768036767323665,-0.17647927622340615,-43.71680754373705,1.0,28.716068334597395,1.0,-0.0032236409230196744,4.438494445487854,0.9283120105054011,1.0,0.5469115011443753,5.741893516461246
2.28,2.28,1.0,19.132691126703236,-0.02515130550550976,7.895513032859014,0.005278989601475523,0.0069642540688974325,-0.0049783978609806954,20.697816995761748,0.010057485332371024,1.0,0.0,219.9909287502039,-1.9203647303387985,28.242547750301924,125.08435042261267,-0.05815480023651225,2.3133978834193627,1.0,29.727185376947507,0.0,1.0,128.6974782849043,10207.016263774027,1.0,1.0,-0.6885827235852726,19.844906093349714,-0.1766999129381551,-43.67726317371118,1.0,28.741439519606796,1.0,0.0059442835431076264,4.447156343947622,0.9280067949161738,1.0,0.6120448728219292,6.090994962183792
2.31,2.31,1.0,19.13685573648943,0.004960164935601016,7.8593511820527215,0.004460757816967685,0.005275207538483777,-0.0064285225968004804,20.687887110221723,0.009436740838514576,1.0,0.0,249.90592975828474,0.5332462798276658,27.537326107821933,128.89949027784726,-0.11427504499068691,1.982961875653393,1.0,29.727185376947507,0.0,1.0,129.22505257044776,10276.069402322799,1.0,1.0,-0.6885827235852726,19.844906093349714,-0.1766999129381551,-43.67726317371118,1.0,28.741439519606796,1.0,0.0059442835431076264,4.447156343947622,0.9280067949161738,1.0,0.6120448728219292,6.090994962183792
2.34,2.34,1.0,19.18383022932441,-0.016890485647982664,7.923281563893306,0.0041146290190554324,0.005942855215256217,-0.00783320241445389,20.755674363816226,0.010658647200266895,1.0,0.0,249.90592975828474,0.5332462798276658,27.537326107821933,128.89949027784726,-0.11427504499068691,1.982961875653393,1.0,28.597455930367907,0.0,1.0,129.3371531861149,10225.239247904496,1.0,1.0,-0.37162446323016807,19.832155988972897,-0.05802855553744929,-43.72514145256078,1.0,28.866814127495847,1.0,-0.02266897815401575,4.454490743279158,0.9277029307894821,1.0,0.6155310488143648,6.252601338554154
2.37,2.37,1.0,19.080534393033975,-0.02424158025256339,8.055494515284405,0.005268778619814673,0.006476934963760787,-0.004730097887979168,20.71131024980657,0.009596069023265107,1.0,0.0,249.90592975828474,0.5332462798276658,27.537326107821933,128.89949027784726,-0.11427504499068691,1.982961875653393,1.0,28.597455930367907,0.0,1.0,129.96634254519435,10498.691667914842,1.0,1.0,-0.37162446323016807,19.832155988972897,-0.05802855553744929,-43.72514145256078,1.0,28.866814127495847,1.0,-0.02266897815401575,4.454490743279158,0.9277029307894821,1.0,0.6155310488143648,6.252601338554154
2.4,2.4,1.0,18.994272990981795,-0.08083584465910108,8.045050674077237,0.006364217416033693,0.008095750085893848,-0.0034754601069080884,20.62793691182404,0.010868452315141582,1.0,0.0,249.90592975828474,0.5332462798276658,27.537326107821933,128.89949027784726,-0.11427504499068691,1.982961875653393,1.0,29.930760285332727,0.0,1.0,130.79276685508978,10487.497225765594,1.0,1.0,1.0788255417385042,19.876666135941512,-0.18728223198771926,-43.76568384904515,1.0,29.02372708626004,1.0,-0.024460267889701376,4.496380723677948,0.9273994525720712,1.0,0.5795233014238778,5.768814183962473
2.4299999999999997,2.4299999999999997,1.0,19.062274026824873,-0.09701319648999258,8.19711847463214,0.007946807838506336,0.011764290456354725,-0.003160953033489066,20.75023985213691,0.014544480356600862,1.0,0.0,249.90592975828474,0.5332462798276658,27.537326107821933,128.89949027784726,-0.11427504499068691,1.982961875653393,1.0,29.930760285332727,0.0,1.0,130.65885876902996,10515.29478257196,1.0,1.0,1.0788255417385042,19.876666135941512,-0.18728223198771926,-43.76568384904515,1.0,29.02372708626004,1.0,-0.024460267889701376,4.496380723677948,0.9273994525720712,1.0,0.5795233014238778,5.768814183962473
2.46,2.46,1.0,19.050168033216156,-0.05286489255403637,8.255259405136282,0.00935724823154211,-0.0006654979295075596,-0.0017629784809002455,20.762008685017125,0.009545107389914173,1.0,0.0,249.90592975828474,0.5332462798276658,27.537326107821933,128.89949027784726,-0.11427504499068691,1.982961875653393,1.0,29.184434936278997,0.0,1.0,131.26767964765293,10536.428198120917,1.0,1.0,-1.524022501313006,19.893232811492553,-0.16056717828877923,-43.697982991610026,1.0,28.80996584596474,1.0,-0.022760103721352475,4.487946024936331,0.9270954043386691,1.0,-0.28980913493864124,5.154824736378544
2.4899999999999998,2.4899999999999998,1.0,19.00384030918685,-0.042790315938273496,8.211218437509245,0.006640664042573613,0.0019162042087863499,-0.0028702084019278573,20.701977821858105,0.0074838729122425575,1.0,0.0,249.90592975828474,0.5332462798276658,27.537326107821933,128.89949027784726,-0.11427504499068691,1.982961875653393,1.0,29.184434936278997,0.0,1.0,132.6216629894486,10707.398316853847,1.0,1.0,-1.524022501313006,19.893232811492553,-0.16056717828877923,-43.697982991610026,1.0,28.80996584596474,1.0,-0.022760103721352475,4.487946024936331,0.9270954043386691,1.0,-0.28980913493864124,5.154824736378544
2.52,2.52,1.0,18.999857199719695,-0.05842451229867424,8.279064022724889,0.008074797787397088,-0.0004075868560871774,-0.0012513340568673578,20.725368226541967,0.008181339943706291,1.0,0.0,274.2607320145982,-0.24623887261613162,28.718241189586504,132.65598279391165,-0.15112129436727623,1.9974539903411672,1.0,29.796700654980185,0.0,1.0,132.4763571794445,10710.336083100008,1.0,1.0,-0.42700035370701184,19.899887402587478,-0.17524240326362875,-43.703766786370814,1.0,28.8682652720618,1.0,-0.020006072178220938,4.515524022363715,0.9267898090805025,1.0,0.46418346753145606,5.774001405017357
2.55,2.55,1.0,18.872517207330496,-0.07553406465846793,8.391202872815512,0.007458242138916273,0.00337718429523848,-0.003022804660679598,20.65405279330565,0.00872743361953204,1.0,0.0,274.2607320145982,-0.24623887261613162,28.718241189586504,132.65598279391165,-0.15112129436727623,1.9974539903411672,1.0,29.796700654980185,0.0,1.0,133.30885807041506,10901.536155742482,1.0,1.0,-0.42700035370701184,19.899887402587478,-0.17524240326362875,-43.703766786370814,1.0,28.8682652720618,1.0,-0.020006072178220938,4.515524022363715,0.9267898090805025,1.0,0.46418346753145606,5.774001405017357
2.58,2.58,1.0,18.877222961281912,-0.0753281716065593,8.487769410798032,0.010793977407338576,0.0010931993607488494,-0.005480728605388268,20.697764387350276,0.012154975078477064,1.0,0.0,274.2607320145982,-0.24623887261613162,28.718241189586504,132.65598279391165,-0.15112129436727623,1.9974539903411672,1.0,29.344607265893266,0.0,1.0,133.17503277227058,10952.80835797663,1.0,1.0,0.15541054583950037,19.885468862342297,-0.13818708080918035,-43.67044260511628,1.0,29.440803164168656,1.0,-0.02010363125874624,4.541719025327884,0.9264815400371635,1.0,0.8054894721225988,5.60687623444365
2.61,2.61,1.0,18.900444230200154,-0.03348118792290583,8.51817157286786,0.010835140332413071,-0.0018634647542491501,-0.005428614174038666,20.731308690810263,0.012261428088276944,1.0,0.0,274.2607320145982,-0.24623887261613162,28.718241189586504,132.65598279391165,-0.15112129436727623,1.9974539903411672,1.0,29.344607265893266,0.0,1.0,134.7100479756801,11114.121152479072,1.0,1.0,0.15541054583950037,19.885468862342297,-0.13818708080918035,-43.67044260511628,1.0,29.440803164168656,1.0,-0.02010363125874624,4.541719025327884,0.9264815400371635,1.0,0.8054894721225988,5.60687623444365
2.6399999999999997,2.6399999999999997,1.0,18.83828641010733,-0.024574641438973477,8.621620007188014,0.010390570022250967,-0.0012654929034248818,-0.004889637439347387,20.717479825755376,0.011553093610119624,1.0,0.0,274.2607320145982,-0.24623887261613162,28.718241189586504,132.65598279391165,-0.15112129436727623,1.9974539903411672,1.0,30.1998770584299,0.0,1.0,134.34522925858508,10892.613344888614,1.0,1.0,-1.6284643916260573,19.86466190858602,-0.17251212218256265,-43.75172643538253,1.0,29.610603942367224,1.0,-0.02693732799077088,4.551830426329727,0.9261693688154734,1.0,0.2699247065086233,5.804098233497537
2.67,2.67,1.0,18.81970234529086,-0.0025256669206947455,8.687881664323108,0.009852207828746243,-0.0014265089921955492,-0.008539598805829975,20.728253437219966,0.013115855853513955,1.0,0.0,274.2607320145982,-0.24623887261613162,28.718241189586504,132.65598279391165,-0.15112129436727623,1.9974539903411672,1.0,30.1998770584299,0.0,1.0,135.31928847436805,11328.802862837412,1.0,1.0,-1.6284643916260573,19.86466190858602,-0.17251212218256265,-43.75172643538253,1.0,29.610603942367224,1.0,-0.02693732799077088,4.551830426329727,0.9261693688154734,1.0,0.2699247065086233,5.804098233497537
2.6999999999999997,2.6999999999999997,1.0,18.78249136485491,-0.067208092378217,8.780531326650777,0.005955310948576921,-0.0023737783444065467,-0.007932378615589509,20.73364968298698,0.010199175585490983,1.0,0.0,274.2607320145982,-0.24623887261613162,28.718241189586504,132.65598279391165,-0.15112129436727623,1.9974539903411672,1.0,29.227546641459593,0.0,1.0,136.0413893145467,11321.749774505626,1.0,1.0,-1.83963012205717,19.874083813531136,-0.2068288559772264,-43.73236426934193,1.0,29.947227781056192,1.0,-0.033357730970329486,4.558404549257258,0.9258519855311524,1.0,0.024776738810054846,5.351049196264411
2.73,2.73,1.0,18.716550235671257,-0.07488067951052356,8.809703428461118,0.010427899875522917,-0.004746033526844926,-0.004394097484661477,20.686365904576117,0.01227086071783782,1.0,0.0,303.78504910140373,1.9093514092813895,29.508830385780765,136.60741904096756,-0.18159034821886577,2.219425803637485,1.0,29.227546641459593,0.0,1.0,136.6294807417514,11410.453985390646,1.0,1.0,-1.83963012205717,19.874083813531136,-0.2068288559772264,-43.73236426934193,1.0,29.947227781056192,1.0,-0.033357730970329486,4.558404549257258,0.9258519855311524,1.0,0.024776738810054846,5.351049196264411
2.76,2.76,1.0,18.7436546328288,-0.02353385791008618,8.8565903509297,0.011163857383937922,-0.002912486588832278,-0.0061915528553946105,20.730758198421345,0.013093877064497677,1.0,0.0,303.78504910140373,1.9093514092813895,29.508830385780765,136.60741904096756,-0.18159034821886577,2.219425803637485,1.0,29.02690383245433,0.0,1.0,137.14525187510304,11436.860144483944,1.0,1.0,-0.5395047568402782,19.828313749655177,-0.22178388257130324,-43.671067840171844,1.0,29.52976891831144,1.0,-0.04525709269688724,4.586443512626896,0.9255280172577064,1.0,0.7345568616641718,5.941911984057653
2.79,2.79,1.0,18.7421714970004,-0.07142504640002581,8.97673052655111,0.007536986599036658,-0.0033289800837065803,-0.00256238468693555,20.78114012528047,0.008628678385223026,1.0,0.0,303.78504910140373,1.9093514092813895,29.508830385780765,136.60741904096756,-0.18159034821886577,2.219425803637485,1.0,29.02690383245433,0.0,1.0,138.4703814162662,11563.32953950081,1.0,1.0,-0.5395047568402782,19.828313749655177,-0.22178388257130324,-43.671067840171844,1.0,29.52976891831144,1.0,-0.04525709269688724,4.586443512626896,0.9255280172577064,1.0,0.7345568616641718,5.941911984057653
2.82,2.82,1.0,18.58618371689797,-0.07144323944972698,9.040541670583417,0.012897935797635353,-0.003290749190350977,-0.008114724255166475,20.668399139563313,0.015589564708839891,1.0,0.0,303.78504910140373,1.9093514092813895,29.508830385780765,136.60741904096756,-0.18159034821886577,2.219425803637485,1.0,28.951832352364793,0.0,1.0,138.80424733380283,11689.67221709554,1.0,1.0,-1.2943110685823456,19.8409576107352,-0.2181173084655461,-43.73827130698611,1.0,30.285190883046727,1.0,-0.027462045916507104,4.603275276805867,0.9251960441223527,1.0,0.05080444908902543,5.415750410063761
2.85,2.85,1.0,18.64532536705473,-0.08116955236931951,9.194289380989957,0.006876646255538476,-0.0069381311503990736,-0.008618914120061463,20.789172753165314,0.013027340795148647,1.0,0.0,303.78504910140373,1.9093514092813895,29.508830385780765,136.60741904096756,-0.18159034821886577,2.219425803637485,1.0,28.951832352364793,0.0,1.0,139.00547533249966,11695.852256560112,1.0,1.0,-1.2943110685823456,19.8409576107352,-0.2181173084655461,-43.73827130698611,1.0,30.285190883046727,1.0,-0.027462045916507104,4.603275276805867,0.9251960441223527,1.0,0.05080444908902543,5.415750410063761
2.88,2.88,1.0,18.635779068426494,-0.15272690377571113,9.256517311234461,0.011960092158156235,-0.0061161354001115255,-0.003895637472502631,20.80862080310762,0.01398666893800144,1.0,0.0,303.78504910140373,1.9093514092813895,29.508830385780765,136.60741904096756,-0.18159034821886577,2.219425803637485,1.0,29.54726196792837,0.0,1.0,139.35643261748334,11811.901919280408,1.0,1.0,-0.30713418508143536,19.765067125470065,-0.3297706285573173,-43.64289585273428,1.0,30.239130834065183,1.0,-0.0280292287447705,4.629116794392414,0.9248546127729063,1.0,0.8028598445431184,5.007315590640899
2.9099999999999997,2.9099999999999997,1.0,18.527605805341132,-0.09379518005521709,9.387131730987198,0.010736196571008175,-0.007035714968298365,-0.008860971369817944,20.770152058875706,0.015597564410612275,1.0,0.0,303.78504910140373,1.9093514092813895,29.508830385780765,136.60741904096756,-0.18159034821886577,2.219425803637485,1.0,29.54726196792837,0.0,1.0,140.40206193700064,11828.080525589428,1.0,1.0,-0.30713418508143536,19.765067125470065,-0.3297706285573173,-43.64289585273428,1.0,30.239130834065183,1.0,-0.0280292287447705,4.629116794392414,0.9248546127729063,1.0,0.8028598445431184,5.007315590640899
2.94,2.94,1.0,18.55819372019393,-0.09536246563507637,9.396873337060233,0.01252470062141024,-0.008741621104273836,-0.00879106652911106,20.801847914761105,0.017622908837813825,1.0,0.0,332.20984082721185,-0.17328046068504038,29.669621121877686,140.23839464243994,-0.4161574462753518,2.306336258650436,1.0,30.902790584984835,0.0,1.0,140.82043937518483,11973.62041252021,1.0,1.0,0.597263815823324,19.871108585576422,-0.3138911680331765,-43.75336734076664,1.0,30.281030224360766,1.0,-0.018472826683745662,4.62575554459307,0.9245022476151126,1.0,0.8542857410333938,4.96505837236054
2.9699999999999998,2.9699999999999998,1.0,18.575314177619095,-0.10061328929918034,9.398744974055411,0.013345276070988574,-0.009620795519632306,-0.006869841521819862,20.817992864793002,0.01782837127660285,1.0,0.0,332.20984082721185,-0.17328046068504038,29.669621121877686,140.23839464243994,-0.4161574462753518,2.306336258650436,1.0,30.902790584984835,0.0,1.0,141.0696767786728,11766.628069111513,1.0,1.0,0.597263815823324,19.871108585576422,-0.3138911680331765,-43.75336734076664,1.0,30.281030224360766,1.0,-0.018472826683745662,4.62575554459307,0.9245022476151126,1.0,0.8542857410333938,4.96505837236054
3.0,3.0,1.0,18.516020309724347,-0.124187126485314,9.614622270114436,0.013812942739875472,-0.006157084701745456,-0.011552007188260025,20.863829752696166,0.01903039540412016,1.0,0.0,332.20984082721185,-0.17328046068504038,29.669621121877686,140.23839464243994,-0.4161574462753518,2.306336258650436,1.0,32.12609224836648,0.0,1.0,141.8199312766887,12237.019915099123,1.0,1.0,-1.3372744297056625,19.82612865356634,-0.2579034431993114,-43.70430881324667,1.0,30.20950927074501,1.0,-0.04827578848037073,4.631955990909231,0.9241374602505241,1.0,0.1639777505437959,6.09678857959925
