time_s,x_m,y_m,altitude_m,vx_mps,vy_mps,vz_mps,speed_mps,mass_kg,roll_deg,pitch_deg,yaw_deg,p_dps,q_dps,r_dps,alpha_deg,beta_deg,qbar_pa,mach,airspeed_mps,load_factor_g,density_kgpm3,pressure_pa,temperature_k,wind_x_mps,wind_y_mps,wind_z_mps,thrust_n,mass_flow_kgps,propulsion_throttle_actual,propulsion_health,energy_j_per_kg,target_distance_m,guidance_mode,pitch_command_deg,heading_command_deg,roll_command_deg
0.0,0.0,0.0,20.0,85.0,0.0,8.0,85.37564055396598,18.1660882792304,0.0,6.000000000000002,0.0,0.0,0.0,0.0,0.670573726876594,-0.07903107478510403,4463.786944728638,0.25116517384833953,85.4507164248922,1.7293850586404564,1.2226496753673843,101084.96761777384,288.02,-0.08124286468442743,0.11786661907968898,0.06317710994907,326.8,0.17539118863220368,0.86,nominal,3840.633,nan,pitch_program,13.0,0.0,0.0
0.03,2.565157913911409,1.1456234691200727e-05,20.232966487473885,85.50526379704696,0.0003818744897066909,7.765549582462777,85.85717149700487,18.160826543571435,0.0007312164932377396,6.261721656952381,-0.0010268115047986433,0.02071843730646661,-8.724070618379283,-0.0339757106024041,1.119230582825431,-0.07732499379868328,4514.160295420485,0.25258187369718477,85.93247620620006,1.7575471244361451,1.2226223181553226,101082.17435813956,288.0184857178314,-0.08124286468442743,0.11786661907968898,0.06317710994907,332.605,0.1785066900092231,0.86,nominal,3884.144569537439,nan,pitch_program,12.985,0.0,0.0
0.06,5.145653174642071,3.2289091686346925e-05,20.459428785120448,86.01650869102207,0.0006944285665048734,7.548743254885491,86.34710934711761,18.15547134287116,0.0021528903895084222,6.5693615213001735,-0.002705980158277381,0.04113484837082406,-10.2546881788164,-0.055363874714282044,1.6004074691306516,-0.07504622025266586,4565.704421479174,0.2540232226910048,86.42262581512209,1.786569130659452,1.2225957251779531,101079.45914340978,288.0170137128967,-0.08124286468442743,0.11786661907968898,0.06317710994907,338.40999999999997,0.18162219138624247,0.86,nominal,3928.550103597144,nan,pitch_program,12.97,0.0,0.0
0.09,7.741653993817309,6.0817795361282346e-05,20.67993129300962,86.53336063917462,0.0009509567891645141,7.350083596305792,86.84495514010274,18.150022677129574,0.004227680249047177,6.759904676870411,-0.004792257328354675,0.06108870250498158,-6.351448209728876,-0.06871907757519394,1.9509172639769254,-0.07243623962046607,4618.3811534708575,0.25548775544656804,86.92066621663521,1.8161137400579705,1.2225698324709886,101076.81544151124,288.01558044659544,-0.08124286468442743,0.11786661907968898,0.06317710994907,344.215,0.18473769276326188,0.86,nominal,3973.8239648578215,nan,pitch_program,12.955,0.0,0.0
0.12,10.353367133413544,9.55802499067144e-05,20.894778291719003,87.05710465320784,0.0011587484848477351,7.161566623646053,87.35117348065337,18.144480546346674,0.006918165557558237,6.856790977251162,-0.0071299650101552,0.08044510484073362,-3.229551626869497,-0.077059994398331,2.1996867606718125,-0.06964423712853811,4672.255172819095,0.25697685835208095,87.4270688206129,1.8459289926445066,1.222544604270836,101074.2395998626,288.0141839411038,-0.08124286468442743,0.11786661907968898,0.06317710994907,350.02,0.1878531941402813,0.86,nominal,4020.0215317580873,nan,pitch_program,12.94,0.0,0.0
0.15,12.981025386255155,0.00013523733296322987,21.104144093268154,87.58860842805367,0.001321902768550516,6.978860051638349,87.86619836848921,18.138844950522465,0.009468574048298846,6.940607952848415,-0.009628427724289413,0.07501024330883305,-2.793911480013698,-0.08227962392120348,2.4302603336683726,-0.06673363658773976,4727.388998055991,0.25849181823538825,87.94227128583663,1.8762725775320386,1.222520020078099,101071.7295244692,288.01282306339374,-0.08124286468442743,0.11786661907968898,0.06317710994907,355.825,0.1909686955173007,0.86,nominal,4067.195362537596,nan,pitch_program,12.925,0.0,0.0
0.18,15.624859237532846,0.0001785228579043231,21.308231089244394,88.12779504258972,0.0014428508313697745,6.802899865874694,88.38997515406166,18.133115889656946,0.012286878280848384,7.036775085287957,-0.0122319202968835,0.08338427396265675,-3.2055881303904994,-0.0855297476977068,2.667495614997464,-0.06377816705842947,4783.793196076129,0.2600324731027525,88.4662183313353,1.9070905649225474,1.2224960560983391,101069.28278497567,288.0114964979199,-0.08124286468442743,0.11786661907968898,0.06317710994907,361.63,0.19408419689432013,0.86,nominal,4115.3562182791575,nan,pitch_program,12.91,0.0,0.0
0.21,18.285091020000934,0.00022419106964205362,21.507289853342876,88.67439274893631,0.0015222737245910176,6.635292136616002,88.92229772924317,18.127293363750116,0.01481785817830363,7.12413041430616,-0.014899116735289547,0.07340711254256137,-2.911865652739377,-0.08753982542669642,2.889247075705959,-0.06078890412724786,4841.461916979964,0.2615982144417388,88.99870271587254,1.938098129515975,1.2224726828818524,101066.89637369162,288.01020261595323,-0.08124286468442743,0.11786661907968898,0.06317710994907,367.435,0.19719969827133954,0.86,nominal,4164.501980764367,nan,pitch_program,12.895,0.0,0.0
0.24,20.96194482245396,0.0002710059493644659,21.70156136244262,89.2284600817676,0.0015604959907470767,6.475716969991557,89.46313766727711,18.121377372801977,0.017530483087603434,7.1863436232124815,-0.01760245254811125,0.07919675008011536,-2.073798991389632,-0.08882403510043382,3.0794722068825817,-0.057807941305854496,4900.408663257687,0.2631889605108613,89.53969641982489,1.9691175843368396,1.2224498721081518,101064.56739829466,288.0089398511441,-0.08124286468442743,0.11786661907968898,0.06317710994907,373.24,0.20031519964835895,0.86,nominal,4214.646117372086,nan,pitch_program,12.88,0.0,0.0
0.27,23.655652687921897,0.00031771760136589677,21.891247723017102,89.79026218226448,0.0015570550667143627,6.3228786858159935,90.01261011691508,18.115367916812527,0.020599984923336655,7.228281228572751,-0.020328417600593614,0.09091675470046041,-1.3979501607826115,-0.08968238752079813,3.243950643766492,-0.054857996040313384,4960.6630386306,0.2648050536693416,90.08931574352954,2.0002105749936883,1.2224276000229302,101062.29343273533,288.0077068898004,-0.08124286468442743,0.11786661907968898,0.06317710994907,379.045,0.20343070102537836,0.86,nominal,4265.814794512808,nan,pitch_program,12.865,0.0,0.0
0.3,26.366452287373974,0.0003630445340812725,22.076527468073817,90.35998664840253,0.0015108977571791917,6.175991501890517,90.57080136784546,18.109264995781764,0.0233746581071376,7.26023824382527,-0.023071735165788736,0.08095806565507312,-1.0652686027579537,-0.09030518798555259,3.39354676388184,-0.05190956209585757,5022.251992960713,0.26644675014104163,90.64764770408046,2.031463184119935,1.222405845641593,101060.07233380727,288.0065025714575,-0.08124286468442743,0.11786661907968898,0.06317710994907,384.84999999999997,0.20654620240239774,0.86,nominal,4318.0318083016455,nan,pitch_program,12.850000000000001,0.0,0.0
0.32999999999999996,29.094583108167466,0.000405681995059055,22.257574936794427,90.93769402644972,0.0014212486992594166,6.03491562402034,91.13772217615042,18.10306860970969,0.026289468231743343,7.285278423355677,-0.025828816932110307,0.08552609628348258,-0.8347120964212951,-0.09080159008809563,3.5314708952985194,-0.048990187062872566,5085.19451047138,0.26811408261870884,91.21470327308523,2.0628440124089056,1.2223845884736066,101057.90200879914,288.0053257629108,-0.08124286468442743,0.11786661907968898,0.06317710994907,390.655,0.20966170377941715,0.86,nominal,4371.314448982505,nan,pitch_program,12.835,0.0,0.0
0.36,31.84028590392904,0.00044428461485742125,22.434561675572112,91.52342652538574,0.0012867539932788759,5.899557959256217,91.71337082845686,18.096778758596308,0.029506341521661112,7.301586089043874,-0.02859636579055335,0.0955176815326867,-0.5436333505056048,-0.0912405319344061,3.656023363823841,-0.0461123928148341,5149.508480332934,0.2698070470251133,91.79048091358473,2.0942755474302555,1.222363808357907,101055.78039868666,288.0041753491088,-0.08124286468442743,0.11786661907968898,0.06317710994907,396.46,0.21277720515643656,0.86,nominal,4425.67908861477,nan,pitch_program,12.82,0.0,0.0
0.39,34.60380390948704,0.00047745871511197256,22.607649780355644,92.11726685193351,0.0011058033418183766,5.769603492784347,92.29777450164808,18.090395442441615,0.033076756362275694,7.308668367164903,-0.03137302337838472,0.10724511572496448,-0.2361260404318571,-0.09167504413232935,3.766966016235965,-0.043281142641285075,5215.2153493616825,0.2715257246571917,92.37500814135879,2.125729037216671,1.2223434862444733,101053.70555792711,288.00305027642764,-0.08124286468442743,0.11786661907968898,0.06317710994907,402.265,0.21589270653345596,0.86,nominal,4481.144897697064,nan,pitch_program,12.805,0.0,0.0
0.42,37.38538320980769,0.000506543409268666,22.776990271979304,92.71931001068843,0.0009694898052231135,5.644683054121985,92.8909731705915,18.08391866124561,0.03631317308864169,7.3083409300618305,-0.03474560890047019,0.09357946410403559,0.010847046508011526,-0.11151276185379937,3.8663998772664816,-0.03980864487209592,5282.3383709387435,0.2732702341490617,92.96832518400309,2.135518086282738,1.2223236043849572,101051.67567391769,288.00194956323213,-0.08124286468442743,0.11786661907968898,0.06317710994907,404.1773684210526,0.21691906078826353,0.86,nominal,4537.73241994048,nan,pitch_program,12.79,0.0,0.0
0.44999999999999996,40.185079924909516,0.0005278199895431013,22.942701786336396,93.3232238367275,0.0007092193424811798,5.523717145236387,93.48655282383405,18.077411089421965,0.039603719973329544,7.302398541784337,-0.038271994680391414,0.09473800816816909,0.19800232382832422,-0.11672321729535867,3.956602932953199,-0.03626961152281304,5350.163149479078,0.27502172488064164,93.5640188486389,2.1345281378390153,1.2223041488344322,101049.68932241193,288.0008724383888,-0.08124286468442743,0.11786661907968898,0.06317710994907,404.14342105263154,0.21690084148196515,0.86,nominal,4594.858825914732,nan,pitch_program,12.775,0.0,0.0
0.48,43.00285568477647,0.0005415723704735305,23.1048852856289,93.92585866223182,0.0004584126976809704,5.406116643083405,94.08131069881156,18.070904064177505,0.04316077941495029,7.291512114716371,-0.04235690143011859,0.10127425579331852,0.36278326030077235,-0.13532285454896234,4.038557169701831,-0.0321941046361553,5418.3262778995595,0.27677078344266975,94.15888659618695,2.1336011423531858,1.2222851077239618,101047.74529114664,287.9998182456434,-0.08124286468442743,0.11786661907968898,0.06317710994907,404.1094736842105,0.2168826221756668,0.86,nominal,4652.2280346894695,nan,pitch_program,12.76,0.0,0.0
0.51,45.83867365861737,0.0005433649253243181,23.26363636870831,94.52726579469658,5.975182835958663e-05,5.291702769313682,94.67526655269339,18.064397585512236,0.04695740508220899,7.2759628699904555,-0.04646749732264021,0.10918238990311968,0.518201113728043,-0.1363217490337887,4.1127180627543565,-0.028207220320344638,5486.8282949937375,0.2785174692325108,94.75294860731655,2.1327200715079364,1.2222664698151744,101045.84243226472,287.99878636360336,-0.08124286468442743,0.11786661907968898,0.06317710994907,404.0755263157895,0.21686440286936848,0.86,nominal,4709.841388006966,nan,pitch_program,12.745,0.0,0.0
0.54,48.69249858816023,0.0005330008163936705,23.419044970598982,95.12749765142875,-0.00034547029768825324,5.1802867296891,95.26844272970838,18.057891653426154,0.05103445569297145,7.256316587031212,-0.05096971630152002,0.11692057116782432,0.6547485622354055,-0.14942873492798278,4.179827836503803,-0.023859931667945138,5555.67005957972,0.2802618481417391,95.34622727524714,2.1318792718080064,1.2222482245354753,101043.9796659082,287.99777620769106,-0.08124286468442743,0.11786661907968898,0.06317710994907,404.0415789473684,0.2168461835630701,0.86,nominal,4767.700467432787,nan,pitch_program,12.73,0.0,0.0
0.57,51.56429663556365,0.0005087371267307477,23.571195976445946,95.7266015801142,-0.0008087896554307582,5.07170019489884,95.86085954965667,18.051386267919263,0.055373496026283615,7.233279322824198,-0.05594543510923168,0.12371859625200585,0.7677557036366137,-0.16524615663076703,4.240751778749685,-0.01910000464794764,5624.8522870077995,0.2820039807478715,95.93874318805645,2.1310779416862813,1.2222303619059016,101042.15597285048,287.99678722615306,-0.08124286468442743,0.11786661907968898,0.06317710994907,404.0076315789474,0.21682796425677175,0.86,nominal,4825.806665821914,nan,pitch_program,12.715,0.0,0.0
0.6,54.45403516328623,0.00046801228932489197,23.720170149637354,96.32461759075261,-0.0013574945801951921,4.9658057730469265,96.45253331469912,18.04488142899156,0.05992784476337338,7.207387195021765,-0.06135267761361033,0.12915792574427817,0.8628905853451984,-0.17968046221721998,4.296162441266778,-0.013981425909832482,5694.375273999199,0.283743915638033,96.53051285656109,2.1303119738334213,1.2222128724321049,101040.37038336434,287.9958188940273,-0.08124286468442743,0.11786661907968898,0.06317710994907,403.9736842105263,0.21680974495047337,0.86,nominal,4884.160998009513,nan,pitch_program,12.7,0.0,0.0
0.63,57.36168258936684,0.0004077821927731569,23.86604465910066,96.9215808693539,-0.0020076698850578366,4.862483648776766,97.04347783071292,18.038377136643046,0.06463609089995491,7.179013574037699,-0.06709234191421647,0.13298504072263267,0.9455804920697156,-0.19084434415338147,4.346555518255406,-0.008606853708061588,5764.239067403779,0.28548169396215817,97.12155026293442,2.1295754780195515,1.2221957470423988,101038.62197089555,287.9948707097158,-0.08124286468442743,0.11786661907968898,0.06317710994907,403.9397368421053,0.21679152564417503,0.86,nominal,4942.764241596204,nan,pitch_program,12.685,0.0,0.0
0.6599999999999999,60.287208302371454,0.0003247026084225942,24.008893332593654,97.51752376682028,-0.00276931947835209,4.761622449766467,97.63370574568809,18.03187339087372,0.0694286371750302,7.148509858503829,-0.07303735670945077,0.1350389636213094,1.0165598136352916,-0.19780967380509099,4.392396479723137,-0.003102335626871198,5834.443616366793,0.2872173534076933,97.71186821278079,2.1288647119863446,1.2221789770579774,101036.90984902077,287.9939421933381,-0.08124286468442743,0.11786661907968898,0.06317710994907,403.9057894736842,0.21677330633787664,0.86,nominal,5001.617062617883,nan,pitch_program,12.67,0.0,0.0
0.69,63.23058256798414,0.00021525289353139097,24.148786975394977,98.11247552042306,-0.003648323829706775,4.663121426710683,98.22322824819051,18.025370191683585,0.07423149926318404,7.116233568957546,-0.07904666231500515,0.13522446501546131,1.075626321987995,-0.20010882253824228,4.434147652610743,0.0023950501436387737,5904.988731837757,0.28895092731842037,98.30147803513665,2.1281779186258953,1.2221625541554664,101035.23316762304,287.9930328846599,-0.08124286468442743,0.11786661907968898,0.06317710994907,403.8718421052631,0.21675508703157828,0.86,nominal,5060.719985540322,nan,pitch_program,12.655,0.0,0.0
0.72,66.19177642146195,7.583827842587256e-05,24.285793764708433,98.70646178259356,-0.004647153836850614,4.566892977115187,98.81205458191357,18.018867539072637,0.07896904532992911,7.0824996191078435,-0.08497313577062454,0.13350300599838213,1.1242019393870162,-0.19753772697852687,4.472218314074183,0.007744437622681593,5975.87402230782,0.2906824432677631,98.89038909679013,2.1275133228991647,1.2221464703205822,101033.59110815954,287.99214234052937,-0.08124286468442743,0.11786661907968898,0.06317710994907,403.8378947368421,0.21673686772527995,0.86,nominal,5120.073344772211,nan,pitch_program,12.64,0.0,0.0
0.75,69.17076157362857,-9.71153564142275e-05,24.419979579608757,99.29950507222034,-0.005765121161336669,4.472860496677483,99.4001922626273,18.01236543304088,0.08356634245326833,7.047567667022617,-0.09066922282234076,0.12989006642058676,1.1641300042901603,-0.19007931242629875,4.506953623908012,0.01280640883208875,6047.098913213727,0.29241192370429253,99.47860902162324,2.1268688067549233,1.222130717809364,101031.98287970263,287.9912701327325,-0.08124286468442743,0.11786661907968898,0.06317710994907,403.80394736842106,0.21671864841898159,0.86,nominal,5179.677303668006,nan,pitch_program,12.625,0.0,0.0
0.78,72.16751033585582,-0.000307070030151879,24.55140824712184,99.89162540757512,-0.006998489124588383,4.380955583769538,99.9876474739411,18.00586387358831,0.08795134826273802,7.011666426429524,-0.09599170385542732,0.1244542611242496,1.1964431635139672,-0.1778734148910995,4.538660839038975,0.017447413387161107,6118.662689235058,0.29413938712309723,100.06614408893148,2.1262427032272506,1.2221152891192624,101030.40771598711,287.99041584639366,-0.08124286468442743,0.11786661907968898,0.06317710994907,403.77,0.21670042911268322,0.86,nominal,5239.531891373197,nan,pitch_program,12.61,0.0,0.0
0.8099999999999999,75.18199555187113,-0.0005572874041610964,24.68014176698131,100.48284053384336,-0.008340579133640579,4.291117328648932,100.57442517480915,17.999362860714932,0.09205700098913217,6.975006216440652,-0.10080603423692114,0.11731630555766329,1.2217553202627272,-0.16120320080631734,4.567622507103962,0.02154378784544345,6190.564502684212,0.2958648483853676,100.65299934197607,2.1256339531146446,1.2221001769627213,101028.86487271257,287.9895790785146,-0.08124286468442743,0.11786661907968898,0.06317710994907,403.73605263157896,0.21668220980638486,0.86,nominal,5299.637011880809,nan,pitch_program,12.595,0.0,0.0
0.84,78.21419053190291,-0.0008507451639532855,24.806240534048406,101.07316600105983,-0.009781925326406305,4.203292235569822,101.16052909500553,17.99286239442074,0.09582319216659031,6.937774079481118,-0.10499037542690945,0.10864698322045006,1.2408426083837132,-0.14048592545198574,4.594091847674336,0.02498547871873965,6262.8033684608035,0.29758831870749003,101.23917858409582,2.12504168615088,1.2220853742410456,101027.35362487432,287.98875943652865,-0.08124286468442743,0.11786661907968898,0.06317710994907,403.7021052631579,0.2166639905000865,0.86,nominal,5359.992442123957,nan,pitch_program,12.58,0.0,0.0
0.87,81.26406899315201,-0.0011900600615268385,24.92976353676535,101.66261537496982,-0.011310496585785102,4.117433423898108,101.74596184029427,17.98636247470574,0.09919858421443441,6.900132044385169,-0.10843932630972783,0.09866377884698761,1.25453849919135,-0.11626305717040061,4.618291680036013,0.02767944414426746,6335.378172726295,0.29930980597406903,101.82468448503666,2.124465060448694,1.2220708740210866,101025.87326438271,287.98795653701103,-0.08124286468442743,0.11786661907968898,0.06317710994907,403.66815789473685,0.21664577119378817,0.86,nominal,5420.597840991129,nan,pitch_program,12.565,0.0,0.0
0.8999999999999999,84.3316050079777,-0.0015774198294164125,25.050768525261404,102.25120049418986,-0.0129119922629858,4.033499616535176,102.33072504570241,17.979863101569926,0.10214222420213731,6.862222568178094,-0.11106728503844081,0.08762608041737449,1.2634944981241196,-0.08918776905599889,4.640420626505398,0.02955265754665838,6408.287688102055,0.3010293151927841,102.40951873555848,2.12390339491802,1.2220566695154769,101024.4230980446,287.9871700045858,-0.08124286468442743,0.11786661907968898,0.06317710994907,403.6342105263158,0.2166275518874898,0.86,nominal,5481.452763347828,nan,pitch_program,12.55,0.0,0.0
0.9299999999999999,87.41677295739099,-0.0020145261507322977,25.16931216109465,102.83893164710979,-0.014570210710529512,3.9514545277748456,102.91481947462684,17.9733642750133,0.10462490044234843,6.824172573439859,-0.11281132955433286,0.07582896137703538,1.2682269899209537,-0.06000912979536274,4.660657659049879,0.03055462121430145,6481.530582700812,0.3027468487893085,102.99368214764453,2.1233560394420086,1.2220427540650463,101023.00244576737,287.98639947095285,-0.08124286468442743,0.11786661907968898,0.06317710994907,403.6002631578947,0.21660933258119142,0.86,nominal,5542.556668852115,nan,pitch_program,12.535000000000002,0.0,0.0
0.96,90.51954749614546,-0.00249815797305729,25.285450162518018,103.42581795848245,-0.016121060744166416,3.8712667141123562,103.4982453292883,17.966865995035864,0.10673931389401453,6.786092368077926,-0.11455442604398157,0.06359562847120462,1.2692316500299723,-0.06003507591831207,4.6791631427150735,0.031651687256875054,6555.1054352252295,0.3044624070329879,103.57717479919235,2.1228228737260633,1.2220291211217442,101021.6106388151,287.9856445739436,-0.08124286468442743,0.11786661907968898,0.06317710994907,403.56631578947366,0.21659111327489305,0.86,nominal,5603.90895295703,nan,pitch_program,12.520000000000001,0.0,0.0
0.99,93.63990350156827,-0.0030275405662842413,25.399237412406162,104.01186684742686,-0.01764608644089837,3.7929083296048174,104.08100167690552,17.960368261637615,0.1085141274862549,6.748080718283378,-0.11666256759493768,0.05088012645235018,1.2669217233532597,-0.07216179669347476,4.69608164307756,0.03316159320798914,6629.010716651337,0.3061759876758129,104.1599959111072,2.1223035503030347,1.2220157642359544,101020.24701851286,287.9849049568193,-0.08124286468442743,0.11786661907968898,0.06317710994907,403.53236842105264,0.21657289396859472,0.86,nominal,5665.508886604377,nan,pitch_program,12.505,0.0,0.0
1.02,96.77781604000086,-0.0036033870811150006,25.510728070820697,104.59708461441944,-0.01919488382769198,3.7163552804845352,104.6630869736335,17.953871074818558,0.11102977144921457,6.710223881758374,-0.11921959141870013,0.07386739977911774,1.2617301075181975,-0.08706445195484228,4.711542243247288,0.035052167956965447,6703.244813208328,0.3078875865517954,104.74214405111138,2.121797817958425,1.2220026770432688,101018.91093489609,287.98418026753967,-0.08124286468442743,0.11786661907968898,0.06317710994907,403.49842105263156,0.21655467466229633,0.86,nominal,5727.3556688609,nan,pitch_program,12.49,0.0,0.0
1.05,99.93326033667213,-0.004227283955811635,25.619975672702946,105.18147655570912,-0.02079656248988781,3.6415867294082824,105.24449912866706,17.947374434578688,0.11359914706193491,6.6725967943287054,-0.12217973200118493,0.07414848539420307,1.2540417796466996,-0.10045765733837317,4.725658707822621,0.037317987836016156,6777.806034106029,0.30959719780779466,105.32361721218587,2.1213054498276214,1.2219898532530031,101017.60174553755,287.98347015812743,-0.08124286468442743,0.11786661907968898,0.06317710994907,403.46447368421053,0.216536455355998,0.86,nominal,5789.448432852713,nan,pitch_program,12.475,0.0,0.0
1.08,103.10621174929179,-0.004901220350600816,25.7270332114987,105.76504708732173,-0.022464546492972703,3.5685846265251344,105.82523558337067,17.940878340918008,0.11591629277971953,6.635265370780102,-0.12545255704725033,0.06459721559212696,1.2441613003992658,-0.11085148216147654,4.7385334170524205,0.0398870417181429,6852.692620530415,0.31130481415522915,105.90441289812932,2.1208262910023907,1.2219772866383702,101016.31881454377,287.98277428412524,-0.08124286468442743,0.11786661907968898,0.06317710994907,403.43052631578945,0.21651823604969964,0.86,nominal,5851.786253381495,nan,pitch_program,12.46,0.0,0.0
1.1099999999999999,106.29664574395487,-0.005627316982686523,25.83195321418113,106.34779982210249,-0.024203221069523544,3.4973334227476363,106.40529335454961,17.934382793836516,0.11889098894521749,6.598287391477403,-0.12894678769964493,0.08573543022221532,1.2323596901071319,-0.11822398366213613,4.750259229096286,0.04259105116283406,6927.902750568799,0.3130104270213973,106.48452817497069,2.1203602407623365,1.2219649710276603,101015.06151165426,287.9820923041078,-0.08124286468442743,0.11786661907968898,0.06317710994907,403.3965789473684,0.21650001674340127,0.86,nominal,5914.3681509217295,nan,pitch_program,12.445,0.0,0.0
1.14,109.50453787297951,-0.006407752249121543,25.93478780852514,106.92973763415463,-0.026014508881167343,3.427819811467002,106.98466906956203,17.927887793334214,0.12179642716239898,6.561712921109407,-0.13259124116434307,0.08292729462756987,1.2188928860682111,-0.1232419918612579,4.760918177781426,0.045418303390568994,7003.434543246434,0.31471402667572784,107.06395971385878,2.119907193301124,1.2219529002963283,101013.8292114333,287.9814238792446,-0.08124286468442743,0.11786661907968898,0.06317710994907,403.3626315789474,0.21648179743710294,0.86,nominal,5977.193094824325,nan,pitch_program,12.43,0.0,0.0
1.17,112.72986375561746,-0.007244670222600569,26.035588780667542,107.51086275459826,-0.027897265782634212,3.3600324047467143,107.56335903204422,17.9213933394111,0.1243131546464293,6.525585394504915,-0.13633677480470413,0.06966286849892603,1.2039817524102054,-0.12662385852663008,4.7705841171740495,0.04834743184828727,7079.28606571881,0.31641560242225303,107.64270385648928,2.1194670655004275,1.2219410683602339,101012.62129257942,287.98076867292565,-0.08124286468442743,0.11786661907968898,0.06317710994907,403.3286842105263,0.21646357813080455,0.86,nominal,6040.260009844158,nan,pitch_program,12.415,0.0,0.0
1.2,115.97259906071645,-0.008140150662610373,26.134407625764528,108.0911768366329,-0.029849348000326827,3.293961503232903,108.14135926321899,17.914899432067177,0.12745961457625177,6.489942434726289,-0.14015276054428172,0.09046547664154145,1.187818157088698,-0.1289900239830259,4.779324633540141,0.05126479179798411,7155.455337897409,0.31811514272869523,108.2207566589735,2.1190398091225235,1.221929469169678,101011.43713731636,287.9801263504325,-0.08124286468442743,0.11786661907968898,0.06317710994907,403.2947368421053,0.21644535882450622,0.86,nominal,6103.5677801915035,nan,pitch_program,12.4,0.0,0.0
1.23,119.23271949072034,-0.009096282794614654,26.231295593440414,108.6706810001297,-0.03187107106680939,3.2295989225295996,108.71866552711879,17.90840607130244,0.13044252485130756,6.454816320552466,-0.14402483595889387,0.08488111801370653,1.1705789099347659,-0.13088139835456788,4.787199018526708,0.054222269554174404,7231.940335313197,0.3198126353123428,108.79811392101136,2.1186253547640272,1.2219180967040613,101010.27613084734,287.9794965786426,-0.08124286468442743,0.11786661907968898,0.06317710994907,403.26078947368416,0.2164271395182078,0.86,nominal,6167.115251930176,nan,pitch_program,12.385,0.0,0.0
1.26,122.51020076808662,-0.010115135757161007,26.326303725947202,109.2493759122094,-0.03396176541821177,3.166937750226285,109.29527338966932,17.901913257116895,0.13398488485294321,6.420234739221996,-0.14794717348361228,0.10341961328539083,1.152416545074414,-0.13257983245224314,4.79426202725704,0.05715450798526929,7308.738995630269,0.32150806730332543,109.37477124140173,2.118223661259436,1.2219069449673943,101009.13766089646,287.97887902578134,-0.08124286468442743,0.11786661907968898,0.06317710994907,403.22684210526313,0.21640892021190947,0.86,nominal,6230.901239095339,nan,pitch_program,12.37,0.0,0.0
1.29,125.80501862264174,-0.01119882171176431,26.41948289252674,109.82726181850421,-0.036122865153443436,3.105972219317961,109.87117823541729,17.895420989510537,0.13727899995886378,6.386221201559098,-0.1519205995735681,0.09503263538201544,1.1334698689091636,-0.13430483732507337,4.800561592941223,0.06012945745463178,7385.84922065409,0.32320142530407964,109.95072403824065,2.117834660034227,1.2218960079842545,101008.02111729565,287.97827336119855,-0.08124286468442743,0.11786661907968898,0.06317710994907,403.1928947368421,0.21639070090561113,0.86,nominal,6294.924525327415,nan,pitch_program,12.355,0.0,0.0
1.3199999999999998,129.1171487809982,-0.012349458900986432,26.510883817766885,110.40433861188235,-0.03835457297407073,3.0466975080048506,110.44637531900143,17.88892926848337,0.14102716612200797,6.352795632493692,-0.155947296132426,0.11004814030467819,1.1138584089700079,-0.13610028165623317,4.806142490847284,0.06309090927945356,7463.268882188831,0.32489269553059885,110.52596759694772,2.117458308884384,1.2218852797964523,101006.92589164397,287.9776792551845,-0.08124286468442743,0.11786661907968898,0.06317710994907,403.158947368421,0.21637248159931274,0.86,nominal,6359.183869344368,nan,pitch_program,12.34,0.0,0.0
1.3499999999999999,132.44656695655445,-0.013569226022527093,26.60055710734718,110.98060585187487,-0.04065890405135537,2.9891096526764827,111.02085977378938,17.88243809403539,0.14442677732364692,6.319974611774837,-0.16003138751119939,0.09829561402612512,1.0936936085240725,-0.13802961426103777,4.811043576803667,0.06610961254101551,7540.995823209045,0.32658186384776927,111.10049708226322,2.1170945251092896,1.221874754459995,101005.85137699748,287.97709637880223,-0.08124286468442743,0.11786661907968898,0.06317710994907,403.125,0.2163542622930144,0.86,nominal,6423.678005812469,nan,pitch_program,12.325,0.0,0.0
1.38,135.79324884138245,-0.014860315880396244,26.688553268363986,111.5560628276002,-0.04303632859563838,2.9332053672268685,111.59462666028051,17.8759474661666,0.14828629336019516,6.287771937849055,-0.16417562153594178,0.1134824296859896,1.0730682566749377,-0.14004737731556277,4.815301820975325,0.06912077342051887,7619.027863584485,0.32826891590158025,111.67430758320711,2.1167432576802896,1.221864426042698,101004.79696762514,287.9765244037556,-0.08124286468442743,0.11786661907968898,0.06317710994907,403.0910526315789,0.21633604298671602,0.86,nominal,6488.405650632897,nan,pitch_program,12.31,0.0,0.0
1.41,139.1571700983143,-0.016224991611429696,26.77492272823457,112.13070856439491,-0.0454891910344484,2.8789819956861717,112.16767096517272,17.869457384877,0.15173884505404756,6.256198734345581,-0.16838363665512304,0.09976110558624841,1.052071485719569,-0.142182637324658,4.81894876194308,0.07220003895464913,7697.362800208613,0.3299538371272988,112.24739411584261,2.116404400939756,1.2218542886219574,101003.76205878102,287.97596300226644,-0.08124286468442743,0.11786661907968898,0.06317710994907,403.0571052631579,0.2163178236804177,0.86,nominal,6553.3655008484675,nan,pitch_program,12.295,0.0,0.0
1.44,142.5383063548672,-0.017665530664206116,26.859715848467314,112.70454188509558,-0.04801796842588066,2.82643734109145,112.73998764989142,17.862967850166587,0.15570857030055021,6.225263996548703,-0.17265719499136692,0.11683878375886522,1.030774309694796,-0.14437383870693662,4.8220152530493605,0.0752718024073301,7775.99841292478,0.3316366128809166,112.81975166798185,2.116077891426038,1.2218443362831233,101002.74604653819,287.9754118469849,-0.08124286468442743,0.11786661907968898,0.06317710994907,403.02315789473687,0.21629960437411935,0.86,nominal,6618.5562400742065,nan,pitch_program,12.28,0.0,0.0
1.47,145.9366331969675,-0.019184287863057304,26.942982938194728,113.27756140334371,-0.05062523996170623,2.775569657580417,113.31157163911948,17.856478862035363,0.16033038084097773,6.194974505234612,-0.17699892324936908,0.13840481174869504,1.0092490937023404,-0.14665904321075796,4.824528363676545,0.07832644622307638,7854.9324634409395,0.33331722841784406,113.39137519192597,2.115763623476742,1.221834563117908,101001.74832762587,287.9748706109017,-0.08124286468442743,0.11786661907968898,0.06317710994907,402.9892105263158,0.21628138506782096,0.86,nominal,6683.976537294501,nan,pitch_program,12.265,0.0,0.0
1.5,149.3521261639188,-0.020783709705571706,27.024774263858255,113.8497655650432,-0.05331406141714676,2.7263775221175464,113.88241785279038,17.84999042048333,0.1645231857269863,6.1653353316232264,-0.18141242027130577,0.12392232638174343,0.9875538725308377,-0.14906177081174396,4.826511155461029,0.0814574243703367,7934.162699455551,0.33499566898217725,113.96225963482567,2.115461448999989,1.2218249632232399,101000.76829931223,287.9743389672849,-0.08124286468442743,0.11786661907968898,0.06317710994907,402.9552631578947,0.2162631657615226,0.86,nominal,6749.62505053344,nan,pitch_program,12.25,0.0,0.0
1.53,152.78476074474332,-0.022466260520945355,27.105140055409755,114.42115269415046,-0.056085027179121665,2.678859718383388,114.45252124256218,17.843502525510484,0.16899783058248016,6.136350241949954,-0.18589919174329478,0.13313011748780335,0.9657327965724187,-0.15150950324196408,4.827987251447323,0.08460667644837368,8013.686859357316,0.3366719199052788,114.53239997221394,2.1151712767560467,1.221815530700528,100999.80535932917,287.9738165896398,-0.08124286468442743,0.11786661907968898,0.06317710994907,402.9213157894737,0.21624494645522424,0.86,nominal,6815.500431113957,nan,pitch_program,12.235,0.0,0.0
1.56,156.23451237390609,-0.02423447076789073,27.18413051367167,114.99172097209173,-0.05894034156484589,2.633015275397092,115.02187676928132,17.83701517711683,0.17394377160690666,6.108021261152106,-0.1904611714299606,0.1486470016874439,0.9438426548211877,-0.1540240716608974,4.828977353352365,0.08775958436414828,8093.502669774317,0.338345966551989,115.1017911897027,2.1148929605885547,1.2218062596547976,100998.85890578374,287.9733031516611,-0.08124286468442743,0.11786661907968898,0.06317710994907,402.8873684210526,0.21622672714892588,0.86,nominal,6881.601321265767,nan,pitch_program,12.220000000000002,0.0,0.0
1.5899999999999999,159.7013564280761,-0.02609095346482384,27.261795814187344,115.5614684723341,-0.061882756564436876,2.588843350522478,115.59047942997456,17.83052837530236,0.1782834195675685,6.080349251690819,-0.19510124694166486,0.12823476244005216,0.9219232475592531,-0.15662961822857202,4.829498574516061,0.09100890320857684,8173.607849304682,0.34001779439693275,115.67042830894079,2.114626302779056,1.221797144194224,100997.92833711041,287.9727983272078,-0.08124286468442743,0.11786661907968898,0.06317710994907,402.8534210526316,0.21620850784262752,0.86,nominal,6947.926357346886,nan,pitch_program,12.205000000000002,0.0,0.0
1.6199999999999999,163.18526822420276,-0.028038326784800106,27.33818610793889,116.13039320422128,-0.06491244399920887,2.5463431250514206,116.15832429362489,17.824042120067084,0.1829719739725857,6.053334346328872,-0.19982018837962454,0.13966053429891845,0.8999992763504625,-0.15925514694732984,4.829569983614348,0.09427543957657691,8254.000113311398,0.3416873891205499,116.23830642028575,2.1143711927881417,1.2217881784300462,100997.0130520623,287.9723017902984,-0.08124286468442743,0.11786661907968898,0.06317710994907,402.8194736842105,0.21619028853632916,0.86,nominal,7014.474174146882,nan,pitch_program,12.19,0.0,0.0
1.65,166.6862230164178,-0.030079281762944863,27.413351524868144,116.69849307383505,-0.0680318326048252,2.505513897641862,116.72540646288387,17.817556411410994,0.18825764517142055,6.026975211711422,-0.20461980681223854,0.15935430892640967,0.8781178113323779,-0.16194468532112025,4.829207762400748,0.09753943997535403,8334.677169424422,0.3433547365109797,116.80542064942532,2.114127440317968,1.2217793564761519,100996.11244966814,287.97181321508833,-0.08124286468442743,0.11786661907968898,0.06317710994907,402.78552631578947,0.21617206923003082,0.86,nominal,7081.243400694074,nan,pitch_program,12.175,0.0,0.0
1.68,170.20419599408473,-0.03221660510423351,27.487342173469752,117.26576592223091,-0.07124411137628832,2.466354953386924,117.2917211051443,17.81107124933409,0.19287415938443028,6.001269809622719,-0.2095033708958407,0.13682818801228047,0.8563035679219495,-0.1647384925623841,4.828424430623017,0.10090975475083862,8415.636721938989,0.3450198225510755,117.37176618698362,2.11389479097975,1.2217706724491122,100995.22592923614,287.97133227587244,-0.08124286468442743,0.11786661907968898,0.06317710994907,402.75157894736844,0.21615384992373246,0.86,nominal,7148.232664028935,nan,pitch_program,12.16,0.0,0.0
1.71,173.73916228128348,-0.034453086171256406,27.560208137291582,117.83220957329164,-0.074549368900763,2.42886546072768,117.8572634925775,17.80458663383638,0.19789452994068346,5.9762158403918075,-0.21447177032351775,0.15006674054639582,0.8345657911654725,-0.16755639104030623,4.827235888708648,0.10429744460984006,8496.876477294436,0.3466826335248972,117.93733832475736,2.113673118673665,1.2217621204685922,100994.35289039543,287.9708586471076,-0.08124286468442743,0.11786661907968898,0.06317710994907,402.71763157894736,0.2161356306174341,0.86,nominal,7215.440594108991,nan,pitch_program,12.145,0.0,0.0
1.74,177.29109693450295,-0.03679159584232312,27.63199947604434,118.39782177398241,-0.07795032236889043,2.3930446250919135,118.42202894586016,17.798102564917855,0.20358222743952434,5.951809625760398,-0.21952708102444807,0.17208105209768873,0.8129483208002549,-0.17044751554867751,4.825655025418199,0.10768166901456379,8578.394137130541,0.34834315586904246,118.50213240514312,2.1134621850039217,1.221753694657214,100993.49273308202,287.97039200340566,-0.08124286468442743,0.11786661907968898,0.06317710994907,402.68368421052634,0.21611741131113574,0.86,nominal,7282.865817488821,nan,pitch_program,12.13,0.0,0.0
1.77,180.85997494165773,-0.039235111783271784,27.70276622201373,118.96260023849278,-0.0814505313649556,2.358891532313028,118.98601287106699,17.79161904257852,0.20971922040159754,5.9280471086219055,-0.22467270324004507,0.18681648762987368,0.7914634578166299,-0.17345556098201148,4.823693203675768,0.11108306049802166,8660.187403609892,0.3500013762759854,119.06614385630107,2.1132617435245087,1.2217453891409742,100992.6448575813,287.9699320195569,-0.08124286468442743,0.11786661907968898,0.06317710994907,402.64973684210526,0.21609919200483738,0.86,nominal,7350.506961847971,nan,pitch_program,12.115,0.0,0.0
1.7999999999999998,184.44577122159137,-0.04178670726036928,27.77255837579763,119.52654266445526,-0.08505318256991658,2.3264051261300738,119.54921077185158,17.785136066818374,0.21496166079289725,5.904924086255599,-0.22991245527996576,0.15674444545286306,0.770118288635087,-0.17658332987494665,4.8213590846809895,0.11461748188174185,8742.253981352716,0.3516572817263543,119.62936820314569,2.1130714938371447,1.221737198049737,100991.80866457816,287.9694783705573,-0.08124286468442743,0.11786661907968898,0.06317710994907,402.6157894736842,0.216080972698539,0.86,nominal,7418.362657682313,nan,pitch_program,12.1,0.0,0.0
1.8299999999999998,188.04846062468465,-0.04444944579198292,27.84142590000038,120.08964676977602,-0.08875795105378796,2.2955841400917008,120.11161827986373,17.77865363763742,0.22051926870865202,5.882436034332323,-0.23524690432912176,0.16699505513571053,0.7489241535807394,-0.17972248709431848,4.818665694220581,0.11818449390408689,8824.591581827699,0.35331085956943686,120.1918010947456,2.112891270111881,1.2217291155179728,100990.98355523233,287.96903073165,-0.08124286468442743,0.11786661907968898,0.06317710994907,402.58184210526315,0.21606275339224065,0.86,nominal,7486.431542206086,nan,pitch_program,12.085,0.0,0.0
1.8599999999999999,191.66801793130517,-0.047226471780722666,27.909418717807696,120.6519102206844,-0.09256753295799144,2.266427260243851,120.67323108781925,17.77217175503565,0.22677247754218915,5.860577241008394,-0.24067775977118414,0.1899214654308771,0.7279179930538078,-0.18292151893107775,4.815623114237783,0.12175319486251625,8907.197914875247,0.3549620973451626,120.75343824377103,2.1127207795225154,1.2217211356849187,100990.16893119457,287.9685887783342,-0.08124286468442743,0.11786661907968898,0.06317710994907,402.54789473684207,0.2160445340859423,0.86,nominal,7554.712251656101,nan,pitch_program,12.07,0.0,0.0
1.89,195.30441785162486,-0.05012104546295549,27.976586706762216,121.21333067732277,-0.09648578940776076,2.2389329651506,121.23404498827874,17.765690419013072,0.2335306128868817,5.839342083300883,-0.24620839593611563,0.2064810710916372,0.707096213070259,-0.18623629454488913,4.812240157330437,0.12534181899395244,8990.070694444319,0.35661098289284376,121.3142754634996,2.112559739051201,1.2217132526953083,100989.36419468108,287.96815218640603,-0.08124286468442743,0.11786661907968898,0.06317710994907,402.51394736842104,0.21602631477964393,0.86,nominal,7623.203426137866,nan,pitch_program,12.055,0.0,0.0
1.92,198.95763502580965,-0.05313653398920054,28.042979692714027,121.77390580615968,-0.10051628420816834,2.2130995317270314,121.79405588265861,17.759209629569682,0.2405069044164484,5.818724861981061,-0.2518426435818461,0.21346916568217333,0.6864619409448833,-0.1896785134638748,4.808525090454431,0.12897724722828524,9073.207640099114,0.3582575043734162,121.87430867539571,2.1124078598082487,1.2217054607000728,100988.5687485449,287.96772063199734,-0.08124286468442743,0.11786661907968898,0.06317710994907,402.48,0.2160080954733456,0.86,nominal,7691.903710977639,nan,pitch_program,12.040000000000001,0.0,0.0
1.95,202.6276440243641,-0.05627639177308753,28.108647443659144,122.33363328514781,-0.10466192612956612,2.1889250315038926,122.3532597835356,17.752729386705482,0.2475709020931029,5.798719434397738,-0.2575838125505919,0.21609822994369296,0.6660306242569982,-0.19322822219330532,4.804485822671642,0.13267300843956464,9156.60647771872,0.3599016502752185,122.43353391109068,2.1122648244411417,1.2216977538570675,100987.78199635004,287.9672937916162,-0.08124286468442743,0.11786661907968898,0.06317710994907,402.44605263157894,0.2159898761670472,0.86,nominal,7760.811757282035,nan,pitch_program,12.025,0.0,0.0
1.98,206.31441934862394,-0.059544150646038484,28.173639662730785,122.89251080866202,-0.10892529576503192,2.166407302388036,122.91165281687904,17.74624969042047,0.2547452445129508,5.779319501503326,-0.26343457303173073,0.2194733925437162,0.6458076862538331,-0.19686353773604012,4.800130250112556,0.136429313139922,9240.264940295587,0.36154340942154795,122.9919473149682,2.1121303243648226,1.221690126331883,100987.00334245416,287.96687134219223,-0.08124286468442743,0.11786661907968898,0.06317710994907,402.4121052631579,0.21597165686074887,0.86,nominal,7829.926222487024,nan,pitch_program,12.01,0.0,0.0
2.01,210.01793543115932,-0.06294342178436714,28.238005981552178,123.45053608451208,-0.11330903794428861,2.145543960713057,123.46923121725045,17.739770540714648,0.2621018792723355,5.760518588287939,-0.2693973402981294,0.225239138572803,0.6257988135925499,-0.20057652267570097,4.79546603261386,0.1402419833036724,9324.18076768665,0.36318277095763446,123.54954513974832,2.112004046425809,1.2216825722986282,100986.23219208838,287.9664529611199,-0.08124286468442743,0.11786661907968898,0.06317710994907,402.37815789473683,0.2159534375544505,0.86,nominal,7899.245770048415,nan,pitch_program,11.995000000000001,0.0,0.0
2.04,213.73816663621037,-0.06647790249384214,28.301795953511757,124.00770683503544,-0.11781602364916657,2.126332398652635,124.02599132669363,17.733291937588014,0.2696875553402607,5.742310004417682,-0.2754746475509593,0.23255510589176132,0.60601089548954,-0.20437167705215828,4.790500391738802,0.14410899585319054,9408.351706871556,0.36481972434781207,124.10632374554085,2.111885661000241,1.2216750859407155,100985.46795143734,287.96603832630217,-0.08124286468442743,0.11786661907968898,0.06317710994907,402.3442105263158,0.21593521824815215,0.86,nominal,7968.769069572048,nan,pitch_program,11.98,0.0,0.0
2.07,217.47508726027087,-0.07015138193613644,28.36505904658383,124.56402080201661,-0.12244931474314365,2.10876976906915,124.5819295971083,17.72681388104057,0.27751154908680975,5.72468695659602,-0.2816692791795207,0.24017135840294374,0.5864471492521429,-0.2082575082425836,4.785240196114143,0.1480316497327579,9492.775512708971,0.3664542593823855,124.66227960219771,2.1117748315470597,1.2216676614516968,100984.71002772446,287.9656271161972,-0.08124286468442743,0.11786661907968898,0.06317710994907,402.3102631578947,0.2159169989418538,0.86,nominal,8038.494797368606,nan,pitch_program,11.965,0.0,0.0
2.1,221.22867153276587,-0.07396774426722307,28.427844636031992,125.11947574983344,-0.12721207770288745,2.0928529816054002,125.13704259102693,17.720336371072314,0.2855667670143518,5.707642549937982,-0.2879842182937873,0.24754156565891897,0.5671108405078698,-0.21224048625984235,4.779692012420962,0.15201278034420881,9577.449948449357,0.3680863661796459,125.2174092900156,2.1116712124476584,1.221660293036123,100983.95782929964,287.9652190098658,-0.08124286468442743,0.11786661907968898,0.06317710994907,402.27631578947364,0.2158987796355554,0.86,nominal,8108.421636814186,nan,pitch_program,11.95,0.0,0.0
2.13,224.99889361681448,-0.07793097045543339,28.490201996959026,125.67406946828744,-0.13210753960701055,2.0785786975678713,125.691326982111,17.71385940768325,0.29384968009909107,5.69116978875572,-0.29442255152268054,0.2547841947552972,0.5480052425517739,-0.21632386845944063,4.773862161033438,0.15605501813451778,9662.372786213129,0.36971603518718343,125.77170950019999,2.1115744491528394,1.22165297491041,100983.21076572755,287.9648136870197,-0.08124286468442743,0.11786661907968898,0.06317710994907,402.2423684210526,0.21588056032925707,0.86,nominal,8178.548278675449,nan,pitch_program,11.935,0.0,0.0
2.16,228.7857276100588,-0.08204514028198906,28.552180296723773,126.2277997748105,-0.13713899421852216,2.0659433254915562,126.24477955510687,17.70738299087337,0.30236590766515103,5.675261609951771,-0.30098741730200756,0.26220401282441125,0.5291324971908066,-0.22050926443414898,4.767756772130991,0.16016027150890905,9747.541807393822,0.3713432571817487,126.3251770348361,2.1114841816688843,1.2216457013037327,100982.4682478788,287.96441082807127,-0.08124286468442743,0.11786661907968898,0.06317710994907,402.2084210526316,0.2158623410229587,0.86,nominal,8248.873421365632,nan,pitch_program,11.92,0.0,0.0
2.19,232.58914754553024,-0.08631443505684012,28.613828587341906,126.78066451571407,-0.14230982582836893,2.0549430206044605,126.7973972049525,17.700907120642682,0.3111261260369589,5.659910887674151,-0.3076820034392241,0.26996941483193027,0.5104945598618842,-0.22479827078415576,4.761381786154539,0.16433005828552752,9832.954802930682,0.3729680232666589,126.87780880602462,2.111400043337845,1.2216384664589077,100981.72968802007,287.96401011418226,-0.08124286468442743,0.11786661907968898,0.06317710994907,402.1744736842105,0.21584412171666034,0.86,nominal,8319.395771091306,nan,pitch_program,11.905,0.0,0.0
2.2199999999999998,236.4091273925586,-0.09074314080591066,28.67519579783956,127.33266156761141,-0.14762352496901773,2.0455736832551104,127.34917693605489,17.694431796991182,0.32014100673586376,5.6451104468865525,-0.314509564081182,0.27808001118984604,0.4920929144789041,-0.2291930623740824,4.754742959157391,0.1685659386740216,9918.609573602364,0.37459032486968125,127.42960183518058,2.1113216610399266,1.2216312646332956,100980.99449990604,287.963611227314,-0.08124286468442743,0.11786661907968898,0.06317710994907,402.1405263157895,0.215825902410362,0.86,nominal,8390.11404201619,nan,pitch_program,11.890000000000002,0.0,0.0
2.25,240.24564105772345,-0.09533565154484169,28.736330726570902,127.88378883882883,-0.15308369129770108,2.0378309577113987,127.90011586156953,17.687957019918873,0.3294193955592929,5.630853079968828,-0.3214734321874329,0.28647467254039627,0.47392848564916595,-0.2336962103245206,4.747845878486024,0.1728696780865605,10004.503930315106,0.3762101537408849,127.98055325232161,2.111248656038752,1.221624090099697,100980.26209887097,287.96321385027727,-0.08124286468442743,0.11786661907968898,0.06317710994907,402.1065789473684,0.21580768310406362,0.86,nominal,8461.026956421181,nan,pitch_program,11.875,0.0,0.0
2.28,244.09866238584178,-0.10009647247803725,28.797282033530482,128.43404427061145,-0.15869403110651886,2.0317102319860494,128.45021120250306,17.68148278942575,0.3389691118251052,5.617131554000725,-0.3285770224062577,0.29511890034458216,0.4560019529428163,-0.23831036291870927,4.74069597580107,0.17724318488395147,10090.63569435847,0.3778275019499552,128.53066029517367,2.111180643997342,1.2216169371472525,100979.53190192039,287.96281766678203,-0.08124286468442743,0.11786661907968898,0.06317710994907,402.0726315789474,0.21578946379776529,0.86,nominal,8532.133244837943,nan,pitch_program,11.86,0.0,0.0
2.31,247.9681651609885,-0.10503022317482344,28.85809823266481,128.98342583822344,-0.16445835655953966,2.0272066378108486,128.9994602867311,17.67500910551182,0.3487982211127868,5.60393862077121,-0.3358238299982901,0.30402062297107224,0.43831365663589567,-0.24303812431238325,4.73329854448267,0.18168840474631295,10177.00269764342,0.37944236188326164,129.07992030819335,2.1111172357310872,1.2216098000823485,100978.80332782352,287.96242236148765,-0.08124286468442743,0.11786661907968898,0.06317710994907,402.03868421052636,0.21577124449146692,0.86,nominal,8603.431646167319,nan,pitch_program,11.845,0.0,0.0
2.34,251.85412310754293,-0.11014164082793156,28.918827684207184,129.53193155181475,-0.17038058843693732,2.0243150514125148,129.54786054781573,17.668535968177075,0.35891556855256473,5.591267024756603,-0.3432174311603804,0.3132055425614849,0.42086366112761053,-0.24788210870308428,4.725658752753803,0.18620727673139637,10263.602782904167,0.3810547262403456,129.62833074139286,2.1110580377209573,1.221602673229511,100978.07579720467,287.96202762005265,-0.08124286468442743,0.11786661907968898,0.06317710994907,402.0047368421053,0.21575302518516856,0.86,nominal,8674.920907767486,nan,pitch_program,11.83,0.0,0.0
2.37,255.75650989125668,-0.11543558364718429,28.9795185870512,130.07955945712487,-0.17646476064175795,2.0230300948004984,130.09540952368727,17.66206337742152,0.3693306277137683,5.579109509326134,-0.35076148585396066,0.3226943134338548,0.40365181213438506,-0.2528450244666001,4.71778165273645,0.19080174781544432,10350.433803872826,0.3826645880300081,130.1758891490296,2.111002652442725,1.2215955509323007,100977.34873263429,287.9616331291841,-0.08124286468442743,0.11786661907968898,0.06317710994907,401.9707894736842,0.21573480587887017,0.86,nominal,8746.599785519657,nan,pitch_program,11.815,0.0,0.0
2.4,259.6752991203394,-0.12091703438349768,29.040218971171495,130.62630763608936,-0.1827150245437799,2.023346137343194,130.6421048552493,17.655591333245155,0.38005319629197454,5.56745882346367,-0.3584597416183478,0.3324974321649166,0.386677719589564,-0.25792970430407114,4.709672189266969,0.19547380100347,10437.493625435705,0.3842719405661745,130.72259318821963,2.110950678862352,1.2215884275542042,100976.62155872023,287.9612385766874,-0.08124286468442743,0.11786661907968898,0.06317710994907,401.9368421052631,0.2157165865725718,0.86,nominal,8818.467043878616,nan,pitch_program,11.8,0.0,0.0
2.4299999999999997,263.61046434655947,-0.12659110396098233,29.100976690104293,131.17217420733522,-0.18913565258282167,2.025257297759963,131.18794428489497,17.649119835647976,0.39109326815125567,5.5563077269793695,-0.3663160369085381,0.3426211176336204,0.3699408084059327,-0.26313908787627394,4.701335207443876,0.2002254686294934,10524.780123768443,0.3858767774634913,131.26844061746047,2.1108503908267715,1.2215812974795126,100975.89370219718,287.9608436515143,-0.08124286468442743,0.11786661907968898,0.06317710994907,401.9028947368421,0.21569836726627348,0.86,nominal,8890.521455906366,nan,pitch_program,11.785,0.0,0.0
2.46,267.56197917853376,-0.13246297233051055,29.16183826453236,131.7171610658094,-0.19572894565094062,2.028719147602252,131.73292880079904,17.64264888462999,0.4024880150848855,5.547071504437702,-0.3743557927700525,0.35389837060665696,0.30601949934388395,-0.2688605100335199,4.694214852310569,0.20506895324714544,10612.291696883725,0.38747910192480495,131.8134324577947,2.110786484997955,1.2215741552490307,100975.16460578029,287.96044805128054,-0.08124286468442743,0.11786661907968898,0.06317710994907,401.86894736842106,0.21568014795997512,0.86,nominal,8962.76220643507,nan,pitch_program,11.77,0.0,0.0
2.4899999999999998,271.5298164436149,-0.13853781609822224,29.222851980567025,132.2612421693707,-0.20249479225705666,2.0337905344888623,132.2770331095462,17.636178480191187,0.41433692374656034,5.541806447272526,-0.38264268854620614,0.36827491306880344,0.17353767051049251,-0.2761815436852827,4.690351415576643,0.21004518401167974,10700.022486943464,0.38907883975028185,132.35754339550107,2.1110675178489,1.2215669951964854,100974.4336910488,287.9600514621263,-0.08124286468442743,0.11786661907968898,0.06317710994907,401.835,0.21566192865367675,0.86,nominal,9035.185025507222,nan,pitch_program,11.755,0.0,0.0
2.52,275.51394657946184,-0.14482104132093845,29.28407636779904,132.8043378615644,-0.20944084075720662,2.040812907733865,132.82018271948994,17.629708622331577,0.42670348795796037,5.537362296917845,-0.3912064377247484,0.38466253986389176,0.14604904903330768,-0.28520473798625756,4.686456552612584,0.2151984241344727,10787.958551204883,0.3906757717825765,132.90069878851028,2.111196459905603,1.2215598104536278,100973.70025688499,287.9596535036093,-0.08124286468442743,0.11786661907968898,0.06317710994907,401.80105263157895,0.2156437093473784,0.86,nominal,9107.779156331622,nan,pitch_program,11.74,0.0,0.0
2.55,279.5143401759849,-0.1513183138105677,29.345566451299597,133.34645321743497,-0.2165757496543087,2.0496694500184804,133.36238088598768,17.623239311051154,0.4396103417868298,5.535774160989793,-0.40010142933181997,0.4016218637895952,0.05070528805745713,-0.29550827265717755,4.684626731736937,0.22056226727913228,10876.098464005017,0.39226990805945283,133.44290196671224,2.111562033283665,1.2215525945635877,100972.96364416927,287.95925381806654,-0.08124286468442743,0.11786661907968898,0.06317710994907,401.7671052631579,0.21562549004108003,0.86,nominal,9180.54401702926,nan,pitch_program,11.725000000000001,0.0,0.0
2.58,283.53096618144787,-0.15803564490056377,29.407383985134565,133.8875335154325,-0.2239110363332023,2.0605844611655857,133.90357640974287,17.616770546349922,0.4530649061862995,5.535672703265668,-0.409344467033376,0.4187640764112352,0.0009929116706321724,-0.30668139091800606,4.683406529150994,0.22615875330614438,10964.43186372263,0.39386109809758724,133.98410164224043,2.111929524864176,1.221545340279968,100972.22311318957,287.9588520040966,-0.08124286468442743,0.11786661907968898,0.06317710994907,401.73315789473685,0.2156072707347817,0.86,nominal,9253.471809817744,nan,pitch_program,11.71,0.0,0.0
2.61,287.56379305284474,-0.1649793566921651,29.46959109242115,134.42756237989607,-0.23145705972004463,2.0735702428861327,134.44375326999588,17.610302328227878,0.4670852535543377,5.537380152461126,-0.4189554294577485,0.43643596139100854,-0.05947358850025738,-0.3184035859245913,4.683124015517604,0.23199954138477522,11052.954051934708,0.39544929513049654,134.52428180780606,2.11238983233755,1.221538040313198,100971.47791983064,287.9584476578992,-0.08124286468442743,0.11786661907968898,0.06317710994907,401.6992105263158,0.21558905142848334,0.86,nominal,9326.559362148255,nan,pitch_program,11.695,0.0,0.0
2.6399999999999997,291.61278840601403,-0.1721560841714482,29.532252473810622,134.96651177231058,-0.23922424930943723,2.088712712982418,134.98288502259862,17.603834656685024,0.4817006903934937,5.540718770758236,-0.4289459532231132,0.4550370081411908,-0.11402784781159354,-0.33052970687709216,4.683575902973756,0.23809122577851255,11141.658561397662,0.39703442166261216,135.06341599730644,2.112922568153882,1.2215306870713756,100970.72728911918,287.9580403589202,-0.08124286468442743,0.11786661907968898,0.06317710994907,401.6652631578947,0.21557083212218495,0.86,nominal,9399.802088234335,nan,pitch_program,11.68,0.0,0.0
2.67,295.6779191435809,-0.17957276653015009,29.5954347659846,135.50435791889552,-0.24722274529006247,2.1060764057992825,135.5209492732581,17.597367531721357,0.49694429084863795,5.545446813822271,-0.439326351303265,0.47469714249864253,-0.1605368885187609,-0.3430367574397976,4.684504377217451,0.24443957836427782,11230.539527409368,0.39861641214632404,135.60148180466643,2.113503423215753,1.221523272735552,100969.97042290917,287.95762967402106,-0.08124286468442743,0.11786661907968898,0.06317710994907,401.63131578947366,0.21555261281588659,0.86,nominal,9473.195916310342,nan,pitch_program,11.665,0.0,0.0
2.6999999999999997,299.75915161910063,-0.18723664573691476,29.65920578753903,136.04108251732458,-0.2554626402254888,2.1257007184809593,136.05792882882872,17.59090095333688,0.5128482331025712,5.551619837221926,-0.45011063923107003,0.4953740520452956,-0.20891231821351883,-0.35596488593786385,4.685959813330676,0.2510517090796547,11319.591893928877,0.400195216368375,136.1384620369172,2.1141582043185116,1.2215157893482362,100969.20650891672,287.957215162381,-0.08124286468442743,0.11786661907968898,0.06317710994907,401.59736842105264,0.21553439350958825,0.86,nominal,9546.73744903168,nan,pitch_program,11.65,0.0,0.0
2.73,303.856451554501,-0.19515528031149879,29.723635095412547,136.5766645133451,-0.2639544858194677,2.147643595783857,136.5938041588121,17.584434921531592,0.5294437798575361,5.5589981616357935,-0.4613122735871048,0.5170384948455943,-0.24931420676363933,-0.36938171432154854,4.687689653236102,0.25793679212713905,11408.81016828389,0.4017707772320987,136.6743371552568,2.114855403606008,1.2215082287481058,100968.4347140556,287.9567963718798,-0.08124286468442743,0.11786661907968898,0.06317710994907,401.56342105263155,0.21551617420328986,0.86,nominal,9620.422953396384,nan,pitch_program,11.635,0.0,0.0
2.76,307.96978421895335,-0.20333655487066551,29.78879309691743,137.1110888150772,-0.2727091519722246,2.1719333834961745,137.12856136108155,17.577969436305494,0.5467639626447303,5.567602069010444,-0.4729487789470717,0.5397359062204744,-0.29040993487565225,-0.3833459787426205,4.689713943374804,0.26510551965683,11498.189753517861,0.403343054236426,137.20909326347103,2.1156130845578205,1.2215005826742136,100967.65419507498,287.95637284487003,-0.08124286468442743,0.11786661907968898,0.06317710994907,401.52947368421053,0.21549795489699153,0.86,nominal,9694.24943830384,nan,pitch_program,11.620000000000001,0.0,0.0
2.79,312.0991143788774,-0.21178870015808052,29.854751417873295,137.64433866413478,-0.28173817624716696,2.1986106985288614,137.66218519147031,17.571504497658584,0.5648444697938965,5.577273346178694,-0.4850375290765997,0.5635546559933207,-0.32625115128663496,-0.39790799051296727,4.691869162033035,0.27256974012102286,11587.725790480625,0.40491200292963864,137.74271511791505,2.1164117973722867,1.2214928427227985,100966.86409415079,287.9559441157838,-0.08124286468442743,0.11786661907968898,0.06317710994907,401.49552631578945,0.21547973559069317,0.86,nominal,9768.213713837422,nan,pitch_program,11.605,0.0,0.0
2.82,316.24440641232457,-0.22052030803370704,29.921582351058913,138.17640111490488,-0.2910535958542171,2.227697772853884,138.19466405990474,17.565040105590864,0.5837237072777203,5.58799309796213,-0.4975982975548964,0.5885770183446515,-0.361483755914644,-0.41310401138935354,4.694138882891773,0.28034202390842683,11677.414000468212,0.406477589635641,138.2751911379232,2.1172595981471627,1.2214850004120144,100966.06354549363,287.9555097147181,-0.08124286468442743,0.11786661907968898,0.06317710994907,401.4615789473684,0.2154615162843948,0.86,nominal,9842.313072877974,nan,pitch_program,11.59,0.0,0.0
2.85,320.405624298518,-0.2295403514088514,29.98935898942823,138.70726287311308,-0.30066811250481185,2.2592212789772206,138.72598623131918,17.55857626010233,0.6034421288842278,5.599654448232732,-0.5106509521887729,0.614870205823279,-0.39317678332879585,-0.42896635913589165,4.696416873766496,0.28843559758333137,11767.250051179513,0.4080397802554268,138.80650959607232,2.118144874034911,1.221477047166302,100965.25167375356,287.9550691665687,-0.08124286468442743,0.11786661907968898,0.06317710994907,401.4276315789474,0.21544329697809647,0.86,nominal,9916.544775259754,nan,pitch_program,11.575,0.0,0.0
2.88,324.582731690898,-0.23885820108078087,30.0581548908375,139.23691307933495,-0.310594989064316,2.2931967136423714,139.25614235744493,17.55211296119299,0.6240422644038998,5.612225308326267,-0.524216994712216,0.6424974080479723,-0.42382527929326574,-0.4455243810239953,4.6986763534944425,0.29686425632625757,11857.229988868257,0.40959854772922266,139.33666115715783,2.119070872510842,1.2214689743557403,100964.42759803755,287.9546219932095,-0.08124286468442743,0.11786661907968898,0.06317710994907,401.3936842105263,0.21542507767179808,0.86,nominal,9990.906396798717,nan,pitch_program,11.56,0.0,0.0
2.9099999999999997,328.7756919228398,-0.24848364563977002,30.128044108063804,139.76534106472707,-0.3208481519663047,2.329640574210146,139.78512342764202,17.545650208862835,0.6455688727069256,5.625624906631843,-0.5383183810460204,0.6715306288462294,-0.45180859494977543,-0.46281042376507114,4.7008414363307915,0.3056424404248851,11947.349895120069,0.41115386599627757,139.86563682338524,2.1200293989076395,1.2214607732925384,100963.59043155135,287.9541677132976,-0.08124286468442743,0.11786661907968898,0.06317710994907,401.3597368421053,0.21540685836549975,0.86,nominal,10065.395549592899,nan,pitch_program,11.545,0.0,0.0
